     3.04           OBSERVATION DATA    M: Mixed            RINEX VERSION / TYPE
RTKCONV demo5 b34i                      20250404 085051 UTC PGM / RUN BY / DATE 
format: u-blox UBX                                          COMMENT             
log: D:\20242\demo5_b34i\data\khac\d0\svd1_0m.ubx           COMMENT             
                                                            MARKER NAME         
                                                            MARKER NUMBER       
                                                            MARKER TYPE         
                                                            OBSERVER / AGENCY   
                                                            REC # / TYPE / VERS 
                                                            ANT # / TYPE        
 -1626737.1427  5730518.7191  2271688.2146                  APPROX POSITION XYZ 
        0.0000        0.0000        0.0000                  ANTENNA: DELTA H/E/N
G    8 C1C L1C D1C S1C C2X L2X D2X S2X                      SYS / # / OBS TYPES 
  2025    04    04    08    35   49.9950000     GPS         TIME OF FIRST OBS   
  2025    04    04    08    50   56.9960000     GPS         TIME OF LAST OBS    
G L1C                                                       SYS / PHASE SHIFT   
G L2X  0.00000                                              SYS / PHASE SHIFT   
  0                                                         GLONASS SLOT / FRQ #
 C1C    0.000 C1P    0.000 C2C    0.000 C2P    0.000        GLONASS COD/PHS/BIS 
                                                            END OF HEADER       
> 2025 04 04 08 35 49.9950000  0 10                     
G09  22153444.464   116417131.7471      -2445.533          38.000    22153457.434    90715096.1801      -1905.420          34.000  
G20  19019444.930    99947878.3151      -1269.150          41.000                                                                  
G05  20975570.953   110227367.6161       1044.583          43.000    20975575.063    85891473.3591        814.152          37.000  
G11  20344563.897   106911437.3131      -1803.200          45.000    20344563.854    83307593.0741      -1404.838          40.000  
G06  20840531.464   109517736.9301      -2814.559          41.000    20840535.325    85338506.9411      -2193.221          40.000  
G17  21479283.227   112874368.6311      -3427.912          40.000    21479290.469    87954115.0601      -2671.141          34.000  
G12  20704713.388   108804030.4691       -424.834          45.000    20704716.177    84782359.3141       -330.453          36.000  
G13  23599150.058   124014354.6271       1096.114          38.000                                                                  
G22  21909849.597   115137034.6601      -4910.768          42.000                                                                  
G19  19448691.182   102203515.7131      -2586.627          45.000                                                                  
> 2025 04 04 08 35 50.9950000  0 10                     
G09  22153909.934   116419577.848       -2446.825          39.000    22153922.903    90717002.235       -1906.232          34.000  
G20  19019686.534    99949147.701       -1269.720          41.000                                                                  
G05  20975372.193   110226323.311        1043.834          43.000    20975376.390    85890659.664         813.083          37.000  
G11  20344907.067   106913240.508       -1803.592          45.000    20344907.006    83308998.166       -1405.202          40.000  
G06  20841067.097   109520551.566       -2815.023          41.000    20841070.810    85340700.145       -2193.356          40.000  
G17  21479935.592   112877796.806       -3428.697          40.000    21479942.705    87956786.343       -2671.357          34.000  
G12  20704794.311   108804455.661        -425.854          45.000    20704797.107    84782690.634        -331.505          36.000  
G13  23598941.355   124013258.566        1095.967          37.000                                                                  
G22  21910784.112   115141945.563       -4911.270          42.000                                                                  
G19  19449183.559   102206102.589       -2587.408          44.000                                                                  
> 2025 04 04 08 35 51.9950000  0 10                     
G09  22154375.617   116422024.767       -2447.207          38.000    22154388.526    90718908.921       -1906.776          35.000  
G20  19019928.357    99950417.856       -1270.541          40.000                                                                  
G05  20975173.557   110225279.647        1043.252          43.000    20975177.737    85889846.361         813.299          37.000  
G11  20345250.171   106915043.984       -1803.549          44.000    20345250.086    83310403.469       -1405.317          40.000  
G06  20841602.697   109523366.364       -2814.835          41.000    20841606.541    85342893.508       -2193.430          40.000  
G17  21480588.006   112881225.596       -3429.455          39.000    21480595.338    87959458.144       -2672.018          33.000  
G12  20704875.334   108804881.711        -426.495          45.000    20704878.218    84783022.610        -332.388          36.000  
G13  23598732.775   124012162.474        1096.268          37.000                                                                  
G22  21911718.707   115146856.833       -4911.532          42.000                                                                  
G19  19449676.004   102208690.172       -2588.129          44.000                                                                  
> 2025 04 04 08 35 52.9950000  0 10                     
G09  22154841.271   116424472.204       -2447.317          38.000    22154854.295    90720816.059       -1907.480          36.000  
G20  19020170.194    99951688.553       -1270.869          40.000                                                                  
G05  20974974.868   110224236.420        1043.013          43.000    20974979.206    85889033.508         812.316          37.000  
G11  20345593.368   106916847.607       -1803.603          44.000    20345593.271    83311808.909       -1405.604          40.000  
G06  20842138.383   109526181.238       -2815.041          41.000    20842142.139    85345086.935       -2193.527          40.000  
G17  21481240.520   112884654.759       -3429.418          40.000    21481247.753    87962130.205       -2672.326          34.000  
G12  20704956.481   108805308.445        -426.793          45.000    20704959.334    84783355.145        -332.353          36.000  
G13  23598524.185   124011066.169        1096.496          37.000                                                                  
G22  21912653.301   115151768.286       -4911.672          42.000                                                                  
G19  19450168.361   102211278.243       -2588.092          44.000                                                                  
> 2025 04 04 08 35 53.9950000  0 10                     
G09  22155307.147   116426920.165       -2448.060          38.000    22155320.127    90722723.555       -1907.931          36.000  
G20  19020412.044    99952959.711       -1271.689          40.000                                                                  
G05  20974776.393   110223193.550        1042.416          43.000    20974780.649    85888220.877         812.000          37.000  
G11  20345936.547   106918651.220       -1803.825          44.000    20345936.500    83313214.298       -1405.428          40.000  
G06  20842673.980   109528996.017       -2814.976          41.000    20842677.681    85347280.257       -2193.632          40.000  
G17  21481893.156   112888084.228       -3429.856          40.000    21481900.333    87964802.551       -2672.693          34.000  
G12  20705037.870   108805735.753        -427.803          45.000    20705040.629    84783688.092        -333.246          36.000  
G13  23598315.465   124009969.507        1096.550          37.000                                                                  
G22  21913588.025   115156679.764       -4911.499          42.000                                                                  
G19  19450660.883   102213866.719       -2588.934          44.000                                                                  
> 2025 04 04 08 35 54.9950000  0 10                     
G09  22155773.072   116429368.594       -2448.667          38.000    22155786.014    90724631.413       -1908.091          36.000  
G20  19020653.949    99954231.285       -1271.870          40.000                                                                  
G05  20974577.930   110222150.983        1042.210          43.000    20974582.174    85887408.481         811.972          37.000  
G11  20346279.783   106920454.820       -1803.682          44.000    20346279.678    83314619.705       -1405.447          40.000  
G06  20843209.574   109531810.680       -2814.695          41.000    20843213.317    85349473.495       -2193.305          40.000  
G17  21482545.762   112891513.921       -3429.555          39.000    21482552.976    87967475.021       -2672.214          34.000  
G12  20705119.310   108806163.594        -428.239          45.000    20705122.095    84784021.485        -333.627          35.000  
G13  23598106.692   124008872.477        1097.128          37.000                                                                  
G22  21914522.680   115161591.303       -4911.599          42.000                                                                  
G19  19451153.503   102216455.553       -2589.111          44.000                                                                  
> 2025 04 04 08 35 55.9950000  0 10                     
G09  22156239.106   116431817.643       -2449.658          37.000    22156252.010    90726539.769       -1908.391          36.000  
G20  19020896.099    99955503.430       -1272.276          40.000                                                                  
G05  20974379.611   110221108.896        1041.659          43.000    20974383.868    85886596.472         811.485          37.000  
G11  20346622.875   106922258.573       -1804.136          44.000    20346622.884    83316025.206       -1405.570          40.000  
G06  20843745.160   109534625.417       -2815.177          41.000    20843748.992    85351666.782       -2193.669          40.000  
G17  21483198.463   112894944.107       -3430.779          39.000    21483205.662    87970147.880       -2672.988          34.000  
G12  20705200.830   108806592.139        -429.113          45.000    20705203.578    84784355.409        -334.233          35.000  
G13  23597897.847   124007775.256        1096.856          37.000                                                                  
G22  21915457.392   115166503.056       -4912.036          41.000                                                                  
G19  19451646.238   102219044.929       -2589.948          44.000                                                                  
> 2025 04 04 08 35 56.9950000  0 10                     
G09  22156705.221   116434267.565       -2450.313          37.000    22156718.254    90728448.791       -1909.216          36.000  
G20  19021138.389    99956776.431       -1273.428          40.000                                                                  
G05  20974181.539   110220067.527        1040.876          43.000    20974185.734    85885785.029         811.099          37.000  
G11  20346966.178   106924062.679       -1804.319          44.000    20346966.161    83317431.030       -1405.921          40.000  
G06  20844280.754   109537440.433       -2815.153          41.000    20844284.714    85353860.314       -2193.924          40.000  
G17  21483851.320   112898374.942       -3431.285          39.000    21483858.533    87972821.267       -2673.507          34.000  
G12  20705282.529   108807021.624        -429.978          45.000    20705285.231    84784690.079        -335.611          36.000  
G13  23597689.043   124006678.062        1097.446          37.000                                                                  
G22  21916392.084   115171415.229       -4912.405          41.000                                                                  
G19  19452139.097   102221635.071       -2590.509          44.000                                                                  
> 2025 04 04 08 35 57.9950000  0 10                     
G09  22157171.407   116436718.171       -2450.580          38.000    22157184.574    90730358.373       -1909.476          35.000  
G20  19021380.739    99958050.062       -1273.590          40.000                                                                  
G05  20973983.500   110219026.713        1040.555          43.000    20973987.823    85884973.998         811.050          37.000  
G11  20347309.418   106925867.035       -1804.271          44.000    20347309.456    83318837.010       -1405.836          40.000  
G06  20844816.464   109540255.594       -2814.950          41.000    20844820.409    85356053.929       -2193.371          40.000  
G17  21484504.302   112901806.272       -3431.382          39.000    21484511.532    87975494.992       -2673.527          33.000  
G12  20705364.412   108807451.885        -430.528          45.000    20705367.097    84785025.338        -335.243          36.000  
G13  23597480.303   124005580.770        1097.579          36.000                                                                  
G22  21917326.968   115176327.686       -4912.126          41.000                                                                  
G19  19452632.147   102224225.821       -2590.887          45.000                                                                  
> 2025 04 04 08 35 58.9950000  0 10                     
G09  22157637.910   116439169.525       -2451.507          38.000    22157651.070    90732268.521       -1910.588          35.000  
G20  19021623.282    99959324.416       -1274.511          40.000                                                                  
G05  20973785.472   110217986.496        1039.933          43.000    20973789.918    85884163.436         810.611          37.000  
G11  20347652.816   106927671.628       -1804.677          44.000    20347652.880    83320243.193       -1406.178          40.000  
G06  20845352.156   109543070.904       -2815.310          42.000    20845356.187    85358247.676       -2193.923          40.000  
G17  21485157.390   112905238.133       -3432.305          39.000    21485164.755    87978169.198       -2673.791          33.000  
G12  20705446.518   108807882.961        -431.426          45.000    20705449.118    84785361.253        -336.384          35.000  
G13  23597271.402   124004483.394        1097.482          37.000                                                                  
G22  21918261.915   115181240.467       -4913.052          41.000                                                                  
G19  19453125.295   102226817.202       -2591.565          45.000                                                                  
> 2025 04 04 08 35 59.9950000  0 10                     
G09  22158104.534   116441621.466       -2452.291          38.000    22158117.635    90734179.114       -1910.793          35.000  
G20  19021865.782    99960599.325       -1275.369          40.000                                                                  
G05  20973587.644   110216946.712        1039.530          43.000    20973592.082    85883353.231         809.934          37.000  
G11  20347996.217   106929476.331       -1804.912          44.000    20347996.272    83321649.471       -1406.715          39.000  
G06  20845887.895   109545886.257       -2815.698          42.000    20845891.945    85360441.442       -2193.672          40.000  
G17  21485810.551   112908670.412       -3432.551          40.000    21485818.086    87980843.693       -2674.641          34.000  
G12  20705528.713   108808314.696        -432.022          45.000    20705531.276    84785697.646        -336.519          35.000  
G13  23597062.621   124003385.793        1097.507          36.000                                                                  
G22  21919196.824   115186153.373       -4913.094          42.000                                                                  
G19  19453618.527   102229409.093       -2592.188          45.000                                                                  
> 2025 04 04 08 36 00.9950000  0 10                     
G09  22158571.204   116444073.915       -2452.687          38.000    22158584.302    90736090.130       -1911.269          35.000  
G20  19022108.351    99961874.692       -1275.568          40.000                                                                  
G05  20973389.892   110215907.305        1039.127          43.000    20973394.271    85882543.280         810.120          36.000  
G11  20348339.666   106931281.073       -1804.796          44.000    20348339.653    83323055.740       -1406.066          39.000  
G06  20846423.646   109548701.547       -2815.134          42.000    20846427.706    85362635.166       -2193.697          40.000  
G17  21486463.744   112912103.006       -3432.712          40.000    21486471.348    87983518.425       -2674.376          34.000  
G12  20705611.022   108808747.044        -432.690          45.000    20705613.551    84786034.555        -337.159          35.000  
G13  23596853.586   124002287.846        1098.173          37.000                                                                  
G22  21920131.683   115191066.374       -4912.854          42.000                                                                  
G19  19454111.813   102232001.393       -2592.456          45.000                                                                  
> 2025 04 04 08 36 01.9950000  0 10                     
G09  22159037.965   116446526.772       -2453.152          38.000    22159051.083    90738001.452       -1911.680          35.000  
G20  19022351.115    99963150.438       -1276.021          40.000                                                                  
G05  20973191.990   110214868.163        1038.825          43.000    20973196.590    85881733.577         809.676          36.000  
G11  20348683.066   106933085.746       -1804.702          44.000    20348682.961    83324461.987       -1406.367          40.000  
G06  20846959.286   109551516.674       -2815.065          42.000    20846963.319    85364828.781       -2193.702          40.000  
G17  21487116.959   112915535.807       -3433.170          40.000    21487124.598    87986193.342       -2674.818          34.000  
G12  20705693.372   108809179.877        -433.110          45.000    20705695.964    84786371.790        -337.277          35.000  
G13  23596644.555   124001189.516        1098.324          37.000                                                                  
G22  21921066.642   115195979.379       -4912.748          42.000                                                                  
G19  19454605.147   102234594.026       -2592.798          45.000                                                                  
> 2025 04 04 08 36 02.9950000  0 10                     
G09  22159504.765   116448980.124       -2453.611          38.000    22159517.959    90739913.160       -1911.872          35.000  
G20  19022594.039    99964426.650       -1276.769          40.000                                                                  
G05  20972994.292   110213829.350        1038.532          43.000    20972998.856    85880924.115         809.277          37.000  
G11  20349026.383   106934890.410       -1804.548          44.000    20349026.340    83325868.217       -1406.076          39.000  
G06  20847494.970   109554331.721       -2815.109          41.000    20847498.996    85367022.313       -2193.491          40.000  
G17  21487770.221   112918968.909       -3433.286          40.000    21487777.962    87988868.515       -2675.822          34.000  
G12  20705775.873   108809613.272        -433.771          45.000    20705778.475    84786709.518        -337.724          36.000  
G13  23596435.513   124000090.840        1098.843          36.000                                                                  
G22  21922001.593   115200892.449       -4913.112          41.000                                                                  
G19  19455098.496   102237187.049       -2593.280          45.000                                                                  
> 2025 04 04 08 36 03.9950000  0 10                     
G09  22159971.792   116451434.052       -2453.725          38.000    22159984.912    90741825.329       -1912.859          35.000  
G20  19022837.013    99965703.391       -1276.990          40.000                                                                  
G05  20972796.663   110212790.989        1038.269          43.000    20972801.175    85880115.013         808.843          37.000  
G11  20349369.896   106936695.205       -1804.639          44.000    20349369.765    83327274.550       -1406.379          39.000  
G06  20848030.696   109557146.794       -2815.008          41.000    20848034.740    85369215.883       -2193.424          39.000  
G17  21488423.514   112922402.398       -3433.311          40.000    21488431.286    87991543.933       -2675.216          34.000  
G12  20705858.555   108810047.328        -434.325          45.000    20705861.153    84787047.762        -338.569          35.000  
G13  23596226.358   123998991.928        1098.994          36.000                                                                  
G22  21922936.547   115205805.665       -4913.047          42.000                                                                  
G19  19455591.954   102239780.561       -2593.701          45.000                                                                  
> 2025 04 04 08 36 04.9950000  0 10                     
G09  22160438.803   116453888.685       -2454.654          38.000    22160452.017    90743738.025       -1913.120          35.000  
G20  19023080.109    99966980.779       -1277.538          40.000                                                                  
G05  20972599.109   110211753.191        1037.614          43.000    20972603.649    85879306.346         808.097          37.000  
G11  20349713.331   106938500.207       -1805.349          44.000    20349713.322    83328681.042       -1406.561          39.000  
G06  20848566.336   109559961.975       -2815.057          42.000    20848570.371    85371409.529       -2193.841          39.000  
G17  21489077.057   112925836.378       -3434.090          40.000    21489084.777    87994219.794       -2676.356          34.000  
G12  20705941.264   108810482.171        -435.256          45.000    20705943.913    84787386.586        -339.379          35.000  
G13  23596017.174   123997892.876        1099.032          36.000                                                                  
G22  21923871.600   115210719.155       -4913.699          42.000                                                                  
G19  19456085.557   102242374.662       -2594.458          45.000                                                                  
> 2025 04 04 08 36 05.9950000  0 10                     
G09  22160906.029   116456343.936       -2455.580          38.000    22160919.285    90745651.217       -1913.916          35.000  
G20  19023323.225    99968258.771       -1278.346          40.000                                                                  
G05  20972401.692   110210715.855        1036.800          43.000    20972406.143    85878497.998         808.147          37.000  
G11  20350056.838   106940305.335       -1805.302          44.000    20350056.727    83330087.642       -1406.601          39.000  
G06  20849102.077   109562777.232       -2815.379          42.000    20849105.972    85373603.219       -2193.772          39.000  
G17  21489730.653   112929270.831       -3434.989          40.000    21489738.388    87996895.948       -2676.207          34.000  
G12  20706024.165   108810917.705        -436.070          45.000    20706026.797    84787725.973        -339.949          35.000  
G13  23595808.017   123996793.619        1099.019          36.000                                                                  
G22  21924806.761   115215632.842       -4914.017          42.000                                                                  
G19  19456579.367   102244969.313       -2595.081          45.000                                                                  
> 2025 04 04 08 36 06.9950000  0 10                     
G09  22161373.313   116458799.481       -2455.617          38.000    22161386.558    90747564.607       -1913.161          35.000  
G20  19023566.529    99969537.022       -1278.283          40.000                                                                  
G05  20972204.248   110209678.655        1037.215          42.000    20972208.710    85877689.803         808.633          37.000  
G11  20350400.340   106942110.269       -1804.735          44.000    20350400.193    83331494.067       -1406.135          39.000  
G06  20849637.750   109565592.184       -2814.946          42.000    20849641.581    85375796.703       -2193.605          39.000  
G17  21490384.160   112932705.322       -3434.436          40.000    21490392.044    87999572.162       -2676.163          35.000  
G12  20706107.159   108811353.602        -435.983          45.000    20706109.710    84788065.626        -339.347          35.000  
G13  23595598.722   123995693.827        1100.510          36.000                                                                  
G22  21925741.731   115220546.366       -4913.473          42.000                                                                  
G19  19457073.185   102247564.149       -2594.928          45.000                                                                  
> 2025 04 04 08 36 07.9950000  0 10                     
G09  22161840.738   116461255.111       -2455.553          38.000    22161853.788    90749478.100       -1913.500          35.000  
G20  19023809.752    99970815.306       -1278.289          40.000                                                                  
G05  20972006.943   110208641.403        1037.105          42.000    20972011.265    85876881.560         808.438          37.000  
G11  20350743.753   106943914.823       -1804.220          45.000    20350743.613    83332900.206       -1405.725          39.000  
G06  20850173.252   109568406.674       -2814.323          42.000    20850177.136    85377989.792       -2192.854          39.000  
G17  21491037.683   112936139.726       -3434.250          40.000    21491045.724    88002248.345       -2676.085          34.000  
G12  20706190.190   108811789.664        -435.991          45.000    20706192.604    84788405.409        -339.297          35.000  
G13  23595389.272   123994593.316        1101.161          36.000                                                                  
G22  21926676.678   115225459.575       -4913.154          42.000                                                                  
G19  19457567.040   102250158.985       -2594.739          45.000                                                                  
> 2025 04 04 08 36 08.9950000  0 10                     
G09  22162307.980   116463710.769       -2455.177          38.000    22162321.104    90751391.619       -1913.730          35.000  
G20  19024052.932    99972093.616       -1278.143          40.000                                                                  
G05  20971809.509   110207604.046        1037.722          42.000    20971813.856    85876073.280         808.108          37.000  
G11  20351087.059   106945718.948       -1803.622          45.000    20351086.989    83334306.040       -1405.506          40.000  
G06  20850708.670   109571220.638       -2813.652          42.000    20850712.583    85380182.504       -2192.671          39.000  
G17  21491691.201   112939574.016       -3434.033          40.000    21491699.313    88004924.378       -2676.044          35.000  
G12  20706273.193   108812225.889        -436.324          45.000    20706275.684    84788745.305        -339.581          35.000  
G13  23595179.753   123993492.052        1101.840          36.000                                                                  
G22  21927611.563   115230372.424       -4912.660          42.000                                                                  
G19  19458060.781   102252753.793       -2594.489          45.000                                                                  
> 2025 04 04 08 36 09.9950000  0 10                     
G09  22162775.250   116466166.483       -2455.608          38.000    22162788.382    90753305.178       -1913.583          36.000  
G20  19024296.220    99973371.896       -1278.178          40.000                                                                  
G05  20971611.989   110206566.584        1037.664          42.000    20971616.375    85875264.855         808.643          37.000  
G11  20351430.381   106947522.606       -1803.253          45.000    20351430.239    83335711.477       -1404.938          40.000  
G06  20851243.933   109574034.051       -2813.327          42.000    20851247.935    85382374.772       -2192.294          39.000  
G17  21492344.617   112943008.103       -3434.050          41.000    21492352.839    88007600.296       -2675.939          35.000  
G12  20706356.215   108812662.206        -436.516          45.000    20706358.715    84789085.319        -340.387          36.000  
G13  23594970.039   123992389.997        1102.029          37.000                                                                  
G22  21928546.361   115235284.855       -4912.262          42.000                                                                  
G19  19458554.493   102255348.530       -2594.586          45.000                                                                  
> 2025 04 04 08 36 10.9950000  0 10                     
G09  22163242.533   116468622.320       -2455.818          38.000    22163255.693    90755218.821       -1914.203          36.000  
G20  19024539.523    99974650.281       -1278.384          40.000                                                                  
G05  20971414.510   110205529.125        1037.501          42.000    20971418.882    85874456.449         808.614          37.000  
G11  20351773.581   106949325.937       -1803.103          45.000    20351773.397    83337116.679       -1405.018          40.000  
G06  20851779.152   109576847.030       -2812.615          42.000    20851783.169    85384566.687       -2191.641          39.000  
G17  21492998.153   112946442.128       -3433.682          40.000    21493006.413    88010276.172       -2675.545          35.000  
G12  20706439.248   108813098.723        -436.647          45.000    20706441.700    84789425.436        -339.500          35.000  
G13  23594760.159   123991287.200        1103.501          37.000                                                                  
G22  21929481.209   115240196.995       -4911.846          42.000                                                                  
G19  19459048.322   102257943.319       -2594.843          45.000                                                                  
> 2025 04 04 08 36 11.9950000  0 10                     
G09  22163709.860   116471078.295       -2456.038          38.000    22163722.928    90757132.542       -1913.678          36.000  
G20  19024782.814    99975928.761       -1278.558          40.000                                                                  
G05  20971217.130   110204491.627        1037.557          43.000    20971221.414    85873648.026         808.101          37.000  
G11  20352116.742   106951128.904       -1802.967          45.000    20352116.453    83338521.583       -1404.841          40.000  
G06  20852314.436   109579659.577       -2812.467          42.000    20852318.379    85386758.277       -2191.288          39.000  
G17  21493651.663   112949876.112       -3433.948          40.000    21493659.958    88012951.997       -2676.281          35.000  
G12  20706522.496   108813535.458        -436.823          45.000    20706524.814    84789765.764        -340.563          36.000  
G13  23594550.235   123990183.770        1103.592          37.000                                                                  
G22  21930415.862   115245108.839       -4911.564          42.000                                                                  
G19  19459542.136   102260538.129       -2594.952          45.000                                                                  
> 2025 04 04 08 36 12.9950000  0 10                     
G09  22164177.264   116473534.343       -2456.197          38.000    22164190.322    90759046.343       -1913.949          36.000  
G20  19025026.005    99977207.263       -1278.916          40.000                                                                  
G05  20971019.612   110203454.070        1037.312          43.000    20971023.866    85872839.556         808.046          37.000  
G11  20352459.759   106952931.451       -1802.600          45.000    20352459.464    83339926.157       -1404.465          40.000  
G06  20852849.607   109582471.629       -2812.199          42.000    20852853.583    85388949.500       -2191.428          39.000  
G17  21494305.111   112953309.950       -3433.914          40.000    21494313.457    88015627.688       -2675.671          35.000  
G12  20706605.650   108813972.322        -437.038          45.000    20706607.862    84790106.171        -340.445          35.000  
G13  23594340.133   123989079.553        1104.131          37.000                                                                  
G22  21931350.511   115250020.326       -4911.438          42.000                                                                  
G19  19460036.020   102263132.899       -2595.270          45.000                                                                  
> 2025 04 04 08 36 13.9950000  0 10                     
G09  22164644.689   116475990.723       -2456.692          38.000    22164657.659    90760960.397       -1914.076          36.000  
G20  19025269.280    99978486.048       -1278.999          40.000                                                                  
G05  20970822.177   110202416.688        1037.320          43.000    20970826.482    85872031.195         808.326          37.000  
G11  20352802.713   106954733.854       -1802.183          45.000    20352802.517    83341330.627       -1404.466          40.000  
G06  20853384.689   109585283.424       -2811.553          42.000    20853388.578    85391140.502       -2190.883          39.000  
G17  21494958.588   112956743.928       -3433.953          40.000    21494966.942    88018303.514       -2675.697          35.000  
G12  20706688.842   108814409.622        -437.575          45.000    20706691.113    84790446.934        -340.855          36.000  
G13  23594129.928   123987974.832        1105.083          37.000                                                                  
G22  21932285.077   115254931.713       -4911.260          42.000                                                                  
G19  19460529.805   102265727.914       -2595.239          45.000                                                                  
> 2025 04 04 08 36 14.9950000  0 10                     
G09  22165112.208   116478447.510       -2457.185          39.000    22165125.173    90762874.770       -1913.828          36.000  
G20  19025512.548    99979765.236       -1279.728          40.000                                                                  
G05  20970624.859   110201379.591        1036.851          43.000    20970629.151    85871223.052         807.909          37.000  
G11  20353145.601   106956536.195       -1802.416          45.000    20353145.411    83342735.051       -1404.395          40.000  
G06  20853919.632   109588095.102       -2811.785          42.000    20853923.565    85393331.388       -2190.634          39.000  
G17  21495611.990   112960178.125       -3434.258          40.000    21495620.392    88020979.503       -2675.916          35.000  
G12  20706772.170   108814847.418        -438.328          44.000    20706774.393    84790788.090        -341.940          36.000  
G13  23593919.610   123986869.734        1104.978          37.000                                                                  
G22  21933219.653   115259843.101       -4911.543          42.000                                                                  
G19  19461023.794   102268323.262       -2595.740          45.000                                                                  
> 2025 04 04 08 36 15.9950000  0 10                     
G09  22165579.849   116480904.872       -2457.736          39.000    22165592.811    90764789.616       -1914.554          36.000  
G20  19025756.060    99981044.951       -1280.086          40.000                                                                  
G05  20970427.672   110200342.920        1036.364          43.000    20970431.951    85870415.287         807.564          37.000  
G11  20353488.530   106958338.636       -1802.584          45.000    20353488.354    83344139.548       -1404.547          40.000  
G06  20854454.702   109590906.758       -2811.621          42.000    20854458.567    85395522.314       -2190.889          39.000  
G17  21496265.588   112963612.713       -3434.889          40.000    21496273.991    88023655.837       -2676.619          35.000  
G12  20706855.479   108815285.857        -438.786          45.000    20706857.760    84791129.700        -341.303          35.000  
G13  23593709.327   123985764.362        1105.543          37.000                                                                  
G22  21934154.355   115264754.629       -4911.654          42.000                                                                  
G19  19461517.831   102270919.084       -2595.996          45.000                                                                  
> 2025 04 04 08 36 16.9950000  0 10                     
G09  22166047.679   116483362.814       -2458.105          39.000    22166060.549    90766704.926       -1915.535          36.000  
G20  19025999.757    99982325.206       -1280.851          40.000                                                                  
G05  20970230.484   110199306.667        1035.939          43.000    20970234.817    85869607.801         807.367          37.000  
G11  20353831.569   106960141.152       -1802.502          45.000    20353831.341    83345544.128       -1404.545          40.000  
G06  20854989.724   109593718.430       -2811.699          42.000    20854993.633    85397713.229       -2191.371          39.000  
G17  21496919.271   112967047.692       -3435.529          40.000    21496927.711    88026332.413       -2676.655          35.000  
G12  20706938.933   108815724.947        -439.298          44.000    20706941.341    84791471.868        -342.773          35.000  
G13  23593498.939   123984658.755        1105.795          37.000                                                                  
G22  21935089.011   115269666.322       -4911.806          42.000                                                                  
G19  19462011.922   102273515.396       -2596.674          45.000                                                                  
> 2025 04 04 08 36 17.9950000  0 10                     
G09  22166515.491   116485821.441       -2459.233          39.000    22166528.483    90768620.725       -1916.154          36.000  
G20  19026243.545    99983606.085       -1281.320          40.000                                                                  
G05  20970033.482   110198270.933        1035.570          43.000    20970037.716    85868800.763         806.605          37.000  
G11  20354174.517   106961943.872       -1802.775          45.000    20354174.392    83346948.853       -1405.017          40.000  
G06  20855524.816   109596530.199       -2811.600          42.000    20855528.789    85399904.201       -2190.924          39.000  
G17  21497573.087   112970483.131       -3435.784          40.000    21497581.448    88029009.370       -2676.913          34.000  
G12  20707022.628   108816164.793        -440.179          44.000    20707025.058    84791814.616        -342.954          35.000  
G13  23593288.417   123983552.975        1106.104          37.000                                                                  
G22  21936023.709   115274578.265       -4912.099          42.000                                                                  
G19  19462506.038   102276112.283       -2597.095          45.000                                                                  
> 2025 04 04 08 36 18.9950000  0 10                     
G09  22166983.560   116488280.924       -2459.998          39.000    22166996.577    90770537.229       -1916.963          36.000  
G20  19026487.307    99984887.804       -1282.283          40.000                                                                  
G05  20969836.526   110197235.934        1034.471          42.000    20969840.695    85867994.260         806.129          37.000  
G11  20354517.728   106963746.994       -1803.620          44.000    20354517.525    83348353.854       -1405.218          40.000  
G06  20856059.934   109599342.290       -2812.486          42.000    20856063.915    85402095.438       -2191.377          40.000  
G17  21498227.002   112973919.248       -3436.838          40.000    21498235.281    88031686.870       -2677.733          35.000  
G12  20707106.440   108816605.597        -441.334          44.000    20707108.920    84792158.086        -343.768          35.000  
G13  23593078.003   123982447.278        1105.522          37.000                                                                  
G22  21936958.514   115279490.630       -4912.728          42.000                                                                  
G19  19463000.476   102278709.955       -2598.328          45.000                                                                  
> 2025 04 04 08 36 19.9950000  0 10                     
G09  22167451.666   116490741.374       -2461.135          39.000    22167464.803    90772454.456       -1917.827          36.000  
G20  19026731.442    99986170.463       -1283.364          40.000                                                                  
G05  20969639.710   110196201.762        1033.579          42.000    20969643.897    85867188.405         805.963          37.000  
G11  20354861.009   106965550.589       -1804.002          44.000    20354860.913    83349759.274       -1405.916          40.000  
G06  20856595.210   109602154.759       -2812.823          42.000    20856599.126    85404286.971       -2191.419          39.000  
G17  21498881.003   112977356.157       -3437.469          40.000    21498889.548    88034364.983       -2678.420          35.000  
G12  20707190.507   108817047.448        -442.469          44.000    20707192.992    84792502.396        -344.998          35.000  
G13  23592867.586   123981341.720        1105.064          37.000                                                                  
G22  21937893.553   115284403.571       -4913.454          42.000                                                                  
G19  19463495.016   102281308.504       -2599.329          45.000                                                                  
> 2025 04 04 08 36 20.9950000  0 10                     
G09  22167920.057   116493202.873       -2462.335          39.000    22167933.244    90774372.515       -1918.508          36.000  
G20  19026975.736    99987454.101       -1284.139          40.000                                                                  
G05  20969442.972   110195168.472        1032.872          42.000    20969447.344    85866383.268         804.729          37.000  
G11  20355204.245   106967354.734       -1804.363          44.000    20355204.230    83351165.093       -1405.930          40.000  
G06  20857130.557   109604967.713       -2813.372          42.000    20857134.340    85406478.872       -2192.102          39.000  
G17  21499535.226   112980793.901       -3438.423          40.000    21499543.761    88037043.747       -2679.358          35.000  
G12  20707274.818   108817490.404        -443.513          44.000    20707277.267    84792847.548        -344.982          36.000  
G13  23592657.243   123980236.356        1105.455          38.000                                                                  
G22  21938828.603   115289317.083       -4913.809          42.000                                                                  
G19  19463989.716   102283907.992       -2599.994          45.000                                                                  
> 2025 04 04 08 36 21.9950000  0 10                     
G09  22168388.647   116495665.178       -2462.882          39.000    22168401.755    90776291.189       -1918.960          36.000  
G20  19027220.127    99988738.531       -1284.785          40.000                                                                  
G05  20969246.382   110194135.862        1032.259          42.000    20969250.832    85865578.639         804.022          37.000  
G11  20355547.583   106969159.222       -1804.597          44.000    20355547.590    83352571.188       -1406.018          40.000  
G06  20857665.919   109607780.893       -2813.267          42.000    20857669.716    85408670.966       -2191.981          39.000  
G17  21500189.523   112984232.246       -3438.254          40.000    21500198.105    88039722.983       -2679.834          35.000  
G12  20707359.249   108817934.267        -444.415          44.000    20707361.890    84793193.406        -345.860          36.000  
G13  23592446.847   123979131.033        1105.057          37.000                                                                  
G22  21939763.636   115294231.011       -4914.112          43.000                                                                  
G19  19464484.528   102286508.199       -2600.427          45.000                                                                  
> 2025 04 04 08 36 22.9950000  0 10                     
G09  22168857.406   116498128.356       -2463.357          39.000    22168870.515    90778210.569       -1919.906          36.000  
G20  19027464.707    99990023.802       -1285.756          40.000                                                                  
G05  20969050.084   110193103.973        1031.504          42.000    20969054.524    85864774.565         803.796          37.000  
G11  20355890.997   106970964.104       -1805.102          45.000    20355891.077    83353977.604       -1406.796          40.000  
G06  20858201.300   109610594.392       -2813.688          42.000    20858205.075    85410863.295       -2192.262          40.000  
G17  21500844.065   112987671.308       -3439.677          40.000    21500852.557    88042402.745       -2680.302          35.000  
G12  20707443.834   108818379.076        -445.371          45.000    20707446.610    84793540.037        -346.986          36.000  
G13  23592236.441   123978025.708        1105.313          37.000                                                                  
G22  21940698.839   115299145.373       -4914.667          42.000                                                                  
G19  19464979.403   102289109.201       -2601.422          45.000                                                                  
> 2025 04 04 08 36 23.9950000  0 10                     
G09  22169326.266   116500592.462       -2464.762          39.000    22169339.414    90780130.636       -1920.302          36.000  
G20  19027709.334    99991309.944       -1286.383          40.000                                                                  
G05  20968853.807   110192072.875        1030.802          42.000    20968858.291    85863971.126         803.184          38.000  
G11  20356234.605   106972769.422       -1805.487          45.000    20356234.622    83355384.342       -1407.032          40.000  
G06  20858736.863   109613408.238       -2813.770          42.000    20858740.532    85413055.903       -2192.734          39.000  
G17  21501498.715   112991111.079       -3439.940          40.000    21501507.192    88045083.062       -2680.169          35.000  
G12  20707528.728   108818824.898        -446.261          45.000    20707531.326    84793887.406        -347.530          36.000  
G13  23592026.124   123976920.525        1105.262          37.000                                                                  
G22  21941634.058   115304060.229       -4914.972          42.000                                                                  
G19  19465474.510   102291711.035       -2602.301          45.000                                                                  
> 2025 04 04 08 36 24.9950000  0 10                     
G09  22169795.307   116503057.495       -2465.769          38.000    22169808.542    90782051.481       -1921.396          36.000  
G20  19027954.323    99992597.032       -1287.784          40.000                                                                  
G05  20968657.788   110191042.601        1029.764          42.000    20968662.182    85863168.312         802.741          38.000  
G11  20356578.258   106974575.240       -1806.242          45.000    20356578.281    83356791.464       -1407.458          40.000  
G06  20859272.313   109616222.471       -2814.487          42.000    20859276.113    85415248.847       -2193.278          39.000  
G17  21502153.422   112994551.620       -3441.027          40.000    21502162.004    88047764.054       -2681.463          35.000  
G12  20707613.791   108819271.772        -447.681          44.000    20707616.415    84794235.642        -349.217          35.000  
G13  23591815.781   123975815.465        1104.656          37.000                                                                  
G22  21942569.474   115308975.623       -4916.001          42.000                                                                  
G19  19465969.744   102294313.719       -2603.204          45.000                                                                  
> 2025 04 04 08 36 25.9950000  0 10                     
G09  22170264.474   116505523.495       -2466.803          38.000    22170277.795    90783973.006       -1921.377          35.000  
G20  19028199.393    99993885.067       -1288.583          40.000                                                                  
G05  20968461.900   110190013.157        1029.242          43.000    20968466.359    85862366.156         802.064          38.000  
G11  20356921.974   106976381.546       -1806.117          45.000    20356922.105    83358198.986       -1407.674          40.000  
G06  20859807.857   109619037.132       -2814.620          42.000    20859811.692    85417442.089       -2193.179          39.000  
G17  21502808.199   112997992.965       -3441.604          42.000    21502816.673    88050445.571       -2681.478          36.000  
G12  20707699.070   108819719.678        -448.168          44.000    20707701.678    84794584.676        -349.647          35.000  
G13  23591605.526   123974710.562        1105.144          37.000                                                                  
G22  21943504.937   115313891.581       -4916.022          42.000                                                                  
G19  19466465.109   102296917.294       -2603.802          44.000                                                                  
> 2025 04 04 08 36 26.9950000  0 10                     
G09  22170733.837   116507990.492       -2467.389          40.000    22170747.204    90785895.294       -1922.181          38.000  
G20  19028444.667    99995173.950       -1289.468          40.000                                                                  
G05  20968266.089   110188984.481        1028.290          43.000    20968270.603    85861564.602         801.186          38.000  
G11  20357265.810   106978188.281       -1806.977          45.000    20357265.988    83359606.814       -1407.664          40.000  
G06  20860343.579   109621852.145       -2815.026          42.000    20860347.419    85419635.585       -2193.840          39.000  
G17  21503463.209   113001435.001       -3442.375          42.000    21503471.616    88053127.702       -2682.761          37.000  
G12  20707784.448   108820168.589        -449.389          44.000    20707787.093    84794934.461        -350.495          35.000  
G13  23591395.238   123973605.750        1104.707          36.000                                                                  
G22  21944440.452   115318808.010       -4916.575          42.000                                                                  
G19  19466960.890   102299521.706       -2604.773          44.000                                                                  
> 2025 04 04 08 36 27.9950000  0 10                     
G09  22171203.432   116510458.508       -2468.570          38.000    22171216.759    90787818.470       -1923.239          35.000  
G20  19028690.134    99996463.854       -1290.321          40.000                                                                  
G05  20968070.577   110187956.734        1027.302          43.000    20968075.060    85860763.744         800.674          38.000  
G11  20357609.738   106979995.597       -1807.446          45.000    20357609.930    83361015.114       -1408.170          40.000  
G06  20860879.376   109624667.642       -2815.889          42.000    20860883.164    85421829.481       -2194.106          39.000  
G17  21504118.388   113004877.909       -3443.069          42.000    21504126.652    88055810.485       -2683.153          36.000  
G12  20707869.994   108820618.644        -450.590          44.000    20707872.713    84795285.146        -351.103          35.000  
G13  23591185.022   123972501.193        1104.296          37.000                                                                  
G22  21945376.200   115323725.093       -4917.482          42.000                                                                  
G19  19467456.675   102302127.091       -2605.878          44.000                                                                  
> 2025 04 04 08 36 28.9950000  0 10                     
G09  22171673.268   116512927.660       -2469.838          40.000    22171686.619    90789742.499       -1924.699          37.000  
G20  19028935.747    99997754.821       -1291.427          40.000                                                                  
G05  20967875.197   110186929.936        1026.228          43.000    20967879.691    85859963.650         799.757          38.000  
G11  20357953.916   106981803.524       -1808.205          45.000    20357953.946    83362423.894       -1409.169          40.000  
G06  20861415.269   109627483.656       -2816.301          42.000    20861419.048    85424023.769       -2194.329          39.000  
G17  21504773.776   113008321.747       -3444.133          41.000    21504781.958    88058493.967       -2684.032          36.000  
G12  20707955.841   108821069.862        -451.952          44.000    20707958.568    84795636.730        -351.624          35.000  
G13  23590974.928   123971396.927        1104.102          37.000                                                                  
G22  21946311.897   115328642.813       -4917.963          42.000                                                                  
G19  19467952.703   102304733.462       -2607.068          44.000                                                                  
> 2025 04 04 08 36 29.9950000  0 10                     
G09  22172143.310   116515397.759       -2470.281          40.000    22172156.632    90791667.245       -1925.216          38.000  
G20  19029181.537    99999046.733       -1292.163          40.000                                                                  
G05  20967679.952   110185903.959        1025.617          43.000    20967684.435    85859164.201         799.254          38.000  
G11  20358298.216   106983611.939       -1808.437          45.000    20358298.008    83363833.066       -1409.357          40.000  
G06  20861951.370   109630300.081       -2816.325          42.000    20861955.088    85426218.384       -2194.598          39.000  
G17  21505429.349   113011766.358       -3445.125          41.000    21505437.378    88061178.051       -2684.041          37.000  
G12  20708041.879   108821522.136        -452.766          44.000    20708044.727    84795989.158        -352.525          35.000  
G13  23590764.747   123970292.795        1103.954          36.000                                                                  
G22  21947247.867   115333561.100       -4918.612          42.000                                                                  
G19  19468448.906   102307340.718       -2607.648          44.000                                                                  
> 2025 04 04 08 36 30.9950000  0 10                     
G09  22172613.501   116517868.726       -2471.257          40.000    22172626.725    90793592.671       -1925.963          37.000  
G20  19029427.485   100000339.473       -1293.233          40.000                                                                  
G05  20967484.846   110184878.712        1024.848          43.000    20967489.334    85858365.319         798.331          38.000  
G11  20358642.298   106985420.749       -1809.041          45.000    20358642.174    83365242.515       -1409.729          40.000  
G06  20862487.530   109633116.823       -2817.333          42.000    20862491.140    85428413.228       -2194.781          39.000  
G17  21506084.965   113015211.627       -3445.650          41.000    21506092.937    88063862.692       -2684.967          37.000  
G12  20708128.095   108821975.343        -453.606          44.000    20708131.137    84796342.325        -353.517          35.000  
G13  23590554.561   123969188.705        1103.623          36.000                                                                  
G22  21948183.960   115338479.810       -4918.812          42.000                                                                  
G19  19468945.203   102309948.731       -2608.453          44.000                                                                  
> 2025 04 04 08 36 31.9950000  0 10                     
G09  22173083.846   116520340.469       -2471.815          39.000    22173097.141    90795518.716       -1926.216          38.000  
G20  19029673.550   100001632.956       -1293.888          40.000                                                                  
G05  20967289.765   110183854.091        1024.398          43.000    20967294.438    85857566.926         798.078          38.000  
G11  20358986.543   106987229.859       -1809.372          45.000    20358986.506    83366652.208       -1409.751          40.000  
G06  20863023.560   109635933.743       -2816.673          42.000    20863027.137    85430608.249       -2195.167          39.000  
G17  21506740.679   113018657.472       -3446.049          41.000    21506748.631    88066547.778       -2685.385          37.000  
G12  20708214.497   108822429.429        -454.399          44.000    20708217.532    84796696.140        -353.906          35.000  
G13  23590344.526   123968084.552        1104.648          36.000                                                                  
G22  21949119.848   115343398.888       -4919.136          42.000                                                                  
G19  19469441.585   102312557.465       -2609.113          44.000                                                                  
> 2025 04 04 08 36 32.9950000  0 10                     
G09  22173554.308   116522812.693       -2472.327          40.000    22173567.594    90797445.130       -1926.448          37.000  
G20  19029919.752   100002926.862       -1293.963          40.000                                                                  
G05  20967094.837   110182829.806        1024.239          43.000    20967099.550    85856768.777         798.202          38.000  
G11  20359330.841   106989038.934       -1808.983          45.000    20359330.779    83368061.888       -1409.675          40.000  
G06  20863559.663   109638750.584       -2816.752          42.000    20863563.072    85432803.195       -2195.224          39.000  
G17  21507396.461   113022103.586       -3445.979          40.000    21507404.336    88069233.051       -2685.229          36.000  
G12  20708300.983   108822884.067        -454.889          44.000    20708304.048    84797050.431        -354.602          35.000  
G13  23590134.360   123966980.072        1105.138          36.000                                                                  
G22  21950055.880   115348318.020       -4919.105          42.000                                                                  
G19  19469938.135   102315166.565       -2609.235          44.000                                                                  
> 2025 04 04 08 36 33.9950000  0 10                     
G09  22174024.813   116525285.102       -2472.321          40.000    22174038.077    90799371.683       -1926.502          37.000  
G20  19030166.028   100004220.959       -1294.084          40.000                                                                  
G05  20966899.823   110181805.583        1024.179          43.000    20966904.681    85855970.672         798.376          38.000  
G11  20359675.143   106990847.769       -1808.604          45.000    20359674.952    83369471.378       -1409.608          40.000  
G06  20864095.538   109641567.069       -2816.302          42.000    20864099.047    85434997.840       -2194.743          39.000  
G17  21508052.254   113025549.742       -3446.148          41.000    21508060.148    88071918.374       -2685.518          36.000  
G12  20708387.550   108823338.980        -455.018          44.000    20708390.521    84797404.902        -354.398          35.000  
G13  23589924.106   123965875.003        1105.444          36.000                                                                  
G22  21950991.910   115353236.917       -4918.867          42.000                                                                  
G19  19470434.579   102317775.812       -2609.521          44.000                                                                  
> 2025 04 04 08 36 34.9950000  0 10                     
G09  22174495.343   116527757.803       -2473.060          40.000    22174508.642    90801298.457       -1927.059          38.000  
G20  19030412.189   100005515.234       -1294.588          40.000                                                                  
G05  20966704.935   110180781.448        1024.113          42.000    20966709.821    85855172.667         797.926          38.000  
G11  20360019.353   106992656.349       -1808.633          45.000    20360019.125    83370880.640       -1409.074          40.000  
G06  20864631.491   109644383.214       -2816.133          41.000    20864634.962    85437192.216       -2194.066          39.000  
G17  21508707.920   113028995.922       -3445.925          41.000    21508715.853    88074603.709       -2685.829          36.000  
G12  20708474.230   108823794.225        -455.429          44.000    20708477.064    84797759.606        -354.565          35.000  
G13  23589713.704   123964769.347        1105.608          36.000                                                                  
G22  21951927.902   115358155.618       -4918.542          42.000                                                                  
G19  19470931.174   102320385.155       -2609.314          44.000                                                                  
> 2025 04 04 08 36 35.9950000  0 10                     
G09  22174965.941   116530230.890       -2473.684          40.000    22174979.389    90803225.512       -1927.339          38.000  
G20  19030658.559   100006809.894       -1294.972          40.000                                                                  
G05  20966510.173   110179757.583        1023.656          42.000    20966515.023    85854374.839         797.823          38.000  
G11  20360363.522   106994464.855       -1808.551          45.000    20360363.291    83372289.875       -1409.077          40.000  
G06  20865167.368   109647199.193       -2815.985          42.000    20865170.818    85439386.514       -2194.678          39.000  
G17  21509363.802   113032442.356       -3446.603          41.000    21509371.637    88077289.224       -2685.611          36.000  
G12  20708560.887   108824249.955        -455.881          44.000    20708563.789    84798114.770        -355.791          35.000  
G13  23589503.342   123963663.251        1106.219          36.000                                                                  
G22  21952863.835   115363074.313       -4918.780          42.000                                                                  
G19  19471427.709   102322994.849       -2610.046          43.000                                                                  
> 2025 04 04 08 36 36.9950000  0 10                     
G09  22175436.599   116532704.358       -2473.843          40.000    22175449.955    90805152.921       -1927.916          38.000  
G20  19030904.985   100008104.889       -1294.951          40.000                                                                  
G05  20966315.455   110178733.960        1023.668          42.000    20966320.313    85853577.247         797.317          38.000  
G11  20360707.617   106996273.277       -1808.525          45.000    20360707.463    83373699.048       -1409.369          40.000  
G06  20865703.354   109650015.034       -2816.030          42.000    20865706.663    85441580.653       -2194.235          39.000  
G17  21510019.652   113035888.972       -3446.781          40.000    21510027.492    88079974.913       -2686.414          37.000  
G12  20708647.628   108824706.185        -456.754          44.000    20708650.616    84798470.242        -355.870          35.000  
G13  23589292.903   123962556.733        1106.622          36.000                                                                  
G22  21953799.859   115367992.981       -4918.986          42.000                                                                  
G19  19471924.299   102325604.843       -2610.120          43.000                                                                  
> 2025 04 04 08 36 37.9950000  0 10                     
G09  22175907.465   116535178.157       -2473.989          40.000    22175920.658    90807080.554       -1927.526          38.000  
G20  19031151.456   100009400.220       -1295.608          40.000                                                                  
G05  20966120.783   110177710.542        1023.223          42.000    20966125.584    85852779.774         796.906          38.000  
G11  20361051.769   106998081.565       -1808.346          45.000    20361051.462    83375108.089       -1408.975          40.000  
G06  20866239.070   109652830.615       -2815.785          42.000    20866242.470    85443774.610       -2193.977          39.000  
G17  21510675.596   113039335.701       -3446.872          41.000    21510683.309    88082660.666       -2685.888          37.000  
G12  20708734.549   108825162.799        -456.754          44.000    20708737.508    84798826.058        -355.907          35.000  
G13  23589082.255   123961449.747        1107.276          36.000                                                                  
G22  21954735.867   115372911.540       -4918.642          42.000                                                                  
G19  19472421.082   102328215.099       -2610.504          44.000                                                                  
> 2025 04 04 08 36 38.9950000  0 10                     
G09  22176378.210   116537652.278       -2474.200          40.000    22176391.520    90809008.454       -1928.121          38.000  
G20  19031397.993   100010695.775       -1295.766          40.000                                                                  
G05  20965926.052   110176687.286        1023.231          43.000    20965931.000    85851982.426         797.085          38.000  
G11  20361395.792   106999889.654       -1807.980          45.000    20361395.559    83376516.983       -1408.600          40.000  
G06  20866774.826   109655645.931       -2815.171          42.000    20866778.203    85445968.351       -2193.573          39.000  
G17  21511331.591   113042782.572       -3446.938          41.000    21511339.188    88085346.532       -2686.075          37.000  
G12  20708821.537   108825619.818        -457.184          44.000    20708824.495    84799182.144        -355.978          35.000  
G13  23588871.586   123960342.206        1107.615          35.000                                                                  
G22  21955671.787   115377829.970       -4918.409          42.000                                                                  
G19  19472917.798   102330825.542       -2610.516          44.000                                                                  
> 2025 04 04 08 36 39.9950000  0 10                     
G09  22176849.129   116540126.583       -2474.729          40.000    22176862.327    90810936.478       -1928.311          38.000  
G20  19031644.505   100011991.497       -1295.875          40.000                                                                  
G05  20965731.312   110175664.083        1022.825          42.000    20965736.347    85851185.131         796.976          38.000  
G11  20361739.815   107001697.469       -1807.908          45.000    20361739.540    83377925.667       -1408.871          40.000  
G06  20867310.426   109658460.860       -2814.903          42.000    20867313.842    85448161.810       -2193.560          39.000  
G17  21511987.603   113046229.443       -3447.208          41.000    21511995.125    88088032.400       -2686.104          36.000  
G12  20708908.556   108826077.098        -457.594          44.000    20708911.540    84799538.471        -356.699          35.000  
G13  23588660.729   123959234.101        1108.237          35.000                                                                  
G22  21956607.623   115382748.187       -4918.608          42.000                                                                  
G19  19473414.613   102333436.095       -2610.889          44.000                                                                  
> 2025 04 04 08 36 40.9950000  0 10                     
G09  22177320.109   116542601.317       -2474.835          40.000    22177333.184    90812864.855       -1928.486          38.000  
G20  19031891.167   100013287.624       -1296.402          40.000                                                                  
G05  20965536.566   110174641.157        1022.852          42.000    20965541.763    85850388.037         797.150          38.000  
G11  20362083.795   107003505.220       -1807.646          45.000    20362083.644    83379334.319       -1408.760          40.000  
G06  20867846.163   109661275.663       -2814.560          42.000    20867849.581    85450355.156       -2193.212          39.000  
G17  21512643.615   113049676.534       -3447.177          41.000    21512651.084    88090718.445       -2686.009          36.000  
G12  20708995.711   108826534.896        -458.174          45.000    20708998.635    84799895.205        -357.023          35.000  
G13  23588449.771   123958125.603        1108.525          35.000                                                                  
G22  21957543.465   115387666.387       -4918.244          43.000                                                                  
G19  19473911.526   102336046.983       -2611.011          43.000                                                                  
> 2025 04 04 08 36 41.9950000  0 10                     
G09  22177791.177   116545076.725       -2475.955          40.000    22177804.242    90814793.743       -1929.137          38.000  
G20  19032137.885   100014584.359       -1297.195          40.000                                                                  
G05  20965341.926   110173618.738        1022.117          42.000    20965347.175    85849591.352         796.616          38.000  
G11  20362427.819   107005313.150       -1807.944          45.000    20362427.608    83380743.088       -1408.923          40.000  
G06  20868381.698   109664090.566       -2815.254          42.000    20868385.187    85452548.574       -2193.474          39.000  
G17  21513299.734   113053124.076       -3447.694          41.000    21513307.023    88093404.850       -2686.566          36.000  
G12  20709082.949   108826993.424        -458.943          45.000    20709085.894    84800252.515        -358.042          35.000  
G13  23588238.775   123957016.875        1108.930          35.000                                                                  
G22  21958479.387   115392584.818       -4918.722          43.000                                                                  
G19  19474408.481   102338658.435       -2611.749          44.000                                                                  
> 2025 04 04 08 36 42.9950000  0 10                     
G09  22178262.278   116547552.686       -2476.166          40.000    22178275.385    90816723.077       -1929.571          38.000  
G20  19032384.752   100015881.635       -1297.739          40.000                                                                  
G05  20965147.430   110172596.744        1021.847          42.000    20965152.627    85848794.993         796.381          38.000  
G11  20362771.841   107007121.169       -1808.046          45.000    20362771.767    83382151.939       -1408.994          40.000  
G06  20868917.367   109666905.450       -2815.154          42.000    20868920.837    85454741.988       -2193.428          38.000  
G17  21513955.823   113056572.017       -3447.960          41.000    21513963.104    88096091.544       -2686.595          37.000  
G12  20709170.307   108827452.600        -459.384          45.000    20709173.274    84800610.300        -358.177          35.000  
G13  23588027.801   123955907.945        1109.146          35.000                                                                  
G22  21959415.355   115397503.392       -4918.745          43.000                                                                  
G19  19474905.619   102341270.355       -2612.170          44.000                                                                  
> 2025 04 04 08 36 43.9950000  0 10                     
G09  22178733.514   116550029.284       -2476.795          40.000    22178746.700    90818652.889       -1929.993          38.000  
G20  19032631.691   100017179.486       -1297.992          40.000                                                                  
G05  20964952.984   110171575.233        1021.507          43.000    20964958.223    85847999.033         795.702          38.000  
G11  20363115.961   107008929.325       -1808.005          45.000    20363115.838    83383560.879       -1408.946          40.000  
G06  20869453.073   109669720.376       -2814.832          42.000    20869456.534    85456935.445       -2193.674          38.000  
G17  21514611.925   113060020.371       -3448.079          41.000    21514619.448    88098778.602       -2687.414          37.000  
G12  20709257.747   108827912.487        -460.207          45.000    20709260.714    84800968.636        -358.516          35.000  
G13  23587816.666   123954798.797        1109.354          36.000                                                                  
G22  21960351.428   115402422.151       -4918.645          43.000                                                                  
G19  19475402.756   102343882.817       -2612.610          44.000                                                                  
> 2025 04 04 08 36 44.9950000  0 10                     
G09  22179204.836   116552506.375       -2477.338          40.000    22179218.004    90820583.086       -1930.699          39.000  
G20  19032878.688   100018477.786       -1298.622          39.000                                                                  
G05  20964758.707   110170554.043        1021.116          43.000    20964763.993    85847203.284         795.809          38.000  
G11  20363459.991   107010737.472       -1807.928          45.000    20363459.946    83384969.848       -1408.891          40.000  
G06  20869988.810   109672535.227       -2814.658          42.000    20869992.210    85459128.808       -2193.208          38.000  
G17  21515268.146   113063469.041       -3448.744          41.000    21515275.741    88101465.865       -2687.528          37.000  
G12  20709345.272   108828372.924        -460.627          45.000    20709348.411    84801327.429        -359.207          35.000  
G13  23587605.490   123953689.324        1109.635          35.000                                                                  
G22  21961287.483   115407340.983       -4918.934          43.000                                                                  
G19  19475899.914   102346495.676       -2613.062          44.000                                                                  
> 2025 04 04 08 36 45.9950000  0 10                     
G09  22179676.362   116554983.839       -2477.614          40.000    22179689.487    90822513.585       -1930.653          39.000  
G20  19033125.683   100019776.455       -1298.887          39.000                                                                  
G05  20964564.444   110169533.106        1021.107          43.000    20964569.743    85846407.776         795.614          38.000  
G11  20363804.041   107012545.559       -1807.837          44.000    20363803.984    83386378.745       -1408.899          40.000  
G06  20870524.440   109675349.910       -2814.347          42.000    20870527.795    85461322.098       -2193.417          38.000  
G17  21515924.448   113066917.898       -3448.714          41.000    21515932.149    88104153.275       -2687.401          37.000  
G12  20709432.951   108828833.831        -461.028          45.000    20709436.158    84801686.599        -359.537          35.000  
G13  23587394.245   123952579.463        1109.920          36.000                                                                  
G22  21962223.553   115412259.769       -4918.486          43.000                                                                  
G19  19476397.096   102349108.834       -2613.306          44.000                                                                  
> 2025 04 04 08 36 46.9950000  0 10                     
G09  22180147.806   116557461.525       -2477.924          40.000    22180160.957    90824444.262       -1931.132          39.000  
G20  19033372.846   100021075.274       -1299.099          39.000                                                                  
G05  20964370.292   110168512.270        1020.795          43.000    20964375.459    85845612.298         795.659          38.000  
G11  20364148.098   107014353.364       -1807.767          45.000    20364148.079    83387787.423       -1408.722          40.000  
G06  20871059.986   109678164.220       -2813.975          42.000    20871063.375    85463515.058       -2192.863          38.000  
G17  21516580.712   113070366.782       -3448.938          41.000    21516588.509    88106840.717       -2687.408          37.000  
G12  20709520.770   108829295.052        -461.507          45.000    20709523.906    84802045.953        -359.149          35.000  
G13  23587182.853   123951468.926        1110.637          36.000                                                                  
G22  21963159.579   115417178.359       -4918.462          42.000                                                                  
G19  19476894.354   102351722.130       -2613.556          44.000                                                                  
> 2025 04 04 08 36 47.9950000  0 10                     
G09  22180619.416   116559939.488       -2477.830          40.000    22180632.419    90826375.143       -1931.044          39.000  
G20  19033619.987   100022374.354       -1299.201          39.000                                                                  
G05  20964176.086   110167491.570        1020.843          43.000    20964181.240    85844816.976         795.125          38.000  
G11  20364492.111   107016160.979       -1807.350          45.000    20364492.043    83389195.931       -1408.140          40.000  
G06  20871595.496   109680978.294       -2814.231          42.000    20871598.709    85465707.827       -2192.495          38.000  
G17  21517236.941   113073815.743       -3448.696          41.000    21517245.001    88109528.242       -2687.280          37.000  
G12  20709608.633   108829756.626        -461.655          45.000    20709611.688    84802405.611        -359.252          35.000  
G13  23586971.455   123950357.893        1111.675          36.000                                                                  
G22  21964095.502   115422096.787       -4918.095          42.000                                                                  
G19  19477391.596   102354335.615       -2613.568          44.000                                                                  
> 2025 04 04 08 36 48.9950000  0 10                     
G09  22181091.150   116562417.623       -2478.322          41.000    22181104.002    90828306.171       -1931.320          39.000  
G20  19033867.202   100023673.543       -1299.322          39.000                                                                  
G05  20963981.881   110166470.877        1020.547          43.000    20963986.955    85844021.637         795.293          38.000  
G11  20364836.097   107017968.274       -1807.177          45.000    20364835.895    83390604.221       -1408.192          40.000  
G06  20872130.871   109683791.909       -2813.650          42.000    20872134.118    85467900.269       -2192.401          38.000  
G17  21517893.236   113077264.720       -3448.900          41.000    21517901.374    88112215.734       -2687.744          37.000  
G12  20709696.505   108830218.454        -462.000          45.000    20709699.556    84802765.482        -359.908          36.000  
G13  23586759.914   123949246.204        1111.667          36.000                                                                  
G22  21965031.456   115427014.950       -4918.024          42.000                                                                  
G19  19477888.958   102356949.166       -2613.983          44.000                                                                  
> 2025 04 04 08 36 49.9950000  0 10                     
G09  22181562.827   116564896.172       -2478.797          41.000    22181575.644    90830237.511       -1931.605          38.000  
G20  19034114.378   100024973.118       -1300.016          39.000                                                                  
G05  20963787.743   110165450.456        1020.177          43.000    20963792.700    85843226.505         794.859          38.000  
G11  20365179.938   107019775.479       -1807.327          45.000    20365179.691    83392012.433       -1408.196          40.000  
G06  20872666.269   109686605.385       -2813.184          42.000    20872669.535    85470092.576       -2192.348          38.000  
G17  21518549.681   113080713.909       -3449.721          41.000    21518557.808    88114903.396       -2687.671          37.000  
G12  20709784.614   108830680.757        -462.662          45.000    20709787.524    84803125.723        -360.639          35.000  
G13  23586548.266   123948134.077        1112.404          36.000                                                                  
G22  21965967.367   115431933.088       -4918.127          42.000                                                                  
G19  19478386.365   102359563.025       -2614.044          44.000                                                                  
> 2025 04 04 08 36 50.9950000  0 10                     
G09  22182034.530   116567375.066       -2479.449          41.000    22182047.396    90832169.099       -1931.616          38.000  
G20  19034361.871   100026273.005       -1300.383          39.000                                                                  
G05  20963593.590   110164430.229        1020.108          43.000    20963598.589    85842431.520         794.978          38.000  
G11  20365523.811   107021582.556       -1807.292          45.000    20365523.561    83393420.553       -1408.390          40.000  
G06  20873201.601   109689418.646       -2813.333          42.000    20873204.826    85472284.732       -2192.210          38.000  
G17  21519206.077   113084163.231       -3449.655          41.000    21519214.135    88117591.134       -2687.559          37.000  
G12  20709872.660   108831143.493        -463.163          45.000    20709875.555    84803486.292        -360.521          35.000  
G13  23586336.474   123947021.511        1112.579          36.000                                                                  
G22  21966903.207   115436851.167       -4918.265          42.000                                                                  
G19  19478883.809   102362177.144       -2614.264          44.000                                                                  
> 2025 04 04 08 36 51.9950000  0 10                     
G09  22182506.474   116569854.386       -2479.632          40.000    22182519.329    90834101.027       -1932.067          38.000  
G20  19034609.310   100027573.244       -1300.575          39.000                                                                  
G05  20963399.531   110163410.295        1019.824          42.000    20963404.450    85841636.771         794.811          38.000  
G11  20365867.672   107023389.570       -1807.139          45.000    20365867.392    83394828.627       -1408.338          40.000  
G06  20873736.914   109692231.739       -2813.110          42.000    20873740.044    85474476.766       -2192.465          38.000  
G17  21519862.580   113087612.777       -3449.666          41.000    21519870.676    88120279.140       -2688.493          37.000  
G12  20709960.894   108831606.743        -463.720          45.000    20709963.729    84803847.258        -361.137          35.000  
G13  23586124.584   123945908.553        1112.663          36.000                                                                  
G22  21967839.102   115441769.221       -4918.257          42.000                                                                  
G19  19479381.353   102364791.622       -2614.746          44.000                                                                  
> 2025 04 04 08 36 52.9950000  0 10                     
G09  22182978.402   116572334.217       -2479.649          41.000    22182991.207    90836033.393       -1932.410          38.000  
G20  19034856.898   100028873.996       -1300.856          39.000                                                                  
G05  20963205.539   110162390.737        1019.690          42.000    20963210.417    85840842.312         794.831          38.000  
G11  20366211.400   107025196.629       -1806.658          45.000    20366211.390    83396236.725       -1408.115          40.000  
G06  20874272.160   109695044.813       -2812.746          42.000    20874275.285    85476668.743       -2191.650          38.000  
G17  21520519.167   113091062.658       -3449.443          41.000    21520527.137    88122967.336       -2688.182          37.000  
G12  20710049.275   108832070.596        -463.841          45.000    20710051.997    84804208.706        -361.667          35.000  
G13  23585912.772   123944795.267        1113.529          36.000                                                                  
G22  21968774.980   115446687.380       -4917.957          42.000                                                                  
G19  19479879.002   102367406.522       -2614.948          44.000                                                                  
> 2025 04 04 08 36 53.9950000  0 10                     
G09  22183450.336   116574814.379       -2480.306          41.000    22183463.195    90837965.964       -1932.390          38.000  
G20  19035104.439   100030175.008       -1301.007          39.000                                                                  
G05  20963011.535   110161371.341        1019.663          43.000    20963016.338    85840047.999         794.289          38.000  
G11  20366555.265   107027003.519       -1806.463          45.000    20366555.249    83397644.670       -1407.582          41.000  
G06  20874807.389   109697857.604       -2812.430          42.000    20874810.584    85478860.541       -2191.413          38.000  
G17  21521175.811   113094512.638       -3449.588          41.000    21521183.631    88125655.662       -2688.573          37.000  
G12  20710137.609   108832534.829        -464.159          45.000    20710140.308    84804570.437        -361.680          35.000  
G13  23585700.831   123943681.452        1114.611          36.000                                                                  
G22  21969710.932   115451605.401       -4917.688          42.000                                                                  
G19  19480376.656   102370021.609       -2614.740          44.000                                                                  
> 2025 04 04 08 36 54.9950000  0 11                     
G09  22183922.370   116577294.419       -2480.022          41.000    22183935.112    90839898.468       -1932.452          38.000  
G20  19035352.027   100031475.883       -1301.002          39.000                                                                  
G05  20962817.483   110160351.731        1019.642          42.000    20962822.354    85839253.509         794.224          39.000  
G11  20366899.067   107028809.830       -1806.147          45.000    20366899.028    83399052.199       -1407.551          40.000  
G06  20875342.571   109700669.748       -2812.154          42.000    20875345.732    85481051.793       -2190.770          38.000  
G17  21521832.342   113097962.329       -3449.660          41.000    21521840.127    88128343.719       -2688.171          37.000  
G14  23679467.706                       -5230.453          15.000                                                                  
G12  20710226.030   108832999.052        -464.323          45.000    20710228.718    84804932.165        -361.881          35.000  
G13  23585488.782   123942566.795        1114.705          36.000                                                                  
G22  21970646.751   115456522.901       -4917.568          43.000                                                                  
G19  19480874.360   102372636.542       -2614.899          44.000                                                                  
> 2025 04 04 08 36 55.9950000  0 10                     
G09  22184394.387   116579774.422       -2480.030          41.000    22184407.048    90841830.946       -1932.137          39.000  
G20  19035599.555   100032776.674       -1300.874          39.000                                                                  
G05  20962623.357   110159331.929        1019.730          42.000    20962628.342    85838458.851         794.501          39.000  
G11  20367242.661   107030615.613       -1805.543          45.000    20367242.558    83400459.306       -1407.091          40.000  
G06  20875877.621   109703481.261       -2811.346          42.000    20875880.795    85483242.597       -2190.737          38.000  
G17  21522488.791   113101411.794       -3449.429          41.000    21522496.506    88131031.598       -2687.974          35.000  
G12  20710314.436   108833463.300        -464.220          45.000    20710317.029    84805293.923        -361.675          35.000  
G13  23585276.480   123941451.202        1116.413          36.000                                                                  
G22  21971582.526   115461439.914       -4916.884          42.000                                                                  
G19  19481371.917   102375251.321       -2614.728          44.000                                                                  
> 2025 04 04 08 36 56.9950000  0 10                     
G09  22184866.323   116582254.497       -2480.170          41.000    22184878.966    90843763.479       -1932.611          39.000  
G20  19035847.058   100034077.487       -1300.928          40.000                                                                  
G05  20962429.221   110158312.018        1019.902          42.000    20962434.313    85837664.137         794.476          39.000  
G11  20367586.220   107032420.971       -1805.616          45.000    20367586.084    83401866.071       -1406.633          40.000  
G06  20876412.597   109706292.257       -2810.775          41.000    20876415.716    85485432.977       -2190.105          38.000  
G17  21523145.323   113104861.096       -3449.175          41.000    21523152.932    88133719.343       -2687.638          35.000  
G12  20710402.655   108833927.677        -464.491          45.000    20710405.408    84805655.800        -362.049          35.000  
G13  23585064.074   123940334.876        1116.574          36.000                                                                  
G22  21972518.108   115466356.551       -4916.763          42.000                                                                  
G19  19481869.567   102377866.087       -2615.009          44.000                                                                  
> 2025 04 04 08 36 57.9950000  0 10                     
G09  22185338.305   116584734.548       -2480.237          41.000    22185350.918    90845696.001       -1932.788          39.000  
G20  19036094.621   100035378.244       -1300.881          40.000                                                                  
G05  20962235.186   110157291.990        1020.103          42.000    20962240.182    85836869.292         794.904          38.000  
G11  20367929.662   107034225.816       -1804.566          45.000    20367929.590    83403272.458       -1406.211          40.000  
G06  20876947.444   109709102.701       -2810.707          41.000    20876950.561    85487622.922       -2189.694          38.000  
G17  21523801.679   113108310.193       -3449.165          41.000    21523809.309    88136406.989       -2687.716          35.000  
G12  20710491.098   108834392.147        -464.654          45.000    20710493.961    84806017.717        -362.427          35.000  
G13  23584851.523   123939217.724        1117.692          36.000                                                                  
G22  21973453.602   115471272.752       -4916.103          42.000                                                                  
G19  19482367.119   102380480.729       -2614.789          44.000                                                                  
> 2025 04 04 08 36 58.9950000  0 11                     
G09  22185810.189   116587214.586       -2480.396          41.000    22185822.838    90847628.488       -1932.806          39.000  
G20  19036342.046   100036678.944       -1300.954          40.000                                                                  
G05  20962040.992   110156271.785        1019.639          42.000    20962046.027    85836074.320         794.761          38.000  
G11  20368273.048   107036030.180       -1804.638          44.000    20368272.832    83404678.431       -1405.880          40.000  
G06  20877482.256   109711912.520       -2809.769          41.000    20877485.210    85489812.397       -2189.562          38.000  
G17  21524458.029   113111759.099       -3448.875          41.000    21524465.633    88139094.423       -2687.750          36.000  
G14  23683464.937                       -5230.453          17.000                                                                  
G12  20710579.501   108834856.664        -465.046          45.000    20710582.388    84806379.662        -362.252          35.000  
G13  23584638.724   123938099.750        1117.552          36.000                                                                  
G22  21974388.988   115476188.513       -4916.000          42.000                                                                  
G19  19482864.723   102383095.273       -2614.917          44.000                                                                  
> 2025 04 04 08 36 59.9950000  0 10                     
G09  22186282.096   116589694.044       -2479.187          40.000    22186294.662    90849560.527       -1931.879          39.000  
G20  19036589.447   100037979.016       -1300.081          40.000                                                                  
G05  20961846.667   110155250.811        1021.200          42.000    20961851.824    85835278.782         795.469          38.000  
G11  20368616.248   107037833.449       -1802.948          44.000    20368615.959    83406083.600       -1405.112          40.000  
G06  20878016.731   109714721.187       -2808.314          41.000    20878019.560    85492000.957       -2188.069          38.000  
G17  21525114.344   113115207.208       -3447.978          40.000    21525121.731    88141781.266       -2686.814          36.000  
G12  20710667.868   108835320.640        -463.824          45.000    20710670.641    84806741.192        -361.091          35.000  
G13  23584425.612   123936980.329        1119.626          36.000                                                                  
G22  21975324.292   115481103.243       -4914.441          43.000                                                                  
G19  19483362.235   102385709.124       -2613.708          44.000                                                                  
> 2025 04 04 08 37 00.9950000  0 10                     
G09  22186753.797   116592172.860       -2478.381          40.000    22186766.424    90851492.072       -1930.969          39.000  
G20  19036836.750   100039278.470       -1299.218          39.000                                                                  
G05  20961652.252   110154229.126        1021.974          42.000    20961657.426    85834482.668         796.327          38.000  
G11  20368959.184   107039635.665       -1801.646          44.000    20368958.830    83407487.912       -1404.086          40.000  
G06  20878550.973   109717528.707       -2807.311          41.000    20878553.822    85494188.672       -2187.658          38.000  
G17  21525770.376   113118654.519       -3446.837          40.000    21525777.654    88144467.475       -2685.404          35.000  
G12  20710756.106   108835784.168        -463.445          45.000    20710758.843    84807102.384        -360.748          35.000  
G13  23584212.291   123935859.454        1121.867          36.000                                                                  
G22  21976259.346   115486016.955       -4913.177          42.000                                                                  
G19  19483859.532   102388322.295       -2612.646          44.000                                                                  
> 2025 04 04 08 37 01.9950000  0 10                     
G09  22187225.427   116594651.058       -2477.960          39.000    22187238.103    90853423.154       -1930.530          36.000  
G20  19037083.859   100040577.200       -1298.291          39.000                                                                  
G05  20961457.673   110153206.618        1023.073          42.000    20961462.805    85833685.928         797.066          38.000  
G11  20369301.995   107041436.717       -1800.260          44.000    20369301.524    83408891.347       -1402.862          40.000  
G06  20879085.096   109720334.980       -2805.630          41.000    20879087.801    85496375.329       -2186.189          38.000  
G17  21526426.210   113122100.981       -3445.606          40.000    21526433.502    88147153.010       -2684.786          35.000  
G12  20710844.190   108836247.054        -462.477          45.000    20710847.012    84807463.121        -360.760          35.000  
G13  23583998.778   123934737.175        1123.386          36.000                                                                  
G22  21977194.200   115490929.565       -4911.980          43.000                                                                  
G19  19484356.656   102390934.716       -2612.054          44.000                                                                  
> 2025 04 04 08 37 02.9950000  0 10                     
G09  22187696.839   116597128.315       -2476.782          39.000    22187709.479    90855353.489       -1929.852          37.000  
G20  19037330.875   100041874.972       -1297.438          40.000                                                                  
G05  20961262.879   110152183.068        1024.174          42.000    20961268.121    85832888.357         797.629          38.000  
G11  20369644.503   107043236.382       -1799.100          44.000    20369643.931    83410293.661       -1401.836          41.000  
G06  20879618.860   109723139.768       -2804.112          41.000    20879621.562    85498560.885       -2184.980          38.000  
G17  21527081.737   113125546.331       -3444.918          41.000    21527089.044    88149837.706       -2684.321          35.000  
G12  20710932.076   108836709.141        -461.820          45.000    20710934.928    84807823.111        -359.168          35.000  
G13  23583784.831   123933613.131        1124.810          36.000                                                                  
G22  21978128.870   115495840.837       -4910.699          42.000                                                                  
G19  19484853.684   102393546.143       -2611.407          44.000                                                                  
> 2025 04 04 08 37 03.9950000  0 10                     
G09  22188168.046   116599604.782       -2476.086          39.000    22188180.748    90857283.229       -1929.565          37.000  
G20  19037577.613   100043171.902       -1296.576          39.000                                                                  
G05  20961067.938   110151158.559        1025.045          42.000    20961073.186    85832090.040         798.507          38.000  
G11  20369986.744   107045034.758       -1797.883          45.000    20369986.235    83411695.007       -1401.089          40.000  
G06  20880152.336   109725943.179       -2802.816          41.000    20880154.916    85500745.339       -2184.190          38.000  
G17  21527737.152   113128990.674       -3444.042          41.000    21527744.405    88152521.650       -2684.049          35.000  
G12  20711019.939   108837170.487        -461.002          45.000    20711022.718    84808182.625        -359.354          35.000  
G13  23583570.570   123932487.473        1126.228          36.000                                                                  
G22  21979063.164   115500750.863       -4909.497          43.000                                                                  
G19  19485350.428   102396156.631       -2610.223          44.000                                                                  
> 2025 04 04 08 37 04.9950000  0 10                     
G09  22188639.302   116602080.619       -2475.610          39.000    22188651.959    90859212.437       -1929.053          37.000  
G20  19037824.228   100044468.163       -1295.739          39.000                                                                  
G05  20960872.810   110150133.289        1025.868          42.000    20960877.998    85831291.148         799.066          38.000  
G11  20370328.788   107046832.021       -1796.698          45.000    20370328.291    83413095.488       -1400.427          40.000  
G06  20880685.502   109728745.401       -2801.808          41.000    20880688.130    85502928.900       -2183.283          38.000  
G17  21528392.488   113132434.195       -3442.887          41.000    21528399.627    88155204.847       -2682.757          35.000  
G12  20711107.678   108837631.294        -460.465          45.000    20711110.425    84808541.718        -358.736          36.000  
G13  23583356.059   123931360.342        1128.332          36.000                                                                  
G22  21979997.423   115505659.820       -4908.226          43.000                                                                  
G19  19485847.029   102398766.427       -2609.393          43.000                                                                  
> 2025 04 04 08 37 05.9950000  0 10                     
G09  22189110.348   116604555.924       -2475.208          39.000    22189123.053    90861141.269       -1929.016          37.000  
G20  19038070.763   100045763.878       -1295.669          39.000                                                                  
G05  20960677.529   110149107.375        1025.959          42.000    20960682.674    85830491.717         799.481          38.000  
G11  20370670.680   107048628.289       -1795.927          45.000    20370670.182    83414495.147       -1399.428          40.000  
G06  20881218.552   109731546.480       -2800.337          41.000    20881221.253    85505111.587       -2182.592          38.000  
G17  21529047.570   113135877.024       -3442.801          42.000    21529054.706    88157887.597       -2682.474          35.000  
G12  20711195.434   108838091.653        -460.253          45.000    20711198.078    84808900.437        -358.966          36.000  
G13  23583141.309   123930231.922        1129.126          36.000                                                                  
G22  21980931.273   115510567.841       -4907.623          43.000                                                                  
G19  19486343.658   102401375.624       -2609.174          44.000                                                                  
> 2025 04 04 08 37 06.9950000  0 10                     
G09  22189581.250   116607030.909       -2474.762          41.000    22189594.012    90863069.813       -1928.662          40.000  
G20  19038317.212   100047059.208       -1295.542          39.000                                                                  
G05  20960482.259   110148080.974        1026.485          41.000    20960487.309    85829691.941         800.132          38.000  
G11  20371012.488   107050423.709       -1794.858          45.000    20371011.772    83415894.196       -1398.880          40.000  
G06  20881751.363   109734346.724       -2799.823          42.000    20881754.032    85507293.543       -2181.263          38.000  
G17  21529702.444   113139319.274       -3442.147          42.000    21529709.702    88160569.870       -2681.626          36.000  
G12  20711282.970   108838551.767        -460.001          45.000    20711285.558    84809258.946        -358.170          36.000  
G13  23582926.397   123929102.310        1130.317          35.000                                                                  
G22  21981865.021   115515475.070       -4907.038          43.000                                                                  
G19  19486840.119   102403984.346       -2608.691          43.000                                                                  
> 2025 04 04 08 37 07.9950000  0 10                     
G09  22190052.112   116609505.652       -2474.426          41.000    22190064.937    90864998.188       -1928.229          40.000  
G20  19038563.557   100048354.243       -1294.803          39.000                                                                  
G05  20960286.928   110147054.198        1026.984          42.000    20960291.955    85828891.846         800.188          38.000  
G11  20371353.958   107052218.424       -1794.352          45.000    20371353.310    83417292.668       -1398.413          40.000  
G06  20882284.030   109737146.116       -2798.988          42.000    20882286.785    85509474.906       -2181.218          38.000  
G17  21530357.277   113142761.113       -3441.598          42.000    21530364.624    88163251.794       -2681.425          36.000  
G12  20711370.505   108839011.711        -459.833          45.000    20711373.163    84809617.336        -358.160          35.000  
G13  23582711.415   123927971.670        1131.300          36.000                                                                  
G22  21982798.751   115520381.654       -4906.286          43.000                                                                  
G19  19487336.532   102406592.749       -2608.154          43.000                                                                  
> 2025 04 04 08 37 08.9950000  0 10                     
G09  22190523.024   116611980.334       -2474.683          41.000    22190535.894    90866926.492       -1928.333          40.000  
G20  19038810.063   100049649.194       -1294.767          39.000                                                                  
G05  20960091.476   110146027.206        1027.155          42.000    20960096.442    85828091.620         800.188          38.000  
G11  20371695.350   107054012.599       -1793.790          45.000    20371694.664    83418690.725       -1397.665          40.000  
G06  20882816.557   109739944.881       -2798.186          41.000    20882819.306    85511655.750       -2180.560          38.000  
G17  21531012.203   113146202.696       -3441.202          42.000    21531019.490    88165933.597       -2681.974          36.000  
G12  20711458.083   108839471.672        -460.064          45.000    20711460.728    84809975.744        -358.331          36.000  
G13  23582496.038   123926840.116        1131.518          35.000                                                                  
G22  21983732.321   115525287.723       -4905.865          43.000                                                                  
G19  19487832.894   102409201.012       -2608.200          43.000                                                                  
> 2025 04 04 08 37 09.9950000  0 10                     
G09  22190993.986   116614455.252       -2474.628          41.000    22191006.981    90868855.015       -1928.522          40.000  
G20  19039056.443   100050944.324       -1295.115          39.000                                                                  
G05  20959896.057   110145000.306        1027.319          42.000    20959900.988    85827291.440         800.153          39.000  
G11  20372036.739   107055806.519       -1793.688          45.000    20372036.096    83420088.574       -1397.159          40.000  
G06  20883349.031   109742743.338       -2798.299          41.000    20883351.762    85513836.344       -2180.125          37.000  
G17  21531667.048   113149644.306       -3441.552          42.000    21531674.356    88168615.349       -2681.563          36.000  
G12  20711545.678   108839931.953        -460.254          45.000    20711548.436    84810334.402        -358.633          36.000  
G13  23582280.682   123925707.961        1133.041          35.000                                                                  
G22  21984665.848   115530193.611       -4905.465          42.000                                                                  
G19  19488329.367   102411809.416       -2608.397          43.000                                                                  
> 2025 04 04 08 37 10.9950000  0 10                     
G09  22191465.094   116616930.328       -2474.774          41.000    22191477.983    90870783.622       -1928.278          40.000  
G20  19039303.051   100052239.574       -1295.128          39.000                                                                  
G05  20959700.582   110143973.450        1026.838          42.000    20959705.532    85826491.274         800.395          38.000  
G11  20372377.995   107057600.120       -1793.167          45.000    20372377.434    83421486.200       -1397.243          40.000  
G06  20883881.578   109745541.403       -2797.650          41.000    20883884.220    85516016.645       -2180.180          37.000  
G17  21532322.055   113153085.901       -3441.415          42.000    21532329.276    88171297.083       -2681.395          36.000  
G12  20711633.296   108840392.495        -460.706          45.000    20711636.074    84810693.285        -359.084          35.000  
G13  23582065.015   123924575.183        1133.601          36.000                                                                  
G22  21985599.317   115535099.248       -4905.469          43.000                                                                  
G19  19488825.713   102414417.892       -2608.335          44.000                                                                  
> 2025 04 04 08 37 11.9950000  0 10                     
G09  22191936.194   116619405.702       -2475.439          40.000    22191949.143    90872712.535       -1928.735          38.000  
G20  19039549.642   100053535.132       -1295.845          39.000                                                                  
G05  20959505.226   110142946.732        1026.614          42.000    20959510.164    85825691.271         799.595          38.000  
G11  20372719.415   107059393.561       -1793.491          45.000    20372718.659    83422883.677       -1397.266          40.000  
G06  20884414.000   109748339.174       -2797.878          41.000    20884416.608    85518196.718       -2179.907          37.000  
G17  21532977.069   113156527.614       -3441.936          42.000    21532984.178    88173978.975       -2682.180          36.000  
G12  20711721.070   108840853.411        -461.114          45.000    20711723.855    84811052.423        -359.059          35.000  
G13  23581849.351   123923441.900        1133.248          36.000                                                                  
G22  21986532.779   115540004.743       -4905.524          43.000                                                                  
G19  19489322.091   102417026.586       -2608.911          44.000                                                                  
> 2025 04 04 08 37 12.9950000  0 10                     
G09  22192407.411   116621881.732       -2475.983          40.000    22192420.291    90874641.932       -1929.810          38.000  
G20  19039796.267   100054831.205       -1296.323          39.000                                                                  
G05  20959309.904   110141920.488        1026.134          41.000    20959315.041    85824891.604         799.249          38.000  
G11  20373060.832   107061187.102       -1793.639          45.000    20373059.907    83424281.225       -1397.463          40.000  
G06  20884946.409   109751136.987       -2797.900          41.000    20884948.909    85520376.837       -2180.229          38.000  
G17  21533632.143   113159969.747       -3442.378          41.000    21533639.129    88176661.097       -2682.418          36.000  
G12  20711808.963   108841315.007        -462.032          46.000    20711811.713    84811412.098        -360.046          36.000  
G13  23581633.595   123922308.386        1133.469          36.000                                                                  
G22  21987466.329   115544910.420       -4906.107          42.000                                                                  
G19  19489818.610   102419635.778       -2609.678          44.000                                                                  
> 2025 04 04 08 37 13.9950000  0 10                     
G09  22192878.661   116624358.546       -2477.246          39.000    22192891.585    90876571.882       -1929.926          37.000  
G20  19040043.115   100056128.060       -1297.335          39.000                                                                  
G05  20959114.687   110140894.893        1025.560          42.000    20959119.826    85824092.427         798.823          38.000  
G11  20373402.257   107062980.973       -1794.111          45.000    20373401.341    83425679.059       -1397.915          40.000  
G06  20885478.846   109753935.030       -2798.009          42.000    20885481.260    85522557.124       -2180.318          38.000  
G17  21534287.331   113163412.484       -3443.217          41.000    21534294.320    88179343.777       -2683.375          35.000  
G12  20711897.114   108841777.493        -462.870          46.000    20711899.817    84811772.472        -360.485          36.000  
G13  23581417.967   123921174.879        1133.167          37.000                                                                  
G22  21988399.853   115549816.461       -4906.356          42.000                                                                  
G19  19490315.261   102422245.706       -2610.162          44.000                                                                  
> 2025 04 04 08 37 14.9950000  0 10                     
G09  22193350.101   116626836.070       -2477.441          39.000    22193363.067    90878502.458       -1930.737          37.000  
G20  19040289.991   100057425.627       -1297.777          39.000                                                                  
G05  20958919.694   110139869.928        1024.687          42.000    20958924.793    85823293.762         797.971          38.000  
G11  20373743.698   107064775.118       -1794.256          45.000    20373742.738    83427077.100       -1398.231          40.000  
G06  20886011.339   109756733.253       -2798.155          42.000    20886013.827    85524737.568       -2180.606          38.000  
G17  21534942.487   113166855.778       -3443.594          41.000    21534949.623    88182026.829       -2683.080          35.000  
G12  20711985.370   108842240.829        -463.783          46.000    20711988.002    84812133.508        -361.228          36.000  
G13  23581202.223   123920041.295        1133.339          37.000                                                                  
G22  21989333.523   115554722.842       -4906.636          42.000                                                                  
G19  19490812.030   102424856.310       -2611.007          44.000                                                                  
> 2025 04 04 08 37 15.9950000  0 10                     
G09  22193821.701   116629314.226       -2478.479          39.000    22193834.669    90880433.483       -1931.452          37.000  
G20  19040537.031   100058723.733       -1298.673          39.000                                                                  
G05  20958724.678   110138845.367        1024.254          42.000    20958729.849    85822495.400         798.166          38.000  
G11  20374085.071   107066569.349       -1794.289          46.000    20374084.179    83428475.194       -1398.152          40.000  
G06  20886543.852   109759531.512       -2798.507          42.000    20886546.278    85526918.031       -2180.975          38.000  
G17  21535597.928   113170299.447       -3444.180          41.000    21535605.008    88184710.176       -2683.156          35.000  
G12  20712073.564   108842704.794        -464.372          46.000    20712076.333    84812495.053        -361.708          36.000  
G13  23580986.600   123918907.452        1133.956          37.000                                                                  
G22  21990267.339   115559629.333       -4906.944          42.000                                                                  
G19  19491308.872   102427467.371       -2611.451          44.000                                                                  
> 2025 04 04 08 37 16.9950000  0 10                     
G09  22194293.362   116631792.686       -2478.571          39.000    22194306.397    90882364.755       -1931.671          37.000  
G20  19040784.113   100060022.150       -1298.565          39.000                                                                  
G05  20958529.670   110137821.035        1024.052          43.000    20958534.978    85821697.234         798.010          39.000  
G11  20374426.473   107068363.458       -1794.406          45.000    20374425.493    83429873.199       -1398.171          40.000  
G06  20887076.329   109762329.531       -2798.161          42.000    20887078.769    85529098.277       -2179.962          38.000  
G17  21536253.255   113173743.273       -3444.072          41.000    21536260.420    88187393.710       -2683.639          35.000  
G12  20712162.030   108843169.212        -464.827          45.000    20712164.770    84812856.941        -362.132          35.000  
G13  23580770.823   123917773.172        1134.243          36.000                                                                  
G22  21991201.022   115564535.740       -4906.507          42.000                                                                  
G19  19491805.752   102430078.703       -2611.552          43.000                                                                  
> 2025 04 04 08 37 17.9950000  0 10                     
G09  22194765.018   116634271.511       -2478.644          39.000    22194778.099    90884296.310       -1931.354          37.000  
G20  19041031.223   100061320.885       -1299.081          39.000                                                                  
G05  20958334.786   110136796.917        1023.955          43.000    20958340.040    85820899.217         797.815          39.000  
G11  20374767.907   107070157.419       -1793.832          46.000    20374766.834    83431271.097       -1397.942          39.000  
G06  20887608.626   109765127.310       -2797.756          42.000    20887611.074    85531278.404       -2180.426          38.000  
G17  21536908.631   113177187.247       -3444.067          41.000    21536915.745    88190077.341       -2683.725          35.000  
G12  20712250.469   108843634.057        -465.041          45.000    20712253.239    84813219.156        -362.510          35.000  
G13  23580554.901   123916638.415        1134.940          36.000                                                                  
G22  21992134.696   115569442.066       -4906.140          42.000                                                                  
G19  19492302.662   102432690.290       -2611.801          44.000                                                                  
> 2025 04 04 08 37 18.9950000  0 10                     
G09  22195236.730   116636750.965       -2479.822          39.000    22195249.903    90886228.340       -1932.410          37.000  
G20  19041278.483   100062620.171       -1299.708          39.000                                                                  
G05  20958139.959   110135773.244        1023.321          43.000    20958145.273    85820101.545         797.532          39.000  
G11  20375109.340   107071951.499       -1794.095          46.000    20375108.101    83432669.088       -1398.063          39.000  
G06  20888140.921   109767925.144       -2797.851          42.000    20888143.489    85533458.520       -2180.608          38.000  
G17  21537564.041   113180631.642       -3444.674          41.000    21537571.199    88192761.280       -2684.317          35.000  
G12  20712339.124   108844099.573        -465.877          45.000    20712341.762    84813581.896        -363.217          36.000  
G13  23580338.920   123915503.417        1134.999          37.000                                                                  
G22  21993068.472   115574348.572       -4906.764          42.000                                                                  
G19  19492799.730   102435302.375       -2612.395          44.000                                                                  
> 2025 04 04 08 37 19.9950000  0 10                     
G09  22195708.706   116639231.029       -2480.560          39.000    22195722.009    90888160.889       -1933.331          37.000  
G20  19041525.867   100063920.041       -1300.416          39.000                                                                  
G05  20957945.216   110134750.070        1022.779          43.000    20957950.576    85819304.278         796.945          39.000  
G11  20375450.847   107073745.730       -1794.499          46.000    20375449.534    83434067.187       -1398.154          39.000  
G06  20888673.384   109770723.034       -2798.256          42.000    20888675.906    85535638.675       -2180.415          38.000  
G17  21538219.524   113184076.467       -3445.262          41.000    21538226.775    88195445.559       -2684.985          35.000  
G12  20712427.826   108844565.809        -466.817          46.000    20712430.477    84813945.189        -363.512          36.000  
G13  23580122.947   123914368.268        1135.057          36.000                                                                  
G22  21994002.184   115579255.258       -4906.896          42.000                                                                  
G19  19493296.855   102437915.023       -2613.285          44.000                                                                  
> 2025 04 04 08 37 20.9950000  0 10                     
G09  22196180.701   116641711.503       -2480.725          39.000    22196194.060    90890093.711       -1933.264          37.000  
G20  19041773.350   100065220.313       -1300.797          39.000                                                                  
G05  20957750.590   110133727.193        1022.493          43.000    20957755.933    85818507.252         796.371          39.000  
G11  20375792.272   107075539.917       -1794.366          46.000    20375790.935    83435465.251       -1398.286          40.000  
G06  20889205.887   109773520.803       -2798.257          42.000    20889208.338    85537818.741       -2180.090          38.000  
G17  21538875.127   113187521.501       -3445.362          41.000    21538882.342    88198129.968       -2684.511          35.000  
G12  20712516.605   108845032.561        -467.084          45.000    20712519.317    84814308.923        -364.386          36.000  
G13  23579907.030   123913232.735        1135.397          36.000                                                                  
G22  21994935.807   115584161.951       -4907.033          42.000                                                                  
G19  19493794.059   102440527.979       -2613.167          43.000                                                                  
> 2025 04 04 08 37 21.9950000  0 10                     
G09  22196652.807   116644192.251       -2480.963          39.000    22196666.236    90892026.768       -1933.264          37.000  
G20  19042020.880   100066520.836       -1300.708          39.000                                                                  
G05  20957556.167   110132704.488        1022.562          43.000    20957561.325    85817710.312         796.892          39.000  
G11  20376133.674   107077333.922       -1793.957          46.000    20376132.336    83436863.179       -1398.069          40.000  
G06  20889738.222   109776318.265       -2797.216          41.000    20889740.690    85539998.605       -2179.784          38.000  
G17  21539530.713   113190966.694       -3445.480          41.000    21539537.946    88200814.541       -2684.584          35.000  
G12  20712605.513   108845499.701        -467.536          45.000    20712608.197    84814672.911        -364.011          36.000  
G13  23579690.834   123912096.644        1136.147          36.000                                                                  
G22  21995869.457   115589068.524       -4906.588          41.000                                                                  
G19  19494291.236   102443141.176       -2613.256          44.000                                                                  
> 2025 04 04 08 37 22.9950000  0 10                     
G09  22197124.933   116646673.394       -2481.836          39.000    22197138.331    90893960.142       -1934.058          37.000  
G20  19042268.518   100067821.651       -1301.308          39.000                                                                  
G05  20957361.610   110131681.908        1022.470          43.000    20957366.706    85816913.527         796.470          39.000  
G11  20376475.030   107079127.750       -1793.869          46.000    20376473.716    83438260.970       -1397.713          40.000  
G06  20890270.497   109779115.477       -2797.020          41.000    20890272.983    85542178.278       -2179.843          38.000  
G17  21540186.261   113194411.954       -3445.381          42.000    21540193.560    88203499.193       -2685.167          35.000  
G12  20712694.472   108845967.213        -468.011          45.000    20712697.144    84815037.188        -364.441          36.000  
G13  23579474.583   123910960.061        1137.104          37.000                                                                  
G22  21996803.093   115593974.965       -4906.538          41.000                                                                  
G19  19494788.487   102445754.563       -2613.292          44.000                                                                  
> 2025 04 04 08 37 23.9950000  0 10                     
G09  22197596.986   116649154.762       -2481.885          39.000    22197610.602    90895893.656       -1933.551          37.000  
G20  19042516.148   100069122.647       -1301.111          40.000                                                                  
G05  20957167.019   110130659.493        1022.383          43.000    20957172.077    85816116.823         796.847          39.000  
G11  20376816.368   107080921.357       -1793.501          46.000    20376814.978    83439658.584       -1397.457          40.000  
G06  20890802.596   109781912.398       -2796.749          41.000    20890805.186    85544357.685       -2179.307          37.000  
G17  21540841.888   113197857.309       -3445.378          41.000    21540849.185    88206183.860       -2684.595          36.000  
G12  20712783.544   108846435.070        -467.876          45.000    20712786.165    84815401.793        -365.249          35.000  
G13  23579258.179   123909822.940        1138.003          36.000                                                                  
G22  21997736.637   115598881.253       -4906.102          42.000                                                                  
G19  19495285.745   102448368.165       -2613.552          44.000                                                                  
> 2025 04 04 08 37 24.9950000  0 10                     
G09  22198069.091   116651636.421       -2481.763          40.000    22198082.810    90897827.439       -1934.198          37.000  
G20  19042763.841   100070423.916       -1301.256          40.000                                                                  
G05  20956972.559   110129637.206        1022.251          43.000    20956977.506    85815320.286         796.224          39.000  
G11  20377157.652   107082714.775       -1793.331          46.000    20377156.288    83441056.046       -1397.108          40.000  
G06  20891334.858   109784709.056       -2796.566          41.000    20891337.353    85546536.897       -2179.281          38.000  
G17  21541497.527   113201302.783       -3445.639          42.000    21541504.884    88208868.642       -2684.928          36.000  
G12  20712872.497   108846903.326        -468.398          45.000    20712875.326    84815766.655        -365.502          36.000  
G13  23579041.691   123908685.297        1137.914          36.000                                                                  
G22  21998670.209   115603787.383       -4905.943          42.000                                                                  
G19  19495783.121   102450981.965       -2613.969          44.000                                                                  
> 2025 04 04 08 37 25.9950000  0 10                     
G09  22198541.305   116654118.296       -2482.251          39.000    22198555.101    90899761.361       -1933.905          37.000  
G20  19043011.469   100071725.344       -1301.539          40.000                                                                  
G05  20956778.086   110128615.003        1022.183          43.000    20956782.913    85814523.737         796.559          39.000  
G11  20377498.768   107084507.908       -1793.192          46.000    20377497.512    83442453.315       -1397.259          40.000  
G06  20891866.956   109787505.340       -2796.237          41.000    20891869.461    85548715.797       -2178.874          38.000  
G17  21542153.234   113204748.235       -3445.573          41.000    21542160.473    88211553.384       -2684.275          36.000  
G12  20712961.622   108847371.861        -468.791          45.000    20712964.548    84816131.752        -365.498          36.000  
G13  23578825.021   123907547.011        1138.735          37.000                                                                  
G22  21999603.802   115608693.312       -4906.014          42.000                                                                  
G19  19496280.330   102453595.855       -2614.061          44.000                                                                  
> 2025 04 04 08 37 26.9950000  0 10                     
G09  22199013.704   116656600.744       -2482.922          39.000    22199027.501    90901695.719       -1934.125          37.000  
G20  19043259.231   100073027.311       -1302.013          39.000                                                                  
G05  20956583.653   110127593.213        1021.535          43.000    20956588.563    85813727.554         795.815          39.000  
G11  20377840.016   107086301.123       -1793.238          46.000    20377838.743    83443850.604       -1397.285          40.000  
G06  20892399.084   109790301.608       -2796.347          41.000    20892401.546    85550894.711       -2178.888          38.000  
G17  21542808.918   113208194.064       -3446.080          41.000    21542816.119    88214238.500       -2685.766          35.000  
G12  20713050.824   108847841.022        -469.291          45.000    20713053.804    84816497.288        -365.711          36.000  
G13  23578608.376   123906408.514        1138.502          36.000                                                                  
G22  22000537.350   115613599.350       -4906.098          42.000                                                                  
G19  19496777.749   102456210.242       -2614.860          43.000                                                                  
> 2025 04 04 08 37 27.9950000  0 10                     
G09  22199486.180   116659083.690       -2483.759          37.000    22199500.018    90903630.508       -1935.187          37.000  
G20  19043507.100   100074329.685       -1302.742          40.000                                                                  
G05  20956389.247   110126571.699        1021.354          43.000    20956394.198    85812931.564         795.693          39.000  
G11  20378181.330   107088094.292       -1792.936          45.000    20378180.018    83445247.878       -1397.255          40.000  
G06  20892931.091   109793097.763       -2796.082          42.000    20892933.655    85553073.526       -2178.954          38.000  
G17  21543464.694   113211640.158       -3446.312          41.000    21543471.834    88216923.722       -2685.036          36.000  
G12  20713140.192   108848310.736        -469.897          45.000    20713143.141    84816863.316        -365.939          36.000  
G13  23578391.735   123905269.613        1138.468          37.000                                                                  
G22  22001470.845   115618505.414       -4906.086          42.000                                                                  
G19  19497275.263   102458824.976       -2614.918          44.000                                                                  
> 2025 04 04 08 37 28.9950000  0 10                     
G09  22199958.694   116661566.889       -2483.374          39.000    22199972.500    90905565.464       -1935.162          37.000  
G20  19043755.030   100075632.397       -1302.647          40.000                                                                  
G05  20956194.953   110125550.467        1021.055          43.000    20956199.883    85812135.777         796.028          39.000  
G11  20378522.545   107089887.390       -1793.077          46.000    20378521.243    83446645.109       -1397.269          40.000  
G06  20893463.133   109795893.737       -2796.166          42.000    20893465.738    85555252.205       -2178.481          38.000  
G17  21544120.555   113215086.410       -3446.209          42.000    21544127.625    88219609.148       -2685.697          36.000  
G12  20713229.680   108848780.919        -470.351          46.000    20713232.524    84817229.674        -366.365          36.000  
G13  23578174.990   123904130.307        1139.794          37.000                                                                  
G22  22002404.382   115623411.423       -4905.956          43.000                                                                  
G19  19497772.899   102461439.980       -2614.966          43.000                                                                  
> 2025 04 04 08 37 29.9950000  0 10                     
G09  22200431.240   116664050.662       -2484.326          39.000    22200445.079    90907500.866       -1935.547          39.000  
G20  19044003.048   100076935.562       -1303.659          40.000                                                                  
G05  20956000.781   110124529.541        1020.541          43.000    20956005.641    85811340.271         795.399          39.000  
G11  20378863.742   107091680.466       -1793.175          46.000    20378862.401    83448042.318       -1397.406          40.000  
G06  20893995.202   109798689.589       -2795.872          42.000    20893997.889    85557430.793       -2178.699          38.000  
G17  21544776.493   113218532.977       -3447.204          42.000    21544783.529    88222294.777       -2685.945          36.000  
G12  20713319.289   108849251.650        -471.151          46.000    20713322.085    84817596.470        -366.858          36.000  
G13  23577958.294   123902990.639        1139.225          37.000                                                                  
G22  22003338.042   115628317.489       -4906.424          42.000                                                                  
G19  19498270.534   102464055.416       -2615.870          43.000                                                                  
> 2025 04 04 08 37 30.9950000  0 10                     
G09  22200903.952   116666534.995       -2485.004          40.000    22200917.841    90909436.718       -1936.194          39.000  
G20  19044251.058   100078239.232       -1303.956          40.000                                                                  
G05  20955806.688   110123509.061        1020.341          43.000    20955811.412    85810545.096         795.079          39.000  
G11  20379205.009   107093473.643       -1793.401          45.000    20379203.723    83449439.574       -1397.301          40.000  
G06  20894527.199   109801485.480       -2795.703          42.000    20894529.933    85559609.391       -2178.353          37.000  
G17  21545432.434   113221979.905       -3446.960          42.000    21545439.409    88224980.694       -2686.067          36.000  
G12  20713408.987   108849723.047        -471.695          46.000    20713411.866    84817963.824        -367.940          35.000  
G13  23577741.369   123901850.723        1140.068          37.000                                                                  
G22  22004271.686   115633223.651       -4906.035          42.000                                                                  
G19  19498768.405   102466671.315       -2616.401          43.000                                                                  
> 2025 04 04 08 37 31.9950000  0 10                     
G09  22201376.807   116669019.841       -2485.474          40.000    22201390.666    90911372.962       -1936.401          39.000  
G20  19044499.270   100079543.411       -1304.470          40.000                                                                  
G05  20955612.637   110122488.973        1019.745          43.000    20955617.215    85809750.227         794.305          39.000  
G11  20379546.168   107095266.840       -1793.175          46.000    20379545.123    83450836.895       -1397.464          40.000  
G06  20895059.310   109804281.329       -2796.090          42.000    20895061.955    85561787.947       -2177.876          38.000  
G17  21546088.514   113225427.187       -3447.542          42.000    21546095.466    88227666.894       -2686.397          36.000  
G12  20713498.842   108850195.059        -472.661          46.000    20713501.694    84818331.615        -368.184          35.000  
G13  23577524.592   123900710.538        1140.040          36.000                                                                  
G22  22005205.331   115638129.941       -4906.459          41.000                                                                  
G19  19499266.227   102469287.674       -2616.678          44.000                                                                  
> 2025 04 04 08 37 32.9950000  0 10                     
G09  22201849.700   116671504.875       -2484.937          39.000    22201863.512    90913309.372       -1936.499          39.000  
G20  19044747.583   100080847.743       -1304.562          40.000                                                                  
G05  20955418.589   110121468.946        1019.911          43.000    20955423.098    85808955.398         794.843          39.000  
G11  20379887.328   107097059.775       -1792.733          46.000    20379886.316    83452233.958       -1396.685          40.000  
G06  20895591.326   109807076.801       -2795.339          42.000    20895593.961    85563966.270       -2178.056          38.000  
G17  21546744.499   113228874.494       -3447.644          42.000    21546751.394    88230353.043       -2685.874          36.000  
G12  20713588.674   108850667.320        -472.469          46.000    20713591.545    84818699.641        -368.510          35.000  
G13  23577307.465   123899569.713        1141.124          33.000                                                                  
G22  22006138.921   115643036.002       -4906.075          40.000                                                                  
G19  19499764.102   102471904.102       -2616.218          44.000                                                                  
> 2025 04 04 08 37 33.9950000  0 10                     
G09  22202322.658   116673990.110       -2484.985          40.000    22202336.386    90915245.910       -1936.639          39.000  
G20  19044995.793   100082152.211       -1304.850          40.000                                                                  
G05  20955224.447   110120448.924        1019.873          43.000    20955228.873    85808160.599         794.584          39.000  
G11  20380228.434   107098852.415       -1792.776          46.000    20380227.445    83453630.828       -1396.974          40.000  
G06  20896123.288   109809871.857       -2794.816          42.000    20896125.868    85566144.233       -2178.178          38.000  
G17  21547400.583   113232321.740       -3447.353          41.000    21547407.364    88233039.256       -2686.404          36.000  
G12  20713678.642   108851139.872        -472.724          46.000    20713681.376    84819067.832        -367.914          35.000  
G13  23577090.297   123898428.254        1141.503          34.000                                                                  
G22  22007072.497   115647941.782       -4905.938          42.000                                                                  
G19  19500261.900   102474520.642       -2616.585          44.000                                                                  
> 2025 04 04 08 37 34.9950000  0 10                     
G09  22202795.644   116676475.605       -2485.443          40.000    22202809.297    90917182.670       -1936.951          39.000  
G20  19045244.077   100083456.877       -1304.730          40.000                                                                  
G05  20955030.541   110119429.043        1019.777          43.000    20955034.796    85807365.879         794.793          39.000  
G11  20380569.576   107100644.793       -1792.411          46.000    20380568.471    83455027.485       -1396.568          40.000  
G06  20896655.100   109812666.627       -2794.531          42.000    20896657.641    85568321.992       -2177.921          38.000  
G17  21548056.528   113235769.073       -3447.569          41.000    21548063.334    88235725.430       -2685.567          36.000  
G12  20713768.670   108851612.760        -473.099          46.000    20713771.424    84819436.333        -368.900          35.000  
G13  23576872.894   123897286.220        1142.577          35.000                                                                  
G22  22008005.989   115652847.401       -4905.585          41.000                                                                  
G19  19500759.868   102477137.373       -2617.188          44.000                                                                  
> 2025 04 04 08 37 35.9950000  0 10                     
G09  22203268.650   116678961.526       -2486.066          39.000    22203282.245    90919119.746       -1937.122          39.000  
G20  19045492.402   100084761.930       -1305.232          40.000                                                                  
G05  20954836.621   110118409.425        1019.429          43.000    20954840.838    85806571.371         794.577          39.000  
G11  20380910.764   107102437.123       -1792.286          46.000    20380909.581    83456424.110       -1396.725          40.000  
G06  20897186.942   109815461.220       -2794.624          42.000    20897189.528    85570499.577       -2177.655          38.000  
G17  21548712.443   113239216.625       -3447.764          42.000    21548719.402    88238411.868       -2686.290          37.000  
G12  20713858.834   108852086.140        -473.668          46.000    20713861.532    84819805.181        -368.978          35.000  
G13  23576655.443   123896143.853        1142.756          36.000                                                                  
G22  22008939.430   115657752.960       -4905.568          42.000                                                                  
G19  19501257.798   102479754.388       -2617.222          44.000                                                                  
> 2025 04 04 08 37 36.9950000  0 10                     
G09  22203741.841   116681447.844       -2486.871          40.000    22203755.276    90921057.114       -1937.677          39.000  
G20  19045740.771   100086067.350       -1305.559          40.000                                                                  
G05  20954642.682   110117390.079        1019.249          43.000    20954646.853    85805777.089         794.161          39.000  
G11  20381251.815   107104229.387       -1792.321          45.000    20381250.656    83457820.668       -1396.410          40.000  
G06  20897718.732   109818255.671       -2794.739          42.000    20897721.300    85572677.061       -2177.467          38.000  
G17  21549368.505   113242664.369       -3448.051          42.000    21549375.523    88241098.462       -2687.256          36.000  
G12  20713948.972   108852560.008        -474.190          46.000    20713951.672    84820174.459        -370.061          35.000  
G13  23576437.950   123895001.069        1142.735          37.000                                                                  
G22  22009872.899   115662658.515       -4905.684          42.000                                                                  
G19  19501755.880   102482371.731       -2617.661          44.000                                                                  
> 2025 04 04 08 37 37.9950000  0 10                     
G09  22204215.127   116683934.812       -2487.592          39.000    22204228.435    90922995.022       -1938.300          39.000  
G20  19045989.354   100087373.366       -1306.165          40.000                                                                  
G05  20954448.759   110116371.223        1018.607          43.000    20954452.905    85804983.167         793.734          39.000  
G11  20381592.938   107106021.797       -1792.500          45.000    20381591.677    83459217.382       -1397.262          40.000  
G06  20898250.613   109821050.199       -2794.461          42.000    20898253.137    85574854.601       -2177.460          38.000  
G17  21550024.742   113246112.587       -3448.280          41.000    21550031.770    88243785.357       -2686.759          36.000  
G12  20714039.307   108853034.596        -475.022          46.000    20714042.002    84820544.236        -369.993          35.000  
G13  23576220.478   123893858.030        1143.710          37.000                                                                  
G22  22010806.512   115667564.355       -4905.886          43.000                                                                  
G19  19502253.971   102484989.612       -2617.924          44.000                                                                  
> 2025 04 04 08 37 38.9950000  0 10                     
G09  22204688.454   116686422.167       -2487.659          39.000    22204701.767    90924933.272       -1938.757          39.000  
G20  19046237.993   100088679.783       -1306.486          40.000                                                                  
G05  20954254.983   110115352.669        1018.323          43.000    20954259.014    85804189.498         793.693          39.000  
G11  20381933.989   107107814.143       -1792.168          45.000    20381932.758    83460613.980       -1396.223          40.000  
G06  20898782.340   109823844.571       -2794.472          42.000    20898784.980    85577032.036       -2177.337          38.000  
G17  21550680.971   113249561.029       -3448.615          42.000    21550687.962    88246472.451       -2687.095          36.000  
G12  20714129.757   108853509.698        -475.202          46.000    20714132.462    84820914.441        -369.926          35.000  
G13  23576003.003   123892714.683        1143.136          37.000                                                                  
G22  22011740.197   115672470.111       -4905.443          43.000                                                                  
G19  19502752.188   102487607.865       -2618.689          43.000                                                                  
> 2025 04 04 08 37 39.9950000  0 10                     
G09  22205161.900   116688909.802       -2488.080          39.000    22205175.105    90926871.642       -1938.306          39.000  
G20  19046486.547   100089986.352       -1306.598          40.000                                                                  
G05  20954061.165   110114334.168        1018.264          43.000    20954065.219    85803395.870         793.779          39.000  
G11  20382275.095   107109606.226       -1791.999          45.000    20382273.744    83462010.407       -1396.125          40.000  
G06  20899314.078   109826638.572       -2793.750          42.000    20899316.702    85579209.171       -2176.475          38.000  
G17  21551337.049   113253009.479       -3448.494          42.000    21551344.263    88249159.557       -2686.862          36.000  
G12  20714220.273   108853985.089        -475.433          46.000    20714222.888    84821284.905        -370.525          35.000  
G13  23575785.352   123891570.717        1143.634          37.000                                                                  
G22  22012673.692   115677375.673       -4905.358          43.000                                                                  
G19  19503250.471   102490226.222       -2618.704          43.000                                                                  
> 2025 04 04 08 37 40.9950000  0 10                     
G09  22205635.299   116691397.583       -2488.147          39.000    22205648.650    90928810.209       -1938.770          39.000  
G20  19046735.222   100091293.118       -1307.125          40.000                                                                  
G05  20953867.348   110113315.758        1018.215          43.000    20953871.440    85802602.340         793.011          39.000  
G11  20382616.170   107111398.036       -1791.844          45.000    20382614.535    83463406.627       -1396.091          40.000  
G06  20899845.644   109829432.216       -2793.527          42.000    20899848.312    85581386.057       -2176.562          38.000  
G17  21551993.336   113256457.952       -3448.600          41.000    21552000.445    88251846.685       -2687.189          36.000  
G12  20714310.875   108854460.783        -476.071          46.000    20714313.334    84821655.549        -370.947          35.000  
G13  23575567.429   123890426.132        1144.627          37.000                                                                  
G22  22013607.203   115682281.016       -4905.396          43.000                                                                  
G19  19503748.742   102492844.704       -2618.710          43.000                                                                  
> 2025 04 04 08 37 41.9950000  0 10                     
G09  22206108.755   116693885.703       -2488.446          40.000    22206122.090    90930749.001       -1938.745          39.000  
G20  19046983.983   100092600.150       -1307.444          40.000                                                                  
G05  20953673.606   110112297.561        1018.001          43.000    20953677.710    85801808.888         793.721          38.000  
G11  20382957.118   107113189.684       -1791.725          45.000    20382955.431    83464802.727       -1395.769          40.000  
G06  20900377.252   109832225.641       -2793.247          42.000    20900379.863    85583562.764       -2176.839          38.000  
G17  21552649.519   113259906.579       -3448.622          41.000    21552656.632    88254533.936       -2687.711          36.000  
G12  20714401.541   108854936.896        -476.587          46.000    20714403.883    84822026.535        -370.860          35.000  
G13  23575349.408   123889281.065        1145.331          38.000                                                                  
G22  22014540.715   115687186.227       -4905.361          43.000                                                                  
G19  19504247.071   102495463.416       -2618.615          43.000                                                                  
> 2025 04 04 08 37 42.9950000  0 10                     
G09  22206582.324   116696374.304       -2488.910          40.000    22206595.678    90932688.163       -1939.551          39.000  
G20  19047232.739   100093907.578       -1307.557          40.000                                                                  
G05  20953479.861   110111279.640        1017.772          43.000    20953483.989    85801015.716         793.310          39.000  
G11  20383297.988   107114981.286       -1791.426          45.000    20383296.449    83466198.787       -1396.009          40.000  
G06  20900908.806   109835018.944       -2792.838          42.000    20900911.328    85585739.341       -2176.657          38.000  
G17  21553305.686   113263355.445       -3448.836          42.000    21553312.948    88257221.336       -2687.458          36.000  
G12  20714492.336   108855413.506        -476.853          46.000    20714494.495    84822397.887        -370.980          35.000  
G13  23575131.404   123888135.592        1145.674          38.000                                                                  
G22  22015474.187   115692091.446       -4905.097          43.000                                                                  
G19  19504745.530   102498082.502       -2619.378          43.000                                                                  
> 2025 04 04 08 37 43.9950000  0 10                     
G09  22207056.031   116698863.405       -2489.313          40.000    22207069.386    90934627.712       -1939.746          39.000  
G20  19047481.663   100095215.481       -1308.088          40.000                                                                  
G05  20953286.242   110110262.096        1017.384          43.000    20953290.367    85800222.845         792.815          39.000  
G11  20383639.028   107116772.951       -1791.704          45.000    20383637.426    83467594.876       -1396.206          40.000  
G06  20901440.349   109837812.173       -2793.210          42.000    20901442.956    85587915.877       -2176.399          38.000  
G17  21553962.064   113266804.628       -3449.229          42.000    21553969.281    88259909.012       -2687.546          36.000  
G12  20714583.195   108855890.723        -477.260          46.000    20714585.376    84822769.794        -372.274          35.000  
G13  23574913.464   123886989.878        1145.834          38.000                                                                  
G22  22016407.736   115696996.769       -4905.167          43.000                                                                  
G19  19505244.028   102500701.989       -2619.602          43.000                                                                  
> 2025 04 04 08 37 44.9950000  0 10                     
G09  22207529.706   116701353.017       -2490.112          40.000    22207543.162    90936567.675       -1940.094          39.000  
G20  19047730.628   100096523.897       -1308.705          40.000                                                                  
G05  20953092.768   110109244.943        1016.850          43.000    20953096.920    85799430.267         792.528          39.000  
G11  20383979.865   107118564.625       -1791.751          45.000    20383978.302    83468990.981       -1396.073          40.000  
G06  20901971.944   109840605.355       -2793.366          42.000    20901974.498    85590092.367       -2176.280          38.000  
G17  21554618.482   113270254.142       -3449.625          42.000    21554625.646    88262596.931       -2687.840          36.000  
G12  20714674.200   108856368.559        -478.309          46.000    20714676.321    84823142.126        -372.852          35.000  
G13  23574695.411   123885843.820        1146.105          38.000                                                                  
G22  22017341.121   115701902.173       -4905.680          43.000                                                                  
G19  19505742.756   102503321.944       -2620.406          43.000                                                                  
> 2025 04 04 08 37 45.9950000  0 10                     
G09  22208003.536   116703843.105       -2490.363          39.000    22208016.989    90938508.016       -1940.576          39.000  
G20  19047979.686   100097832.711       -1309.034          40.000                                                                  
G05  20952899.332   110108228.083        1016.651          43.000    20952903.332    85798637.919         792.323          39.000  
G11  20384320.859   107120356.281       -1791.783          45.000    20384319.208    83470387.083       -1396.134          40.000  
G06  20902503.476   109843398.431       -2792.663          42.000    20902506.067    85592268.781       -2176.201          38.000  
G17  21555274.850   113273703.928       -3450.217          42.000    21555282.146    88265285.100       -2688.532          36.000  
G12  20714765.239   108856846.916        -478.581          46.000    20714767.291    84823514.862        -373.009          35.000  
G13  23574477.173   123884697.407        1146.576          37.000                                                                  
G22  22018274.591   115706807.572       -4905.415          43.000                                                                  
G19  19506241.481   102505942.218       -2620.414          43.000                                                                  
> 2025 04 04 08 37 46.9950000  0 10                     
G09  22208477.447   116706333.706       -2490.814          39.000    22208490.802    90940448.739       -1940.918          39.000  
G20  19048228.838   100099142.013       -1309.795          39.000                                                                  
G05  20952705.838   110107211.634        1016.316          43.000    20952709.796    85797845.885         791.668          39.000  
G11  20384661.699   107122147.974       -1791.684          45.000    20384660.231    83471783.223       -1396.146          40.000  
G06  20903035.006   109846191.453       -2792.608          42.000    20903037.599    85594445.177       -2176.238          38.000  
G17  21555931.207   113277154.028       -3450.240          42.000    21555938.580    88267973.453       -2688.270          36.000  
G12  20714856.344   108857325.898        -479.225          46.000    20714858.344    84823888.103        -374.046          36.000  
G13  23574259.020   123883550.719        1146.893          37.000                                                                  
G22  22019208.217   115711713.081       -4905.395          43.000                                                                  
G19  19506740.324   102508562.975       -2620.917          43.000                                                                  
> 2025 04 04 08 37 47.9950000  0 10                     
G09  22208951.431   116708824.611       -2491.010          39.000    22208964.954    90942389.731       -1941.479          39.000  
G20  19048478.076   100100451.560       -1309.583          39.000                                                                  
G05  20952512.501   110106195.342        1016.268          43.000    20952516.449    85797053.975         791.968          39.000  
G11  20385002.625   107123939.505       -1791.418          45.000    20385001.071    83473179.215       -1395.727          40.000  
G06  20903566.445   109848984.228       -2792.421          42.000    20903569.044    85596621.343       -2175.937          38.000  
G17  21556587.678   113280604.278       -3450.438          41.000    21556595.186    88270661.972       -2689.163          36.000  
G12  20714947.572   108857805.268        -479.479          46.000    20714949.619    84824261.618        -373.316          35.000  
G13  23574040.651   123882403.543        1147.622          37.000                                                                  
G22  22020141.609   115716618.472       -4905.210          43.000                                                                  
G19  19507239.046   102511183.934       -2621.206          43.000                                                                  
> 2025 04 04 08 37 48.9950000  0 10                     
G09  22209425.470   116711315.985       -2491.364          39.000    22209439.006    90944331.027       -1941.461          39.000  
G20  19048727.287   100101761.525       -1310.096          39.000                                                                  
G05  20952319.239   110105179.337        1016.024          43.000    20952323.042    85796262.272         791.810          39.000  
G11  20385343.479   107125730.978       -1791.415          45.000    20385341.960    83474575.173       -1395.936          40.000  
G06  20904097.846   109851776.882       -2792.725          42.000    20904100.551    85598797.406       -2175.871          38.000  
G17  21557244.299   113284054.737       -3450.281          41.000    21557251.808    88273350.638       -2688.779          36.000  
G12  20715038.833   108858285.160        -480.026          46.000    20715040.889    84824635.551        -374.241          36.000  
G13  23573822.132   123881255.950        1148.149          37.000                                                                  
G22  22021075.172   115721523.856       -4905.372          44.000                                                                  
G19  19507737.782   102513805.206       -2621.286          42.000                                                                  
> 2025 04 04 08 37 49.9950000  0 10                     
G09  22209899.593   116713807.522       -2491.791          39.000    22209913.276    90946272.507       -1941.730          38.000  
G20  19048976.574   100103071.647       -1310.167          39.000                                                                  
G05  20952125.926   110104163.404        1015.807          43.000    20952129.761    85795470.653         791.660          39.000  
G11  20385684.263   107127522.190       -1791.298          45.000    20385682.861    83475970.916       -1395.986          40.000  
G06  20904629.101   109854569.136       -2792.036          42.000    20904631.891    85600973.220       -2176.033          38.000  
G17  21557900.964   113287505.228       -3450.756          42.000    21557908.392    88276039.329       -2688.871          36.000  
G12  20715130.185   108858765.339        -480.503          46.000    20715132.288    84825009.717        -374.317          36.000  
G13  23573603.695   123880107.777        1148.553          37.000                                                                  
G22  22022008.635   115726429.016       -4905.139          44.000                                                                  
G19  19508236.599   102516426.641       -2621.904          42.000                                                                  
> 2025 04 04 08 37 50.9950000  0 10                     
G09  22210373.805   116716299.565       -2492.383          39.000    22210387.483    90948214.370       -1941.998          39.000  
G20  19049225.918   100104382.219       -1310.810          39.000                                                                  
G05  20951932.705   110103147.823        1015.298          43.000    20951936.407    85794679.293         791.208          39.000  
G11  20386025.152   107129313.391       -1791.317          45.000    20386023.718    83477366.673       -1396.258          40.000  
G06  20905160.507   109857361.340       -2792.122          42.000    20905163.269    85603148.946       -2175.983          38.000  
G17  21558557.643   113290956.018       -3451.115          42.000    21558564.997    88278728.250       -2689.176          36.000  
G12  20715221.748   108859246.090        -481.290          46.000    20715223.770    84825384.320        -374.960          36.000  
G13  23573385.192   123878959.282        1148.471          37.000                                                                  
G22  22022942.149   115731334.214       -4905.200          44.000                                                                  
G19  19508735.458   102519048.452       -2622.593          42.000                                                                  
> 2025 04 04 08 37 51.9950000  0 10                     
G09  22210848.093   116718792.051       -2492.859          39.000    22210861.806    90950156.555       -1942.420          39.000  
G20  19049475.261   100105693.167       -1311.330          39.000                                                                  
G05  20951739.432   110102132.503        1015.057          43.000    20951743.213    85793888.156         790.763          39.000  
G11  20386366.050   107131104.526       -1791.271          45.000    20386364.477    83478762.353       -1395.925          40.000  
G06  20905691.920   109860153.367       -2791.972          42.000    20905694.648    85605324.554       -2175.460          38.000  
G17  21559214.354   113294407.015       -3451.312          42.000    21559221.785    88281417.320       -2688.949          36.000  
G12  20715313.283   108859727.337        -481.776          46.000    20715315.313    84825759.337        -375.313          36.000  
G13  23573166.394   123877810.378        1148.959          36.000                                                                  
G22  22023875.634   115736239.403       -4905.331          44.000                                                                  
G19  19509234.535   102521670.577       -2622.554          43.000                                                                  
> 2025 04 04 08 37 52.9950000  0 10                     
G09  22211322.442   116721284.756       -2492.987          39.000    22211336.216    90952098.917       -1942.548          38.000  
G20  19049724.673   100107004.318       -1311.509          39.000                                                                  
G05  20951546.185   110101117.307        1015.060          43.000    20951549.946    85793097.096         791.108          39.000  
G11  20386706.787   107132895.434       -1790.845          46.000    20386705.309    83480157.848       -1395.330          40.000  
G06  20906223.136   109862945.073       -2791.563          42.000    20906225.949    85607499.905       -2175.302          38.000  
G17  21559871.086   113297858.066       -3451.039          42.000    21559878.445    88284106.437       -2688.963          36.000  
G12  20715405.052   108860208.905        -481.684          46.000    20715406.951    84826134.567        -375.215          35.000  
G13  23572947.749   123876660.906        1149.608          37.000                                                                  
G22  22024809.065   115741144.395       -4904.704          44.000                                                                  
G19  19509733.566   102524292.884       -2622.467          42.000                                                                  
> 2025 04 04 08 37 53.9950000  0 10                     
G09  22211796.665   116723777.470       -2492.816          39.000    22211810.672    90954041.321       -1942.822          39.000  
G20  19049974.126   100108315.433       -1311.609          39.000                                                                  
G05  20951352.822   110100101.957        1015.312          43.000    20951356.706    85792305.917         791.265          39.000  
G11  20387047.452   107134685.841       -1790.265          45.000    20387046.017    83481552.979       -1395.206          40.000  
G06  20906754.233   109865736.211       -2791.040          42.000    20906757.183    85609674.799       -2174.872          38.000  
G17  21560527.802   113301308.916       -3450.694          42.000    21560535.126    88286795.420       -2689.133          36.000  
G12  20715496.654   108860690.571        -481.771          46.000    20715498.659    84826509.887        -375.069          36.000  
G13  23572728.858   123875510.626        1150.293          37.000                                                                  
G22  22025742.362   115746048.965       -4904.507          44.000                                                                  
G19  19510232.619   102526915.094       -2622.516          43.000                                                                  
> 2025 04 04 08 37 54.9950000  0 10                     
G09  22212270.979   116726270.208       -2493.054          39.000    22212285.056    90955983.716       -1942.694          39.000  
G20  19050223.584   100109626.516       -1311.305          39.000                                                                  
G05  20951159.529   110099086.486        1015.481          43.000    20951163.472    85791514.652         791.278          39.000  
G11  20387388.128   107136475.795       -1789.754          45.000    20387386.574    83482947.758       -1394.641          40.000  
G06  20907285.068   109868526.827       -2790.511          42.000    20907288.275    85611849.309       -2174.277          38.000  
G17  21561184.460   113304759.585       -3450.557          42.000    21561191.748    88289484.279       -2689.073          36.000  
G12  20715588.379   108861172.345        -482.009          46.000    20715590.325    84826885.303        -375.501          35.000  
G13  23572509.753   123874359.537        1151.167          37.000                                                                  
G22  22026675.750   115750953.114       -4903.857          44.000                                                                  
G19  19510731.604   102529537.229       -2622.421          43.000                                                                  
> 2025 04 04 08 37 55.9950000  0 10                     
G09  22212745.406   116728762.977       -2492.975          39.000    22212759.425    90957926.135       -1942.944          39.000  
G20  19050472.959   100110937.571       -1311.157          39.000                                                                  
G05  20950966.225   110098070.886        1015.742          44.000    20950970.229    85790723.279         791.431          39.000  
G11  20387728.638   107138265.270       -1789.341          45.000    20387726.984    83484342.157       -1394.208          40.000  
G06  20907815.996   109871316.867       -2790.166          42.000    20907819.195    85614023.351       -2173.789          38.000  
G17  21561841.179   113308210.110       -3450.442          41.000    21561848.354    88292172.984       -2689.064          36.000  
G12  20715679.955   108861654.186        -482.022          46.000    20715681.986    84827260.750        -374.994          35.000  
G13  23572290.524   123873207.672        1152.031          37.000                                                                  
G22  22027608.895   115755856.838       -4903.416          44.000                                                                  
G19  19511230.597   102532159.278       -2622.277          43.000                                                                  
> 2025 04 04 08 37 56.9950000  0 10                     
G09  22213219.875   116731256.029       -2493.494          40.000    22213233.877    90959868.779       -1942.786          39.000  
G20  19050722.377   100112248.920       -1311.554          39.000                                                                  
G05  20950772.883   110097055.511        1015.165          44.000    20950776.978    85789932.072         791.158          39.000  
G11  20388069.100   107140054.595       -1789.325          45.000    20388067.536    83485736.428       -1394.395          40.000  
G06  20908346.923   109874106.658       -2789.767          42.000    20908350.129    85616197.228       -2174.042          38.000  
G17  21562497.776   113311660.728       -3450.723          41.000    21562504.973    88294861.790       -2688.730          35.000  
G12  20715771.677   108862136.471        -482.637          46.000    20715773.794    84827636.587        -376.243          35.000  
G13  23572071.242   123872055.308        1152.065          37.000                                                                  
G22  22028542.034   115760760.452       -4903.680          43.000                                                                  
G19  19511729.570   102534781.599       -2622.980          42.000                                                                  
> 2025 04 04 08 37 57.9950000  0 10                     
G09  22213694.302   116733749.567       -2493.658          39.000    22213708.309    90961811.785       -1942.932          39.000  
G20  19050971.921   100113560.660       -1311.503          39.000                                                                  
G05  20950579.637   110096040.412        1015.172          44.000    20950583.788    85789141.103         791.250          39.000  
G11  20388409.618   107141843.879       -1789.018          45.000    20388408.041    83487130.687       -1393.919          40.000  
G06  20908877.767   109876896.312       -2789.230          42.000    20908880.990    85618370.982       -2173.215          38.000  
G17  21563154.466   113315111.610       -3450.904          41.000    21563161.701    88297550.824       -2688.804          35.000  
G12  20715863.570   108862619.268        -482.880          46.000    20715865.683    84828012.776        -376.507          35.000  
G13  23571851.936   123870902.540        1153.107          37.000                                                                  
G22  22029475.227   115765664.057       -4903.241          44.000                                                                  
G19  19512228.569   102537404.240       -2622.547          42.000                                                                  
> 2025 04 04 08 37 58.9950000  0 10                     
G09  22214168.736   116736242.848       -2493.530          39.000    22214182.721    90963754.616       -1942.993          39.000  
G20  19051221.452   100114872.121       -1311.124          39.000                                                                  
G05  20950386.404   110095024.915        1015.865          43.000    20950390.454    85788349.815         791.664          39.000  
G11  20388750.007   107143632.433       -1787.993          45.000    20388748.356    83488524.369       -1393.545          40.000  
G06  20909408.421   109879685.168       -2788.195          42.000    20909411.685    85620544.107       -2172.389          38.000  
G17  21563811.133   113318562.062       -3450.175          41.000    21563818.287    88300239.460       -2688.457          35.000  
G12  20715955.377   108863101.911        -482.435          46.000    20715957.449    84828388.871        -376.335          34.000  
G13  23571632.152   123869748.737        1154.552          37.000                                                                  
G22  22030408.191   115770567.024       -4902.501          44.000                                                                  
G19  19512727.389   102540026.573       -2622.112          42.000                                                                  
> 2025 04 04 08 37 59.9950000  0 10                     
G09  22214643.133   116738735.937       -2493.066          38.000    22214657.094    90965697.280       -1942.774          39.000  
G20  19051470.979   100116183.397       -1311.235          39.000                                                                  
G05  20950193.137   110094009.123        1015.813          43.000    20950197.131    85787558.300         791.669          39.000  
G11  20389090.202   107145420.326       -1787.916          45.000    20389088.575    83489917.527       -1393.138          40.000  
G06  20909939.036   109882473.281       -2787.787          42.000    20909942.181    85622716.665       -2172.295          38.000  
G17  21564467.739   113322012.143       -3450.027          42.000    21564474.858    88302927.810       -2688.130          35.000  
G12  20716047.120   108863584.470        -482.671          46.000    20716049.390    84828764.858        -375.647          35.000  
G13  23571412.513   123868593.968        1154.575          38.000                                                                  
G22  22031341.055   115775469.349       -4902.296          44.000                                                                  
G19  19513226.420   102542648.631       -2621.827          42.000                                                                  
> 2025 04 04 08 38 00.9950000  0 10                     
G09  22215117.573   116741229.023       -2493.036          39.000    22215131.391    90967639.949       -1943.079          39.000  
G20  19051720.424   100117494.565       -1311.362          39.000                                                                  
G05  20949999.819   110092993.157        1016.233          43.000    20950003.672    85786766.636         791.707          39.000  
G11  20389430.230   107147207.698       -1787.073          45.000    20389428.708    83491310.303       -1392.723          39.000  
G06  20910469.402   109885260.786       -2787.165          42.000    20910472.694    85624888.746       -2171.677          39.000  
G17  21565124.226   113325461.988       -3449.708          42.000    21565131.331    88305616.024       -2688.363          35.000  
G12  20716138.872   108864067.058        -482.587          46.000    20716141.309    84829140.931        -376.112          35.000  
G13  23571192.471   123867438.286        1156.460          38.000                                                                  
G22  22032273.825   115780371.204       -4901.453          44.000                                                                  
G19  19513725.335   102545270.560       -2621.775          42.000                                                                  
> 2025 04 04 08 38 01.9950000  0 10                     
G09  22215591.899   116743721.945       -2493.176          39.000    22215605.669    90969582.494       -1942.877          39.000  
G20  19051969.843   100118805.550       -1311.251          38.000                                                                  
G05  20949806.347   110091976.920        1016.182          43.000    20949810.232    85785974.755         791.935          39.000  
G11  20389770.246   107148994.454       -1786.646          45.000    20389768.665    83492702.554       -1391.998          39.000  
G06  20910999.576   109888047.591       -2786.691          42.000    20911003.007    85627060.269       -2171.219          38.000  
G17  21565780.661   113328911.514       -3449.793          42.000    21565787.700    88308303.945       -2687.942          35.000  
G12  20716230.779   108864549.586        -482.778          46.000    20716233.127    84829516.923        -376.356          35.000  
G13  23570972.386   123866281.707        1156.818          37.000                                                                  
G22  22033206.498   115785272.488       -4901.092          44.000                                                                  
G19  19514224.197   102547892.268       -2622.203          43.000                                                                  
> 2025 04 04 08 38 02.9950000  0 10                     
G09  22216066.157   116746214.467       -2492.334          40.000    22216079.982    90971524.706       -1941.797          39.000  
G20  19052219.198   100120116.071       -1310.229          39.000                                                                  
G05  20949612.909   110090960.098        1017.102          43.000    20949616.802    85785182.450         792.585          40.000  
G11  20390110.032   107150780.311       -1785.269          45.000    20390108.380    83494094.137       -1391.183          40.000  
G06  20911529.643   109890833.415       -2785.214          42.000    20911533.184    85629231.044       -2170.469          39.000  
G17  21566436.949   113332360.413       -3448.509          42.000    21566444.017    88310991.413       -2687.315          35.000  
G12  20716322.529   108865031.790        -481.772          46.000    20716324.843    84829892.660        -376.083          36.000  
G13  23570752.037   123865123.869        1158.646          37.000                                                                  
G22  22034138.924   115790172.941       -4899.982          43.000                                                                  
G19  19514722.963   102550513.486       -2621.103          42.000                                                                  
> 2025 04 04 08 38 03.9950000  0 10                     
G09  22216540.292   116748706.520       -2492.090          39.000    22216554.132    90973466.578       -1941.833          39.000  
G20  19052468.414   100121426.067       -1309.470          39.000                                                                  
G05  20949419.279   110089942.688        1017.599          43.000    20949423.249    85784389.663         792.827          39.000  
G11  20390449.621   107152565.215       -1784.602          45.000    20390448.007    83495484.979       -1390.668          40.000  
G06  20912059.559   109893618.166       -2783.956          42.000    20912063.156    85631400.972       -2169.502          38.000  
G17  21567093.124   113335808.661       -3447.855          42.000    21567100.088    88313678.355       -2687.145          35.000  
G12  20716414.204   108865513.606        -481.583          46.000    20716416.496    84830268.087        -375.583          35.000  
G13  23570531.497   123863964.777        1159.243          37.000                                                                  
G22  22035071.282   115795072.458       -4899.072          44.000                                                                  
G19  19515221.536   102553134.127       -2620.585          42.000                                                                  
> 2025 04 04 08 38 04.9950000  0 10                     
G09  22217014.345   116751198.017       -2491.125          39.000    22217028.255    90975408.021       -1941.138          39.000  
G20  19052717.476   100122735.518       -1308.944          39.000                                                                  
G05  20949225.463   110088924.584        1018.593          43.000    20949229.478    85783596.352         793.403          39.000  
G11  20390789.048   107154349.083       -1783.411          45.000    20390787.460    83496875.017       -1389.958          40.000  
G06  20912589.179   109896401.854       -2783.170          42.000    20912592.848    85633570.060       -2168.967          39.000  
G17  21567749.198   113339256.169       -3446.951          42.000    21567756.134    88316364.679       -2685.724          35.000  
G12  20716505.796   108865994.964        -481.097          45.000    20716508.068    84830643.174        -375.015          36.000  
G13  23570310.523   123862804.304        1160.820          37.000                                                                  
G22  22036003.479   115799970.995       -4897.953          44.000                                                                  
G19  19515720.121   102555754.115       -2619.564          42.000                                                                  
> 2025 04 04 08 38 05.9950000  0 10                     
G09  22217488.427   116753689.193       -2491.418          39.000    22217502.224    90977349.183       -1941.064          39.000  
G20  19052966.577   100124044.557       -1308.794          39.000                                                                  
G05  20949031.523   110087906.003        1018.741          44.000    20949035.665    85782802.645         793.888          39.000  
G11  20391128.409   107156132.099       -1782.697          46.000    20391126.783    83498264.375       -1389.348          40.000  
G06  20913118.741   109899184.563       -2782.037          43.000    20913122.356    85635738.422       -2167.980          38.000  
G17  21568405.072   113342703.120       -3446.937          42.000    21568412.079    88319050.614       -2685.665          36.000  
G12  20716597.224   108866476.040        -481.148          45.000    20716599.664    84831018.036        -375.293          36.000  
G13  23570089.488   123861642.644        1162.205          37.000                                                                  
G22  22036935.457   115804868.753       -4897.720          43.000                                                                  
G19  19516218.634   102558373.708       -2619.784          43.000                                                                  
> 2025 04 04 08 38 06.9950000  0 10                     
G09  22217962.374   116756180.184       -2491.028          39.000    22217976.161    90979290.242       -1941.150          39.000  
G20  19053215.615   100125353.421       -1308.957          39.000                                                                  
G05  20948837.583   110086887.128        1019.239          44.000    20948841.834    85782008.716         794.359          40.000  
G11  20391467.638   107157914.529       -1782.155          46.000    20391466.079    83499653.251       -1388.595          39.000  
G06  20913648.200   109901966.606       -2781.549          43.000    20913651.751    85637906.237       -2167.245          38.000  
G17  21569060.892   113346149.756       -3446.633          42.000    21569068.017    88321736.300       -2685.531          36.000  
G12  20716688.598   108866957.058        -481.008          45.000    20716691.230    84831392.831        -374.458          36.000  
G13  23569868.144   123860480.055        1162.974          36.000                                                                  
G22  22037867.327   115809765.930       -4897.178          43.000                                                                  
G19  19516717.093   102560993.044       -2619.562          43.000                                                                  
> 2025 04 04 08 38 07.9950000  0 10                     
G09  22218436.429   116758671.354       -2491.565          39.000    22218450.147    90981231.396       -1941.071          39.000  
G20  19053464.737   100126662.390       -1309.397          40.000                                                                  
G05  20948643.749   110085868.263        1018.680          44.000    20948648.018    85781214.805         793.723          39.000  
G11  20391806.776   107159696.591       -1781.966          45.000    20391805.118    83501041.885       -1388.600          40.000  
G06  20914177.531   109904748.202       -2781.564          43.000    20914181.145    85640073.731       -2167.365          39.000  
G17  21569716.662   113349596.330       -3446.777          42.000    21569723.969    88324421.944       -2685.806          36.000  
G12  20716780.181   108867438.303        -481.520          45.000    20716782.813    84831767.869        -375.661          36.000  
G13  23569646.913   123859316.808        1163.705          36.000                                                                  
G22  22038799.205   115814662.816       -4896.919          43.000                                                                  
G19  19517215.515   102563612.422       -2619.710          43.000                                                                  
> 2025 04 04 08 38 08.9950000  0 10                     
G09  22218910.496   116761162.902       -2491.632          39.000    22218924.244    90983172.863       -1941.748          39.000  
G20  19053713.933   100127971.682       -1309.651          39.000                                                                  
G05  20948450.018   110084849.642        1018.478          43.000    20948454.066    85780421.076         793.739          39.000  
G11  20392145.848   107161478.540       -1781.943          45.000    20392144.288    83502430.413       -1388.219          40.000  
G06  20914706.934   109907529.604       -2781.417          43.000    20914710.521    85642241.034       -2167.112          39.000  
G17  21570372.491   113353043.095       -3446.946          42.000    21570379.914    88327107.771       -2686.003          36.000  
G12  20716871.859   108867920.009        -482.176          45.000    20716874.506    84832143.212        -375.744          36.000  
G13  23569425.647   123858153.084        1163.991          36.000                                                                  
G22  22039731.043   115819559.613       -4896.790          43.000                                                                  
G19  19517714.007   102566232.106       -2620.148          43.000                                                                  
> 2025 04 04 08 38 09.9950000  0 10                     
G09  22219384.726   116763655.040       -2492.456          39.000    22219398.510    90985114.792       -1942.346          39.000  
G20  19053963.224   100129281.529       -1310.424          39.000                                                                  
G05  20948256.159   110083831.464        1018.053          44.000    20948260.329    85779627.707         793.230          39.000  
G11  20392484.969   107163260.598       -1781.918          45.000    20392483.359    83503819.038       -1388.555          40.000  
G06  20915236.166   109910311.027       -2781.573          42.000    20915239.766    85644408.362       -2167.333          38.000  
G17  21571028.494   113356490.210       -3447.285          42.000    21571035.885    88329793.825       -2686.059          36.000  
G12  20716963.600   108868402.395        -482.756          45.000    20716966.253    84832519.079        -375.966          36.000  
G13  23569204.181   123856989.193        1163.715          36.000                                                                  
G22  22040662.825   115824456.601       -4897.232          43.000                                                                  
G19  19518212.576   102568852.278       -2620.458          43.000                                                                  
> 2025 04 04 08 38 10.9950000  0 10                     
G09  22219859.079   116766147.904       -2492.639          39.000    22219872.898    90987057.285       -1942.529          39.000  
G20  19054212.590   100130592.055       -1310.422          39.000                                                                  
G05  20948062.532   110082813.917        1017.679          44.000    20948066.650    85778834.819         792.885          39.000  
G11  20392824.074   107165042.947       -1782.346          46.000    20392822.567    83505207.880       -1388.862          40.000  
G06  20915765.367   109913092.633       -2781.332          42.000    20915769.144    85646575.869       -2167.541          39.000  
G17  21571684.514   113359937.961       -3447.703          42.000    21571691.988    88332480.370       -2686.643          36.000  
G12  20717055.468   108868885.604        -483.493          45.000    20717058.261    84832895.610        -376.756          36.000  
G13  23568982.722   123855825.172        1164.475          36.000                                                                  
G22  22041594.801   115829353.909       -4897.353          43.000                                                                  
G19  19518711.322   102571473.122       -2620.857          43.000                                                                  
> 2025 04 04 08 38 11.9950000  0 10                     
G09  22220333.552   116768641.520       -2493.744          39.000    22220347.317    90989000.377       -1943.365          39.000  
G20  19054462.015   100131903.308       -1311.715          39.000                                                                  
G05  20947868.866   110081796.966        1016.678          44.000    20947873.049    85778042.400         791.906          39.000  
G11  20393163.365   107166825.531       -1782.808          46.000    20393161.845    83506596.893       -1389.122          40.000  
G06  20916294.789   109915874.424       -2781.947          43.000    20916298.514    85648743.472       -2167.726          39.000  
G17  21572340.661   113363386.212       -3448.535          42.000    21572348.119    88335167.327       -2687.539          36.000  
G12  20717147.611   108869369.647        -484.467          45.000    20717150.402    84833272.787        -377.541          36.000  
G13  23568761.111   123854661.141        1163.937          35.000                                                                  
G22  22042526.651   115834251.499       -4897.902          42.000                                                                  
G19  19519210.051   102574094.621       -2621.893          44.000                                                                  
> 2025 04 04 08 38 12.9950000  0 10                     
G09  22220808.145   116771135.717       -2494.031          39.000    22220821.886    90990943.903       -1943.420          39.000  
G20  19054711.654   100133215.102       -1312.141          40.000                                                                  
G05  20947675.396   110080780.454        1016.411          44.000    20947679.635    85777250.320         791.593          39.000  
G11  20393502.550   107168608.207       -1782.673          45.000    20393501.009    83507986.000       -1389.275          40.000  
G06  20916824.048   109918656.192       -2781.798          42.000    20916827.894    85650911.089       -2167.812          39.000  
G17  21572996.894   113366834.842       -3448.792          41.000    21573004.352    88337854.567       -2687.614          36.000  
G12  20717239.803   108869854.341        -484.806          45.000    20717242.534    84833650.459        -377.876          36.000  
G13  23568539.598   123853496.848        1164.284          36.000                                                                  
G22  22043458.593   115839149.221       -4897.791          42.000                                                                  
G19  19519708.956   102576716.607       -2622.373          44.000                                                                  
> 2025 04 04 08 38 13.9950000  0 10                     
G09  22221282.858   116773630.520       -2495.221          39.000    22221296.625    90992887.910       -1944.391          39.000  
G20  19054961.403   100134527.431       -1312.518          40.000                                                                  
G05  20947481.997   110079764.410        1015.833          44.000    20947486.354    85776458.600         791.208          38.000  
G11  20393841.779   107170391.005       -1782.876          45.000    20393840.234    83509375.182       -1389.326          40.000  
G06  20917353.330   109921438.010       -2781.962          42.000    20917357.287    85653078.734       -2167.788          39.000  
G17  21573653.175   113370283.892       -3449.308          41.000    21573660.677    88340542.137       -2688.065          36.000  
G12  20717332.124   108870339.719        -485.660          45.000    20717334.900    84834028.677        -378.735          36.000  
G13  23568317.772   123852332.319        1164.507          36.000                                                                  
G22  22044390.652   115844047.123       -4898.084          42.000                                                                  
G19  19520207.964   102579339.100       -2623.074          44.000                                                                  
> 2025 04 04 08 38 14.9950000  0 10                     
G09  22221757.630   116776125.956       -2495.422          39.000    22221771.567    90994832.404       -1944.623          39.000  
G20  19055211.291   100135840.393       -1313.491          40.000                                                                  
G05  20947288.683   110078748.862        1015.071          43.000    20947293.074    85775667.274         790.560          38.000  
G11  20394181.086   107172173.966       -1783.303          46.000    20394179.603    83510764.513       -1389.377          40.000  
G06  20917882.857   109924219.905       -2781.884          42.000    20917886.687    85655246.443       -2168.173          39.000  
G17  21574309.471   113373733.412       -3450.142          41.000    21574317.106    88343230.046       -2688.171          36.000  
G12  20717424.659   108870825.844        -486.752          45.000    20717427.447    84834407.468        -379.379          36.000  
G13  23568096.146   123851167.638        1164.903          36.000                                                                  
G22  22045322.684   115848945.241       -4898.463          42.000                                                                  
G19  19520707.073   102581962.165       -2623.525          43.000                                                                  
> 2025 04 04 08 38 15.9950000  0 10                     
G09  22222232.648   116778621.998       -2496.173          39.000    22222246.596    90996777.362       -1945.081          38.000  
G20  19055461.302   100137153.891       -1314.073          40.000                                                                  
G05  20947095.560   110077733.747        1014.725          44.000    20947099.890    85774876.265         790.639          38.000  
G11  20394520.426   107173957.012       -1783.099          46.000    20394519.001    83512153.892       -1389.535          40.000  
G06  20918412.302   109927001.794       -2782.097          42.000    20918416.075    85657414.143       -2168.162          39.000  
G17  21574965.960   113377183.278       -3450.172          41.000    21574973.626    88345918.290       -2688.782          37.000  
G12  20717517.261   108871312.596        -487.142          45.000    20717520.009    84834786.773        -379.723          36.000  
G13  23567874.341   123850002.753        1164.945          36.000                                                                  
G22  22046254.849   115853843.468       -4898.384          42.000                                                                  
G19  19521206.299   102584585.679       -2623.647          43.000                                                                  
> 2025 04 04 08 38 16.9950000  0 10                     
G09  22222707.631   116781118.381       -2496.606          39.000    22222721.600    90998722.632       -1945.752          38.000  
G20  19055711.282   100138467.678       -1314.120          40.000                                                                  
G05  20946902.529   110076718.880        1014.564          44.000    20946906.697    85774085.445         790.861          38.000  
G11  20394859.638   107175739.941       -1782.941          45.000    20394858.254    83513543.176       -1389.382          40.000  
G06  20918941.719   109929783.482       -2781.559          42.000    20918945.491    85659581.683       -2167.430          39.000  
G17  21575622.486   113380633.354       -3450.334          41.000    21575630.126    88348606.636       -2688.164          37.000  
G12  20717609.864   108871799.822        -487.696          45.000    20717612.749    84835166.415        -379.886          36.000  
G13  23567652.756   123848837.405        1165.565          36.000                                                                  
G22  22047186.831   115858741.640       -4898.311          42.000                                                                  
G19  19521705.564   102587209.516       -2624.191          44.000                                                                  
> 2025 04 04 08 38 17.9950000  0 10                     
G09  22223182.696   116783614.967       -2497.223          39.000    22223196.717    91000668.032       -1946.234          38.000  
G20  19055961.261   100139781.638       -1314.285          40.000                                                                  
G05  20946709.472   110075704.060        1014.480          44.000    20946713.527    85773294.699         790.373          38.000  
G11  20395198.917   107177522.580       -1782.818          45.000    20395197.419    83514932.237       -1388.977          40.000  
G06  20919470.965   109932564.785       -2780.969          42.000    20919474.737    85661748.921       -2167.240          39.000  
G17  21576278.981   113384083.398       -3449.981          41.000    21576286.613    88351294.986       -2688.465          37.000  
G12  20717702.546   108872287.302        -487.777          45.000    20717705.530    84835546.286        -380.337          35.000  
G13  23567430.811   123847671.445        1165.842          36.000                                                                  
G22  22048118.735   115863639.548       -4898.000          42.000                                                                  
G19  19522204.960   102589833.427       -2624.136          44.000                                                                  
> 2025 04 04 08 38 18.9950000  0 10                     
G09  22223657.756   116786111.552       -2496.851          38.000    22223671.704    91002613.400       -1945.636          38.000  
G20  19056211.300   100141095.542       -1313.967          40.000                                                                  
G05  20946516.200   110074689.070        1015.156          44.000    20946520.321    85772503.821         790.803          39.000  
G11  20395538.054   107179304.728       -1782.097          45.000    20395536.615    83516320.921       -1388.451          40.000  
G06  20919999.989   109935345.532       -2780.599          43.000    20920003.828    85663915.726       -2166.595          39.000  
G17  21576935.549   113387533.256       -3449.808          42.000    21576943.187    88353983.185       -2688.191          37.000  
G12  20717795.312   108872774.887        -487.570          45.000    20717798.315    84835926.196        -379.601          36.000  
G13  23567208.877   123846504.663        1167.192          36.000                                                                  
G22  22049050.641   115868537.012       -4897.173          42.000                                                                  
G19  19522704.361   102592457.258       -2623.892          44.000                                                                  
> 2025 04 04 08 38 19.9950000  0 10                     
G09  22224132.989   116788608.180       -2496.362          39.000    22224146.807    91004558.822       -1945.459          38.000  
G20  19056461.321   100142409.456       -1314.243          40.000                                                                  
G05  20946323.037   110073674.023        1014.844          44.000    20946327.206    85771712.865         790.587          39.000  
G11  20395877.052   107181086.415       -1781.594          45.000    20395875.603    83517709.255       -1388.148          40.000  
G06  20920529.036   109938125.714       -2779.824          43.000    20920532.905    85666082.112       -2166.167          39.000  
G17  21577591.969   113390982.949       -3449.616          42.000    21577599.664    88356671.241       -2687.887          37.000  
G12  20717888.193   108873262.575        -487.730          45.000    20717891.105    84836306.247        -380.782          36.000  
G13  23566986.782   123845337.069        1167.810          36.000                                                                  
G22  22049982.588   115873434.078       -4896.733          42.000                                                                  
G19  19523203.675   102595081.016       -2623.812          44.000                                                                  
> 2025 04 04 08 38 20.9950000  0 10                     
G09  22224608.098   116791104.908       -2496.747          38.000    22224621.963    91006504.341       -1945.801          38.000  
G20  19056711.292   100143723.435       -1313.917          40.000                                                                  
G05  20946129.839   110072658.961        1014.912          44.000    20946134.002    85770921.890         791.036          39.000  
G11  20396215.937   107182867.753       -1781.219          45.000    20396214.685    83519097.333       -1388.193          40.000  
G06  20921058.024   109940905.482       -2779.593          43.000    20921062.027    85668248.153       -2166.048          39.000  
G17  21578248.482   113394432.594       -3449.652          42.000    21578256.178    88359359.269       -2688.095          37.000  
G12  20717981.098   108873750.474        -487.988          45.000    20717984.037    84836686.428        -380.016          36.000  
G13  23566764.529   123844168.797        1168.650          36.000                                                                  
G22  22050914.431   115878330.845       -4896.645          42.000                                                                  
G19  19523702.939   102597704.831       -2623.914          44.000                                                                  
> 2025 04 04 08 38 21.9950000  0 10                     
G09  22225083.318   116793601.860       -2496.954          38.000    22225097.085    91008450.036       -1945.886          38.000  
G20  19056961.399   100145037.611       -1314.376          40.000                                                                  
G05  20945936.775   110071643.963        1014.938          44.000    20945940.795    85770131.001         790.757          39.000  
G11  20396554.835   107184648.823       -1781.033          45.000    20396553.688    83520485.170       -1387.790          40.000  
G06  20921586.803   109943684.886       -2779.379          42.000    20921590.935    85670413.917       -2165.753          39.000  
G17  21578904.974   113397882.256       -3449.768          42.000    21578912.669    88362047.310       -2688.031          37.000  
G12  20718073.913   108874238.665        -488.396          45.000    20718076.845    84837066.821        -380.226          35.000  
G13  23566542.165   123842999.929        1169.624          36.000                                                                  
G22  22051846.270   115883227.379       -4896.412          42.000                                                                  
G19  19524202.306   102600328.752       -2624.041          44.000                                                                  
> 2025 04 04 08 38 22.9950000  0 10                     
G09  22225558.524   116796098.894       -2497.662          38.000    22225572.330    91010395.764       -1945.801          38.000  
G20  19057211.524   100146351.801       -1314.240          40.000                                                                  
G05  20945743.633   110070628.908        1014.835          44.000    20945747.580    85769340.041         791.202          39.000  
G11  20396893.679   107186429.490       -1780.675          45.000    20396892.491    83521872.702       -1387.449          40.000  
G06  20922115.671   109946463.784       -2778.772          42.000    20922119.868    85672579.287       -2165.110          39.000  
G17  21579561.471   113401331.779       -3449.589          42.000    21579569.135    88364735.249       -2687.538          37.000  
G12  20718166.876   108874727.043        -488.451          45.000    20718169.857    84837447.359        -380.695          36.000  
G13  23566319.690   123841830.357        1169.929          36.000                                                                  
G22  22052778.116   115888123.572       -4896.347          42.000                                                                  
G19  19524701.575   102602952.667       -2624.002          43.000                                                                  
> 2025 04 04 08 38 23.9950000  0 10                     
G09  22226033.819   116798596.171       -2497.119          39.000    22226047.426    91012341.679       -1946.216          38.000  
G20  19057461.607   100147666.201       -1314.761          40.000                                                                  
G05  20945550.581   110069613.934        1014.879          44.000    20945554.560    85768549.166         790.856          38.000  
G11  20397232.450   107188209.892       -1780.459          45.000    20397231.355    83523260.025       -1387.350          40.000  
G06  20922644.314   109949242.355       -2778.392          42.000    20922648.692    85674744.427       -2164.764          39.000  
G17  21580217.971   113404781.362       -3449.691          42.000    21580225.628    88367423.214       -2687.622          37.000  
G12  20718259.845   108875215.713        -488.833          45.000    20718262.866    84837828.157        -380.987          36.000  
G13  23566097.068   123840660.175        1170.436          36.000                                                                  
G22  22053709.765   115893019.523       -4895.892          42.000                                                                  
G19  19525200.939   102605576.762       -2624.754          44.000                                                                  
> 2025 04 04 08 38 24.9950000  0 10                     
G09  22226509.202   116801093.795       -2497.632          39.000    22226522.700    91014287.874       -1946.063          38.000  
G20  19057711.733   100148980.895       -1314.893          40.000                                                                  
G05  20945357.491   110068599.189        1014.703          44.000    20945361.425    85767758.453         790.727          38.000  
G11  20397571.290   107189990.186       -1780.435          45.000    20397570.215    83524647.265       -1386.992          40.000  
G06  20923173.000   109952020.720       -2777.776          42.000    20923177.455    85676909.379       -2164.692          39.000  
G17  21580874.551   113408231.076       -3449.400          42.000    21580882.149    88370111.343       -2688.038          37.000  
G12  20718352.849   108875704.855        -489.510          45.000    20718356.009    84838209.280        -381.456          36.000  
G13  23565874.323   123839489.538        1170.874          36.000                                                                  
G22  22054641.382   115897915.397       -4895.709          42.000                                                                  
G19  19525700.385   102608201.062       -2624.738          42.000                                                                  
> 2025 04 04 08 38 25.9950000  0 10                     
G09  22226984.484   116803591.836       -2498.260          38.000    22226998.119    91016234.384       -1946.490          39.000  
G20  19057962.009   100150295.952       -1315.396          40.000                                                                  
G05  20945164.454   110067584.687        1014.250          44.000    20945168.391    85766967.942         790.467          38.000  
G11  20397910.003   107191770.362       -1779.948          44.000    20397909.132    83526034.434       -1387.312          40.000  
G06  20923701.612   109954798.922       -2778.254          43.000    20923706.137    85679074.196       -2164.778          39.000  
G17  21581531.044   113411681.024       -3450.087          42.000    21581538.656    88372799.587       -2688.170          37.000  
G12  20718445.957   108876194.427        -489.916          45.000    20718449.114    84838590.763        -381.561          36.000  
G13  23565651.532   123838318.484        1171.447          37.000                                                                  
G22  22055572.990   115902811.244       -4895.807          42.000                                                                  
G19  19526199.843   102610825.699       -2624.994          43.000                                                                  
> 2025 04 04 08 38 26.9950000  0 10                     
G09  22227459.974   116806090.116       -2498.492          39.000    22227473.514    91018181.137       -1947.138          38.000  
G20  19058212.304   100151611.238       -1315.259          41.000                                                                  
G05  20944971.553   110066570.336        1014.297          44.000    20944975.339    85766177.553         790.075          38.000  
G11  20398248.648   107193550.353       -1779.956          45.000    20398247.848    83527421.431       -1386.842          40.000  
G06  20924230.271   109957576.811       -2777.669          42.000    20924234.745    85681238.784       -2164.672          39.000  
G17  21582187.638   113415131.037       -3449.978          42.000    21582195.205    88375487.925       -2688.214          36.000  
G12  20718539.208   108876684.382        -490.212          45.000    20718542.365    84838972.566        -382.009          36.000  
G13  23565428.501   123837146.896        1171.579          36.000                                                                  
G22  22056504.525   115907706.931       -4895.539          42.000                                                                  
G19  19526699.387   102613450.546       -2625.104          43.000                                                                  
> 2025 04 04 08 38 27.9950000  0 10                     
G09  22227935.453   116808588.516       -2498.230          38.000    22227948.852    91020127.945       -1947.046          38.000  
G20  19058462.632   100152926.600       -1315.664          40.000                                                                  
G05  20944778.535   110065555.961        1014.110          44.000    20944782.276    85765387.109         790.810          38.000  
G11  20398587.268   107195329.939       -1779.382          45.000    20398586.503    83528808.135       -1386.884          41.000  
G06  20924758.898   109960354.250       -2777.313          42.000    20924763.321    85683403.010       -2164.293          39.000  
G17  21582844.221   113418580.974       -3449.909          42.000    21582851.752    88378176.195       -2688.396          36.000  
G12  20718632.540   108877174.529        -490.510          45.000    20718635.561    84839354.483        -381.700          36.000  
G13  23565205.567   123835974.579        1172.660          36.000                                                                  
G22  22057435.987   115912602.255       -4895.208          42.000                                                                  
G19  19527198.928   102616075.387       -2625.096          43.000                                                                  
> 2025 04 04 08 38 28.9950000  0 10                     
G09  22228411.044   116811087.435       -2499.091          38.000    22228424.475    91022075.145       -1947.198          39.000  
G20  19058713.016   100154242.404       -1315.729          40.000                                                                  
G05  20944585.570   110064541.935        1014.107          44.000    20944589.316    85764596.971         790.502          38.000  
G11  20398925.863   107197109.566       -1779.320          45.000    20398925.107    83530194.843       -1386.422          41.000  
G06  20925287.386   109963131.609       -2776.961          42.000    20925291.859    85685567.185       -2164.019          39.000  
G17  21583500.830   113422031.210       -3450.036          42.000    21583508.287    88380864.680       -2688.945          36.000  
G12  20718725.963   108877665.255        -490.548          45.000    20718728.882    84839736.850        -382.106          36.000  
G13  23564982.400   123834801.959        1173.802          36.000                                                                  
G22  22058367.487   115917497.660       -4895.228          42.000                                                                  
G19  19527698.541   102618700.664       -2625.371          43.000                                                                  
> 2025 04 04 08 38 29.9950000  0 10                     
G09  22228886.549   116813586.338       -2499.329          40.000    22228899.920    91024022.338       -1947.131          39.000  
G20  19058963.460   100155558.199       -1316.103          40.000                                                                  
G05  20944392.612   110063527.795        1013.894          44.000    20944396.267    85763806.719         790.803          38.000  
G11  20399264.392   107198888.713       -1779.289          45.000    20399263.781    83531581.193       -1386.240          41.000  
G06  20925815.721   109965908.419       -2776.932          42.000    20925820.319    85687730.928       -2163.640          39.000  
G17  21584157.304   113425481.280       -3450.358          42.000    21584164.852    88383553.016       -2688.728          36.000  
G12  20718819.458   108878156.081        -491.081          45.000    20718822.257    84840119.318        -382.154          35.000  
G13  23564759.102   123833628.585        1173.650          37.000                                                                  
G22  22059298.878   115922392.649       -4895.200          42.000                                                                  
G19  19528198.230   102621325.824       -2625.313          44.000                                                                  
> 2025 04 04 08 38 30.9950000  0 10                     
G09  22229362.034   116816085.393       -2499.750          40.000    22229375.416    91025969.629       -1947.272          39.000  
G20  19059213.811   100156874.024       -1315.710          41.000                                                                  
G05  20944199.684   110062513.598        1014.291          44.000    20944203.302    85763016.476         790.067          38.000  
G11  20399602.903   107200667.471       -1778.618          45.000    20399602.310    83532967.237       -1385.885          41.000  
G06  20926344.006   109968684.745       -2776.270          43.000    20926348.647    85689894.281       -2163.180          39.000  
G17  21584813.881   113428931.229       -3449.945          41.000    21584821.297    88386241.296       -2688.578          36.000  
G12  20718912.895   108878647.086        -491.155          45.000    20718915.598    84840501.918        -382.530          35.000  
G13  23564535.699   123832454.426        1174.801          36.000                                                                  
G22  22060230.208   115927287.278       -4894.410          42.000                                                                  
G19  19528697.808   102623951.000       -2625.137          43.000                                                                  
> 2025 04 04 08 38 31.9950000  0 10                     
G09  22229837.625   116818584.355       -2499.249          40.000    22229850.993    91027916.900       -1947.528          38.000  
G20  19059464.123   100158189.774       -1315.711          40.000                                                                  
G05  20944006.665   110061499.249        1014.154          44.000    20944010.260    85762226.084         789.954          38.000  
G11  20399941.270   107202445.706       -1778.289          45.000    20399940.743    83534352.889       -1385.805          41.000  
G06  20926872.297   109971460.467       -2775.710          43.000    20926876.919    85692057.182       -2162.756          39.000  
G17  21585470.330   113432380.941       -3449.871          41.000    21585477.883    88388929.404       -2688.385          36.000  
G12  20719006.297   108879138.155        -491.459          45.000    20719008.997    84840884.577        -383.041          35.000  
G13  23564312.023   123831279.471        1174.950          37.000                                                                  
G22  22061161.490   115932181.436       -4894.062          42.000                                                                  
G19  19529197.343   102626576.076       -2625.115          44.000                                                                  
> 2025 04 04 08 38 32.9950000  0 10                     
G09  22230313.202   116821083.652       -2499.249          39.000    22230326.590    91029864.428       -1947.449          39.000  
G20  19059714.513   100159505.823       -1316.213          40.000                                                                  
G05  20943813.705   110060485.058        1014.110          44.000    20943817.268    85761435.797         790.215          38.000  
G11  20400279.553   107204223.776       -1777.932          45.000    20400279.128    83535738.369       -1385.355          41.000  
G06  20927400.486   109974235.921       -2775.487          42.000    20927405.017    85694219.875       -2162.668          39.000  
G17  21586126.801   113435830.787       -3450.266          41.000    21586134.397    88391617.575       -2688.413          36.000  
G12  20719099.807   108879629.592        -491.708          45.000    20719102.533    84841267.517        -383.125          35.000  
G13  23564088.485   123830103.989        1175.388          37.000                                                                  
G22  22062092.805   115937075.465       -4893.983          42.000                                                                  
G19  19529696.934   102629201.369       -2625.432          44.000                                                                  
> 2025 04 04 08 38 33.9950000  0 10                     
G09  22230788.906   116823583.221       -2499.963          40.000    22230802.239    91031812.153       -1948.303          39.000  
G20  19059965.041   100160822.053       -1316.683          40.000                                                                  
G05  20943620.751   110059470.996        1013.710          44.000    20943624.274    85760645.633         789.779          39.000  
G11  20400617.942   107206001.612       -1777.899          45.000    20400617.428    83537123.722       -1385.758          41.000  
G06  20927928.525   109977011.072       -2775.455          42.000    20927933.051    85696382.324       -2162.863          39.000  
G17  21586783.300   113439280.691       -3450.522          41.000    21586790.868    88394305.832       -2688.495          36.000  
G12  20719193.450   108880121.386        -492.172          45.000    20719196.050    84841650.737        -383.907          35.000  
G13  23563864.695   123828927.992        1175.257          37.000                                                                  
G22  22063023.942   115941969.318       -4893.915          42.000                                                                  
G19  19530196.498   102631826.842       -2626.042          44.000                                                                  
> 2025 04 04 08 38 34.9950000  0 10                     
G09  22231264.690   116826083.121       -2500.226          39.000    22231277.919    91033760.111       -1947.968          38.000  
G20  19060215.566   100162138.614       -1316.811          40.000                                                                  
G05  20943427.766   110058457.129        1013.725          44.000    20943431.221    85759855.607         790.022          39.000  
G11  20400956.207   107207779.298       -1777.662          45.000    20400955.767    83538508.933       -1385.293          41.000  
G06  20928456.500   109979786.021       -2775.082          43.000    20928461.074    85698544.612       -2162.339          39.000  
G17  21587439.795   113442730.748       -3450.386          41.000    21587447.486    88396994.161       -2688.301          36.000  
G12  20719287.003   108880613.621        -492.515          45.000    20719289.742    84842034.293        -383.625          35.000  
G13  23563640.816   123827751.458        1176.801          37.000                                                                  
G22  22063955.010   115946863.076       -4893.874          42.000                                                                  
G19  19530696.224   102634452.558       -2626.010          43.000                                                                  
> 2025 04 04 08 38 35.9950000  0 10                     
G09  22231740.519   116828583.319       -2500.549          40.000    22231753.563    91035708.347       -1948.407          38.000  
G20  19060466.212   100163455.423       -1317.024          40.000                                                                  
G05  20943234.875   110057443.444        1013.674          44.000    20943238.337    85759065.740         789.653          39.000  
G11  20401294.612   107209556.822       -1777.346          45.000    20401293.982    83539894.000       -1384.797          41.000  
G06  20928984.414   109982560.655       -2774.401          43.000    20928989.131    85700706.678       -2162.236          39.000  
G17  21588096.230   113446180.930       -3450.483          41.000    21588104.057    88399682.634       -2688.444          36.000  
G12  20719380.700   108881106.234        -492.808          45.000    20719383.448    84842418.134        -384.171          35.000  
G13  23563416.923   123826574.452        1177.240          37.000                                                                  
G22  22064886.285   115951756.699       -4893.475          42.000                                                                  
G19  19531195.849   102637078.489       -2625.975          43.000                                                                  
> 2025 04 04 08 38 36.9950000  0 10                     
G09  22232216.401   116831083.932       -2500.983          40.000    22232229.379    91037656.879       -1948.755          38.000  
G20  19060716.829   100164772.592       -1317.214          40.000                                                                  
G05  20943041.835   110056430.028        1013.296          44.000    20943045.485    85758276.063         789.604          39.000  
G11  20401632.806   107211334.273       -1777.649          45.000    20401632.270    83541279.029       -1384.991          41.000  
G06  20929512.455   109985335.162       -2774.637          43.000    20929517.077    85702868.612       -2161.804          39.000  
G17  21588752.761   113449631.321       -3450.433          42.000    21588760.573    88402371.250       -2688.799          36.000  
G12  20719474.619   108881599.349        -493.374          45.000    20719477.317    84842802.365        -384.291          35.000  
G13  23563192.891   123825397.048        1177.580          36.000                                                                  
G22  22065817.477   115956650.288       -4893.717          42.000                                                                  
G19  19531695.667   102639704.730       -2626.019          43.000                                                                  
> 2025 04 04 08 38 37.9950000  0 10                     
G09  22232692.404   116833585.132       -2501.422          40.000    22232705.418    91039605.890       -1949.792          38.000  
G20  19060967.460   100166090.325       -1318.078          40.000                                                                  
G05  20942849.148   110055417.049        1012.685          44.000    20942852.713    85757486.740         788.976          39.000  
G11  20401971.053   107213111.800       -1777.763          45.000    20401970.555    83542664.126       -1385.260          40.000  
G06  20930040.436   109988109.659       -2774.605          43.000    20930044.980    85705030.541       -2161.748          39.000  
G17  21589409.406   113453082.093       -3451.125          42.000    21589417.242    88405060.153       -2689.017          36.000  
G12  20719568.692   108882093.103        -494.083          45.000    20719571.379    84843187.123        -384.858          35.000  
G13  23562968.811   123824219.387        1177.507          36.000                                                                  
G22  22066748.623   115961544.004       -4893.872          42.000                                                                  
G19  19532195.575   102642331.511       -2627.234          43.000                                                                  
> 2025 04 04 08 38 38.9950000  0 10                     
G09  22233168.465   116836087.007       -2502.350          40.000    22233181.435    91041555.377       -1949.731          38.000  
G20  19061218.265   100167408.650       -1318.827          40.000                                                                  
G05  20942656.407   110054404.598        1012.224          44.000    20942660.055    85756697.830         788.660          38.000  
G11  20402309.332   107214889.510       -1777.679          45.000    20402308.808    83544049.355       -1385.544          41.000  
G06  20930568.428   109990884.276       -2774.933          43.000    20930572.943    85707192.581       -2162.005          39.000  
G17  21590066.163   113456533.331       -3451.496          42.000    21590073.918    88407749.433       -2689.529          36.000  
G12  20719662.856   108882587.624        -494.933          45.000    20719665.420    84843572.475        -385.417          35.000  
G13  23562744.655   123823041.564        1177.965          36.000                                                                  
G22  22067679.838   115966437.952       -4893.895          42.000                                                                  
G19  19532695.516   102644958.845       -2627.640          43.000                                                                  
> 2025 04 04 08 38 39.9950000  0 10                     
G09  22233644.708   116838589.416       -2502.917          41.000    22233657.635    91043505.310       -1950.104          38.000  
G20  19061469.172   100168727.491       -1318.857          40.000                                                                  
G05  20942463.829   110053392.596        1011.842          44.000    20942467.569    85755909.243         788.678          39.000  
G11  20402647.688   107216667.295       -1777.605          45.000    20402647.071    83545434.635       -1385.251          41.000  
G06  20931096.454   109993658.843       -2774.516          43.000    20931100.984    85709354.593       -2162.074          39.000  
G17  21590722.875   113459984.943       -3451.782          42.000    21590730.653    88410438.984       -2689.476          36.000  
G12  20719757.116   108883082.773        -495.162          45.000    20719759.592    84843958.320        -386.101          35.000  
G13  23562520.501   123821863.526        1178.245          36.000                                                                  
G22  22068611.112   115971332.033       -4894.055          42.000                                                                  
G19  19533195.651   102647586.648       -2627.924          43.000                                                                  
> 2025 04 04 08 38 40.9950000  0 10                     
G09  22234121.093   116841092.321       -2503.290          41.000    22234133.838    91045455.644       -1950.824          38.000  
G20  19061720.168   100170046.820       -1319.906          40.000                                                                  
G05  20942271.192   110052380.939        1011.362          44.000    20942275.080    85755120.970         787.616          39.000  
G11  20402985.912   107218445.079       -1777.995          45.000    20402985.596    83546819.931       -1385.532          41.000  
G06  20931624.539   109996433.365       -2774.593          43.000    20931629.046    85711516.559       -2162.390          39.000  
G17  21591379.795   113463436.871       -3452.491          41.000    21591387.560    88413128.793       -2690.148          36.000  
G12  20719851.476   108883578.529        -496.410          45.000    20719853.906    84844344.603        -386.579          35.000  
G13  23562296.302   123820685.176        1178.109          36.000                                                                  
G22  22069542.309   115976226.165       -4894.435          42.000                                                                  
G19  19533695.793   102650214.835       -2628.578          44.000                                                                  
> 2025 04 04 08 38 41.9950000  0 10                     
G09  22234597.549   116843595.719       -2503.973          41.000    22234610.189    91047406.340       -1950.891          38.000  
G20  19061971.323   100171366.546       -1320.328          40.000                                                                  
G05  20942078.745   110051369.639        1010.811          44.000    20942082.731    85754332.932         787.578          38.000  
G11  20403324.249   107220222.875       -1778.069          46.000    20403323.930    83548205.225       -1385.698          41.000  
G06  20932152.565   109999207.786       -2774.492          43.000    20932156.978    85713678.436       -2161.937          39.000  
G17  21592036.808   113466889.051       -3452.362          42.000    21592044.414    88415818.815       -2690.287          36.000  
G12  20719945.971   108884074.838        -496.777          45.000    20719948.410    84844731.321        -387.247          36.000  
G13  23562072.028   123819506.479        1178.476          36.000                                                                  
G22  22070473.597   115981120.332       -4894.521          42.000                                                                  
G19  19534196.088   102652843.435       -2629.032          44.000                                                                  
> 2025 04 04 08 38 42.9950000  0 10                     
G09  22235074.006   116846099.688       -2504.370          41.000    22235086.619    91049357.508       -1951.514          38.000  
G20  19062222.527   100172686.808       -1320.286          40.000                                                                  
G05  20941886.395   110050358.763        1010.573          44.000    20941890.269    85753545.232         787.623          38.000  
G11  20403662.510   107222000.745       -1777.919          46.000    20403662.243    83549590.584       -1385.586          40.000  
G06  20932680.484   110001982.202       -2774.528          43.000    20932684.894    85715840.329       -2161.886          39.000  
G17  21592693.795   113470341.635       -3452.695          42.000    21592701.402    88418509.154       -2690.952          36.000  
G12  20720040.482   108884571.781        -497.223          45.000    20720042.985    84845118.571        -387.293          36.000  
G13  23561847.606   123818327.519        1179.175          36.000                                                                  
G22  22071405.019   115986014.638       -4894.644          42.000                                                                  
G19  19534696.411   102655472.498       -2629.581          44.000                                                                  
> 2025 04 04 08 38 43.9950000  0 10                     
G09  22235550.607   116848604.366       -2505.139          41.000    22235563.214    91051309.203       -1952.075          38.000  
G20  19062473.921   100174007.771       -1321.703          40.000                                                                  
G05  20941694.028   110049348.472        1009.715          44.000    20941697.942    85752757.980         787.257          38.000  
G11  20404000.961   107223778.851       -1778.473          46.000    20404000.616    83550976.098       -1385.708          40.000  
G06  20933208.457   110004756.781       -2774.826          43.000    20933212.924    85718002.331       -2162.209          39.000  
G17  21593350.995   113473794.737       -3453.608          42.000    21593358.446    88421199.840       -2690.940          36.000  
G12  20720135.126   108885069.549        -498.203          45.000    20720137.748    84845506.448        -388.371          36.000  
G13  23561623.297   123817148.489        1178.923          36.000                                                                  
G22  22072336.456   115990909.212       -4894.930          42.000                                                                  
G19  19535196.878   102658102.201       -2630.127          44.000                                                                  
> 2025 04 04 08 38 44.9950000  0 10                     
G09  22236027.472   116851109.819       -2505.768          41.000    22236039.988    91053261.486       -1952.179          38.000  
G20  19062725.375   100175329.417       -1321.808          39.000                                                                  
G05  20941501.893   110048338.800        1009.617          44.000    20941505.830    85751971.246         786.669          39.000  
G11  20404339.508   107225557.220       -1778.302          46.000    20404339.088    83552361.850       -1385.682          40.000  
G06  20933736.496   110007531.548       -2774.896          43.000    20933740.868    85720164.478       -2162.108          39.000  
G17  21594008.212   113477248.379       -3453.593          42.000    21594015.663    88423891.015       -2691.097          36.000  
G12  20720229.964   108885568.153        -498.892          45.000    20720232.646    84845894.964        -388.881          36.000  
G13  23561399.045   123815969.407        1179.177          36.000                                                                  
G22  22073268.075   115995804.095       -4894.695          42.000                                                                  
G19  19535697.350   102660732.564       -2630.478          44.000                                                                  
> 2025 04 04 08 38 45.9950000  0 10                     
G09  22236504.489   116853616.211       -2506.744          41.000    22236516.978    91055214.537       -1953.326          38.000  
G20  19062977.027   100176651.983       -1323.025          39.000                                                                  
G05  20941309.938   110047329.954        1008.465          44.000    20941313.735    85751185.126         786.008          39.000  
G11  20404678.098   107227336.061       -1779.092          46.000    20404677.521    83553747.965       -1386.558          41.000  
G06  20934264.622   110010306.679       -2775.312          43.000    20934269.000    85722326.922       -2162.643          39.000  
G17  21594665.610   113480702.793       -3454.726          42.000    21594673.124    88426582.747       -2691.645          36.000  
G12  20720324.898   108886067.799        -500.221          45.000    20720327.753    84846284.292        -389.658          36.000  
G13  23561174.845   123814790.467        1178.909          36.000                                                                  
G22  22074199.748   116000699.500       -4895.675          42.000                                                                  
G19  19536198.148   102663363.816       -2631.787          44.000                                                                  
> 2025 04 04 08 38 46.9950000  0 10                     
G09  22236981.639   116856123.328       -2507.214          41.000    22236994.138    91057168.140       -1953.723          38.000  
G20  19063228.886   100177975.220       -1323.401          39.000                                                                  
G05  20941118.135   110046321.685        1007.967          44.000    20941121.901    85750399.469         785.708          39.000  
G11  20405016.668   107229115.146       -1779.121          46.000    20405016.046    83555134.271       -1386.537          40.000  
G06  20934792.692   110013081.969       -2775.302          43.000    20934797.072    85724489.464       -2162.470          39.000  
G17  21595323.069   113484157.760       -3455.356          42.000    21595330.578    88429274.907       -2692.114          36.000  
G12  20720420.108   108886568.247        -500.716          45.000    20720422.953    84846674.243        -389.987          36.000  
G13  23560950.536   123813611.452        1178.877          36.000                                                                  
G22  22075131.378   116005595.178       -4895.807          42.000                                                                  
G19  19536698.960   102665995.675       -2632.150          44.000                                                                  
> 2025 04 04 08 38 47.9950000  0 10                     
G09  22237458.887   116858631.076       -2507.861          41.000    22237471.402    91059122.230       -1954.260          38.000  
G20  19063480.771   100179299.049       -1323.679          39.000                                                                  
G05  20940926.281   110045313.880        1007.793          44.000    20940930.202    85749614.177         785.372          39.000  
G11  20405355.216   107230894.358       -1779.031          46.000    20405354.575    83556520.652       -1386.124          40.000  
G06  20935320.841   110015857.302       -2775.101          43.000    20935325.200    85726652.080       -2162.547          39.000  
G17  21595980.659   113487613.110       -3455.241          42.000    21595988.167    88431967.413       -2692.220          36.000  
G12  20720515.436   108887069.412        -501.410          45.000    20720518.375    84847064.750        -390.798          36.000  
G13  23560726.152   123812432.209        1179.722          36.000                                                                  
G22  22076063.029   116010491.042       -4895.733          42.000                                                                  
G19  19537199.801   102668628.069       -2632.640          44.000                                                                  
> 2025 04 04 08 38 48.9950000  0 10                     
G09  22237936.239   116861139.365       -2508.588          40.000    22237948.757    91061076.745       -1954.913          38.000  
G20  19063732.669   100180623.390       -1325.055          39.000                                                                  
G05  20940734.581   110044306.506        1007.146          44.000    20940738.447    85748829.214         784.620          39.000  
G11  20405693.799   107232673.634       -1779.133          45.000    20405693.091    83557907.122       -1386.772          40.000  
G06  20935848.945   110018632.631       -2775.102          42.000    20935853.346    85728814.663       -2162.635          39.000  
G17  21596638.185   113491068.833       -3455.924          41.000    21596645.692    88434660.202       -2693.428          36.000  
G12  20720610.912   108887571.204        -502.359          45.000    20720613.899    84847455.747        -391.015          36.000  
G13  23560501.748   123811252.748        1179.666          36.000                                                                  
G22  22076994.832   116015387.001       -4896.108          42.000                                                                  
G19  19537700.782   102671260.924       -2633.181          44.000                                                                  
> 2025 04 04 08 38 49.9950000  0 10                     
G09  22238413.666   116863648.408       -2509.625          40.000    22238426.260    91063031.830       -1955.444          38.000  
G20  19063984.888   100181948.419       -1325.558          39.000                                                                  
G05  20940543.014   110043299.738        1006.387          44.000    20940546.930    85748044.725         784.069          39.000  
G11  20406032.452   107234453.166       -1779.601          45.000    20406031.767    83559293.778       -1387.152          40.000  
G06  20936377.153   110021408.122       -2775.401          42.000    20936381.625    85730977.363       -2162.850          39.000  
G17  21597295.952   113494525.115       -3456.647          42.000    21597303.407    88437353.409       -2693.557          35.000  
G12  20720706.606   108888073.821        -503.136          45.000    20720709.670    84847847.390        -391.589          36.000  
G13  23560277.301   123810073.169        1179.191          37.000                                                                  
G22  22077926.541   116020283.258       -4896.554          43.000                                                                  
G19  19538201.858   102673894.436       -2633.709          44.000                                                                  
> 2025 04 04 08 38 50.9950000  0 10                     
G09  22238891.216   116866158.238       -2510.089          40.000    22238903.769    91064987.566       -1956.012          38.000  
G20  19064237.281   100183274.224       -1325.969          40.000                                                                  
G05  20940351.490   110042293.631        1005.907          44.000    20940355.484    85747260.769         783.572          39.000  
G11  20406371.202   107236233.031       -1779.796          45.000    20406370.455    83560680.660       -1386.629          40.000  
G06  20936905.369   110024183.883       -2775.729          43.000    20936909.687    85733140.287       -2163.249          39.000  
G17  21597953.848   113497982.037       -3457.335          42.000    21597961.133    88440047.098       -2693.813          35.000  
G12  20720802.480   108888577.355        -504.186          44.000    20720805.512    84848239.761        -392.645          36.000  
G13  23560052.779   123808893.617        1179.599          37.000                                                                  
G22  22078858.364   116025179.898       -4896.890          43.000                                                                  
G19  19538703.174   102676528.691       -2634.672          44.000                                                                  
> 2025 04 04 08 38 51.9950000  0 10                     
G09  22239368.884   116868668.654       -2510.638          40.000    22239381.468    91066943.744       -1956.555          38.000  
G20  19064489.742   100184600.546       -1326.699          40.000                                                                  
G05  20940160.109   110041287.989        1005.231          43.000    20940164.246    85746477.143         783.159          38.000  
G11  20406709.989   107238012.997       -1780.126          45.000    20406709.141    83562067.633       -1386.820          40.000  
G06  20937433.623   110026959.621       -2775.809          42.000    20937437.958    85735303.189       -2162.923          39.000  
G17  21598611.728   113501439.293       -3457.328          42.000    21598618.932    88442741.060       -2693.679          35.000  
G12  20720898.433   108889081.512        -504.386          45.000    20720901.391    84848632.632        -393.070          36.000  
G13  23559828.161   123807713.835        1180.331          37.000                                                                  
G22  22079790.238   116030076.674       -4896.881          42.000                                                                  
G19  19539204.415   102679163.409       -2634.999          44.000                                                                  
> 2025 04 04 08 38 52.9950000  0 10                     
G09  22239846.740   116871179.785       -2511.475          40.000    22239859.364    91068900.473       -1956.964          38.000  
G20  19064742.338   100185927.523       -1327.616          40.000                                                                  
G05  20939968.794   110040282.900        1004.435          43.000    20939972.882    85745693.933         782.893          38.000  
G11  20407048.779   107239793.152       -1780.418          45.000    20407047.906    83563454.776       -1387.401          40.000  
G06  20937961.889   110029735.490       -2776.183          42.000    20937966.087    85737466.212       -2163.470          39.000  
G17  21599269.715   113504897.081       -3458.395          42.000    21599276.892    88445435.437       -2694.802          35.000  
G12  20720994.626   108889586.484        -505.554          45.000    20720997.457    84849026.089        -393.993          36.000  
G13  23559603.625   123806533.937        1179.856          37.000                                                                  
G22  22080722.175   116034973.682       -4897.131          42.000                                                                  
G19  19539705.874   102681798.749       -2635.871          44.000                                                                  
> 2025 04 04 08 38 53.9950000  0 10                     
G09  22240324.768   116873691.414       -2511.786          40.000    22240337.300    91070857.606       -1957.239          38.000  
G20  19064995.038   100187254.969       -1327.371          40.000                                                                  
G05  20939777.502   110039278.162        1004.559          43.000    20939781.753    85744911.050         783.026          38.000  
G11  20407387.523   107241573.340       -1780.103          45.000    20407386.694    83564841.930       -1387.129          40.000  
G06  20938490.128   110032511.273       -2775.548          43.000    20938494.338    85739629.171       -2163.000          39.000  
G17  21599927.800   113508355.183       -3458.333          42.000    21599934.967    88448130.045       -2694.370          36.000  
G12  20721090.778   108890092.035        -505.780          44.000    20721093.662    84849420.055        -393.558          36.000  
G13  23559379.016   123805353.761        1179.769          36.000                                                                  
G22  22081654.106   116039870.779       -4897.150          42.000                                                                  
G19  19540207.380   102684434.503       -2635.952          43.000                                                                  
> 2025 04 04 08 38 54.9950000  0 10                     
G09  22240802.870   116876203.491       -2512.689          40.000    22240815.309    91072815.045       -1957.776          38.000  
G20  19065247.726   100188582.805       -1328.281          40.000                                                                  
G05  20939586.433   110038273.731        1004.330          43.000    20939590.586    85744128.361         782.566          38.000  
G11  20407726.133   107243353.472       -1780.230          45.000    20407725.547    83566229.054       -1387.313          40.000  
G06  20939018.309   110035286.934       -2775.515          43.000    20939022.472    85741792.029       -2163.043          39.000  
G17  21600585.987   113511813.537       -3458.770          43.000    21600592.981    88450824.883       -2695.271          36.000  
G12  20721187.187   108890598.105        -506.297          45.000    20721189.904    84849814.397        -395.065          36.000  
G13  23559154.195   123804173.173        1180.404          35.000                                                                  
G22  22082585.969   116044767.854       -4897.522          41.000                                                                  
G19  19540709.011   102687070.592       -2636.116          43.000                                                                  
> 2025 04 04 08 38 55.9950000  0 10                     
G09  22241281.022   116878715.930       -2512.787          38.000    22241293.451    91074772.796       -1957.751          36.000  
G20  19065500.512   100189910.938       -1328.395          40.000                                                                  
G05  20939395.363   110037269.482        1004.023          43.000    20939399.510    85743345.865         781.972          38.000  
G11  20408064.794   107245133.462       -1780.182          45.000    20408064.327    83567616.034       -1386.924          41.000  
G06  20939546.498   110038062.393       -2775.478          43.000    20939550.627    85743954.677       -2162.515          39.000  
G17  21601244.018   113515271.981       -3458.688          41.000    21601251.149    88453519.774       -2695.270          35.000  
G12  20721283.554   108891104.614        -506.893          45.000    20721286.303    84850209.061        -394.483          36.000  
G13  23558929.516   123802992.085        1181.468          37.000                                                                  
G22  22083517.978   116049664.842       -4897.245          43.000                                                                  
G19  19541210.749   102689706.973       -2636.703          43.000                                                                  
> 2025 04 04 08 38 56.9950000  0 10                     
G09  22241759.125   116881228.489       -2512.738          38.000    22241771.612    91076730.677       -1958.331          36.000  
G20  19065753.243   100191239.227       -1328.257          40.000                                                                  
G05  20939204.312   110036265.262        1004.111          43.000    20939208.434    85742563.356         782.138          38.000  
G11  20408403.445   107246913.138       -1779.617          45.000    20408402.943    83569002.821       -1386.632          40.000  
G06  20940074.596   110040837.434       -2775.274          43.000    20940078.767    85746117.040       -2162.117          39.000  
G17  21601902.145   113518730.447       -3458.526          42.000    21601909.272    88456214.665       -2695.405          35.000  
G12  20721380.072   108891611.377        -507.131          45.000    20721382.768    84850603.939        -394.787          36.000  
G13  23558704.520   123801810.422        1181.803          36.000                                                                  
G22  22084449.757   116054561.574       -4896.907          43.000                                                                  
G19  19541712.460   102692343.434       -2636.811          43.000                                                                  
> 2025 04 04 08 38 57.9950000  0 10                     
G09  22242237.288   116883741.224       -2513.391          39.000    22242249.721    91078688.645       -1958.246          36.000  
G20  19066006.091   100192567.598       -1328.751          40.000                                                                  
G05  20939013.158   110035261.100        1004.011          43.000    20939017.253    85741780.877         782.572          38.000  
G11  20408741.981   107248692.486       -1779.353          45.000    20408741.495    83570389.316       -1386.331          40.000  
G06  20940602.610   110043612.056       -2774.718          42.000    20940606.739    85748279.105       -2161.889          39.000  
G17  21602560.269   113522188.859       -3458.674          42.000    21602567.413    88458909.512       -2695.443          35.000  
G12  20721476.571   108892118.393        -507.281          45.000    20721479.250    84850999.003        -395.223          36.000  
G13  23558479.351   123800628.078        1182.614          35.000                                                                  
G22  22085381.494   116059457.989       -4896.461          43.000                                                                  
G19  19542214.176   102694979.906       -2636.426          43.000                                                                  
> 2025 04 04 08 38 58.9950000  0 10                     
G09  22242715.486   116886254.088       -2513.550          38.000    22242727.861    91080646.677       -1957.367          35.000  
G20  19066258.880   100193896.058       -1328.873          40.000                                                                  
G05  20938822.009   110034256.886        1004.149          43.000    20938826.123    85740998.398         782.124          38.000  
G11  20409080.515   107250471.455       -1778.805          44.000    20409080.012    83571775.516       -1386.148          40.000  
G06  20941130.482   110046386.187       -2773.631          42.000    20941134.537    85750440.773       -2161.155          38.000  
G17  21603218.320   113525647.173       -3458.153          42.000    21603225.540    88461604.334       -2695.198          35.000  
G12  20721573.118   108892625.581        -507.229          45.000    20721575.828    84851394.256        -395.761          36.000  
G13  23558254.173   123799445.015        1183.283          35.000                                                                  
G22  22086313.307   116064354.088       -4896.027          43.000                                                                  
G19  19542715.950   102697616.452       -2636.613          43.000                                                                  
> 2025 04 04 08 38 59.9950000  0 10                     
G09  22243193.688   116888767.021       -2513.568          40.000    22243206.058    91082604.822       -1958.087          38.000  
G20  19066511.800   100195224.571       -1329.117          39.000                                                                  
G05  20938630.934   110033252.646        1003.930          43.000    20938635.005    85740215.890         782.212          39.000  
G11  20409419.020   107252250.053       -1778.692          45.000    20409418.510    83573161.459       -1386.152          40.000  
G06  20941658.382   110049159.931       -2773.576          43.000    20941662.307    85752602.117       -2161.609          38.000  
G17  21603876.433   113529105.437       -3458.598          42.000    21603883.690    88464299.084       -2695.247          36.000  
G12  20721669.621   108893132.990        -507.480          45.000    20721672.297    84851789.627        -395.813          36.000  
G13  23558028.988   123798261.303        1184.279          32.000                                                                  
G22  22087245.023   116069249.829       -4895.643          44.000                                                                  
G19  19543217.732   102700253.058       -2637.091          43.000                                                                  
> 2025 04 04 08 39 00.9950000  0 10                     
G09  22243671.973   116891280.234       -2513.129          40.000    22243684.291    91084563.142       -1958.026          38.000  
G20  19066764.606   100196553.282       -1328.508          40.000                                                                  
G05  20938440.003   110032248.529        1004.370          43.000    20938443.990    85739433.451         782.483          39.000  
G11  20409757.443   107254028.406       -1778.165          44.000    20409756.996    83574547.170       -1385.201          41.000  
G06  20942186.195   110051933.332       -2773.184          43.000    20942190.108    85754763.184       -2160.779          38.000  
G17  21604534.507   113532563.743       -3458.044          42.000    21604541.806    88466993.831       -2694.624          36.000  
G12  20721766.311   108893640.729        -507.816          45.000    20721768.917    84852185.256        -395.850          36.000  
G13  23557803.513   123797076.950        1184.937          35.000                                                                  
G22  22088176.654   116074145.424       -4894.961          39.000                                                                  
G19  19543719.469   102702889.727       -2636.544          43.000                                                                  
> 2025 04 04 08 39 01.9950000  0 10                     
G09  22244150.189   116893793.574       -2513.153          40.000    22244162.545    91086521.631       -1958.301          38.000  
G20  19067017.353   100197882.060       -1328.637          39.000                                                                  
G05  20938249.018   110031244.425        1004.351          44.000    20938252.925    85738651.023         782.615          39.000  
G11  20410095.872   107255806.435       -1777.695          45.000    20410095.427    83575932.600       -1384.831          41.000  
G06  20942713.944   110054706.284       -2772.583          43.000    20942717.726    85756923.900       -2160.412          38.000  
G17  21605192.664   113536021.969       -3458.235          42.000    21605199.769    88469688.600       -2694.718          36.000  
G12  20721862.970   108894148.666        -508.106          46.000    20721865.561    84852581.047        -395.252          36.000  
G13  23557577.929   123795892.019        1186.054          35.000                                                                  
G22  22089108.306   116079040.858       -4894.698          34.000                                                                  
G19  19544221.290   102705526.509       -2636.716          44.000                                                                  
> 2025 04 04 08 39 02.9950000  0 11                     
G09  22244628.543   116896306.957       -2513.202          39.000    22244640.891    91088480.120       -1958.551          38.000  
G20  19067270.131   100199210.852       -1328.699          39.000                                                                  
G05  20938058.103   110030240.204        1004.564          45.000    20938061.955    85737868.504         782.825          38.000  
G11  20410434.127   107257583.968       -1777.183          44.000    20410433.638    83577317.702       -1384.583          41.000  
G06  20943241.566   110057478.685       -2771.767          43.000    20943245.266    85759084.254       -2160.118          37.000  
G17  21605850.760   113539480.028       -3457.556          42.000    21605857.830    88472383.219       -2694.400          34.000  
G25  22990760.631                         745.102          21.000                                                                  
G12  20721959.730   108894656.717        -507.869          45.000    20721962.212    84852976.940        -395.545          37.000  
G13  23557352.151   123794706.269        1186.965          32.000                                                                  
G22  22090040.049   116083935.608       -4894.568          32.000                                                                  
G19  19544722.942   102708163.202       -2636.453          43.000                                                                  
> 2025 04 04 08 39 03.9950000  0 11                     
G09  22245106.823   116898820.448       -2513.312          39.000    22245119.222    91090438.680       -1958.142          38.000  
G20  19067523.012   100200539.728       -1328.581          40.000                                                                  
G05  20937866.952   110029235.959        1004.597          44.000    20937870.905    85737085.969         782.884          39.000  
G11  20410772.278   107259361.145       -1776.688          44.000    20410771.758    83578702.534       -1384.305          42.000  
G06  20943769.058   110060250.639       -2771.269          43.000    20943772.721    85761244.192       -2159.664          37.000  
G17  21606508.820   113542938.042       -3457.634          42.000    21606515.831    88475077.743       -2694.323          34.000  
G25  22990617.860                         745.102          19.000                                                                  
G12  20722056.475   108895164.976        -507.897          46.000    20722058.899    84853373.025        -396.107          37.000  
G13  23557126.324   123793519.808        1187.137          32.000                                                                  
G22  22090971.582   116088830.099       -4894.170          34.000                                                                  
G19  19545224.688   102710799.920       -2636.400          43.000                                                                  
> 2025 04 04 08 39 04.9950000  0 11                     
G09  22245585.086   116901333.636       -2512.799          39.000    22245597.389    91092396.995       -1957.855          38.000  
G20  19067775.867   100201868.270       -1328.174          40.000                                                                  
G05  20937675.787   110028231.229        1005.266          43.000    20937679.796    85736303.113         783.140          38.000  
G11  20411110.362   107261137.516       -1775.798          44.000    20411109.791    83580086.757       -1383.861          41.000  
G06  20944296.393   110063021.701       -2770.684          42.000    20944299.891    85763403.476       -2158.952          39.000  
G17  21607166.766   113546395.562       -3456.790          40.000    21607173.844    88477771.907       -2694.142          34.000  
G25  22990475.185                         745.102          18.000                                                                  
G12  20722153.230   108895673.032        -507.962          45.000    20722155.504    84853768.890        -396.084          37.000  
G13  23556900.137   123792332.270        1187.674          32.000                                                                  
G22  22091903.158   116093723.802       -4893.205          39.000                                                                  
G19  19545726.358   102713436.291       -2635.748          44.000                                                                  
> 2025 04 04 08 39 05.9950000  0 11                     
G09  22246063.210   116903846.304       -2511.920          39.000    22246075.497    91094354.923       -1957.733          37.000  
G20  19068028.637   100203196.256       -1327.691          40.000                                                                  
G05  20937484.460   110027225.909        1005.655          43.000    20937488.535    85735519.753         783.304          38.000  
G11  20411448.295   107262912.931       -1774.961          44.000    20411447.594    83581470.168       -1383.152          41.000  
G06  20944823.630   110065791.689       -2768.585          43.000    20944826.921    85765561.923       -2158.300          39.000  
G17  21607824.646   113549852.395       -3456.528          42.000    21607831.683    88480465.482       -2693.416          35.000  
G25  22990336.196                         745.102          18.000                                                                  
G12  20722249.821   108896180.637        -507.259          45.000    20722252.038    84854164.374        -394.570          36.000  
G13  23556673.881   123791143.357        1189.478          33.000                                                                  
G22  22092834.204   116098616.680       -4891.633          37.000                                                                  
G19  19546227.819   102716072.030       -2635.387          44.000                                                                  
> 2025 04 04 08 39 06.9950000  0 11                     
G09  22246540.945   116906357.403       -2510.321          39.000    22246553.370    91096311.616       -1955.603          38.000  
G20  19068281.125   100204522.611       -1324.581          41.000                                                                  
G05  20937292.776   110026218.892        1008.731          44.000    20937296.817    85734735.033         786.059          39.000  
G11  20411785.856   107264686.298       -1771.045          45.000    20411784.977    83582852.032       -1380.503          40.000  
G06  20945350.379   110068559.590       -2765.968          44.000    20945353.730    85767718.658       -2154.830          37.000  
G17  21608482.228   113553307.390       -3453.620          42.000    21608489.124    88483157.719       -2691.101          36.000  
G25  22990193.186                         745.102          17.000                                                                  
G12  20722346.244   108896686.828        -504.183          46.000    20722348.308    84854558.856        -393.428          37.000  
G13  23556447.241   123789952.007        1193.683          34.000                                                                  
G22  22093764.720   116103507.422       -4889.068          43.000                                                                  
G19  19546729.044   102718706.101       -2632.981          43.000                                                                  
> 2025 04 04 08 39 07.9950000  0 11                     
G09  22247018.641   116908867.470       -2510.437          39.000    22247031.011    91098267.537       -1955.750          35.000  
G20  19068533.392   100205847.877       -1325.225          41.000                                                                  
G05  20937100.970   110025210.666        1008.255          44.000    20937104.962    85733949.433         785.991          40.000  
G11  20412123.035   107266458.102       -1771.442          45.000    20412122.134    83584232.675       -1380.983          40.000  
G06  20945876.915   110071325.826       -2766.245          43.000    20945880.025    85769874.228       -2155.779          36.000  
G17  21609139.508   113556761.206       -3453.763          41.000    21609146.372    88485848.998       -2691.378          36.000  
G25  22990050.391                         745.102          15.000                                                                  
G12  20722442.443   108897192.012        -505.356          46.000    20722444.365    84854952.487        -393.604          37.000  
G13  23556219.999   123788758.931        1193.327          34.000                                                                  
G22  22094695.040   116108396.742       -4889.081          42.000                                                                  
G19  19547230.068   102721339.055       -2633.029          44.000                                                                  
> 2025 04 04 08 39 08.9950000  0 11                     
G09  22247496.168   116911377.185       -2509.912          39.000    22247508.627    91100223.135       -1954.889          37.000  
G20  19068785.522   100207172.746       -1324.542          41.000                                                                  
G05  20936909.048   110024201.973        1008.891          44.000    20936912.937    85733163.444         786.325          40.000  
G11  20412459.912   107268229.089       -1770.256          45.000    20412459.191    83585612.632       -1379.757          40.000  
G06  20946403.181   110074091.130       -2764.320          44.000    20946406.162    85772028.981       -2153.520          36.000  
G17  21609796.658   113560214.462       -3453.391          40.000    21609803.577    88488539.838       -2690.589          36.000  
G25  22989906.542                         745.102          15.000                                                                  
G12  20722538.551   108897696.923        -504.675          45.000    20722540.418    84855345.910        -393.166          36.000  
G13  23555992.661   123787564.679        1194.079          35.000                                                                  
G22  22095625.170   116113285.302       -4888.110          42.000                                                                  
G19  19547731.092   102723971.587       -2632.302          43.000                                                                  
> 2025 04 04 08 39 09.9950000  0 11                     
G09  22247973.653   116913886.248       -2508.582          38.000    22247986.061    91102178.246       -1955.060          37.000  
G20  19069037.588   100208496.923       -1323.915          40.000                                                                  
G05  20936716.947   110023192.496        1009.800          44.000    20936720.899    85732376.837         787.172          39.000  
G11  20412796.759   107269998.922       -1769.229          44.000    20412795.967    83586991.719       -1378.831          40.000  
G06  20946929.174   110076855.232       -2763.325          43.000    20946932.127    85774182.845       -2153.648          38.000  
G17  21610453.660   113563666.881       -3452.076          40.000    21610460.517    88491230.066       -2689.948          37.000  
G25  22989764.819                         745.102          14.000                                                                  
G12  20722634.666   108898201.241        -504.053          45.000    20722636.439    84855738.930        -392.816          37.000  
G13  23555765.091   123786368.862        1196.508          35.000                                                                  
G22  22096555.203   116118172.753       -4887.106          41.000                                                                  
G19  19548231.916   102726603.393       -2631.500          43.000                                                                  
> 2025 04 04 08 39 10.9950000  0 11                     
G09  22248451.089   116916395.018       -2508.368          37.000    22248463.498    91104133.150       -1954.626          35.000  
G20  19069289.623   100209820.698       -1323.776          40.000                                                                  
G05  20936524.835   110022182.523        1009.682          44.000    20936528.765    85731589.860         786.891          39.000  
G11  20413133.320   107271767.918       -1768.562          44.000    20413132.588    83588370.171       -1378.560          40.000  
G06  20947454.921   110079618.424       -2762.792          43.000    20947457.980    85776335.962       -2153.017          38.000  
G17  21611110.521   113567118.729       -3451.424          40.000    21611117.367    88493919.817       -2689.704          36.000  
G25  22989624.868                         745.102          14.000                                                                  
G12  20722730.656   108898705.335        -504.284          45.000    20722732.304    84856131.682        -392.484          37.000  
G13  23555537.356   123785171.989        1197.675          35.000                                                                  
G22  22097485.113   116123059.392       -4886.421          41.000                                                                  
G19  19548732.713   102729234.712       -2631.115          43.000                                                                  
> 2025 04 04 08 39 11.9950000  0 10                     
G09  22248928.465   116918903.564       -2508.514          37.000    22248940.948    91106087.875       -1954.694          35.000  
G20  19069541.456   100211144.268       -1323.658          40.000                                                                  
G05  20936332.674   110021172.249        1010.075          44.000    20936336.484    85730802.620         787.057          39.000  
G11  20413469.803   107273536.266       -1768.143          45.000    20413469.061    83589748.087       -1377.736          40.000  
G06  20947980.642   110082380.845       -2762.059          42.000    20947983.717    85778488.523       -2152.426          38.000  
G17  21611767.389   113570570.261       -3451.514          41.000    21611774.236    88496609.332       -2689.601          36.000  
G12  20722826.591   108899209.329        -504.246          45.000    20722828.245    84856524.409        -392.847          36.000  
G13  23555309.457   123783974.148        1197.888          35.000                                                                  
G22  22098414.876   116127945.425       -4885.591          42.000                                                                  
G19  19549233.391   102731865.823       -2631.481          44.000                                                                  
> 2025 04 04 08 39 12.9950000  0 10                     
G09  22249405.921   116921412.243       -2508.539          40.000    22249418.288    91108042.686       -1954.987          39.000  
G20  19069793.363   100212467.971       -1323.909          41.000                                                                  
G05  20936140.469   110020161.991        1010.305          44.000    20936144.196    85730015.404         787.617          39.000  
G11  20413806.211   107275304.295       -1768.175          45.000    20413805.412    83591125.761       -1377.531          40.000  
G06  20948506.280   110085142.888       -2761.763          43.000    20948509.327    85780640.727       -2151.870          38.000  
G17  21612424.234   113574021.711       -3451.622          41.000    21612430.908    88499298.764       -2689.273          36.000  
G12  20722922.530   108899713.554        -504.311          46.000    20722924.230    84856917.311        -393.053          37.000  
G13  23555081.473   123782775.581        1199.223          36.000                                                                  
G22  22099344.705   116132831.194       -4885.767          42.000                                                                  
G19  19549734.079   102734496.963       -2631.575          45.000                                                                  
> 2025 04 04 08 39 13.9950000  0 10                     
G09  22249883.446   116923921.332       -2509.033          40.000    22249895.766    91109997.812       -1955.121          39.000  
G20  19070045.373   100213791.950       -1324.096          41.000                                                                  
G05  20935948.279   110019151.929        1010.433          44.000    20935952.035    85729228.384         787.030          39.000  
G11  20414142.680   107277072.148       -1767.646          45.000    20414141.881    83592503.325       -1377.490          40.000  
G06  20949031.907   110087904.699       -2761.757          43.000    20949034.831    85782792.807       -2152.196          37.000  
G17  21613081.026   113577473.337       -3451.925          41.000    21613087.721    88501988.311       -2689.484          37.000  
G12  20723018.631   108900218.207        -505.120          46.000    20723020.205    84857310.555        -393.438          37.000  
G13  23554853.201   123781576.585        1199.276          35.000                                                                  
G22  22100274.443   116137716.836       -4885.744          42.000                                                                  
G19  19550234.894   102737128.359       -2631.539          45.000                                                                  
> 2025 04 04 08 39 14.9950000  0 10                     
G09  22250361.029   116926430.907       -2510.107          39.000    22250373.346    91111953.363       -1955.554          38.000  
G20  19070297.403   100215116.436       -1324.662          40.000                                                                  
G05  20935756.222   110018142.322        1009.304          44.000    20935759.930    85728441.652         786.860          39.000  
G11  20414479.044   107278840.079       -1767.874          44.000    20414478.319    83593880.933       -1377.549          40.000  
G06  20949557.436   110090666.480       -2761.751          43.000    20949560.462    85784944.831       -2151.632          38.000  
G17  21613737.879   113580925.344       -3452.449          42.000    21613744.595    88504678.195       -2690.092          37.000  
G12  20723114.769   108900723.486        -505.666          45.000    20723116.410    84857704.245        -393.537          36.000  
G13  23554624.958   123780377.370        1199.163          36.000                                                                  
G22  22101204.044   116142602.579       -4886.198          42.000                                                                  
G19  19550735.742   102739760.260       -2632.406          45.000                                                                  
> 2025 04 04 08 39 15.9950000  0 10                     
G09  22250838.730   116928941.114       -2510.541          39.000    22250851.090    91113909.340       -1956.214          38.000  
G20  19070549.585   100216441.459       -1325.089          41.000                                                                  
G05  20935564.096   110017133.128        1008.736          44.000    20935567.848    85727655.273         786.260          39.000  
G11  20414815.463   107280608.116       -1768.241          44.000    20414814.723    83595258.632       -1377.871          40.000  
G06  20950083.032   110093428.271       -2761.853          43.000    20950085.926    85787096.877       -2152.304          38.000  
G17  21614394.762   113584377.689       -3452.468          41.000    21614401.647    88507368.372       -2690.430          36.000  
G12  20723211.129   108901229.434        -506.403          46.000    20723212.771    84858098.520        -394.399          36.000  
G13  23554396.690   123779177.822        1200.085          36.000                                                                  
G22  22102133.853   116147488.464       -4885.870          42.000                                                                  
G19  19551236.580   102742392.605       -2632.420          45.000                                                                  
> 2025 04 04 08 39 16.9950000  0 10                     
G09  22251316.588   116931451.900       -2511.176          39.000    22251328.969    91115865.785       -1956.769          38.000  
G20  19070801.844   100217767.037       -1325.942          41.000                                                                  
G05  20935372.120   110016124.387        1008.409          44.000    20935375.924    85726869.265         785.380          39.000  
G11  20415151.910   107282376.250       -1768.352          44.000    20415151.135    83596636.405       -1378.425          40.000  
G06  20950608.552   110096190.084       -2761.936          43.000    20950611.396    85789248.921       -2152.268          38.000  
G17  21615051.758   113587830.445       -3453.101          41.000    21615058.607    88510058.812       -2690.792          36.000  
G12  20723307.656   108901736.070        -507.317          46.000    20723309.162    84858493.296        -395.059          36.000  
G13  23554168.485   123777978.151        1199.833          36.000                                                                  
G22  22103063.647   116152374.506       -4886.158          42.000                                                                  
G19  19551737.520   102745025.498       -2633.364          44.000                                                                  
> 2025 04 04 08 39 17.9950000  0 10                     
G09  22251794.431   116933963.206       -2512.024          39.000    22251806.845    91117822.690       -1957.434          38.000  
G20  19071054.252   100219093.120       -1326.596          41.000                                                                  
G05  20935180.220   110015116.073        1007.863          44.000    20935184.013    85726083.554         785.483          39.000  
G11  20415488.322   107284144.438       -1768.301          45.000    20415487.597    83598014.196       -1378.052          40.000  
G06  20951133.996   110098951.854       -2761.775          43.000    20951136.940    85791400.939       -2151.965          38.000  
G17  21615708.915   113591283.583       -3453.497          41.000    21615715.752    88512749.578       -2691.494          36.000  
G12  20723404.171   108902243.335        -507.649          46.000    20723405.790    84858888.558        -395.339          37.000  
G13  23553940.149   123776778.195        1200.260          35.000                                                                  
G22  22103993.531   116157260.652       -4886.508          42.000                                                                  
G19  19552238.544   102747658.837       -2633.880          45.000                                                                  
> 2025 04 04 08 39 18.9950000  0 10                     
G09  22252272.359   116936475.029       -2512.109          38.000    22252284.805    91119779.940       -1957.483          38.000  
G20  19071306.660   100220419.636       -1326.833          41.000                                                                  
G05  20934988.386   110014108.141        1007.581          44.000    20934992.214    85725298.160         785.140          39.000  
G11  20415824.833   107285912.636       -1768.394          45.000    20415824.049    83599392.014       -1377.670          40.000  
G06  20951659.505   110101713.584       -2761.891          43.000    20951662.510    85793552.949       -2151.846          38.000  
G17  21616366.018   113594736.997       -3453.572          41.000    21616372.863    88515440.547       -2691.277          37.000  
G12  20723500.951   108902751.170        -508.246          46.000    20723502.398    84859284.303        -395.722          36.000  
G13  23553711.889   123775577.921        1200.159          36.000                                                                  
G22  22104923.267   116162146.834       -4886.410          42.000                                                                  
G19  19552739.769   102750292.569       -2634.038          44.000                                                                  
> 2025 04 04 08 39 19.9950000  0 10                     
G09  22252750.432   116938987.344       -2512.323          39.000    22252762.830    91121737.580       -1957.953          38.000  
G20  19071559.279   100221746.608       -1327.383          41.000                                                                  
G05  20934796.720   110013100.540        1007.383          44.000    20934800.505    85724513.037         784.846          40.000  
G11  20416161.320   107287680.851       -1768.254          45.000    20416160.500    83600769.838       -1378.138          40.000  
G06  20952185.067   110104475.211       -2761.774          43.000    20952188.039    85795704.847       -2151.921          38.000  
G17  21617023.198   113598190.719       -3453.785          41.000    21617030.193    88518131.748       -2691.780          37.000  
G12  20723597.794   108903259.618        -509.006          46.000    20723599.161    84859680.453        -396.304          36.000  
G13  23553483.521   123774377.316        1200.770          36.000                                                                  
G22  22105853.153   116167033.065       -4886.292          42.000                                                                  
G19  19553241.014   102752926.729       -2634.427          44.000                                                                  
> 2025 04 04 08 39 20.9950000  0 10                     
G09  22253228.772   116941500.346       -2513.525          40.000    22253240.993    91123695.788       -1958.679          38.000  
G20  19071811.965   100223074.223       -1328.009          41.000                                                                  
G05  20934605.073   110012093.494        1006.741          44.000    20934608.902    85723728.319         784.499          39.000  
G11  20416497.805   107289449.245       -1768.536          44.000    20416497.049    83602147.802       -1378.188          40.000  
G06  20952710.582   110107236.942       -2761.955          43.000    20952713.519    85797856.851       -2152.133          37.000  
G17  21617680.526   113601644.914       -3454.800          40.000    21617687.449    88520823.318       -2691.817          36.000  
G12  20723694.640   108903768.796        -509.834          45.000    20723696.070    84860077.229        -397.144          36.000  
G13  23553254.890   123773176.597        1200.891          36.000                                                                  
G22  22106783.122   116171919.516       -4886.672          42.000                                                                  
G19  19553742.409   102755561.484       -2635.494          44.000                                                                  
> 2025 04 04 08 39 21.9950000  0 10                     
G09  22253707.077   116944013.969       -2513.727          39.000    22253719.332    91125654.461       -1959.192          38.000  
G20  19072064.718   100224402.419       -1328.561          41.000                                                                  
G05  20934413.431   110011086.956        1006.402          44.000    20934417.265    85722943.981         784.852          39.000  
G11  20416834.446   107291217.790       -1768.418          45.000    20416833.491    83603525.903       -1378.276          39.000  
G06  20953236.090   110109998.746       -2761.814          43.000    20953239.165    85800008.911       -2152.081          38.000  
G17  21618337.939   113605099.564       -3454.740          40.000    21618344.813    88523515.265       -2691.736          36.000  
G12  20723791.667   108904278.683        -510.076          46.000    20723793.030    84860474.556        -397.417          36.000  
G13  23553026.241   123771975.690        1201.288          36.000                                                                  
G22  22107713.002   116176806.186       -4886.737          42.000                                                                  
G19  19554243.926   102758196.751       -2635.633          45.000                                                                  
> 2025 04 04 08 39 22.9950000  0 10                     
G09  22254185.516   116946528.302       -2515.015          39.000    22254197.795    91127613.671       -1959.711          38.000  
G20  19072317.527   100225731.260       -1329.102          41.000                                                                  
G05  20934222.090   110010080.974        1005.762          44.000    20934225.809    85722160.117         783.833          40.000  
G11  20417171.007   107292986.538       -1768.499          45.000    20417170.124    83604904.141       -1378.273          39.000  
G06  20953761.743   110112760.676       -2761.805          43.000    20953764.705    85802161.058       -2152.388          38.000  
G17  21618995.391   113608554.705       -3455.368          40.000    21619002.277    88526207.586       -2692.437          36.000  
G12  20723888.837   108904789.368        -510.871          46.000    20723890.239    84860872.472        -397.630          36.000  
G13  23552797.921   123770774.734        1201.238          36.000                                                                  
G22  22108642.962   116181693.084       -4887.025          42.000                                                                  
G19  19554745.574   102760832.637       -2636.016          45.000                                                                  
> 2025 04 04 08 39 23.9950000  0 10                     
G09  22254664.170   116949043.227       -2514.923          39.000    22254676.359    91129573.361       -1959.967          38.000  
G20  19072570.469   100227060.665       -1329.803          41.000                                                                  
G05  20934030.689   110009075.457        1005.054          44.000    20934034.537    85721376.623         782.949          40.000  
G11  20417507.614   107294755.421       -1769.177          45.000    20417506.750    83606282.508       -1378.506          39.000  
G06  20954287.364   110115522.631       -2761.994          42.000    20954290.251    85804313.249       -2152.292          38.000  
G17  21619652.906   113612010.282       -3455.809          40.000    21619659.774    88528900.225       -2692.750          36.000  
G12  20723986.148   108905300.754        -512.048          46.000    20723987.588    84861270.938        -398.705          36.000  
G13  23552569.389   123769573.553        1201.150          36.000                                                                  
G22  22109572.952   116186580.153       -4887.459          42.000                                                                  
G19  19555247.328   102763469.067       -2636.732          45.000                                                                  
