     3.02           OBSERVATION DATA    M (MIXED)           RINEX VERSION / TYPE
GPP.DLL V3.2.21                         20250314 013100 UTC PGM / RUN BY / DATE 
                                                            MARKER NAME         
                                                            MARKER NUMBER       
Non Geodetic                                                MARKER TYPE         
                                                            OBSERVER / AGENCY   
5034K69681          NetR9               5.01                REC # / TYPE / VERS 
                    GH                                      ANT # / TYPE        
 -1626584.1403  5730524.4372  2271867.9795                  APPROX POSITION XYZ 
        0.0000       -0.0000       -0.0000                  ANTENNA: DELTA H/E/N
G   16 L1C L2W L2X L5X C1C C2W C2X C5X D1C D2W D2X D5X S1C  SYS / # / OBS TYPES 
       S2W S2X S5X                                          SYS / # / OBS TYPES 
G L2W   0.0000                                              SYS / PHASE SHIFT   
G L2X   0.0000                                              SYS / PHASE SHIFT   
G L5X   0.0000                                              SYS / PHASE SHIFT   
G L1C                                                       SYS / PHASE SHIFT   
 C1C          C1P          C2C          C2P                 GLONASS COD/PHS/BIS 
     1.000                                                  INTERVAL            
  2025     3    13     8    48   41.0000000     GPS         TIME OF FIRST OBS   
  2025     3    13     9     0   49.0000000     GPS         TIME OF LAST OBS    
    18    18  2441     7                                    LEAP SECONDS        
    12                                                      # OF SATELLITES     
   G04   591     0   431   429   591     0   431   429   591PRN / # OF OBS      
           0   343   342   591     0   431   429            PRN / # OF OBS      
   G05   596   596   596     0   596   596   596     0   596PRN / # OF OBS      
         595   595     0   596   596   596     0            PRN / # OF OBS      
   G06   596   596   596   596   596   596   596   596   596PRN / # OF OBS      
         595   595   595   596   596   596   596            PRN / # OF OBS      
   G09   596   581   581   581   596   581   581   581   596PRN / # OF OBS      
         567   567   567   596   581   581   581            PRN / # OF OBS      
   G11   596   596   596   596   596   596   596   596   596PRN / # OF OBS      
         595   595   595   596   596   596   596            PRN / # OF OBS      
   G12   596   596   596     0   596   596   596     0   596PRN / # OF OBS      
         595   595     0   596   596   596     0            PRN / # OF OBS      
   G14   596   596   596   596   596   596   596   596   596PRN / # OF OBS      
         595   595   595   596   596   596   596            PRN / # OF OBS      
   G17   596   596   596     0   596   596   596     0   596PRN / # OF OBS      
         595   595     0   596   596   596     0            PRN / # OF OBS      
   G19   596   596     0     0   596   596     0     0   596PRN / # OF OBS      
         595     0     0   596   596     0     0            PRN / # OF OBS      
   G20   596   596     0     0   596   596     0     0   596PRN / # OF OBS      
         595     0     0   596   596     0     0            PRN / # OF OBS      
   G22   596   596     0     0   596   596     0     0   596PRN / # OF OBS      
         595     0     0   596   596     0     0            PRN / # OF OBS      
   G24   596   550   550   550   596   550   550   550   596PRN / # OF OBS      
         523   523   523   596   550   550   550            PRN / # OF OBS      
                                                            END OF HEADER       
> 2025 03 13 08 48 41.0000000  0 12
G04 132817991.77915                 103494704.07716  99182463.67316  25274429.195                    25274453.320    25274464.473         313.484                           0.000           0.000          31.000                          36.000          39.000  
G05 133139100.25515 103744851.74513 103744856.74015                  25335522.367    25335549.164    25335548.938                        3714.508           0.000           0.000                          34.000          23.000          35.000                  
G06 112148539.16417  87388534.20018  87388466.19818  83747276.34418  21341156.516    21341172.566    21341172.922    21341177.910        -884.176           0.000           0.000           0.000          46.000          48.000          49.000          52.000  
G09 126054149.14815  98224146.98214  98224142.98216  94131499.33217  23987303.398    23987333.273    23987333.129    23987341.668        1232.481           0.000           0.000           0.000          35.000          27.000          37.000          43.000  
G11 115584931.71517  90066248.18315  90066181.18018  86313421.71918  21995077.141    21995094.188    21995094.023    21995103.387         597.387           0.000           0.000           0.000          45.000          35.000          48.000          50.000  
G12 127759188.64916  99552705.04414  99552707.04516                  24311764.078    24311784.656    24311785.188                        3316.961           0.000           0.000                          36.000          26.000          38.000                  
G14 115835779.67117  90261720.79915  90261639.79217  86500734.32318  22042818.414    22042838.266    22042838.039    22042848.695       -3161.293           0.000           0.000           0.000          43.000          32.000          45.000          49.000  
G17 115889477.15217  90303548.28317  90303482.28017                  22053035.383    22053051.234    22053050.832                        -428.676           0.000           0.000                          44.000          42.000          44.000                  
G24 134208766.82414 104578361.66613 104578357.66915 100220960.52616  25539078.250    25539112.027    25539112.301    25539122.023       -1145.074           0.000           0.000           0.000          29.000          18.000          32.000          38.000  
G22 110823094.70418  86355706.31616                                  21088934.648    21088949.742                                       -1716.348           0.000                                          48.000          39.000                                  
G20 114906543.55917  89537649.33815                                  21865984.359    21866003.367                                        2631.801           0.000                                          45.000          34.000                                  
G19 109889959.66317  85628580.03116                                  20911363.062    20911374.516                                         625.938           0.000                                          46.000          38.000                                  
> 2025 03 13 08 50 55.0000000  0 12
G04 132779376.70215                 103464615.92116  99153629.58216  25267078.367                    25267103.676    25267114.746         262.891                           0.000           0.000          30.000                          36.000          38.000  
G05 132641643.893 5 103357224.266 4 103357229.279 6                  25240857.320    25240884.863    25240885.523                        3710.004        2892.742        2892.742                          34.000          24.000          36.000                  
G06 112268528.856 7  87482033.035 8  87481965.029 8  83836879.474 8  21363989.180    21364005.410    21364006.102    21364010.926        -906.438        -697.753        -697.752        -668.680          46.000          48.000          48.000          52.000  
G09 125891435.29615  98097358.12114  98097354.13016  94009993.65717  23956338.969    23956369.242    23956368.680    23956377.910        1195.668           0.000           0.000           0.000          34.000          27.000          37.000          44.000  
G11 115507242.860 7  90005712.429 5  90005645.423 8  86255408.509 8  21980292.453    21980309.602    21980309.500    21980318.645         562.242         451.759         451.759         432.934          45.000          34.000          48.000          51.000  
G12 127316916.219 6  99208078.496 4  99208080.495 6                  24227604.500    24227621.738    24227621.340                        3283.844        2571.840        2571.840                          38.000          29.000          36.000                  
G14 116262238.240 7  90594025.700 5  90593944.696 7  86819193.096 8  22123970.633    22123991.230    22123990.867    22124001.457       -3203.262       -2479.887       -2479.887       -2376.558          43.000          31.000          46.000          49.000  
G17 115948634.523 7  90349644.633 7  90349578.633 7                  22064292.812    22064309.031    22064309.273                        -454.402        -344.003        -344.003                          44.000          42.000          45.000                  
G24 134364180.29514 104699461.80413 104699457.80815 100337014.61116  25568653.109    25568688.121    25568688.586    25568697.984       -1174.316           0.000           0.000           0.000          29.000          18.000          34.000          39.000  
G22 111057607.080 8  86538442.924 6                                  21133561.047    21133576.398                                       -1783.605       -1363.706                                          48.000          39.000                                  
G20 114557506.674 7  89265673.741 5                                  21799564.500    21799582.316                                        2577.523        2029.669                                          46.000          34.000                                  
G19 109807781.006 7  85564545.021 6                                  20895724.758    20895735.973                                         600.453         477.873                                          46.000          38.000                                  
> 2025 03 13 08 50 56.0000000  0 12
G04 132779114.453 4                 103464411.584 6  99153433.760 6  25267026.664                    25267053.441    25267064.629         262.090                         204.336         195.823          29.000                          36.000          38.000  
G05 132637934.044 5 103354333.483 4 103354338.495 6                  25240152.398    25240179.109    25240179.652                        3709.801        2890.782        2890.783                          34.000          25.000          36.000                  
G06 112269435.379 7  87482739.419 8  87482671.413 8  83837556.426 8  21364161.969    21364178.164    21364178.859    21364183.668        -906.625        -706.384        -706.384        -676.952          46.000          48.000          48.000          52.000  
G09 125890239.801 5  98096426.572 4  98096422.584 6  94009100.927 7  23956110.961    23956141.777    23956141.187    23956150.535        1194.984         931.549         931.546         892.730          33.000          25.000          37.000          44.000  
G11 115506680.763 7  90005274.439 5  90005207.435 8  86254988.773 8  21980185.453    21980202.996    21980202.969    21980212.074         561.914         437.990         437.988         419.736          44.000          34.000          48.000          51.000  
G12 127313632.479 6  99205519.749 4  99205521.743 6                  24226979.859    24226996.676    24226996.164                        3283.668        2558.746        2558.752                          38.000          28.000          36.000                  
G14 116265441.761 7  90596521.945 5  90596440.941 7  86821585.329 8  22124580.594    22124600.738    22124600.598    22124611.016       -3203.613       -2496.246       -2496.245       -2392.234          43.000          31.000          46.000          49.000  
G17 115949088.999 7  90349998.769 7  90349932.769 7                  22064379.422    22064395.539    22064395.785                        -454.609        -354.136        -354.136                          44.000          42.000          45.000                  
G24 134365354.608 4 104700376.837 3 104700372.843 5 100337891.518 6  25568877.664    25568911.328    25568911.688    25568921.289       -1174.430        -915.034        -915.034        -876.907          29.000          19.000          34.000          39.000  
G22 111059391.014 8  86539832.999 6                                  21133900.102    21133915.762                                       -1784.176       -1390.076                                          48.000          39.000                                  
G20 114554929.358 7  89263665.450 5                                  21799073.781    21799091.770                                        2577.164        2008.291                                          46.000          34.000                                  
G19 109807180.721 7  85564077.268 6                                  20895610.219    20895621.707                                         600.219         467.752                                          47.000          37.000                                  
> 2025 03 13 08 50 57.0000000  0 12
G04 132778852.586 5                 103464207.553 5  99153238.232 6  25266976.211                    25267003.453    25267014.867         261.410                         204.031         195.528          30.000                          35.000          39.000  
G05 132634224.229 5 103351442.735 4 103351447.743 6                  25239446.016    25239473.430    25239473.773                        3709.961        2890.749        2890.752                          34.000          26.000          37.000                  
G06 112270342.056 7  87483445.925 8  87483377.919 8  83838233.495 8  21364334.055    21364350.738    21364351.266    21364356.133        -906.664        -706.506        -706.506        -677.069          46.000          48.000          49.000          52.000  
G09 125889044.575 5  98095495.234 4  98095491.242 6  94008208.395 7  23955882.836    23955913.945    23955913.445    23955922.812        1195.059         931.337         931.342         892.532          33.000          26.000          38.000          44.000  
G11 115506118.925 7  90004836.653 5  90004769.647 8  86254569.229 8  21980078.312    21980096.129    21980096.027    21980105.172         561.613         437.786         437.788         419.544          45.000          34.000          48.000          51.000  
G12 127310348.995 6  99202961.199 4  99202963.188 6                  24226354.609    24226371.965    24226371.512                        3283.281        2558.550        2558.555                          38.000          27.000          36.000                  
G14 116268645.587 7  90599018.431 5  90598937.428 7  86823977.793 8  22125190.156    22125210.715    22125210.777    22125220.875       -3204.027       -2496.485       -2496.487       -2392.464          43.000          31.000          46.000          48.000  
G17 115949543.670 7  90350353.059 7  90350287.058 7                  22064466.289    22064482.082    22064482.141                        -454.672        -354.290        -354.289                          44.000          42.000          45.000                  
G24 134366529.139 4 104701292.050 3 104701288.049 5 100338768.592 6  25569101.516    25569134.984    25569135.137    25569144.699       -1174.395        -915.213        -915.206        -877.074          29.000          19.000          34.000          39.000  
G22 111061175.451 8  86541223.467 6                                  21134240.055    21134255.398                                       -1784.613       -1390.467                                          48.000          39.000                                  
G20 114552352.441 7  89261657.471 5                                  21798583.109    21798601.598                                        2576.684        2007.978                                          46.000          34.000                                  
G19 109806580.631 7  85563609.669 6                                  20895495.805    20895507.508                                         600.004         467.599                                          47.000          38.000                                  
> 2025 03 13 08 50 58.0000000  0 12
G04 132778591.108 5                 103464003.831 5  99153042.999 6  25266927.789                    25266953.820    25266965.207         261.215                         203.722         195.233          30.000                          35.000          39.000  
G05 132630514.457 5 103348552.026 4 103348557.031 6                  25238740.242    25238767.348    25238767.543                        3709.594        2890.708        2890.712                          35.000          25.000          36.000                  
G06 112271248.881 7  87484152.545 8  87484084.538 8  83838910.674 8  21364506.742    21364522.934    21364523.449    21364528.434        -906.961        -706.620        -706.620        -677.179          46.000          48.000          48.000          52.000  
G09 125887849.629 5  98094564.120 4  98094560.127 6  94007316.080 7  23955655.555    23955686.922    23955686.480    23955695.914        1194.164         931.115         931.115         892.316          32.000          26.000          37.000          45.000  
G11 115505557.336 7  90004399.064 5  90004332.055 8  86254149.871 8  21979971.758    21979988.895    21979988.773    21979998.020         561.484         437.588         437.592         419.358          44.000          35.000          48.000          51.000  
G12 127307065.750 6  99200402.837 4  99200404.819 6                  24225729.937    24225746.871    24225746.527                        3283.000        2558.363        2558.369                          38.000          28.000          36.000                  
G14 116271849.703 7  90601515.149 5  90601434.141 7  86826370.476 8  22125800.023    22125820.219    22125820.172    22125830.281       -3204.254       -2496.719       -2496.713       -2392.683          43.000          32.000          46.000          48.000  
G17 115949998.532 7  90350707.497 7  90350641.495 7                  22064552.375    22064568.746    22064568.723                        -454.941        -354.438        -354.437                          44.000          42.000          45.000                  
G24 134367703.862 4 104702207.407 3 104702203.409 5 100339645.813 6  25569324.359    25569358.695    25569359.109    25569368.488       -1174.852        -915.356        -915.361        -877.221          28.000          18.000          34.000          39.000  
G22 111062960.377 8  86542614.315 6                                  21134579.789    21134594.648                                       -1785.117       -1390.848                                          48.000          39.000                                  
G20 114549775.925 7  89259649.807 5                                  21798092.969    21798111.484                                        2576.289        2007.664                                          46.000          34.000                                  
G19 109805980.719 7  85563142.207 6                                  20895381.977    20895393.512                                         599.898         467.462                                          46.000          38.000                                  
> 2025 03 13 08 50 59.0000000  0 12
G04 132778329.993 4                 103463800.387 5  99152848.031 6  25266877.711                    25266904.273    25266915.984         260.867                         203.444         194.968          29.000                          35.000          39.000  
G05 132626804.718 5 103345661.328 4 103345666.334 6                  25238035.219    25238061.230    25238061.422                        3709.609        2890.698        2890.698                          35.000          25.000          36.000                  
G06 112272155.866 7  87484859.290 8  87484791.283 8  83839587.971 8  21364679.461    21364695.828    21364696.246    21364701.336        -907.016        -706.746        -706.745        -677.298          46.000          48.000          48.000          52.000  
G09 125886654.961 5  98093633.221 4  98093629.224 6  94006423.970 7  23955427.766    23955459.422    23955458.840    23955468.387        1194.109         930.898         930.902         892.110          33.000          25.000          37.000          44.000  
G11 115504995.995 7  90003961.665 5  90003894.657 8  86253730.698 8  21979864.586    21979882.152    21979882.234    21979891.258         561.199         437.399         437.398         419.173          44.000          34.000          48.000          50.000  
G12 127303782.749 6  99197844.657 4  99197846.646 6                  24225105.203    24225122.031    24225121.758                        3282.828        2558.180        2558.173                          37.000          28.000          36.000                  
G14 116275054.124 7  90604012.106 5  90603931.093 7  86828763.388 8  22126409.352    22126430.109    22126430.141    22126440.219       -3204.633       -2496.958       -2496.952       -2392.912          43.000          31.000          46.000          48.000  
G17 115950453.580 7  90351062.077 7  90350996.076 7                  22064638.797    22064655.203    22064655.363                        -455.141        -354.580        -354.581                          44.000          42.000          45.000                  
G24 134368878.785 4 104703122.931 2 104703118.930 5 100340523.183 6  25569546.812    25569582.469    25569582.820    25569592.262       -1174.945        -915.525        -915.520        -877.371          28.000          17.000          34.000          40.000  
G22 111064745.791 7  86544005.542 6                                  21134919.477    21134934.523                                       -1785.695       -1391.227                                          47.000          38.000                                  
G20 114547199.811 7  89257642.456 5                                  21797602.641    21797621.398                                        2575.914        2007.352                                          46.000          34.000                                  
G19 109805380.997 7  85562674.895 6                                  20895267.781    20895279.137                                         599.566         467.313                                          47.000          37.000                                  
> 2025 03 13 08 51  0.0000000  0 12
G04 132778069.82135                                                  25266829.453                                                         260.660                                                          30.000                                                  
G05 132623094.993 5 103342770.633 4 103342775.642 6                  25237328.336    25237355.383    25237355.562                        3709.551        2890.696        2890.692                          35.000          25.000          36.000                  
G06 112273063.022 7  87485566.170 8  87485498.163 8  83840265.400 8  21364851.992    21364868.668    21364869.266    21364874.223        -907.266        -706.879        -706.880        -677.428          46.000          48.000          48.000          52.000  
G09 125885460.585 5  98092702.550 4  98092698.548 6  94005532.073 7  23955201.422    23955232.156    23955231.426    23955240.957        1194.180         930.671         930.676         891.896          33.000          26.000          37.000          44.000  
G11 115504434.933 7  90003524.483 5  90003457.475 8  86253311.733 8  21979758.156    21979775.477    21979775.387    21979784.461         560.957         437.183         437.182         418.965          44.000          34.000          48.000          50.000  
G12 127300500.004 6  99195286.685 4  99195288.676 6                  24224480.281    24224497.594    24224497.270                        3282.660        2557.972        2557.970                          37.000          27.000          37.000                  
G14 116278258.866 7  90606509.301 5  90606428.293 7  86831156.533 8  22127019.031    22127039.672    22127039.316    22127049.852       -3204.840       -2497.194       -2497.199       -2393.145          43.000          31.000          46.000          49.000  
G17 115950908.835 7  90351416.818 7  90351350.817 7                  22064725.523    22064741.738    22064742.078                        -455.430        -354.741        -354.741                          44.000          42.000          45.000                  
G24 134370053.942 4 104704038.626 3 104704034.633 5 100341400.729 6  25569769.578    25569805.938    25569806.203    25569815.625       -1175.758        -915.695        -915.703        -877.546          29.000          18.000          34.000          40.000  
G22 111066531.727 8  86545397.177 6                                  21135259.344    21135274.453                                       -1786.191       -1391.635                                          48.000          39.000                                  
G20 114544624.118 7  89255635.431 5                                  21797112.727    21797131.016                                        2575.430        2007.025                                          46.000          34.000                                  
G19 109804781.481 7  85562207.741 6                                  20895153.680    20895164.957                                         599.469         467.154                                          46.000          38.000                                  
> 2025 03 13 08 51  1.0000000  0 12
G04 132777809.012 5                 103463394.45616  99152459.02016  25266780.398                    25266804.500    25266816.199         259.957                           0.000           0.000          30.000                          36.000          38.000  
G05 132619385.327 5 103339879.987 4 103339884.996 6                  25236622.398    25236649.359    25236649.680                        3709.688        2890.646        2890.646                          35.000          26.000          36.000                  
G06 112273970.327 7  87486273.163 8  87486205.157 8  83840942.936 8  21365024.406    21365041.039    21365041.500    21365046.492        -907.320        -706.994        -706.994        -677.536          46.000          48.000          48.000          52.000  
G09 125884266.480 5  98091772.079 4  98091768.078 6  94004640.372 7  23954974.695    23955005.012    23955004.047    23955013.730        1194.176         930.471         930.470         891.701          33.000          27.000          37.000          45.000  
G11 115503874.120 7  90003087.493 5  90003020.487 8  86252892.957 8  21979651.344    21979669.086    21979669.234    21979678.125         560.672         436.990         436.988         418.777          44.000          35.000          48.000          51.000  
G12 127297217.516 6  99192728.911 4  99192730.909 6                  24223855.961    24223872.918    24223872.676                        3282.188        2557.774        2557.767                          38.000          28.000          36.000                  
G14 116281463.904 7  90609006.721 5  90608925.718 7  86833549.901 8  22127628.891    22127649.812    22127649.527    22127659.965       -3205.156       -2497.420       -2497.426       -2393.368          43.000          31.000          46.000          48.000  
G17 115951364.284 7  90351771.713 7  90351705.710 7                  22064812.273    22064828.449    22064828.594                        -455.625        -354.894        -354.893                          44.000          42.000          45.000                  
G24 134371229.299 4 104704954.484 3 104704950.490 5 100342278.417 6  25569993.984    25570029.426    25570029.949    25570039.398       -1175.441        -915.858        -915.857        -877.688          29.000          19.000          34.000          40.000  
G22 111068318.152 8  86546789.196 6                                  21135599.406    21135614.188                                       -1786.684       -1392.020                                          48.000          39.000                                  
G20 114542048.831 7  89253628.721 5                                  21796622.602    21796640.891                                        2575.105        2006.710                                          46.000          35.000                                  
G19 109804182.155 7  85561740.737 6                                  20895039.523    20895051.168                                         599.199         467.004                                          46.000          38.000                                  
> 2025 03 13 08 51  2.0000000  0 12
G04 132777549.061 5                 103463191.909 6  99152264.917 6  25266731.938                    25266755.375    25266766.742         259.980                         202.546         194.103          30.000                          36.000          38.000  
G05 132615675.703 5 103336989.382 4 103336994.381 6                  25235916.891    25235943.590    25235943.980                        3709.625        2890.605        2890.615                          35.000          25.000          37.000                  
G06 112274877.793 7  87486980.283 7  87486912.275 8  83841620.592 8  21365196.758    21365213.840    21365214.145    21365219.152        -907.555        -707.120        -707.118        -677.656          46.000          47.000          49.000          52.000  
G09 125883072.657 5  98090841.831 4  98090837.829 6  94003748.888 7  23954746.109    23954777.887    23954777.262    23954786.773        1193.715         930.248         930.249         891.484          32.000          24.000          37.000          44.000  
G11 115503313.560 7  90002650.701 5  90002583.696 8  86252474.367 8  21979544.664    21979562.121    21979562.098    21979571.137         560.414         436.792         436.790         418.590          45.000          35.000          48.000          51.000  
G12 127293935.266 6  99190171.322 4  99190173.321 6                  24223231.469    24223248.320    24223247.957                        3282.211        2557.589        2557.587                          38.000          27.000          36.000                  
G14 116284669.245 7  90611504.381 5  90611423.383 7  86835943.493 8  22128239.406    22128259.867    22128259.621    22128270.008       -3205.523       -2497.660       -2497.664       -2393.592          43.000          31.000          46.000          48.000  
G17 115951819.927 7  90352126.755 6  90352060.754 7                  22064898.719    22064915.191    22064915.039                        -455.641        -355.042        -355.043                          44.000          41.000          45.000                  
G24 134372404.848 4 104705870.499 3 104705866.494 5 100343156.255 6  25570218.094    25570253.273    25570253.773    25570263.129       -1175.453        -916.015        -916.004        -877.838          28.000          18.000          34.000          40.000  
G22 111070105.062 8  86548181.591 6                                  21135939.461    21135954.465                                       -1787.160       -1392.394                                          48.000          39.000                                  
G20 114539473.943 7  89251622.324 5                                  21796132.203    21796150.977                                        2574.699        2006.396                                          45.000          35.000                                  
G19 109803583.022 7  85561273.881 6                                  20894925.438    20894937.066                                         599.031         466.855                                          46.000          38.000                                  
> 2025 03 13 08 51  3.0000000  0 12
G04 132777289.466 5                 103462989.637 6  99152071.079 6  25266681.305                    25266705.734    25266716.703         259.379                         202.273         193.838          30.000                          36.000          38.000  
G05 132611966.058 5 103334098.756 4 103334103.755 6                  25235211.672    25235237.777    25235238.047                        3709.793        2890.627        2890.626                          35.000          26.000          36.000                  
G06 112275785.368 7  87487687.486 7  87487619.480 8  83842298.327 8  21365369.867    21365386.477    21365386.902    21365391.871        -907.543        -707.202        -707.205        -677.736          46.000          47.000          48.000          52.000  
G09 125881879.040 5  98089911.752 4  98089907.744 6  94002857.559 7  23954518.516    23954550.438    23954549.973    23954559.375        1193.633         930.079         930.085         891.329          33.000          25.000          38.000          44.000  
G11 115502753.208 7  90002214.073 5  90002147.067 8  86252055.931 8  21979438.062    21979455.531    21979455.598    21979464.488         560.254         436.628         436.629         418.435          45.000          35.000          48.000          50.000  
G12 127290653.228 6  99187613.894 4  99187615.903 6                  24222606.656    24222623.895    24222623.746                        3281.996        2557.427        2557.419                          37.000          27.000          37.000                  
G14 116287874.833 7  90614002.235 5  90613921.238 7  86838337.272 8  22128849.305    22128869.820    22128869.496    22128879.934       -3205.668       -2497.854       -2497.855       -2393.779          43.000          31.000          46.000          48.000  
G17 115952275.712 7  90352481.910 7  90352415.909 7                  22064985.422    22065002.133    22065002.047                        -455.898        -355.155        -355.156                          44.000          42.000          45.000                  
G24 134373581.09634                                                  25570441.922                                                       -1175.562                                                          29.000                                                  
G22 111071892.422 8  86549574.338 6                                  21136279.836    21136294.688                                       -1787.594       -1392.747                                          48.000          39.000                                  
G20 114536899.411 7  89249616.206 5                                  21795642.234    21795660.836                                        2574.301        2006.118                                          46.000          34.000                                  
G19 109802984.029 7  85560807.136 6                                  20894811.523    20894823.070                                         598.926         466.745                                          46.000          38.000                                  
> 2025 03 13 08 51  4.0000000  0 12
G04 132777030.261 4                 103462787.658 5  99151877.529 6  25266633.008                    25266657.094    25266667.598         259.219                         201.979         193.550          29.000                          35.000          38.000  
G05 132608256.469 5 103331208.175 4 103331213.173 6                  25234505.312    25234531.785    25234531.777                        3709.594        2890.581        2890.582                          35.000          25.000          37.000                  
G06 112276693.111 7  87488394.819 8  87488326.814 8  83842976.190 8  21365542.836    21365559.137    21365559.641    21365564.602        -907.871        -707.333        -707.334        -677.863          46.000          48.000          48.000          52.000  
G09 125880685.743 5  98088981.921 4  98088977.918 6  94001966.481 7  23954291.859    23954323.496    23954323.363    23954332.297        1193.289         929.831         929.826         891.078          32.000          26.000          37.000          44.000  
G11 115502193.122 7  90001777.654 5  90001710.645 8  86251637.697 8  21979331.523    21979348.699    21979348.812    21979357.773         560.004         436.419         436.422         418.234          45.000          34.000          48.000          51.000  
G12 127287371.437 6  99185056.665 4  99185058.682 6                  24221981.992    24221999.281    24221999.129                        3281.684        2557.230        2557.220                          37.000          27.000          36.000                  
G14 116291080.740 7  90616500.340 5  90616419.342 7  86840731.288 8  22129459.273    22129479.805    22129479.656    22129489.816       -3205.977       -2498.104       -2498.104       -2394.016          43.000          31.000          46.000          48.000  
G17 115952731.691 7  90352837.215 6  90352771.214 7                  22065072.219    22065088.762    22065088.727                        -456.113        -355.305        -355.305                          44.000          41.000          45.000                  
G24 134374757.02324                                                  25570665.914                                                       -1176.184                                                          29.000                                                  
G22 111073680.288 8  86550967.480 6                                  21136619.898    21136635.012                                       -1788.164       -1393.143                                          48.000          39.000                                  
G20 114534325.298 7  89247610.415 5                                  21795152.406    21795171.172                                        2573.945        2005.791                                          46.000          35.000                                  
G19 109802385.243 7  85560340.552 6                                  20894697.594    20894709.184                                         598.695         466.584                                          47.000          38.000                                  
> 2025 03 13 08 51  5.0000000  0 12
G04 132776771.529 4                 103462586.057 6  99151684.333 6  25266584.531                    25266608.105    25266618.320         258.555                         201.601         193.196          29.000                          36.000          37.000  
G05 132604546.984 5 103328317.674 4 103328322.666 6                  25233800.117    25233825.762    25233825.633                        3709.398        2890.501        2890.506                          35.000          25.000          37.000                  
G06 112277601.093 7  87489102.340 8  87489034.334 8  83843654.231 8  21365715.625    21365731.934    21365732.297    21365737.430        -908.137        -707.522        -707.520        -678.041          46.000          48.000          48.000          52.000  
G09 125879492.777 5  98088052.350 4  98088048.348 6  94001075.645 7  23954064.273    23954096.711    23954096.578    23954105.688        1192.613         929.571         929.570         890.836          32.000          25.000          37.000          44.000  
G11 115501633.377 7  90001341.495 5  90001274.492 8  86251219.716 8  21979225.094    21979242.449    21979242.273    21979251.324         559.668         436.159         436.153         417.982          45.000          35.000          48.000          50.000  
G12 127284089.985 6  99182499.702 4  99182501.722 6                  24221357.688    24221374.770    24221374.598                        3281.156        2556.963        2556.961                          37.000          28.000          36.000                  
G14 116294287.028 7  90618998.751 5  90618917.744 7  86843125.594 8  22130069.625    22130090.113    22130090.074    22130100.258       -3206.398       -2498.411       -2498.403       -2394.306          43.000          31.000          46.000          48.000  
G17 115953187.953 7  90353192.741 6  90353126.738 7                  22065159.125    22065176.117    22065176.160                        -456.426        -355.526        -355.524                          44.000          41.000          45.000                  
G24 134375933.28424                                                  25570889.047                                                       -1176.606                                                          29.000                                                  
G22 111075468.736 8  86552361.074 6                                  21136960.102    21136975.266                                       -1788.809       -1393.594                                          48.000          39.000                                  
G20 114531751.682 7  89245605.011 5                                  21794663.102    21794681.121                                        2573.312        2005.404                                          46.000          35.000                                  
G19 109801786.736 7  85559874.185 6                                  20894583.328    20894595.352                                         598.492         466.367                                          47.000          38.000                                  
> 2025 03 13 08 51  6.0000000  0 12
G04 132776513.70634                                                  25266534.328                                                         258.277                                                          28.000                                                  
G05 132600837.558 5 103325427.215 3 103325432.209 6                  25233093.586    25233119.730    25233119.648                        3709.574        2890.459        2890.458                          35.000          23.000          37.000                  
G06 112278509.241 7  87489809.992 8  87489741.986 8  83844332.398 8  21365888.289    21365904.605    21365905.113    21365910.004        -908.195        -707.652        -707.652        -678.167          46.000          48.000          48.000          52.000  
G09 125878300.131 5  98087123.020 4  98087119.031 6  94000185.049 7  23953836.727    23953869.566    23953869.492    23953878.473        1192.465         929.330         929.318         890.595          32.000          25.000          37.000          44.000  
G11 115501073.900 7  90000905.546 5  90000838.544 8  86250801.936 8  21979118.703    21979135.832    21979135.559    21979144.613         559.465         435.949         435.948         417.780          46.000          35.000          48.000          50.000  
G12 127280808.794 6  99179942.937 4  99179944.953 6                  24220733.938    24220750.473    24220750.301                        3281.152        2556.765        2556.769                          38.000          28.000          36.000                  
G14 116297493.638 7  90621497.409 5  90621416.400 7  86845520.137 8  22130679.102    22130700.270    22130700.305    22130710.449       -3206.664       -2498.659       -2498.656       -2394.543          43.000          31.000          46.000          48.000  
G17 115953644.416 7  90353548.424 6  90353482.422 7                  22065245.734    22065262.336    22065262.477                        -456.562        -355.684        -355.684                          44.000          41.000          45.000                  
G24 134377109.63334                                                  25571112.312                                                       -1176.113                                                          29.000                                                  
G22 111077257.693 8  86553755.066 6                                  21137300.117    21137315.598                                       -1789.176       -1393.992                                          48.000          39.000                                  
G20 114529178.481 7  89243599.928 5                                  21794173.594    21794191.465                                        2573.004        2005.083                                          46.000          35.000                                  
G19 109801188.431 7  85559407.973 6                                  20894469.859    20894481.172                                         598.258         466.212                                          46.000          38.000                                  
> 2025 03 13 08 51  7.0000000  0 12
G04 132776255.168 4                 103462183.73216  99151298.77516  25266484.789                    25266509.758    25266519.441         257.773                           0.000           0.000          28.000                          36.000          37.000  
G05 132597128.133 5 103322536.762 4 103322541.754 6                  25232388.328    25232414.148    25232414.379                        3709.504        2890.454        2890.454                          34.000          26.000          36.000                  
G06 112279417.500 7  87490517.730 8  87490449.724 8  83845010.647 8  21366061.539    21366077.688    21366078.137    21366083.168        -908.394        -707.738        -707.738        -678.250          46.000          48.000          49.000          52.000  
G09 125877107.707 5  98086193.878 4  98086189.882 6  93999294.613 7  23953609.938    23953642.871    23953642.926    23953651.723        1192.410         929.142         929.149         890.437          32.000          24.000          37.000          44.000  
G11 115500514.639 7  90000469.767 5  90000402.763 8  86250384.314 8  21979012.414    21979029.320    21979029.082    21979038.273         559.164         435.779         435.781         417.622          46.000          35.000          48.000          50.000  
G12 127277527.823 6  99177386.344 4  99177388.348 6                  24220108.805    24220125.957    24220125.527                        3280.926        2556.593        2556.605                          37.000          28.000          36.000                  
G14 116300700.508 7  90623996.263 5  90623915.255 7  86847914.872 8  22131289.422    22131310.434    22131310.281    22131320.582       -3206.965       -2498.854       -2498.854       -2394.735          43.000          31.000          46.000          49.000  
G17 115954101.029 7  90353904.222 6  90353838.221 7                  22065332.508    22065349.461    22065349.652                        -456.707        -355.798        -355.799                          44.000          41.000          45.000                  
G24 134378285.817 5 104710453.01213 104710449.00615 100347547.82516  25571337.023    25571372.301    25571372.422    25571382.215       -1176.441           0.000           0.000           0.000          30.000          19.000          34.000          40.000  
G22 111079047.102 8  86555149.406 6                                  21137640.461    21137656.496                                       -1789.531       -1394.339                                          48.000          39.000                                  
G20 114526605.648 7  89241595.131 5                                  21793683.805    21793701.883                                        2572.637        2004.797                                          46.000          34.000                                  
G19 109800590.268 7  85558941.872 6                                  20894356.117    20894367.586                                         598.133         466.101                                          46.000          38.000                                  
> 2025 03 13 08 51  8.0000000  0 12
G04 132775997.557 4                 103461983.014 5  99151106.415 6  25266434.094                    25266460.578    25266470.344         257.539                         200.719         192.360          29.000                          35.000          37.000  
G05 132593418.752 5 103319646.334 4 103319651.333 6                  25231681.781    25231707.996    25231708.387                        3709.293        2890.428        2890.422                          34.000          24.000          36.000                  
G06 112280325.930 7  87491225.600 8  87491157.594 8  83845689.025 8  21366234.227    21366250.375    21366250.754    21366255.832        -908.574        -707.871        -707.871        -678.378          46.000          48.000          49.000          52.000  
G09 125875915.559 5  98085264.937 4  98085260.945 6  93998404.387 7  23953382.438    23953415.410    23953415.617    23953424.148        1192.086         928.940         928.937         890.226          32.000          25.000          37.000          44.000  
G11 115499955.637 7  90000034.189 5  89999967.184 8  86249966.887 8  21978906.133    21978923.055    21978922.980    21978932.219         558.852         435.578         435.579         417.427          46.000          35.000          48.000          50.000  
G12 127274247.100 6  99174829.948 4  99174831.943 6                  24219483.930    24219501.902    24219501.641                        3280.547        2556.396        2556.405                          37.000          28.000          36.000                  
G14 116303907.675 7  90626495.340 5  90626414.340 7  86850309.826 8  22131900.711    22131920.977    22131920.965    22131931.117       -3207.328       -2499.077       -2499.086       -2394.954          43.000          32.000          46.000          48.000  
G17 115954557.833 7  90354260.169 6  90354194.170 7                  22065419.555    22065436.320    22065436.566                        -456.754        -355.947        -355.948                          45.000          41.000          45.000                  
G24 134379463.14435                                                  25571560.336                                                       -1176.328                                                          30.000                                                  
G22 111080837.013 8  86556544.132 6                                  21137980.984    21137996.531                                       -1790.156       -1394.726                                          48.000          39.000                                  
G20 114524033.222 7  89239590.650 5                                  21793194.039    21793212.695                                        2572.301        2004.481                                          46.000          35.000                                  
G19 109799992.307 7  85558475.933 6                                  20894242.453    20894253.840                                         597.777         465.939                                          46.000          38.000                                  
> 2025 03 13 08 51  9.0000000  0 12
G04 132775740.86434                                                  25266385.922                                                         256.480                                                          29.000                                                  
G05 132589709.418 5 103316755.951 3 103316760.946 6                  25230975.297    25231002.621    25231002.949                        3709.469        2890.383        2890.386                          34.000          22.000          37.000                  
G06 112281234.540 7  87491933.610 8  87491865.605 8  83846367.535 8  21366406.742    21366423.262    21366423.605    21366428.750        -908.769        -708.010        -708.010        -678.510          46.000          48.000          48.000          52.000  
G09 125874724.20735                                                  23953156.320                                                        1191.719                                                          32.000                                                  
G11 115499396.914 7  89999598.830 5  89999531.823 8  86249549.667 8  21978799.656    21978816.543    21978816.305    21978825.543         558.598         435.359         435.361         417.220          46.000          35.000          48.000          50.000  
G12 127270966.646 6  99172273.758 4  99172275.755 6                  24218860.711    24218877.566    24218877.289                        3280.277        2556.190        2556.188                          37.000          28.000          36.000                  
G14 116307115.173 7  90628994.687 5  90628913.683 7  86852705.032 8  22132510.781    22132531.137    22132531.105    22132541.281       -3207.613       -2499.347       -2499.343       -2395.206          43.000          31.000          46.000          49.000  
G17 115955014.857 7  90354616.288 6  90354550.289 7                  22065506.344    22065523.578    22065523.688                        -457.141        -356.119        -356.119                          44.000          41.000          45.000                  
G24 134380639.688 5 104712287.17913 104712283.17115 100349305.56916  25571785.453    25571819.855    25571820.418    25571829.977       -1177.418           0.000           0.000           0.000          30.000          19.000          34.000          40.000  
G22 111082627.450 8  86557939.274 6                                  21138321.992    21138337.539                                       -1790.707       -1395.143                                          48.000          39.000                                  
G20 114521461.229 7  89237586.506 5                                  21792705.055    21792722.887                                        2571.719        2004.143                                          46.000          34.000                                  
G19 109799394.566 7  85558010.161 6                                  20894128.219    20894140.355                                         597.648         465.772                                          46.000          38.000                                  
> 2025 03 13 08 51 10.0000000  0 12
G04 132775483.557 4                 103461582.51716  99150722.61016  25266337.500                    25266363.422    25266372.684         256.562                           0.000           0.000          28.000                          36.000          37.000  
G05 132586000.100 5 103313865.577 3 103313870.580 6                  25230269.383    25230296.781    25230297.105                        3709.250        2890.374        2890.367                          33.000          23.000          36.000                  
G06 112282143.293 7  87492641.733 8  87492573.728 8  83847046.156 8  21366579.766    21366596.094    21366596.426    21366601.621        -908.844        -708.123        -708.123        -678.622          46.000          48.000          48.000          52.000  
G09 125873532.184 5  98083407.77814  98083403.78516  93996624.61417  23952930.422    23952962.258    23952962.387    23952971.043        1191.481           0.000           0.000           0.000          32.000          25.000          37.000          44.000  
G11 115498838.433 7  89999163.659 5  89999096.650 8  86249132.629 8  21978693.164    21978710.246    21978709.949    21978719.172         558.344         435.171         435.173         417.038          45.000          35.000          48.000          51.000  
G12 127267686.437 6  99169717.766 4  99169719.764 6                  24218236.508    24218253.316    24218253.086                        3280.176        2555.993        2555.991                          37.000          28.000          37.000                  
G14 116310322.956 7  90631494.260 5  90631413.251 7  86855100.450 8  22133121.477    22133141.758    22133141.754    22133151.777       -3207.910       -2499.573       -2499.568       -2395.418          43.000          31.000          46.000          48.000  
G17 115955472.059 7  90354972.547 6  90354906.546 7                  22065593.477    22065610.547    22065610.699                        -457.246        -356.260        -356.257                          45.000          41.000          46.000                  
G24 134381816.883 4 104713204.475 3 104713200.471 5 100350184.643 6  25572008.766    25572044.180    25572044.828    25572054.145       -1177.106        -917.295        -917.299        -879.074          28.000          19.000          34.000          40.000  
G22 111084418.354 8  86559334.780 6                                  21138663.266    21138678.215                                       -1791.098       -1395.505                                          48.000          39.000                                  
G20 114518889.627 7  89235582.670 5                                  21792215.734    21792233.711                                        2571.422        2003.837                                          46.000          35.000                                  
G19 109798797.005 7  85557544.532 6                                  20894014.820    20894026.598                                         597.488         465.629                                          46.000          38.000                                  
> 2025 03 13 08 51 11.0000000  0 12
G04 132775227.029 4                 103461382.628 5  99150531.056 6  25266288.328                    25266314.398    25266323.816         256.582                         199.888         191.554          29.000                          35.000          37.000  
G05 132582290.775 5 103310975.222 3 103310980.217 6                  25229563.320    25229590.613    25229590.852                        3709.508        2890.355        2890.363                          33.000          23.000          36.000                  
G06 112283052.136 7  87493349.925 8  87493281.918 8  83847724.838 8  21366752.992    21366769.027    21366769.336    21366774.531        -908.926        -708.192        -708.190        -678.682          46.000          48.000          48.000          52.000  
G09 125872340.849 5  98082479.475 4  98082475.482 6  93995734.989 7  23952704.195    23952735.551    23952735.594    23952744.355        1191.086         928.303         928.304         889.625          33.000          25.000          37.000          44.000  
G11 115498280.137 7  89998728.631 5  89998661.621 7  86248715.730 8  21978586.906    21978603.793    21978603.738    21978612.871         558.211         435.028         435.029         416.899          46.000          35.000          47.000          50.000  
G12 127264406.411 6  99167161.911 4  99167163.912 6                  24217612.609    24217628.988    24217628.902                        3279.965        2555.854        2555.852                          38.000          28.000          36.000                  
G14 116313530.980 7  90633994.016 5  90633913.008 7  86857496.050 8  22133731.578    22133752.098    22133751.621    22133761.984       -3208.238       -2499.757       -2499.757       -2395.601          43.000          31.000          46.000          48.000  
G17 115955929.386 7  90355328.904 7  90355262.903 7                  22065680.070    22065697.504    22065697.539                        -457.367        -356.357        -356.357                          45.000          42.000          45.000                  
G24 134382994.80934                                                  25572234.297                                                       -1177.188                                                          28.000                                                  
G22 111086209.684 8  86560730.621 6                                  21139004.219    21139018.957                                       -1791.523       -1395.841                                          48.000          39.000                                  
G20 114516318.376 7  89233579.108 5                                  21791726.398    21791744.262                                        2571.008        2003.562                                          46.000          35.000                                  
G19 109798199.570 7  85557079.000 6                                  20893900.953    20893912.852                                         597.379         465.533                                          46.000          37.000                                  
> 2025 03 13 08 51 12.0000000  0 12
G04 132774970.896 4                 103461183.053 5  99150339.802 6  25266239.906                    25266265.168    25266275.000         256.172                         199.575         191.255          29.000                          35.000          37.000  
G05 132578581.479 5 103308084.884 3 103308089.873 5                  25228857.461    25228884.762    25228884.930                        3709.277        2890.338        2890.344                          33.000          23.000          35.000                  
G06 112283961.139 7  87494058.242 8  87493990.235 8  83848403.643 8  21366925.664    21366942.270    21366942.617    21366947.688        -909.082        -708.317        -708.317        -678.805          46.000          48.000          48.000          52.000  
G09 125871149.793 5  98081551.387 4  98081547.394 6  93994845.574 7  23952478.102    23952508.824    23952509.016    23952517.652        1190.883         928.088         928.088         889.416          33.000          26.000          37.000          44.000  
G11 115497722.106 7  89998293.811 5  89998226.800 8  86248299.030 8  21978480.742    21978497.719    21978497.754    21978506.758         557.820         434.820         434.821         416.701          46.000          34.000          48.000          50.000  
G12 127261126.657 6  99164606.257 4  99164608.267 6                  24216988.383    24217004.844    24217004.742                        3279.609        2555.654        2555.645                          38.000          29.000          36.000                  
G14 116316739.304 7  90636494.009 5  90636413.000 7  86859891.875 8  22134341.656    22134362.625    22134362.074    22134372.539       -3208.559       -2499.993       -2499.992       -2395.825          43.000          31.000          46.000          49.000  
G17 115956386.916 7  90355685.420 7  90355619.416 7                  22065767.312    22065784.441    22065784.434                        -457.676        -356.516        -356.513                          45.000          42.000          45.000                  
G24 134384171.902 4 104715039.53413 104715035.54415 100351943.24616  25572458.562    25572492.410    25572492.773    25572502.379       -1177.633           0.000           0.000           0.000          29.000          20.000          34.000          40.000  
G22 111088001.518 8  86562126.855 6                                  21139345.492    21139360.039                                       -1792.164       -1396.234                                          48.000          39.000                                  
G20 114513747.529 7  89231575.856 5                                  21791236.906    21791255.266                                        2570.641        2003.252                                          46.000          34.000                                  
G19 109797602.340 7  85556613.630 6                                  20893787.531    20893799.137                                         597.188         465.369                                          46.000          37.000                                  
> 2025 03 13 08 51 13.0000000  0 12
G04 132774715.260 4                 103460983.860 5  99150148.916 6  25266191.898                    25266216.766    25266226.809         255.305                         199.193         190.886          28.000                          35.000          37.000  
G05 132574872.323 5 103305194.636 3 103305199.629 5                  25228151.227    25228178.922    25228179.105                        3708.902        2890.248        2890.244                          33.000          22.000          35.000                  
G06 112284870.405 7  87494766.764 8  87494698.760 8  83849082.645 8  21367098.570    21367115.359    21367115.648    21367120.738        -909.398        -708.522        -708.524        -679.002          46.000          48.000          48.000          52.000  
G09 125869959.114 5  98080623.600 4  98080619.602 6  93993956.442 7  23952251.055    23952282.164    23952282.125    23952290.980        1190.488         927.787         927.792         889.132          34.000          25.000          37.000          44.000  
G11 115497164.432 7  89997859.268 5  89997792.259 8  86247882.596 8  21978374.461    21978391.605    21978391.559    21978400.523         557.582         434.543         434.541         416.433          46.000          34.000          48.000          50.000  
G12 127257847.238 6  99162050.867 4  99162052.880 6                  24216363.836    24216381.246    24216380.848                        3279.352        2555.390        2555.387                          38.000          29.000          36.000                  
G14 116319948.039 7  90638994.323 5  90638913.316 7  86862288.009 8  22134952.078    22134973.453    22134972.809    22134983.539       -3208.895       -2500.313       -2500.316       -2396.134          43.000          31.000          45.000          48.000  
G17 115956844.734 7  90356042.160 6  90355976.156 7                  22065854.805    22065871.648    22065871.848                        -457.953        -356.740        -356.740                          45.000          41.000          45.000                  
G24 134385349.826 5 104715957.399 3 104715953.395 5 100352822.857 6  25572682.508    25572716.406    25572716.680    25572726.301       -1177.867        -917.865        -917.852        -879.611          31.000          20.000          34.000          39.000  
G22 111089793.937 8  86563523.547 6                                  21139686.414    21139701.168                                       -1792.680       -1396.692                                          48.000          39.000                                  
G20 114511177.191 7  89229573.008 5                                  21790747.633    21790766.008                                        2570.195        2002.848                                          46.000          34.000                                  
G19 109797005.391 7  85556148.478 6                                  20893673.703    20893685.617                                         596.875         465.152                                          46.000          38.000                                  
> 2025 03 13 08 51 14.0000000  0 12
G04 132774460.030 5                 103460784.989 5  99149958.334 6  25266144.109                    25266168.133    25266178.102         255.250                         198.872         190.582          30.000                          35.000          37.000  
G05 132571163.208 5 103302304.416 3 103302309.417 5                  25227446.047    25227473.000    25227473.074                        3709.410        2890.220        2890.212                          33.000          23.000          35.000                  
G06 112285779.824 7  87495475.407 8  87495407.400 8  83849761.760 8  21367271.859    21367288.172    21367288.527    21367293.707        -909.356        -708.643        -708.641        -679.116          46.000          48.000          48.000          52.000  
G09 125868768.717 5  98079696.040 4  98079692.036 6  93993067.525 7  23952025.336    23952055.832    23952055.773    23952064.527        1190.324         927.560         927.566         888.917          33.000          26.000          37.000          44.000  
G11 115496607.012 7  89997424.922 5  89997357.915 8  86247466.352 8  21978268.344    21978285.504    21978285.426    21978294.504         557.359         434.346         434.344         416.244          46.000          33.000          48.000          51.000  
G12 127254568.065 6  99159495.675 4  99159497.684 6                  24215739.328    24215756.961    24215756.480                        3279.152        2555.193        2555.196                          37.000          28.000          36.000                  
G14 116323157.072 7  90641494.865 5  90641413.859 7  86864684.359 8  22135562.477    22135583.820    22135583.543    22135594.020       -3209.180       -2500.542       -2500.543       -2396.350          42.000          31.000          46.000          48.000  
G17 115957302.744 7  90356399.049 6  90356333.045 7                  22065942.297    22065958.770    22065958.883                        -458.031        -356.889        -356.889                          45.000          41.000          45.000                  
G24 134386527.936 5 104716875.385 3 104716871.384 5 100353702.591 6  25572906.594    25572940.898    25572941.398    25572950.973       -1178.062        -917.987        -917.989        -879.734          30.000          21.000          34.000          39.000  
G22 111091586.859 8  86564920.628 6                                  21140027.297    21140042.387                                       -1793.113       -1397.081                                          48.000          39.000                                  
G20 114508607.262 7  89227570.479 5                                  21790258.891    21790276.750                                        2569.781        2002.529                                          46.000          34.000                                  
G19 109796408.638 7  85555683.476 6                                  20893560.008    20893572.051                                         596.688         465.002                                          46.000          37.000                                  
> 2025 03 13 08 51 15.0000000  0 12
G04 132774205.60934                                                  25266095.695                                                         254.891                                                          29.000                                                  
G05 132567454.093 5 103299414.186 3 103299419.206 5                  25226740.930    25226767.430    25226767.391                        3709.629        2890.230        2890.211                          34.000          23.000          35.000                  
G06 112286689.348 7  87496184.128 8  87496116.121 8  83850440.953 8  21367444.789    21367461.273    21367461.449    21367466.742        -909.606        -708.721        -708.720        -679.192          46.000          48.000          48.000          52.000  
G09 125867578.556 5  98078768.650 4  98078764.647 6  93992178.778 7  23951799.547    23951829.414    23951829.301    23951837.922        1189.887         927.390         927.389         888.747          34.000          27.000          37.000          44.000  
G11 115496049.793 7  89996990.731 5  89996923.727 8  86247050.254 8  21978163.188    21978179.812    21978179.629    21978188.766         557.109         434.191         434.188         416.098          45.000          35.000          48.000          51.000  
G12 127251289.105 6  99156940.657 4  99156942.657 6                  24215115.930    24215133.199    24215132.949                        3278.793        2555.018        2555.027                          37.000          29.000          36.000                  
G14 116326366.360 7  90643995.607 5  90643914.604 7  86867080.901 8  22136173.586    22136194.340    22136194.156    22136204.711       -3209.418       -2500.742       -2500.745       -2396.541          43.000          30.000          46.000          48.000  
G17 115957760.901 7  90356756.053 6  90356690.050 7                  22066029.547    22066046.070    22066046.203                        -458.215        -357.004        -357.005                          45.000          41.000          45.000                  
G24 134387706.194 5 104717793.492 3 104717789.489 5 100354582.440 6  25573131.445    25573165.086    25573165.715    25573174.930       -1178.461        -918.107        -918.105        -879.849          30.000          19.000          35.000          40.000  
G22 111093380.227 8  86566318.056 6                                  21140368.398    21140383.527                                       -1793.559       -1397.428                                          48.000          39.000                                  
G20 114506037.692 7  89225568.227 5                                  21789770.219    21789787.645                                        2569.367        2002.251                                          46.000          35.000                                  
G19 109795812.036 7  85555218.595 6                                  20893446.688    20893458.195                                         596.469         464.882                                          46.000          38.000                                  
> 2025 03 13 08 51 16.0000000  0 12
G04 132773950.565 4                 103460388.01316  99149577.90616  25266046.148                    25266071.352    25266081.203         254.242                           0.000           0.000          29.000                          36.000          37.000  
G05 132563745.065 5 103296524.041 3 103296529.067 5                  25226035.273    25226061.438    25226061.582                        3709.195        2890.146        2890.140                          34.000          23.000          35.000                  
G06 112287599.055 7  87496892.993 8  87496824.987 8  83851120.283 8  21367618.125    21367634.215    21367634.754    21367639.715        -909.762        -708.865        -708.867        -679.331          46.000          48.000          48.000          52.000  
G09 125866388.703 5  98077841.498 4  98077837.499 6  93991290.264 7  23951572.117    23951603.098    23951603.062    23951611.828        1189.594         927.152         927.148         888.513          33.000          24.000          37.000          44.000  
G11 115495492.867 7  89996556.774 5  89996489.768 8  86246634.378 8  21978056.687    21978073.523    21978073.563    21978082.555         556.723         433.958         433.959         415.876          45.000          35.000          48.000          50.000  
G12 127248010.420 6  99154385.848 4  99154387.848 6                  24214491.781    24214509.102    24214509.047                        3278.465        2554.808        2554.809                          38.000          29.000          37.000                  
G14 116329575.984 7  90646496.600 5  90646415.599 7  86869477.689 8  22136784.266    22136805.062    22136804.855    22136815.309       -3209.793       -2500.993       -2500.995       -2396.789          42.000          31.000          46.000          48.000  
G17 115958219.277 7  90357113.225 6  90357047.221 7                  22066116.727    22066133.074    22066133.156                        -458.488        -357.171        -357.171                          46.000          41.000          44.000                  
G24 134388884.694 4 104718711.792 3 104718707.788 5 100355462.475 6  25573354.227    25573389.621    25573390.285    25573399.203       -1178.703        -918.299        -918.299        -880.034          29.000          19.000          35.000          40.000  
G22 111095174.118 8  86567715.892 6                                  21140709.867    21140725.070                                       -1794.129       -1397.836                                          48.000          39.000                                  
G20 114503468.560 7  89223566.315 5                                  21789280.906    21789299.293                                        2568.922        2001.912                                          46.000          35.000                                  
G19 109795215.652 7  85554753.881 6                                  20893333.188    20893344.891                                         596.172         464.714                                          46.000          37.000                                  
> 2025 03 13 08 51 17.0000000  0 12
G04 132773696.98634                                                  25265998.195                                                         254.098                                                          29.000                                                  
G05 132560036.074 5 103293633.931 3 103293638.950 5                  25225328.945    25225355.594    25225355.672                        3708.910        2890.110        2890.117                          34.000          23.000          35.000                  
G06 112288508.923 7  87497601.986 7  87497533.979 8  83851799.734 8  21367791.016    21367807.578    21367808.043    21367812.992        -909.867        -708.993        -708.992        -679.451          46.000          47.000          48.000          52.000  
G09 125865199.64935                                                  23951346.539                                                        1189.340                                                          34.000                                                  
G11 115494936.200 7  89996123.014 5  89996056.009 8  86246218.694 8  21977951.062    21977967.555    21977967.414    21977976.441         556.488         433.760         433.759         415.684          45.000          35.000          48.000          50.000  
G12 127244731.992 6  99151831.244 4  99151833.238 6                  24213867.719    24213885.332    24213885.363                        3278.395        2554.604        2554.610                          38.000          29.000          37.000                  
G14 116332785.899 7  90648997.825 5  90648916.824 7  86871874.696 8  22137395.250    22137416.223    22137416.008    22137426.359       -3210.016       -2501.225       -2501.225       -2397.007          43.000          31.000          46.000          48.000  
G17 115958677.849 7  90357470.550 7  90357404.547 7                  22066204.344    22066220.617    22066220.449                        -458.594        -357.325        -357.325                          45.000          42.000          44.000                  
G24 134390063.387 4 104719630.257 3 104719626.248 5 100356342.661 6  25573579.062    25573614.129    25573614.676    25573623.359       -1178.555        -918.466        -918.460        -880.186          29.000          20.000          35.000          39.000  
G22 111096968.501 8  86569114.106 6                                  21141051.305    21141066.320                                       -1794.598       -1398.213                                          48.000          39.000                                  
G20 114500899.829 7  89221564.711 5                                  21788792.008    21788810.516                                        2568.574        2001.604                                          46.000          35.000                                  
G19 109794619.463 7  85554289.318 6                                  20893219.695    20893231.531                                         596.145         464.563                                          46.000          37.000                                  
> 2025 03 13 08 51 18.0000000  0 12
G04 132773442.740 5                 103459992.33915  99149198.71416  25265949.664                    25265975.211    25265984.887         253.348                           0.000           0.000          30.000                          35.000          37.000  
G05 132556327.119 5 103290743.849 4 103290748.852 5                  25224623.516    25224649.848    25224649.859                        3709.078        2890.082        2890.098                          34.000          24.000          35.000                  
G06 112289418.943 7  87498311.097 8  87498243.089 8  83852479.299 8  21367964.258    21367980.656    21367980.820    21367985.953        -910.133        -709.111        -709.110        -679.565          46.000          48.000          48.000          52.000  
G09 125864009.845 5  98075987.85214  98075983.85216  93989513.85717  23951120.516    23951149.684    23951150.078    23951158.641        1189.074           0.000           0.000           0.000          34.000          27.000          38.000          44.000  
G11 115494379.771 7  89995689.443 5  89995622.437 8  86245803.188 8  21977845.250    21977862.035    21977861.633    21977870.750         556.273         433.571         433.572         415.507          45.000          35.000          48.000          50.000  
G12 127241453.817 6  99149276.829 4  99149278.822 6                  24213244.344    24213261.418    24213261.406                        3278.047        2554.416        2554.417                          38.000          28.000          37.000                  
G14 116335996.108 7  90651499.284 5  90651418.281 7  86874271.926 8  22138006.102    22138027.078    22138026.906    22138037.250       -3210.367       -2501.459       -2501.457       -2397.229          43.000          32.000          46.000          49.000  
G17 115959136.603 7  90357828.016 7  90357762.013 7                  22066291.289    22066307.785    22066307.730                        -458.887        -357.466        -357.466                          45.000          42.000          45.000                  
G24 134391242.310 5 104720548.891 3 104720544.893 5 100357223.024 6  25573802.805    25573838.438    25573838.902    25573847.691       -1179.359        -918.634        -918.645        -880.363          30.000          20.000          35.000          39.000  
G22 111098763.367 8  86570512.699 6                                  21141392.766    21141408.086                                       -1795.188       -1398.593                                          48.000          39.000                                  
G20 114498331.500 7  89219563.424 5                                  21788303.070    21788321.383                                        2568.086        2001.286                                          45.000          35.000                                  
G19 109794023.463 7  85553824.905 6                                  20893106.086    20893118.086                                         595.801         464.413                                          46.000          37.000                                  
> 2025 03 13 08 51 19.0000000  0 12
G04 132773189.83235                                                  25265900.469                                                         253.590                                                          30.000                                                  
G05 132552618.220 5 103287853.799 3 103287858.806 6                  25223917.219    25223943.918    25223943.844                        3708.711        2890.050        2890.046                          34.000          22.000          36.000                  
G06 112290329.161 7  87499020.360 8  87498952.353 8  83853159.009 8  21368137.414    21368153.750    21368154.000    21368159.176        -910.293        -709.263        -709.265        -679.709          46.000          48.000          48.000          52.000  
G09 125862820.883 5  98075061.392 4  98075057.393 6  93988626.002 7  23950894.445    23950923.836    23950924.258    23950932.789        1188.977         926.460         926.459         887.855          33.000          27.000          38.000          44.000  
G11 115493823.653 7  89995256.110 5  89995189.106 8  86245387.913 8  21977739.242    21977755.816    21977755.672    21977764.762         555.941         433.333         433.331         415.274          45.000          35.000          48.000          50.000  
G12 127238175.935 6  99146722.641 4  99146724.634 6                  24212620.781    24212637.715    24212637.848                        3277.828        2554.187        2554.187                          38.000          28.000          37.000                  
G14 116339206.672 7  90654001.022 5  90653920.016 7  86876669.422 8  22138616.844    22138638.117    22138637.809    22138648.164       -3210.691       -2501.738       -2501.736       -2397.496          43.000          32.000          46.000          48.000  
G17 115959595.606 7  90358185.679 7  90358119.676 7                  22066379.023    22066395.203    22066395.160                        -459.043        -357.663        -357.663                          45.000          42.000          45.000                  
G24 134392421.469 5 104721467.718 3 104721463.705 5 100358103.550 6  25574027.344    25574062.852    25574063.582    25574072.246       -1178.945        -918.827        -918.812        -880.526          31.000          20.000          35.000          39.000  
G22 111100558.771 8  86571911.715 6                                  21141734.453    21141749.797                                       -1795.621       -1399.016                                          48.000          39.000                                  
G20 114495763.627 7  89217562.494 5                                  21787814.570    21787832.738                                        2567.699        2000.930                                          46.000          35.000                                  
G19 109793427.690 7  85553360.670 6                                  20892992.563    20893004.680                                         595.605         464.235                                          46.000          38.000                                  
> 2025 03 13 08 51 20.0000000  0 12
G04 132772936.518 4                 103459597.91415  99148820.72716  25265853.016                    25265878.711    25265887.777         252.895                           0.000           0.000          29.000                          35.000          37.000  
G05 132548909.385 5 103284963.791 3 103284968.815 5                  25223211.938    25223238.133    25223238.410                        3708.848        2890.008        2889.991                          33.000          23.000          35.000                  
G06 112291239.540 7  87499729.751 8  87499661.744 8  83853838.844 8  21368310.922    21368327.098    21368327.418    21368332.539        -910.469        -709.391        -709.390        -679.835          46.000          48.000          48.000          52.000  
G09 125861632.192 5  98074135.147 4  98074131.152 6  93987738.355 7  23950668.617    23950697.691    23950698.191    23950706.609        1188.715         926.245         926.240         887.647          33.000          25.000          37.000          44.000  
G11 115493267.787 7  89994822.972 5  89994755.969 8  86244972.825 8  21977633.617    21977650.066    21977649.875    21977659.098         555.777         433.138         433.137         415.088          45.000          35.000          48.000          51.000  
G12 127234898.306 6  99144168.648 4  99144170.650 6                  24211997.492    24212014.184    24212014.188                        3277.520        2553.994        2553.985                          38.000          29.000          37.000                  
G14 116342417.535 7  90656502.988 5  90656421.985 7  86879067.140 8  22139228.039    22139248.902    22139248.816    22139258.852       -3211.008       -2501.966       -2501.969       -2397.718          43.000          31.000          46.000          48.000  
G17 115960054.797 7  90358543.485 6  90358477.483 7                  22066466.211    22066482.406    22066482.328                        -459.199        -357.806        -357.808                          45.000          41.000          45.000                  
G24 134393600.849 4 104722386.716 3 104722382.693 5 100358984.243 6  25574251.805    25574286.883    25574287.602    25574296.176       -1179.531        -918.998        -918.988        -880.693          29.000          20.000          35.000          39.000  
G22 111102354.679 8  86573311.122 6                                  21142076.227    21142091.512                                       -1796.160       -1399.407                                          48.000          38.000                                  
G20 114493196.162 7  89215561.880 5                                  21787326.117    21787344.250                                        2567.285        2000.614                                          46.000          34.000                                  
G19 109792832.122 7  85552896.589 6                                  20892879.562    20892891.273                                         595.418         464.081                                          46.000          37.000                                  
> 2025 03 13 08 51 21.0000000  0 12
G04 132772683.961 5                 103459401.118 5  99148632.145 6  25265804.625                    25265830.543    25265839.676         252.070                         196.796         188.583          30.000                          34.000          37.000  
G05 132545200.534 5 103282073.781 4 103282078.810 5                  25222505.531    25222532.656    25222532.879                        3708.945        2890.010        2890.005                          33.000          24.000          35.000                  
G06 112292150.032 7  87500439.229 8  87500371.223 8  83854518.761 8  21368484.383    21368500.406    21368500.652    21368505.828        -910.543        -709.478        -709.479        -679.917          46.000          48.000          48.000          52.000  
G09 125860443.747 5  98073209.095 4  98073205.101 6  93986850.888 7  23950440.789    23950471.344    23950471.938    23950480.195        1188.316         926.052         926.052         887.467          34.000          25.000          37.000          44.000  
G11 115492712.136 7  89994390.005 5  89994322.999 8  86244557.899 8  21977528.125    21977544.605    21977544.375    21977553.605         555.531         432.967         432.970         414.926          45.000          34.000          48.000          50.000  
G12 127231620.889 6  99141614.822 4  99141616.828 6                  24211373.000    24211390.426    24211390.270                        3277.441        2553.825        2553.822                          38.000          29.000          37.000                  
G14 116345628.653 7  90659005.152 5  90658924.151 7  86881465.047 8  22139839.359    22139860.020    22139860.043    22139869.973       -3211.320       -2502.164       -2502.167       -2397.908          43.000          32.000          46.000          48.000  
G17 115960514.146 7  90358901.419 6  90358835.417 7                  22066553.484    22066569.969    22066569.926                        -459.387        -357.933        -357.934                          44.000          41.000          45.000                  
G24 134394780.375 5 104723305.800 3 104723301.800 5 100359865.044 6  25574476.961    25574511.699    25574512.121    25574520.727       -1180.059        -919.084        -919.107        -880.801          30.000          20.000          34.000          39.000  
G22 111104151.040 8  86574710.879 6                                  21142417.969    21142432.973                                       -1796.594       -1399.757                                          48.000          38.000                                  
G20 114490629.070 7  89213561.559 5                                  21786837.523    21786855.902                                        2566.895        2000.322                                          46.000          35.000                                  
G19 109792236.705 7  85552432.630 6                                  20892766.320    20892778.191                                         595.281         463.959                                          46.000          37.000                                  
> 2025 03 13 08 51 22.0000000  0 12
G04 132772432.21435                                                  25265757.055                                                         251.805                                                          30.000                                                  
G05 132541491.735 5 103279183.814 3 103279188.843 5                  25221798.961    25221826.500    25221826.535                        3708.750        2889.967        2889.967                          33.000          21.000          35.000                  
G06 112293060.686 7  87501148.835 8  87501080.827 8  83855198.801 8  21368657.359    21368673.910    21368674.262    21368679.332        -910.766        -709.606        -709.605        -680.040          46.000          48.000          48.000          52.000  
G09 125859255.585 5  98072283.261 4  98072279.270 6  93985963.633 7  23950214.445    23950245.367    23950245.664    23950254.262        1187.934         925.834         925.831         887.255          33.000          25.000          36.000          44.000  
G11 115492156.740 7  89993957.238 5  89993890.229 8  86244143.164 8  21977421.992    21977438.902    21977438.570    21977447.910         555.309         432.767         432.770         414.735          45.000          35.000          48.000          50.000  
G12 127228343.730 6  99139061.206 4  99139063.207 6                  24210748.969    24210766.773    24210766.457                        3276.883        2553.616        2553.620                          38.000          29.000          36.000                  
G14 116348840.075 7  90661507.560 5  90661426.555 7  86883863.184 8  22140450.461    22140471.340    22140471.180    22140481.152       -3211.527       -2502.407       -2502.404       -2398.136          43.000          31.000          46.000          48.000  
G17 115960973.683 7  90359259.497 7  90359193.496 7                  22066640.656    22066657.078    22066656.914                        -459.551        -358.079        -358.079                          44.000          42.000          45.000                  
G24 134395960.123 4 104724225.067 3 104724221.080 5 100360746.014 6  25574701.227    25574736.242    25574736.352    25574745.195       -1179.629        -919.266        -919.280        -880.970          29.000          19.000          35.000          39.000  
G22 111105947.896 7  86576111.025 6                                  21142759.984    21142775.281                                       -1797.094       -1400.146                                          47.000          38.000                                  
G20 114488062.379 7  89211561.551 5                                  21786349.000    21786367.473                                        2566.461        2000.007                                          45.000          34.000                                  
G19 109791641.484 7  85551968.828 6                                  20892653.039    20892664.797                                         595.180         463.802                                          46.000          37.000                                  
> 2025 03 13 08 51 23.0000000  0 12
G04 132772180.39635                                                  25265710.531                                                         251.344                                                          31.000                                                  
G05 132537782.937 5 103276293.864 3 103276298.884 5                  25221093.195    25221120.750    25221120.559                        3708.637        2889.950        2889.960                          33.000          23.000          35.000                  
G06 112293971.474 7  87501858.543 7  87501790.534 8  83855878.938 8  21368830.406    21368846.918    21368847.441    21368852.469        -910.871        -709.707        -709.707        -680.137          46.000          47.000          48.000          52.000  
G09 125858067.678 5  98071357.627 4  98071353.630 6  93985076.563 7  23949988.977    23950019.137    23950019.031    23950027.910        1188.219         925.634         925.639         887.070          33.000          26.000          36.000          44.000  
G11 115491601.582 7  89993524.652 5  89993457.645 8  86243728.606 8  21977316.281    21977333.176    21977332.812    21977342.004         555.000         432.586         432.584         414.558          45.000          34.000          48.000          50.000  
G12 127225066.808 6  99136507.770 4  99136509.771 6                  24210126.375    24210143.184    24210142.797                        3276.812        2553.436        2553.437                          38.000          29.000          36.000                  
G14 116352051.781 7  90664010.186 5  90663929.180 7  86886261.534 8  22141061.789    22141082.059    22141081.672    22141092.047       -3211.934       -2502.626       -2502.625       -2398.350          43.000          31.000          46.000          48.000  
G17 115961433.404 7  90359617.720 7  90359551.718 7                  22066728.039    22066744.664    22066744.855                        -459.727        -358.223        -358.222                          44.000          42.000          44.000                  
G24 134397140.48634                                                  25574923.922                                                       -1179.520                                                          28.000                                                  
G22 111107745.228 7  86577511.538 6                                  21143101.859    21143117.238                                       -1797.570       -1400.513                                          47.000          38.000                                  
G20 114485496.091 7  89209561.856 5                                  21785860.633    21785879.320                                        2566.020        1999.695                                          45.000          35.000                                  
G19 109791046.441 7  85551505.162 6                                  20892539.891    20892551.340                                         594.828         463.666                                          46.000          38.000                                  
> 2025 03 13 08 51 24.0000000  0 12
G04 132771929.02635                                                  25265661.641                                                         251.277                                                          30.000                                                  
G05 132534074.258 5 103273404.006 3 103273409.017 5                  25220387.305    25220414.617    25220414.465                        3708.551        2889.858        2889.866                          33.000          22.000          35.000                  
G06 112294882.471 7  87502568.412 8  87502500.405 8  83856559.231 8  21369003.828    21369020.328    21369020.641    21369025.789        -911.070        -709.870        -709.870        -680.293          46.000          48.000          49.000          52.000  
G09 125856880.132 5  98070432.277 4  98070428.283 6  93984189.772 7  23949763.555    23949793.402    23949793.012    23949802.246        1187.238         925.350         925.347         886.791          33.000          27.000          37.000          44.000  
G11 115491046.739 7  89993092.315 5  89993025.307 8  86243314.284 8  21977210.797    21977227.719    21977227.613    21977236.484         554.645         432.337         432.338         414.321          45.000          35.000          48.000          50.000  
G12 127221790.196 6  99133954.575 4  99133956.574 6                  24209502.484    24209519.453    24209519.070                        3276.535        2553.195        2553.196                          38.000          28.000          37.000                  
G14 116355263.844 7  90666513.087 5  90666432.085 7  86888660.151 8  22141673.086    22141693.512    22141693.195    22141703.438       -3212.238       -2502.901       -2502.905       -2398.617          43.000          31.000          46.000          48.000  
G17 115961893.368 7  90359976.133 7  90359910.130 7                  22066815.742    22066832.328    22066832.453                        -460.180        -358.413        -358.411                          44.000          42.000          45.000                  
G24 134398320.77124                                                  25575149.852                                                       -1180.371                                                          29.000                                                  
G22 111109543.118 8  86578912.491 6                                  21143444.234    21143459.578                                       -1798.184       -1400.954                                          48.000          38.000                                  
G20 114482930.260 7  89207562.518 5                                  21785372.164    21785390.715                                        2565.492        1999.338                                          46.000          34.000                                  
G19 109790451.650 7  85551041.691 6                                  20892426.961    20892438.508                                         594.629         463.471                                          46.000          38.000                                  
> 2025 03 13 08 51 25.0000000  0 12
G04 132771677.521 5                 103458616.92515  99147880.64616  25265614.266                    25265637.426    25265647.680         250.840                           0.000           0.000          30.000                          34.000          36.000  
G05 132530365.591 5 103270514.148 3 103270519.158 5                  25219682.258    25219709.102    25219709.047                        3708.762        2889.859        2889.859                          34.000          23.000          35.000                  
G06 112295793.614 7  87503278.397 8  87503210.390 8  83857239.635 8  21369177.344    21369193.883    21369194.539    21369199.316        -911.211        -709.985        -709.986        -680.404          46.000          48.000          48.000          52.000  
G09 125855692.832 5  98069507.127 4  98069503.126 6  93983303.168 7  23949536.859    23949567.379    23949566.852    23949576.203        1187.301         925.150         925.157         886.605          33.000          26.000          37.000          44.000  
G11 115490492.128 7  89992660.158 5  89992593.151 8  86242900.136 8  21977104.969    21977122.008    21977121.781    21977130.824         554.543         432.157         432.156         414.148          45.000          35.000          48.000          50.000  
G12 127218513.816 6  99131401.557 4  99131403.556 6                  24208879.062    24208895.801    24208895.492                        3276.391        2553.018        2553.018                          38.000          29.000          37.000                  
G14 116358476.197 7  90669016.212 5  90668935.213 7  86891058.979 8  22142284.164    22142304.926    22142304.766    22142314.930       -3212.363       -2503.125       -2503.128       -2398.829          43.000          31.000          46.000          48.000  
G17 115962353.508 7  90360334.681 6  90360268.676 7                  22066903.367    22066919.965    22066919.934                        -460.250        -358.547        -358.547                          44.000          41.000          45.000                  
G24 134399500.628 4 104726983.87613 104726979.87115 100363389.86016  25575375.359    25575409.938    25575409.996    25575419.266       -1180.195           0.000           0.000           0.000          29.000          20.000          34.000          39.000  
G22 111111341.476 8  86580313.806 6                                  21143786.570    21143801.629                                       -1798.543       -1401.315                                          48.000          38.000                                  
G20 114480364.816 7  89205563.479 5                                  21784884.531    21784902.746                                        2565.277        1999.039                                          46.000          34.000                                  
G19 109789857.026 7  85550578.347 6                                  20892313.758    20892325.266                                         594.566         463.344                                          46.000          38.000                                  
> 2025 03 13 08 51 26.0000000  0 12
G04 132771426.875 5                 103458421.620 5  99147693.488 6  25265566.133                    25265589.488    25265600.027         250.434                         195.305         187.158          30.000                          32.000          36.000  
G05 132526656.938 5 103267624.292 3 103267629.305 5                  25218976.383    25219003.156    25219003.102                        3708.391        2889.856        2889.854                          34.000          22.000          35.000                  
G06 112296704.887 7  87503988.480 7  87503920.473 8  83857920.133 8  21369350.250    21369366.992    21369367.465    21369372.422        -911.391        -710.082        -710.083        -680.498          46.000          47.000          48.000          52.000  
G09 125854505.791 5  98068582.174 4  98068578.174 6  93982416.758 7  23949309.883    23949341.184    23949340.703    23949350.055        1186.914         924.953         924.953         886.410          33.000          27.000          38.000          44.000  
G11 115489937.759 7  89992228.189 5  89992161.184 8  86242486.169 8  21976999.953    21977016.371    21977016.238    21977025.336         554.180         431.969         431.967         413.967          45.000          35.000          48.000          50.000  
G12 127215237.671 6  99128848.724 4  99128850.726 6                  24208254.992    24208272.402    24208272.266                        3276.016        2552.833        2552.830                          38.000          29.000          37.000                  
G14 116361688.827 7  90671519.554 5  90671438.555 7  86893458.018 8  22142895.375    22142916.332    22142916.301    22142926.312       -3212.898       -2503.342       -2503.342       -2399.039          43.000          32.000          45.000          48.000  
G17 115962813.819 7  90360693.362 6  90360627.360 7                  22066990.883    22067007.422    22067007.332                        -460.410        -358.681        -358.683                          44.000          41.000          44.000                  
G24 134400681.61334                                                  25575600.258                                                       -1180.387                                                          29.000                                                  
G22 111113140.316 7  86581715.496 6                                  21144128.844    21144143.695                                       -1799.059       -1401.690                                          47.000          39.000                                  
G20 114477799.769 7  89203564.751 5                                  21784396.359    21784414.668                                        2564.883        1998.728                                          46.000          35.000                                  
G19 109789262.578 7  85550115.142 6                                  20892200.555    20892212.215                                         594.348         463.205                                          46.000          38.000                                  
> 2025 03 13 08 51 27.0000000  0 12
G04 132771176.628 5                 103458226.639 5  99147506.632 6  25265519.094                    25265541.836    25265552.336         249.848                         194.981         186.857          31.000                          32.000          36.000  
G05 132522948.347 5 103264734.478 3 103264739.493 5                  25218270.812    25218297.023    25218297.074                        3708.609        2889.814        2889.811                          34.000          23.000          35.000                  
G06 112297616.346 7  87504698.713 7  87504630.707 8  83858600.772 8  21369524.000    21369540.449    21369541.074    21369545.906        -911.559        -710.233        -710.233        -680.639          46.000          47.000          48.000          52.000  
G09 125853319.062 5  98067657.458 4  98067653.455 6  93981530.576 7  23949083.852    23949115.094    23949114.812    23949124.039        1186.582         924.716         924.718         886.182          33.000          26.000          37.000          44.000  
G11 115489383.667 7  89991796.436 5  89991729.430 8  86242072.406 8  21976894.445    21976910.980    21976910.984    21976919.891         553.984         431.753         431.754         413.763          45.000          34.000          48.000          50.000  
G12 127211961.810 6  99126296.125 4  99126298.119 6                  24207632.125    24207649.129    24207648.734                        3275.660        2552.600        2552.606                          38.000          28.000          37.000                  
G14 116364901.779 7  90674023.153 5  90673942.149 7  86895857.295 8  22143506.945    22143527.863    22143527.742    22143537.734       -3213.133       -2503.598       -2503.595       -2399.277          43.000          31.000          46.000          48.000  
G17 115963274.357 7  90361052.223 7  90360986.221 7                  22067078.633    22067095.258    22067095.137                        -460.590        -358.861        -358.861                          44.000          42.000          45.000                  
G24 134401862.43524                                                  25575823.375                                                       -1180.574                                                          29.000                                                  
G22 111114939.678 8  86583117.594 6                                  21144471.109    21144486.297                                       -1799.594       -1402.098                                          48.000          39.000                                  
G20 114475235.148 7  89201566.349 5                                  21783908.312    21783926.430                                        2564.422        1998.402                                          46.000          34.000                                  
G19 109788668.353 7  85549652.113 6                                  20892087.266    20892098.961                                         594.141         463.029                                          46.000          38.000                                  
> 2025 03 13 08 51 28.0000000  0 12
G04 132770926.792 5                 103458031.981 5  99147320.087 6  25265471.547                    25265494.270    25265504.898         249.703                         194.658         186.544          31.000                          32.000          37.000  
G05 132519239.817 5 103261844.715 3 103261849.734 5                  25217565.727    25217591.004    25217590.906                        3708.578        2889.763        2889.759                          34.000          23.000          34.000                  
G06 112298527.968 7  87505409.071 8  87505341.064 8  83859281.532 8  21369697.797    21369714.074    21369714.578    21369719.645        -911.652        -710.358        -710.358        -680.759          46.000          48.000          48.000          52.000  
G09 125852132.632 5  98066732.968 4  98066728.970 6  93980644.614 7  23948858.422    23948889.668    23948889.219    23948898.656        1186.473         924.490         924.486         885.962          33.000          26.000          37.000          44.000  
G11 115488829.839 7  89991364.888 5  89991297.882 8  86241658.841 8  21976789.086    21976805.430    21976805.340    21976814.227         553.695         431.548         431.548         413.565          45.000          35.000          48.000          50.000  
G12 127208686.206 6  99123743.715 4  99123745.711 6                  24207009.188    24207025.621    24207025.070                        3275.523        2552.409        2552.408                          38.000          29.000          37.000                  
G14 116368115.045 7  90676527.000 5  90676445.991 7  86898256.809 8  22144118.094    22144139.449    22144139.336    22144149.406       -3213.324       -2503.847       -2503.842       -2399.514          43.000          30.000          46.000          48.000  
G17 115963735.086 7  90361411.232 7  90361345.230 7                  22067166.266    22067182.969    22067182.992                        -460.895        -359.009        -359.009                          44.000          42.000          45.000                  
G24 134403043.49624                                                  25576047.070                                                       -1181.098                                                          29.000                                                  
G22 111116739.536 8  86584520.079 6                                  21144813.773    21144828.516                                       -1800.074       -1402.485                                          48.000          39.000                                  
G20 114472670.943 7  89199568.277 5                                  21783420.219    21783438.480                                        2564.047        1998.072                                          46.000          34.000                                  
G19 109788074.325 7  85549189.235 6                                  20891974.383    20891985.953                                         594.008         462.877                                          46.000          38.000                                  
> 2025 03 13 08 51 29.0000000  0 12
G04 132770677.297 5                 103457837.594 5  99147133.797 6  25265422.977                    25265446.633    25265457.570         248.938                         194.387         186.290          30.000                          31.000          36.000  
G05 132515531.311 5 103258954.972 3 103258959.988 5                  25216861.062    25216885.402    25216885.543                        3708.629        2889.743        2889.746                          34.000          23.000          35.000                  
G06 112299439.724 7  87506119.535 7  87506051.528 8  83859962.394 8  21369870.945    21369887.746    21369888.230    21369893.129        -911.836        -710.464        -710.463        -680.863          46.000          47.000          48.000          52.000  
G09 125850946.454 5  98065808.673 4  98065804.676 6  93979758.836 7  23948632.859    23948663.852    23948663.301    23948672.707        1186.344         924.295         924.294         885.777          34.000          26.000          37.000          44.000  
G11 115488276.247 7  89990933.523 5  89990866.518 8  86241245.454 8  21976684.102    21976700.344    21976700.215    21976709.172         553.512         431.365         431.364         413.387          45.000          35.000          48.000          50.000  
G12 127205410.831 6  99121191.479 4  99121193.477 6                  24206385.469    24206402.527    24206402.242                        3275.090        2552.236        2552.234                          38.000          28.000          37.000                  
G14 116371328.593 7  90679031.056 5  90678950.049 7  86900656.532 8  22144730.125    22144750.766    22144751.004    22144760.781       -3213.742       -2504.057       -2504.058       -2399.723          43.000          31.000          46.000          49.000  
G17 115964195.999 7  90361770.386 6  90361704.383 7                  22067253.742    22067270.434    22067270.434                        -461.074        -359.154        -359.153                          44.000          41.000          45.000                  
G24 134404224.65024                                                  25576272.633                                                       -1181.750                                                          29.000                                                  
G22 111118539.865 8  86585922.928 6                                  21145156.539    21145171.496                                       -1800.605       -1402.850                                          48.000          39.000                                  
G20 114470107.127 7  89197570.508 5                                  21782932.609    21782950.320                                        2563.480        1997.769                                          46.000          34.000                                  
G19 109787480.477 7  85548726.498 6                                  20891861.344    20891873.012                                         593.688         462.738                                          46.000          38.000                                  
> 2025 03 13 08 51 30.0000000  0 12
G04 132770428.210 5                 103457643.518 5  99146947.811 6  25265374.898                    25265398.609    25265409.746         249.125                         194.076         185.986          31.000                          32.000          37.000  
G05 132511822.862 5 103256065.277 3 103256070.287 5                  25216154.883    25216179.801    25216180.027                        3708.730        2889.695        2889.701                          34.000          22.000          35.000                  
G06 112300351.629 7  87506830.113 7  87506762.105 8  83860643.365 8  21370044.445    21370061.250    21370061.516    21370066.738        -911.973        -710.578        -710.577        -680.971          46.000          47.000          48.000          52.000  
G09 125849760.550 5  98064884.597 4  98064880.602 6  93978873.271 7  23948407.297    23948437.871    23948437.426    23948446.777        1185.535         924.076         924.074         885.566          33.000          26.000          37.000          44.000  
G11 115487722.902 7  89990502.352 5  89990435.349 8  86240832.250 8  21976578.437    21976595.227    21976594.895    21976603.926         553.227         431.172         431.170         413.203          45.000          34.000          48.000          50.000  
G12 127202135.705 6  99118639.435 4  99118641.435 6                  24205762.148    24205779.203    24205778.867                        3275.070        2552.045        2552.042                          38.000          29.000          37.000                  
G14 116374542.431 7  90681535.343 5  90681454.334 7  86903056.472 8  22145341.477    22145362.391    22145362.508    22145372.383       -3214.027       -2504.287       -2504.284       -2399.940          42.000          31.000          46.000          48.000  
G17 115964657.103 7  90362129.687 7  90362063.685 7                  22067341.508    22067358.148    22067358.266                        -461.227        -359.302        -359.301                          45.000          42.000          45.000                  
G24 134405405.552 4 104731585.08913 104731581.07315 100367799.32816  25576498.273    25576533.465    25576532.996    25576543.000       -1181.816           0.000           0.000           0.000          29.000          19.000          33.000          39.000  
G22 111120340.690 8  86587326.168 6                                  21145499.156    21145513.984                                       -1801.098       -1403.239                                          48.000          39.000                                  
G20 114467543.716 7  89195573.057 5                                  21782444.617    21782462.676                                        2563.184        1997.450                                          46.000          34.000                                  
G19 109786886.812 7  85548263.905 6                                  20891748.297    20891759.988                                         593.512         462.593                                          46.000          38.000                                  
> 2025 03 13 08 51 31.0000000  0 12
G04 132770179.509 5                 103457449.732 5  99146762.110 6  25265327.656                    25265351.230    25265362.492         248.086                         193.786         185.702          31.000                          33.000          36.000  
G05 132508114.443 5 103253175.603 3 103253180.613 5                  25215449.594    25215474.340    25215474.508                        3708.520        2889.674        2889.674                          34.000          23.000          35.000                  
G06 112301263.709 7  87507540.829 8  87507472.823 8  83861324.468 8  21370217.906    21370234.828    21370235.152    21370240.301        -912.184        -710.716        -710.718        -681.102          46.000          48.000          48.000          52.000  
G09 125848574.961 5  98063960.785 4  98063956.777 6  93977987.943 7  23948182.688    23948212.402    23948211.977    23948221.215        1185.441         923.812         923.825         885.327          34.000          26.000          37.000          44.000  
G11 115487169.832 7  89990071.397 5  89990004.391 8  86240419.252 8  21976473.227    21976489.625    21976489.516    21976498.520         552.926         430.955         430.957         412.998          45.000          34.000          48.000          50.000  
G12 127198860.858 6  99116087.617 4  99116089.616 6                  24205139.648    24205156.141    24205155.996                        3274.773        2551.818        2551.819                          38.000          29.000          37.000                  
G14 116377756.589 7  90684039.875 5  90683958.868 7  86905456.651 8  22145952.891    22145974.211    22145974.000    22145984.035       -3214.422       -2504.532       -2504.534       -2400.179          43.000          31.000          46.000          48.000  
G17 115965118.419 7  90362489.152 7  90362423.150 7                  22067429.500    22067445.738    22067445.922                        -461.473        -359.465        -359.465                          44.000          42.000          45.000                  
G24 134406587.152 4 104732505.785 3 104732501.803 5 100368681.687 6  25576723.102    25576758.398    25576757.648    25576767.930       -1181.832        -920.696        -920.730        -882.359          29.000          19.000          33.000          39.000  
G22 111122142.026 8  86588729.809 6                                  21145841.758    21145857.012                                       -1801.523       -1403.641                                          48.000          39.000                                  
G20 114464980.726 7  89193575.932 5                                  21781956.938    21781974.914                                        2562.730        1997.126                                          46.000          34.000                                  
G19 109786293.352 7  85547801.470 6                                  20891635.516    20891646.844                                         593.453         462.435                                          46.000          38.000                                  
> 2025 03 13 08 51 32.0000000  0 12
G04 132769931.70535                                                  25265280.453                                                         248.105                                                          30.000                                                  
G05 132504406.077 5 103250285.965 3 103250290.975 5                  25214743.531    25214768.715    25214768.434                        3708.445        2889.637        2889.637                          33.000          23.000          35.000                  
G06 112302175.930 7  87508251.651 7  87508183.646 8  83862005.673 8  21370391.711    21370408.172    21370408.590    21370413.695        -912.285        -710.822        -710.824        -681.205          46.000          47.000          48.000          52.000  
G09 125847389.643 5  98063037.166 4  98063033.161 6  93977102.811 7  23947956.477    23947987.258    23947987.254    23947996.027        1185.246         923.619         923.616         885.132          33.000          27.000          38.000          44.000  
G11 115486617.001 7  89989640.625 5  89989573.619 8  86240006.430 8  21976368.227    21976384.344    21976384.418    21976393.371         552.613         430.772         430.772         412.822          45.000          34.000          48.000          50.000  
G12 127195586.236 6  99113535.968 4  99113537.970 6                  24204516.203    24204532.832    24204533.000                        3274.430        2551.649        2551.646                          38.000          29.000          37.000                  
G14 116380971.030 7  90686544.625 5  90686463.623 7  86907857.039 8  22146565.219    22146585.727    22146585.141    22146595.570       -3214.570       -2504.750       -2504.755       -2400.387          43.000          31.000          46.000          48.000  
G17 115965579.906 7  90362848.749 7  90362782.746 7                  22067517.289    22067533.773    22067533.793                        -461.578        -359.597        -359.596                          44.000          42.000          45.000                  
G24 134407768.930 4 104733426.642 3 104733422.668 5 100369564.184 6  25576948.367    25576983.461    25576982.785    25576992.922       -1181.949        -920.857        -920.866        -882.497          29.000          19.000          33.000          39.000  
G22 111123943.834 8  86590133.815 6                                  21146184.555    21146199.574                                       -1802.008       -1404.006                                          48.000          39.000                                  
G20 114462418.133 7  89191579.113 5                                  21781469.297    21781487.453                                        2562.383        1996.819                                          46.000          34.000                                  
G19 109785700.071 7  85547339.177 6                                  20891522.422    20891533.766                                         593.266         462.293                                          46.000          38.000                                  
> 2025 03 13 08 51 33.0000000  0 12
G04 132769683.84225                                                  25265233.617                                                         247.500                                                          31.000                                                  
G05 132500697.778 5 103247396.385 4 103247401.394 5                  25214037.344    25214063.055    25214062.719                        3708.156        2889.580        2889.582                          33.000          25.000          34.000                  
G06 112303088.353 7  87508962.632 8  87508894.628 8  83862687.030 8  21370565.445    21370581.910    21370582.426    21370587.355        -912.523        -710.981        -710.981        -681.357          46.000          48.000          48.000          52.000  
G09 125846204.613 5  98062113.773 4  98062109.769 6  93976217.893 7  23947730.250    23947761.645    23947761.527    23947770.402        1184.945         923.394         923.392         884.919          32.000          26.000          38.000          44.000  
G11 115486064.467 7  89989210.089 5  89989143.080 8  86239593.830 8  21976262.711    21976279.473    21976279.457    21976288.367         552.293         430.537         430.539         412.600          45.000          34.000          48.000          50.000  
G12 127192311.909 6  99110984.551 4  99110986.558 6                  24203892.250    24203909.848    24203910.270                        3274.086        2551.417        2551.412                          38.000          29.000          38.000                  
G14 116384185.814 7  90689049.654 5  90688968.648 7  86910257.685 8  22147176.672    22147197.430    22147197.043    22147207.359       -3215.020       -2505.029       -2505.025       -2400.647          43.000          31.000          46.000          48.000  
G17 115966041.639 7  90363208.539 6  90363142.534 7                  22067605.273    22067621.402    22067621.754                        -461.938        -359.790        -359.788                          44.000          41.000          45.000                  
G24 134408950.979 4 104734347.725 3 104734343.742 5 100370446.877 6  25577172.203    25577208.570    25577207.664    25577217.969       -1182.270        -921.083        -921.074        -882.693          29.000          19.000          34.000          39.000  
G22 111125746.187 7  86591538.242 6                                  21146527.477    21146542.664                                       -1802.695       -1404.427                                          47.000          39.000                                  
G20 114459855.993 7  89189582.648 5                                  21780981.703    21780999.699                                        2561.914        1996.464                                          46.000          35.000                                  
G19 109785107.042 7  85546877.076 6                                  20891409.664    20891421.309                                         592.914         462.100                                          46.000          38.000                                  
> 2025 03 13 08 51 34.0000000  0 12
G04 132769436.28125                                                  25265185.555                                                         247.453                                                          31.000                                                  
G05 132496989.562 5 103244506.870 3 103244511.880 5                  25213332.016    25213357.316    25213356.957                        3708.238        2889.516        2889.514                          33.000          22.000          34.000                  
G06 112304000.955 7  87509673.755 8  87509605.748 8  83863368.523 8  21370739.398    21370755.301    21370755.648    21370760.805        -912.648        -711.122        -711.120        -681.493          46.000          48.000          48.000          52.000  
G09 125845019.942 5  98061190.660 4  98061186.663 6  93975333.247 7  23947505.438    23947536.246    23947536.066    23947544.992        1184.539         923.112         923.106         884.646          33.000          26.000          37.000          44.000  
G11 115485512.220 7  89988779.772 5  89988712.764 8  86239181.445 8  21976157.578    21976174.391    21976174.285    21976183.223         552.113         430.317         430.316         412.386          45.000          35.000          48.000          50.000  
G12 127189037.876 6  99108433.370 4  99108435.382 6                  24203270.328    24203286.633    24203286.930                        3273.883        2551.181        2551.176                          38.000          29.000          38.000                  
G14 116387400.934 7  90691554.938 5  90691473.937 7  86912658.582 8  22147788.680    22147809.141    22147809.137    22147819.176       -3215.152       -2505.284       -2505.288       -2400.896          43.000          32.000          46.000          49.000  
G17 115966503.594 7  90363568.499 6  90363502.494 7                  22067693.195    22067709.230    22067709.500                        -462.074        -359.960        -359.961                          44.000          41.000          45.000                  
G24 134410133.246 5 104735268.975 3 104735264.964 5 100371329.720 6  25577398.406    25577433.555    25577432.535    25577442.898       -1182.039        -921.250        -921.222        -882.843          30.000          19.000          34.000          39.000  
G22 111127549.065 7  86592943.077 6                                  21146870.234    21146885.684                                       -1803.266       -1404.836                                          47.000          39.000                                  
G20 114457294.296 7  89187586.528 5                                  21780494.172    21780512.293                                        2561.461        1996.121                                          46.000          35.000                                  
G19 109784514.225 7  85546415.143 6                                  20891297.016    20891308.664                                         592.637         461.934                                          46.000          38.000                                  
> 2025 03 13 08 51 35.0000000  0 12
G04 132769189.15825                                                  25265139.391                                                         247.031                                                          30.000                                                  
G05 132493281.335 5 103241617.355 3 103241622.355 5                  25212625.023    25212651.852    25212651.457                        3708.352        2889.514        2889.525                          33.000          22.000          35.000                  
G06 112304913.686 7  87510384.977 8  87510316.971 8  83864050.112 8  21370913.109    21370929.336    21370929.758    21370934.852        -912.769        -711.222        -711.223        -681.589          46.000          48.000          48.000          52.000  
G09 125843835.502 5  98060267.731 4  98060263.732 6  93974448.770 7  23947279.883    23947310.660    23947310.555    23947319.574        1184.457         922.929         922.931         884.477          34.000          26.000          37.000          44.000  
G11 115484960.195 7  89988349.631 5  89988282.621 8  86238769.226 8  21976052.648    21976069.074    21976068.938    21976077.883         552.016         430.141         430.144         412.219          45.000          35.000          48.000          50.000  
G12 127185764.058 6  99105882.351 4  99105884.368 6                  24202646.914    24202663.844    24202664.043                        3273.766        2551.019        2551.014                          39.000          29.000          37.000                  
G14 116390616.313 7  90694060.425 5  90693979.422 7  86915059.673 8  22148400.883    22148421.078    22148420.871    22148431.152       -3215.523       -2505.487       -2505.486       -2401.091          43.000          31.000          46.000          48.000  
G17 115966965.711 7  90363928.585 6  90363862.584 7                  22067781.500    22067797.387    22067797.484                        -462.266        -360.087        -360.090                          45.000          41.000          46.000                  
G24 134411316.27834                                                  25577622.297                                                       -1182.836                                                          29.000                                                  
G22 111129352.399 7  86594348.267 6                                  21147213.859    21147228.949                                       -1803.543       -1405.190                                          47.000          39.000                                  
G20 114454732.973 7  89185590.697 5                                  21780006.672    21780024.816                                        2561.117        1995.830                                          46.000          35.000                                  
G19 109783921.574 7  85545953.338 6                                  20891184.250    20891195.715                                         592.520         461.804                                          46.000          38.000                                  
> 2025 03 13 08 51 36.0000000  0 12
G04 132768942.49724                                                  25265091.930                                                         246.328                                                          29.000                                                  
G05 132489573.120 5 103238727.852 3 103238732.844 5                  25211919.258    25211945.918    25211945.824                        3708.371        2889.503        2889.510                          33.000          22.000          35.000                  
G06 112305826.550 7  87511096.305 8  87511028.299 8  83864731.800 8  21371086.570    21371102.785    21371103.285    21371108.234        -912.981        -711.328        -711.329        -681.688          46.000          48.000          48.000          52.000  
G09 125842651.320 5  98059344.997 4  98059341.002 6  93973564.485 7  23947054.992    23947085.516    23947085.188    23947094.090        1184.152         922.734         922.730         884.285          33.000          26.000          37.000          44.000  
G11 115484408.403 7  89987919.666 5  89987852.661 8  86238357.181 8  21975947.422    21975963.973    21975963.957    21975972.879         551.719         429.964         429.959         412.045          45.000          35.000          48.000          51.000  
G12 127182490.477 6  99103331.516 4  99103333.539 6                  24202024.289    24202040.734    24202041.109                        3273.449        2550.836        2550.829                          38.000          28.000          37.000                  
G14 116393831.969 7  90696566.131 5  90696485.127 7  86917460.973 8  22149012.016    22149033.082    22149032.984    22149043.070       -3215.758       -2505.706       -2505.705       -2401.300          43.000          31.000          46.000          48.000  
G17 115967427.996 7  90364288.807 7  90364222.808 7                  22067869.414    22067885.297    22067885.445                        -462.418        -360.222        -360.224                          45.000          42.000          46.000                  
G24 134412498.94324                                                  25577847.875                                                       -1182.758                                                          29.000                                                  
G22 111131156.208 7  86595753.829 6                                  21147556.969    21147572.078                                       -1804.008       -1405.562                                          47.000          39.000                                  
G20 114452172.044 7  89183595.179 5                                  21779519.250    21779537.578                                        2560.758        1995.518                                          46.000          35.000                                  
G19 109783329.090 7  85545491.666 6                                  20891071.367    20891082.988                                         592.367         461.672                                          46.000          38.000                                  
> 2025 03 13 08 51 37.0000000  0 12
G04 132768695.497 5                 103456293.43715  99145653.99716  25265044.039                    25265070.207    25265080.285         246.328                           0.000           0.000          30.000                          34.000          37.000  
G05 132485864.957 5 103235838.382 3 103235843.378 5                  25211214.938    25211240.309    25211240.402                        3708.246        2889.470        2889.466                          33.000          23.000          35.000                  
G06 112306739.561 7  87511807.745 7  87511739.738 8  83865413.598 8  21371260.227    21371276.344    21371276.812    21371281.766        -913.019        -711.440        -711.439        -681.799          46.000          47.000          48.000          52.000  
G09 125841467.433 5  98058422.498 4  98058418.503 6  93972680.428 7  23946829.203    23946860.102    23946859.578    23946868.695        1183.512         922.499         922.500         884.057          33.000          25.000          37.000          44.000  
G11 115483856.857 7  89987489.894 5  89987422.892 8  86237945.321 8  21975842.438    21975859.012    21975859.219    21975867.934         551.344         429.772         429.769         411.860          45.000          35.000          48.000          50.000  
G12 127179217.137 6  99100780.866 4  99100782.887 6                  24201401.000    24201418.168    24201418.297                        3273.223        2550.649        2550.651                          38.000          28.000          36.000                  
G14 116397047.919 7  90699072.064 5  90698991.061 7  86919862.492 8  22149624.016    22149645.121    22149644.945    22149655.188       -3216.145       -2505.933       -2505.934       -2401.518          43.000          31.000          46.000          49.000  
G17 115967890.471 7  90364649.176 7  90364583.176 7                  22067957.617    22067973.574    22067973.773                        -462.539        -360.369        -360.367                          44.000          42.000          46.000                  
G24 134413681.17514 104738033.54313 104738029.55015 100373979.11216  25578072.602    25578108.828    25578108.254    25578117.812       -1183.289           0.000           0.000           0.000          29.000          19.000          33.000          39.000  
G22 111132960.501 7  86597159.768 6                                  21147900.344    21147915.469                                       -1804.469       -1405.939                                          47.000          39.000                                  
G20 114449611.513 7  89181599.968 5                                  21779031.703    21779050.113                                        2560.391        1995.211                                          46.000          34.000                                  
G19 109782736.789 7  85545030.137 6                                  20890958.609    20890970.414                                         592.320         461.529                                          46.000          38.000                                  
> 2025 03 13 08 51 38.0000000  0 12
G04 132768449.57914                 103456101.83315  99145470.37816  25264997.758                    25265023.539    25265033.324         245.676                           0.000           0.000          29.000                          34.000          37.000  
G05 132482156.839 5 103232948.956 3 103232953.955 5                  25210507.734    25210535.195    25210535.438                        3707.980        2889.427        2889.424                          32.000          23.000          35.000                  
G06 112307652.742 7  87512519.315 7  87512451.310 8  83866095.520 8  21371433.969    21371450.145    21371450.730    21371455.652        -913.312        -711.570        -711.572        -681.922          46.000          47.000          48.000          52.000  
G09 125840283.829 5  98057500.224 4  98057496.219 6  93971796.577 7  23946604.438    23946634.949    23946634.500    23946643.426        1183.297         922.273         922.283         883.851          33.000          26.000          37.000          44.000  
G11 115483305.574 7  89987060.332 5  89986993.328 8  86237533.657 8  21975737.688    21975754.066    21975754.078    21975763.074         551.195         429.563         429.564         411.664          45.000          35.000          48.000          51.000  
G12 127175944.069 6  99098230.426 4  99098232.448 6                  24200777.562    24200794.820    24200794.906                        3272.957        2550.440        2550.439                          38.000          28.000          36.000                  
G14 116400264.188 7  90701578.240 5  90701497.238 7  86922264.246 8  22150236.297    22150257.098    22150256.785    22150266.992       -3216.488       -2506.176       -2506.177       -2401.754          43.000          30.000          46.000          48.000  
G17 115968353.148 7  90365009.701 6  90364943.705 7                  22068045.656    22068061.453    22068061.668                        -462.832        -360.526        -360.529                          44.000          41.000          46.000                  
G24 134414864.237 4 104738955.410 3 104738951.410 5 100374862.558 6  25578298.703    25578334.066    25578333.594    25578343.047       -1183.070        -921.867        -921.860        -883.447          29.000          19.000          33.000          39.000  
G22 111134765.302 7  86598566.105 6                                  21148243.508    21148258.941                                       -1805.086       -1406.337                                          47.000          39.000                                  
G20 114447051.404 7  89179605.091 5                                  21778544.242    21778563.168                                        2559.828        1994.878                                          46.000          35.000                                  
G19 109782144.700 7  85544568.771 6                                  20890845.898    20890857.414                                         591.969         461.366                                          46.000          38.000                                  
> 2025 03 13 08 51 39.0000000  0 12
G04 132768204.026 5                 103455910.514 5  99145287.029 6  25264952.086                    25264976.984    25264986.605         245.402                         191.319         183.349          30.000                          35.000          37.000  
G05 132478448.818 5 103230059.607 3 103230064.609 5                  25209801.633    25209829.559    25209829.641                        3707.758        2889.349        2889.346                          32.000          23.000          35.000                  
G06 112308566.130 7  87513231.047 7  87513163.043 8  83866777.599 8  21371607.875    21371624.309    21371624.789    21371629.691        -913.535        -711.733        -711.733        -682.079          46.000          47.000          48.000          52.000  
G09 125839100.543 5  98056578.186 4  98056574.186 6  93970912.964 7  23946378.461    23946409.895    23946409.199    23946418.359        1182.945         922.039         922.034         883.613          34.000          26.000          37.000          43.000  
G11 115482754.599 7  89986631.006 5  89986564.003 8  86237122.225 8  21975632.727    21975649.230    21975649.195    21975658.164         550.840         429.325         429.325         411.433          44.000          34.000          48.000          50.000  
G12 127172671.310 6  99095680.231 4  99095682.249 6                  24200155.812    24200172.203    24200172.230                        3272.617        2550.196        2550.199                          38.000          28.000          36.000                  
G14 116403480.799 7  90704084.686 5  90704003.682 7  86924666.255 8  22150848.805    22150869.117    22150868.758    22150879.074       -3216.723       -2506.446       -2506.444       -2402.009          43.000          31.000          46.000          49.000  
G17 115968816.074 7  90365370.424 6  90365304.423 7                  22068133.758    22068149.594    22068149.641                        -462.996        -360.723        -360.718                          44.000          41.000          45.000                  
G24 134416047.548 4 104739877.470 3 104739873.459 5 100375746.192 6  25578522.828    25578558.746    25578558.258    25578567.820       -1183.731        -922.060        -922.049        -883.634          29.000          19.000          33.000          39.000  
G22 111136570.643 8  86599972.862 6                                  21148587.438    21148602.633                                       -1805.555       -1406.757                                          48.000          39.000                                  
G20 114444491.749 7  89177610.569 5                                  21778057.289    21778076.188                                        2559.441        1994.522                                          46.000          35.000                                  
G19 109781552.851 7  85544107.587 6                                  20890733.164    20890744.727                                         591.762         461.184                                          46.000          38.000                                  
> 2025 03 13 08 51 40.0000000  0 12
G04 132767958.871 4                 103455719.505 5  99145103.979 6  25264905.531                    25264930.477    25264940.105         244.984                         191.009         183.050          29.000                          34.000          37.000  
G05 132474740.850 5 103227170.300 4 103227175.308 6                  25209097.141    25209124.184    25209124.383                        3708.219        2889.307        2889.301                          32.000          24.000          36.000                  
G06 112309479.661 7  87513942.893 7  87513874.887 8  83867459.785 8  21371781.391    21371797.844    21371798.266    21371803.348        -913.664        -711.845        -711.844        -682.186          46.000          47.000          48.000          52.000  
G09 125837917.549 5  98055656.384 4  98055652.381 6  93970029.570 7  23946153.625    23946184.793    23946184.121    23946193.258        1182.711         921.802         921.805         883.394          33.000          25.000          37.000          43.000  
G11 115482203.877 7  89986201.878 5  89986134.876 8  86236710.978 8  21975528.148    21975544.660    21975544.430    21975553.488         550.625         429.128         429.127         411.246          45.000          34.000          48.000          50.000  
G12 127169398.792 6  99093130.231 4  99093132.237 6                  24199533.672    24199549.473    24199549.414                        3272.531        2550.000        2550.011                          38.000          28.000          37.000                  
G14 116406697.702 7  90706591.359 5  90706510.360 7  86927068.486 8  22151460.852    22151481.559    22151481.301    22151491.645       -3216.996       -2506.673       -2506.678       -2402.231          43.000          31.000          45.000          49.000  
G17 115969279.185 7  90365731.290 6  90365665.289 7                  22068221.391    22068237.699    22068237.844                        -463.258        -360.866        -360.866                          44.000          41.000          45.000                  
G24 134417231.061 5 104740799.671 3 104740795.667 5 100376629.974 6  25578748.359    25578784.129    25578783.441    25578793.219       -1183.320        -922.201        -922.207        -883.782          30.000          19.000          32.000          39.000  
G22 111138376.481 8  86601380.009 6                                  21148931.016    21148946.098                                       -1806.031       -1407.147                                          48.000          39.000                                  
G20 114441932.507 7  89175616.367 5                                  21777570.719    21777588.672                                        2559.008        1994.202                                          46.000          35.000                                  
G19 109780961.192 7  85543646.557 6                                  20890620.805    20890632.160                                         591.586         461.030                                          46.000          38.000                                  
> 2025 03 13 08 51 41.0000000  0 12
G04 132767714.111 5                 103455528.802 5  99144921.215 6  25264858.766                    25264883.750    25264893.625         244.664                         190.703         182.764          31.000                          34.000          37.000  
G05 132471032.881 5 103224280.980 3 103224285.999 5                  25208392.195    25208418.480    25208418.832                        3707.973        2889.320        2889.310                          33.000          23.000          35.000                  
G06 112310393.326 7  87514654.844 7  87514586.838 8  83868142.071 8  21371955.125    21371971.754    21371972.297    21371977.281        -913.750        -711.952        -711.951        -682.287          46.000          47.000          48.000          52.000  
G09 125836734.821 5  98054734.785 4  98054730.786 6  93969146.378 7  23945928.781    23945959.801    23945959.391    23945968.281        1182.742         921.599         921.594         883.192          33.000          24.000          37.000          43.000  
G11 115481653.388 7  89985772.934 5  89985705.931 7  86236299.906 8  21975423.602    21975439.734    21975439.598    21975448.723         550.371         428.944         428.945         411.073          45.000          35.000          47.000          50.000  
G12 127166126.513 6  99090580.412 4  99090582.419 6                  24198910.039    24198926.750    24198926.789                        3272.059        2549.819        2549.819                          38.000          28.000          36.000                  
G14 116409914.890 7  90709098.262 5  90709017.261 7  86929470.931 8  22152072.750    22152093.500    22152093.055    22152103.559       -3217.363       -2506.902       -2506.901       -2402.445          43.000          30.000          45.000          48.000  
G17 115969742.466 7  90366092.289 6  90366026.286 7                  22068309.539    22068325.898    22068325.898                        -463.395        -360.999        -360.997                          44.000          41.000          45.000                  
G24 134418414.732 5 104741722.011 3 104741718.003 5 100377513.872 6  25578973.344    25579009.359    25579008.438    25579018.461       -1183.617        -922.340        -922.336        -883.898          30.000          19.000          33.000          38.000  
G22 111140182.779 8  86602787.514 6                                  21149274.898    21149289.844                                       -1806.492       -1407.505                                          48.000          39.000                                  
G20 114439373.650 7  89173622.460 5                                  21777083.578    21777101.875                                        2558.664        1993.907                                          46.000          34.000                                  
G19 109780369.703 7  85543185.659 6                                  20890508.016    20890519.840                                         591.453         460.898                                          46.000          37.000                                  
> 2025 03 13 08 51 42.0000000  0 12
G04 132767470.09935                                                  25264812.422                                                         243.980                                                          31.000                                                  
G05 132467324.942 5 103221391.689 3 103221396.702 6                  25207685.219    25207713.012    25207713.312                        3708.066        2889.291        2889.297                          33.000          23.000          36.000                  
G06 112311307.110 7  87515366.888 7  87515298.883 8  83868824.448 8  21372129.383    21372145.379    21372145.977    21372150.988        -913.957        -712.044        -712.045        -682.377          46.000          47.000          48.000          52.000  
G09 125835552.330 5  98053813.373 4  98053809.374 6  93968263.361 7  23945703.805    23945734.344    23945734.020    23945742.934        1182.359         921.412         921.412         883.017          33.000          26.000          38.000          44.000  
G11 115481103.113 7  89985344.157 5  89985277.151 7  86235888.993 8  21975318.836    21975334.984    21975334.996    21975343.898         550.199         428.777         428.779         410.913          45.000          35.000          47.000          50.000  
G12 127162854.448 6  99088030.761 4  99088032.770 6                  24198287.680    24198303.910    24198303.977                        3271.871        2549.651        2549.649                          38.000          29.000          37.000                  
G14 116413132.334 7  90711605.360 5  90711524.359 7  86931873.564 8  22152684.750    22152705.691    22152705.477    22152715.883       -3217.480       -2507.099       -2507.098       -2402.633          42.000          31.000          45.000          48.000  
G17 115970205.907 7  90366453.411 6  90366387.410 7                  22068397.695    22068413.859    22068413.879                        -463.531        -361.123        -361.124                          44.000          41.000          45.000                  
G24 134419598.578 5 104742644.468 3 104742640.469 5 100378397.901 6  25579198.859    25579234.719    25579233.945    25579243.910       -1183.859        -922.457        -922.467        -884.029          30.000          18.000          33.000          39.000  
G22 111141989.538 8  86604195.376 6                                  21149618.734    21149633.672                                       -1807.047       -1407.862                                          48.000          39.000                                  
G20 114436815.168 7  89171628.847 5                                  21776597.172    21776615.395                                        2558.285        1993.613                                          46.000          35.000                                  
G19 109779778.379 7  85542724.891 6                                  20890395.648    20890407.629                                         591.172         460.768                                          46.000          37.000                                  
> 2025 03 13 08 51 43.0000000  0 12
G04 132767225.554 5                 103455148.13915  99144556.41316  25264766.508                    25264790.141    25264800.234         243.438                           0.000           0.000          30.000                          34.000          37.000  
G05 132463617.047 5 103218502.414 3 103218507.429 6                  25206980.227    25207007.414    25207007.320                        3707.730        2889.275        2889.272                          33.000          23.000          36.000                  
G06 112312221.054 7  87516079.056 7  87516011.050 8  83869506.942 8  21372303.438    21372319.777    21372320.219    21372325.250        -914.019        -712.169        -712.167        -682.494          46.000          47.000          48.000          52.000  
G09 125834370.142 5  98052892.204 4  98052888.200 6  93967380.569 7  23945479.773    23945509.527    23945509.094    23945518.145        1182.090         921.169         921.174         882.793          34.000          27.000          37.000          44.000  
G11 115480553.096 7  89984915.580 5  89984848.576 8  86235478.276 8  21975214.148    21975230.445    21975230.270    21975239.199         549.914         428.577         428.575         410.717          45.000          35.000          48.000          50.000  
G12 127159582.658 6  99085481.326 4  99085483.334 6                  24197664.539    24197681.289    24197681.195                        3271.578        2549.435        2549.436                          38.000          27.000          36.000                  
G14 116416350.091 7  90714112.699 5  90714031.698 7  86934276.430 8  22153296.969    22153318.066    22153317.809    22153328.219       -3217.934       -2507.339       -2507.339       -2402.865          43.000          31.000          46.000          48.000  
G17 115970669.541 7  90366814.684 6  90366748.685 7                  22068486.312    22068502.496    22068502.703                        -463.727        -361.273        -361.275                          44.000          41.000          45.000                  
G24 134420782.660 5 104743567.128 2 104743563.121 5 100379282.102 6  25579422.836    25579460.062    25579459.230    25579469.113       -1184.359        -922.660        -922.652        -884.201          30.000          17.000          33.000          39.000  
G22 111143796.791 7  86605603.623 6                                  21149962.359    21149977.734                                       -1807.465       -1408.247                                          47.000          39.000                                  
G20 114434257.097 7  89169635.551 5                                  21776110.148    21776128.633                                        2557.898        1993.296                                          46.000          35.000                                  
G19 109779187.240 7  85542264.265 6                                  20890283.117    20890294.738                                         590.996         460.626                                          46.000          37.000                                  
> 2025 03 13 08 51 44.0000000  0 12
G04 132766981.929 5                 103454958.312 5  99144374.495 6  25264720.234                    25264744.332    25264754.695         243.453                         189.827         181.918          30.000                          34.000          37.000  
G05 132459909.234 5 103215613.209 3 103215618.223 6                  25206275.063    25206301.648    25206301.430                        3707.594        2889.205        2889.207                          33.000          23.000          36.000                  
G06 112313135.194 7  87516791.375 7  87516723.368 8  83870189.582 8  21372477.242    21372493.586    21372493.852    21372498.980        -914.184        -712.318        -712.319        -682.640          46.000          47.000          48.000          52.000  
G09 125833188.271 5  98051971.266 4  98051967.267 6  93966498.008 7  23945254.445    23945284.805    23945284.156    23945293.266        1181.543         920.939         920.933         882.561          33.000          26.000          37.000          43.000  
G11 115480003.381 7  89984487.238 5  89984420.235 7  86235067.783 8  21975109.180    21975125.758    21975125.676    21975134.605         549.582         428.342         428.341         410.493          45.000          35.000          47.000          50.000  
G12 127156311.151 6  99082932.108 4  99082934.109 6                  24197042.508    24197058.848    24197058.746                        3271.430        2549.218        2549.225                          38.000          28.000          37.000                  
G14 116419568.183 7  90716620.298 5  90716539.298 7  86936679.544 8  22153909.523    22153930.406    22153930.637    22153940.457       -3218.203       -2507.599       -2507.600       -2403.114          43.000          31.000          45.000          48.000  
G17 115971133.415 7  90367176.144 6  90367110.145 7                  22068574.539    22068590.629    22068590.652                        -463.961        -361.460        -361.460                          44.000          41.000          44.000                  
G24 134421967.53834                                                  25579649.406                                                       -1184.840                                                          29.000                                                  
G22 111145604.587 7  86607012.290 6                                  21150306.000    21150321.445                                       -1808.090       -1408.667                                          47.000          39.000                                  
G20 114431699.479 7  89167642.610 5                                  21775623.000    21775641.793                                        2557.387        1992.941                                          46.000          34.000                                  
G19 109778596.354 7  85541803.835 6                                  20890170.719    20890182.312                                         590.758         460.430                                          46.000          38.000                                  
> 2025 03 13 08 51 45.0000000  0 12
G04 132766738.680 4                 103454768.782 5  99144192.859 6  25264673.188                    25264697.758    25264708.000         242.859                         189.530         181.636          29.000                          34.000          37.000  
G05 132456201.491 5 103212724.080 3 103212729.081 6                  25205568.641    25205595.906    25205595.461                        3707.535        2889.129        2889.142                          34.000          23.000          36.000                  
G06 112314049.503 7  87517503.826 7  87517435.819 8  83870872.348 8  21372651.344    21372667.793    21372668.137    21372673.281        -914.316        -712.451        -712.450        -682.766          46.000          47.000          48.000          52.000  
G09 125832006.700 5  98051050.565 4  98051046.572 6  93965615.674 7  23945028.320    23945059.582    23945059.531    23945068.246        1181.617         920.701         920.695         882.333          34.000          26.000          37.000          43.000  
G11 115479453.922 7  89984059.096 5  89983992.091 7  86234657.482 8  21975004.586    21975021.602    21975021.395    21975030.293         549.383         428.143         428.144         410.302          45.000          34.000          47.000          50.000  
G12 127153039.911 6  99080383.090 4  99080385.087 6                  24196420.117    24196436.426    24196436.379                        3271.035        2549.018        2549.022                          38.000          29.000          37.000                  
G14 116422786.580 7  90719128.136 5  90719047.131 7  86939082.885 8  22154522.117    22154542.781    22154542.703    22154552.863       -3218.598       -2507.838       -2507.833       -2403.342          43.000          31.000          45.000          48.000  
G17 115971597.489 7  90367537.763 6  90367471.761 7                  22068662.562    22068678.586    22068678.633                        -464.262        -361.618        -361.616                          45.000          41.000          44.000                  
G24 134423151.476 4 104745412.93413 104745408.92815 100381051.00516  25579874.797    25579911.254    25579910.512    25579920.266       -1184.562           0.000           0.000           0.000          29.000          19.000          34.000          39.000  
G22 111147412.885 7  86608421.350 6                                  21150650.156    21150665.703                                       -1808.609       -1409.060                                          47.000          39.000                                  
G20 114429142.278 7  89165649.993 5                                  21775136.953    21775154.941                                        2557.051        1992.616                                          46.000          35.000                                  
G19 109778005.673 7  85541343.567 6                                  20890058.055    20890070.102                                         590.629         460.268                                          46.000          38.000                                  
> 2025 03 13 08 51 46.0000000  0 12
G04 132766495.849 5                 103454579.580 5  99144011.541 6  25264626.422                    25264651.188    25264661.738         242.738                         189.202         181.319          30.000                          34.000          37.000  
G05 132452493.772 5 103209834.955 3 103209839.955 6                  25204864.188    25204890.582    25204890.148                        3707.711        2889.125        2889.126                          34.000          22.000          36.000                  
G06 112314963.962 7  87518216.394 7  87518148.388 8  83871555.226 8  21372825.375    21372841.625    21372841.871    21372847.145        -914.566        -712.568        -712.569        -682.878          46.000          47.000          48.000          52.000  
G09 125830825.387 5  98050130.069 4  98050126.080 6  93964733.532 7  23944804.281    23944834.703    23944835.078    23944843.484        1181.250         920.495         920.492         882.143          34.000          26.000          37.000          43.000  
G11 115478904.721 7  89983631.155 5  89983564.149 7  86234247.373 8  21974900.133    21974916.578    21974916.559    21974925.367         549.117         427.941         427.942         410.109          45.000          35.000          47.000          50.000  
G12 127149768.923 6  99077834.275 4  99077836.271 6                  24195796.914    24195813.973    24195813.824                        3271.059        2548.814        2548.815                          38.000          29.000          37.000                  
G14 116426005.277 7  90721636.206 5  90721555.201 7  86941486.453 8  22155134.703    22155155.414    22155155.387    22155165.531       -3218.930       -2508.070       -2508.070       -2403.567          43.000          31.000          45.000          48.000  
G17 115972061.764 7  90367899.533 6  90367833.532 7                  22068750.977    22068767.410    22068767.438                        -464.398        -361.770        -361.771                          45.000          41.000          45.000                  
G24 134424336.70734                                                  25580100.492                                                       -1185.102                                                          29.000                                                  
G22 111149221.668 8  86609830.788 6                                  21150994.844    21151010.277                                       -1809.031       -1409.437                                          48.000          39.000                                  
G20 114426585.485 7  89163657.695 5                                  21774650.164    21774668.629                                        2556.523        1992.298                                          46.000          35.000                                  
G19 109777415.183 7  85540883.447 6                                  20889945.594    20889957.262                                         590.367         460.120                                          46.000          38.000                                  
> 2025 03 13 08 51 47.0000000  0 12
G04 132766253.432 5                 103454390.697 5  99143830.528 6  25264580.516                    25264604.930    25264615.785         242.305                         188.883         181.013          30.000                          34.000          37.000  
G05 132448786.148 5 103206945.895 3 103206950.908 6                  25204158.500    25204185.184    25204185.055                        3707.598        2889.060        2889.047                          33.000          23.000          36.000                  
G06 112315878.620 7  87518929.119 8  87518861.112 8  83872238.254 8  21372999.594    21373015.773    21373016.105    21373021.250        -914.727        -712.725        -712.724        -683.028          46.000          48.000          48.000          52.000  
G09 125829644.427 5  98049209.857 4  98049205.864 6  93963851.661 7  23944579.820    23944609.609    23944610.258    23944618.520        1180.977         920.212         920.216         881.871          34.000          26.000          36.000          44.000  
G11 115478355.817 7  89983203.443 5  89983136.438 7  86233837.485 8  21974795.773    21974812.285    21974812.328    21974821.039         548.730         427.712         427.711         409.888          45.000          35.000          47.000          50.000  
G12 127146498.228 6  99075285.696 4  99075287.690 6                  24195175.086    24195191.453    24195191.348                        3270.531        2548.580        2548.581                          38.000          29.000          37.000                  
G14 116429224.313 7  90724144.543 5  90724063.536 7  86943890.272 8  22155746.977    22155767.863    22155767.781    22155778.102       -3219.180       -2508.337       -2508.334       -2403.820          43.000          30.000          45.000          48.000  
G17 115972526.269 7  90368261.482 7  90368195.480 7                  22068839.320    22068855.484    22068855.488                        -464.605        -361.949        -361.948                          44.000          42.000          44.000                  
G24 134425521.61334                                                  25580326.430                                                       -1184.723                                                          29.000                                                  
G22 111151030.991 8  86611240.646 6                                  21151339.625    21151354.348                                       -1809.605       -1409.859                                          48.000          39.000                                  
G20 114424029.145 7  89161665.751 5                                  21774163.961    21774182.199                                        2556.105        1991.944                                          46.000          35.000                                  
G19 109776824.938 7  85540423.519 6                                  20889833.367    20889845.082                                         590.172         459.928                                          46.000          38.000                                  
> 2025 03 13 08 51 48.0000000  0 12
G04 132766011.410 5                 103454202.125 5  99143649.814 6  25264534.242                    25264558.312    25264569.430         241.824                         188.572         180.714          30.000                          34.000          37.000  
G05 132445078.573 5 103204056.877 4 103204061.889 6                  25203452.445    25203479.570    25203479.500                        3707.617        2889.018        2889.019                          34.000          24.000          36.000                  
G06 112316793.451 7  87519641.975 7  87519573.969 8  83872921.409 8  21373173.547    21373189.801    21373190.090    21373195.152        -914.969        -712.856        -712.857        -683.156          46.000          47.000          48.000          52.000  
G09 125828463.761 5  98048289.878 4  98048285.880 6  93962970.010 7  23944354.805    23944385.180    23944385.789    23944393.984        1180.484         919.980         919.984         881.651          34.000          26.000          36.000          44.000  
G11 115477807.187 7  89982775.947 5  89982708.942 7  86233427.801 8  21974691.406    21974707.688    21974707.746    21974716.648         548.539         427.496         427.496         409.684          45.000          35.000          47.000          51.000  
G12 127143227.833 6  99072737.346 4  99072739.343 6                  24194553.680    24194569.383    24194569.621                        3270.266        2548.350        2548.347                          38.000          29.000          37.000                  
G14 116432443.672 7  90726653.126 5  90726572.122 7  86946294.336 8  22156359.828    22156380.492    22156380.637    22156390.824       -3219.570       -2508.583       -2508.587       -2404.063          43.000          31.000          46.000          49.000  
G17 115972990.992 7  90368623.601 7  90368557.598 7                  22068927.992    22068944.031    22068943.973                        -464.777        -362.119        -362.118                          44.000          42.000          45.000                  
G24 134426706.86534                                                  25580550.508                                                       -1185.328                                                          29.000                                                  
G22 111152840.833 8  86612650.911 6                                  21151684.047    21151698.898                                       -1810.066       -1410.265                                          48.000          39.000                                  
G20 114421473.237 7  89159674.143 5                                  21773677.281    21773695.383                                        2555.691        1991.608                                          46.000          35.000                                  
G19 109776234.906 7  85539963.754 6                                  20889720.844    20889733.211                                         589.945         459.765                                          45.000          38.000                                  
> 2025 03 13 08 51 49.0000000  0 12
G04 132765769.742 5                 103454013.823 5  99143469.364 6  25264488.711                    25264512.297    25264523.523         241.734                         188.302         180.450          30.000                          34.000          37.000  
G05 132441370.989 5 103201167.863 3 103201172.868 6                  25202746.727    25202773.762    25202773.816                        3707.492        2889.014        2889.021                          34.000          23.000          36.000                  
G06 112317708.374 7  87520354.906 8  87520286.900 8  83873604.636 8  21373347.602    21373363.914    21373364.258    21373369.340        -914.941        -712.931        -712.932        -683.226          46.000          48.000          48.000          52.000  
G09 125827283.316 5  98047370.066 4  98047366.065 6  93962088.524 7  23944130.797    23944160.371    23944160.734    23944169.207        1180.523         919.812         919.815         881.486          34.000          26.000          37.000          43.000  
G11 115477258.750 7  89982348.600 5  89982281.596 8  86233018.263 8  21974587.109    21974603.672    21974603.586    21974612.578         548.340         427.347         427.346         409.538          45.000          35.000          48.000          50.000  
G12 127139957.611 6  99070189.121 4  99070191.126 6                  24193930.492    24193946.949    24193947.566                        3270.113        2548.225        2548.218                          38.000          29.000          37.000                  
G14 116435663.263 7  90729161.896 5  90729080.888 7  86948698.573 8  22156972.305    22156993.543    22156993.508    22157003.633       -3219.750       -2508.770       -2508.766       -2404.237          43.000          31.000          45.000          48.000  
G17 115973455.845 7  90368985.822 7  90368919.820 7                  22069016.594    22069032.355    22069032.387                        -464.930        -362.222        -362.222                          45.000          42.000          44.000                  
G24 134427891.67614 104749106.56213 104749102.58115 100384590.74416  25580776.023    25580812.699    25580812.031    25580822.023       -1185.328           0.000           0.000           0.000          29.000          18.000          33.000          39.000  
G22 111154651.105 8  86614061.512 6                                  21152028.078    21152043.383                                       -1810.453       -1410.601                                          48.000          39.000                                  
G20 114418917.677 7  89157682.805 5                                  21773190.867    21773209.359                                        2555.461        1991.338                                          47.000          35.000                                  
G19 109775645.009 7  85539504.098 6                                  20889608.672    20889620.680                                         589.879         459.656                                          46.000          38.000                                  
> 2025 03 13 08 51 50.0000000  0 12
G04 132765528.417 5                 103453825.786 5  99143289.166 6  25264441.523                    25264466.551    25264477.676         240.984                         188.036         180.198          30.000                          35.000          37.000  
G05 132437663.453 5 103198278.874 4 103198283.882 6                  25202041.867    25202068.047    25202068.219                        3707.555        2888.989        2888.987                          35.000          25.000          36.000                  
G06 112318623.446 7  87521067.952 7  87520999.947 8  83874287.971 8  21373521.656    21373538.012    21373538.383    21373543.434        -915.148        -713.046        -713.046        -683.336          46.000          47.000          48.000          52.000  
G09 125826103.165 5  98046450.468 4  98046446.472 6  93961207.253 7  23943906.141    23943935.980    23943936.438    23943944.863        1179.898         919.598         919.593         881.272          34.000          26.000          37.000          43.000  
G11 115476710.561 7  89981921.451 5  89981854.444 7  86232608.911 8  21974482.805    21974499.086    21974499.152    21974508.113         548.020         427.149         427.152         409.353          45.000          34.000          47.000          50.000  
G12 127136687.641 6  99067641.100 4  99067643.109 6                  24193308.852    24193324.359    24193324.941                        3269.785        2548.021        2548.017                          38.000          29.000          36.000                  
G14 116438883.152 7  90731670.896 5  90731589.889 7  86951103.029 8  22157585.430    22157606.184    22157605.859    22157616.273       -3220.125       -2509.000       -2509.000       -2404.456          42.000          31.000          46.000          48.000  
G17 115973920.887 7  90369348.193 7  90369282.190 7                  22069105.312    22069120.871    22069120.840                        -465.152        -362.371        -362.370                          45.000          42.000          44.000                  
G24 134429077.19814 104750030.33412 104750026.35615 100385476.02316  25581001.656    25581038.293    25581037.633    25581047.887       -1185.551           0.000           0.000           0.000          28.000          17.000          33.000          39.000  
G22 111156461.876 8  86615472.502 6                                  21152372.367    21152387.801                                       -1811.074       -1410.989                                          48.000          40.000                                  
G20 114416362.519 7  89155691.784 5                                  21772704.578    21772723.055                                        2554.828        1991.021                                          46.000          35.000                                  
G19 109775055.300 7  85539044.586 6                                  20889496.203    20889508.367                                         589.582         459.512                                          45.000          38.000                                  
> 2025 03 13 08 51 51.0000000  0 12
G04 132765288.04135                                                  25264395.883                                                         240.703                                                          30.000                                                  
G05 132433955.964 5 103195389.927 3 103195394.928 5                  25201336.641    25201362.660    25201362.996                        3707.332        2888.947        2888.954                          34.000          23.000          35.000                  
G06 112319538.690 7  87521781.131 7  87521713.126 8  83874971.436 8  21373695.945    21373711.832    21373712.039    21373717.246        -915.301        -713.179        -713.179        -683.465          46.000          47.000          48.000          52.000  
G09 125824923.313 5  98045531.105 4  98045527.117 6  93960326.203 7  23943680.773    23943711.410    23943711.938    23943720.246        1179.938         919.364         919.355         881.049          34.000          26.000          36.000          43.000  
G11 115476162.641 7  89981494.508 5  89981427.501 7  86232199.760 8  21974378.555    21974394.934    21974394.707    21974403.941         547.734         426.943         426.944         409.150          45.000          34.000          47.000          50.000  
G12 127133417.954 6  99065093.295 4  99065095.310 6                  24192686.680    24192702.566    24192703.145                        3269.645        2547.805        2547.799                          38.000          28.000          37.000                  
G14 116442103.348 7  90734180.135 5  90734099.131 7  86953507.716 8  22158198.062    22158218.996    22158218.695    22158229.023       -3220.273       -2509.239       -2509.242       -2404.687          43.000          31.000          46.000          48.000  
G17 115974386.140 7  90369710.726 7  90369644.724 7                  22069193.477    22069209.520    22069209.375                        -465.305        -362.533        -362.534                          44.000          42.000          44.000                  
G24 134430263.43134                                                  25581227.828                                                       -1185.531                                                          28.000                                                  
G22 111158273.156 7  86616883.889 6                                  21152716.977    21152732.539                                       -1811.578       -1411.387                                          47.000          39.000                                  
G20 114413807.792 7  89153701.099 5                                  21772218.312    21772236.738                                        2554.574        1990.685                                          45.000          35.000                                  
G19 109774465.806 7  85538585.241 6                                  20889384.375    20889396.246                                         589.453         459.345                                          46.000          38.000                                  
> 2025 03 13 08 51 52.0000000  0 12
G04 132765047.53435                                                  25264351.648                                                         240.223                                                          30.000                                                  
G05 132430248.516 5 103192501.015 3 103192506.014 6                  25200630.242    25200656.930    25200657.500                        3707.461        2888.912        2888.914                          34.000          23.000          36.000                  
G06 112320454.096 7  87522494.438 7  87522426.434 8  83875655.023 8  21373870.023    21373886.191    21373886.438    21373891.723        -915.430        -713.307        -713.308        -683.587          46.000          47.000          48.000          52.000  
G09 125823743.733 5  98044611.961 4  98044607.970 6  93959445.355 7  23943456.461    23943486.676    23943486.937    23943495.387        1179.410         919.143         919.147         880.848          33.000          26.000          36.000          43.000  
G11 115475614.987 7  89981067.767 5  89981000.763 8  86231790.804 8  21974274.453    21974290.598    21974290.320    21974299.484         547.547         426.741         426.738         408.956          45.000          35.000          48.000          51.000  
G12 127130148.521 6  99062545.693 4  99062547.705 6                  24192063.695    24192080.305    24192080.941                        3269.285        2547.602        2547.605                          37.000          28.000          37.000                  
G14 116445323.850 7  90736689.616 5  90736608.612 7  86955912.633 8  22158810.820    22158831.859    22158831.473    22158841.711       -3220.684       -2509.481       -2509.481       -2404.917          43.000          30.000          46.000          48.000  
G17 115974851.591 7  90370073.416 7  90370007.415 7                  22069281.805    22069298.125    22069298.059                        -465.508        -362.690        -362.691                          44.000          42.000          44.000                  
G24 134431449.44134                                                  25581453.758                                                       -1186.070                                                          29.000                                                  
G22 111160084.936 7  86618295.663 6                                  21153061.516    21153077.176                                       -1812.043       -1411.774                                          47.000          39.000                                  
G20 114411253.485 7  89151710.741 5                                  21771732.664    21771751.133                                        2554.043        1990.359                                          46.000          35.000                                  
G19 109773876.511 7  85538126.052 6                                  20889272.250    20889283.934                                         589.129         459.188                                          46.000          38.000                                  
> 2025 03 13 08 51 53.0000000  0 12
G04 132764806.915 5                 103453263.59616  99142750.40616  25264305.594                    25264329.391    25264340.523         240.102                           0.000           0.000          30.000                          36.000          37.000  
G05 132426541.133 5 103189612.156 4 103189617.152 6                  25199926.172    25199951.379    25199951.844                        3707.414        2888.859        2888.862                          35.000          25.000          36.000                  
G06 112321369.668 7  87523207.875 7  87523139.870 8  83876338.733 8  21374044.484    21374060.406    21374060.551    21374065.879        -915.769        -713.437        -713.436        -683.710          46.000          47.000          48.000          52.000  
G09 125822564.461 5  98043693.061 4  98043689.061 6  93958564.738 7  23943233.000    23943262.566    23943262.660    23943271.406        1179.285         918.901         918.909         880.618          34.000          26.000          37.000          43.000  
G11 115475067.599 7  89980641.233 5  89980574.232 7  86231382.048 8  21974169.992    21974186.406    21974186.305    21974195.277         547.230         426.534         426.531         408.756          45.000          34.000          47.000          50.000  
G12 127126879.354 6  99059998.293 4  99060000.303 6                  24191440.453    24191458.199    24191458.770                        3269.137        2547.400        2547.402                          37.000          27.000          36.000                  
G14 116448544.668 7  90739199.340 5  90739118.337 7  86958317.785 8  22159423.680    22159444.492    22159444.250    22159454.176       -3220.977       -2509.724       -2509.725       -2405.151          43.000          31.000          45.000          48.000  
G17 115975317.260 7  90370436.276 6  90370370.274 7                  22069370.188    22069386.938    22069386.707                        -465.820        -362.860        -362.859                          44.000          41.000          45.000                  
G24 134432635.083 4 104752802.70713 104752798.68515 100388132.83716  25581681.008    25581715.680    25581715.562    25581725.258       -1186.859           0.000           0.000           0.000          29.000          18.000          32.000          39.000  
G22 111161897.224 7  86619707.827 6                                  21153406.938    21153422.418                                       -1812.555       -1412.164                                          47.000          39.000                                  
G20 114408699.603 7  89149720.713 5                                  21771246.641    21771264.957                                        2553.609        1990.028                                          46.000          35.000                                  
G19 109773287.435 7  85537667.035 6                                  20889160.203    20889171.883                                         589.004         459.017                                          46.000          38.000                                  
> 2025 03 13 08 51 54.0000000  0 12
G04 132764567.199 5                 103453076.812 5  99142571.417 6  25264258.750                    25264283.746    25264294.816         239.938                         186.783         178.988          30.000                          35.000          38.000  
G05 132422833.781 5 103186723.325 4 103186728.314 6                  25199220.609    25199246.391    25199246.637                        3707.340        2888.831        2888.837                          34.000          26.000          36.000                  
G06 112322285.388 7  87523921.426 7  87523853.422 8  83877022.553 8  21374218.906    21374234.766    21374235.008    21374240.281        -915.922        -713.551        -713.551        -683.820          46.000          47.000          48.000          52.000  
G09 125821385.478 5  98042774.384 4  98042770.380 6  93957684.336 7  23943009.070    23943038.000    23943038.414    23943047.207        1179.180         918.677         918.681         880.402          34.000          27.000          36.000          44.000  
G11 115474520.460 7  89980214.899 5  89980147.896 7  86230973.479 8  21974065.727    21974082.320    21974082.320    21974091.195         547.035         426.333         426.336         408.569          45.000          35.000          47.000          50.000  
G12 127123610.445 6  99057451.100 4  99057453.108 6                  24190819.203    24190836.031    24190836.371                        3268.652        2547.194        2547.195                          38.000          28.000          36.000                  
G14 116451765.775 7  90741709.292 5  90741628.290 7  86960723.153 8  22160037.109    22160057.695    22160057.469    22160067.473       -3221.172       -2509.952       -2509.953       -2405.369          43.000          31.000          46.000          48.000  
G17 115975783.114 7  90370799.274 6  90370733.273 7                  22069458.711    22069475.453    22069475.359                        -465.867        -362.998        -362.999                          44.000          41.000          45.000                  
G24 134433821.448 4 104753727.129 3 104753723.117 5 100389018.752 6  25581905.461    25581941.250    25581941.059    25581950.527       -1186.594        -924.422        -924.432        -885.916          29.000          18.000          32.000          39.000  
G22 111163709.989 7  86621120.367 6                                  21153752.312    21153767.020                                       -1813.039       -1412.541                                          47.000          39.000                                  
G20 114406146.123 7  89147730.996 5                                  21770760.727    21770778.977                                        2553.277        1989.717                                          46.000          35.000                                  
G19 109772698.540 7  85537208.154 6                                  20889048.461    20889059.816                                         588.805         458.881                                          46.000          38.000                                  
> 2025 03 13 08 51 55.0000000  0 12
G04 132764327.861 5                 103452890.325 5  99142392.709 6  25264212.852                    25264238.371    25264249.816         238.848                         186.487         178.709          30.000                          35.000          38.000  
G05 132419126.482 5 103183834.524 4 103183839.517 6                  25198514.117    25198541.168    25198541.211                        3707.207        2888.801        2888.797                          34.000          26.000          36.000                  
G06 112323201.265 7  87524635.098 7  87524567.096 8  83877706.491 8  21374392.938    21374408.844    21374409.164    21374414.312        -915.875        -713.672        -713.674        -683.938          46.000          47.000          48.000          52.000  
G09 125820206.756 5  98041855.908 4  98041851.895 6  93956804.127 7  23942784.227    23942814.141    23942814.254    23942823.012        1178.711         918.476         918.485         880.210          34.000          28.000          36.000          43.000  
G11 115473973.569 7  89979788.758 5  89979721.752 7  86230565.094 8  21973961.391    21973978.184    21973977.996    21973987.070         546.832         426.141         426.144         408.386          45.000          34.000          47.000          50.000  
G12 127120341.773 6  99054904.096 4  99054906.097 6                  24190197.133    24190213.988    24190214.125                        3268.695        2547.004        2547.011                          37.000          27.000          36.000                  
G14 116454987.182 7  90744219.479 5  90744138.474 7  86963128.747 8  22160650.102    22160670.652    22160670.645    22160680.465       -3221.578       -2510.187       -2510.184       -2405.594          43.000          31.000          46.000          48.000  
G17 115976249.158 7  90371162.426 6  90371096.425 7                  22069547.430    22069564.004    22069563.777                        -466.156        -363.151        -363.152                          44.000          41.000          45.000                  
G24 134435008.038 5 104754651.715 3 104754647.734 5 100389904.834 6  25582131.445    25582167.070    25582166.797    25582176.473       -1186.949        -924.586        -924.617        -886.082          30.000          19.000          32.000          39.000  
G22 111165523.244 8  86622533.292 6                                  21154097.203    21154112.172                                       -1813.434       -1412.925                                          48.000          39.000                                  
G20 114403593.055 7  89145741.598 5                                  21770274.891    21770292.984                                        2552.875        1989.398                                          46.000          35.000                                  
G19 109772109.831 7  85536749.421 6                                  20888936.367    20888947.613                                         588.594         458.733                                          46.000          38.000                                  
> 2025 03 13 08 51 56.0000000  0 12
G04 132764088.928 5                 103452704.158 5  99142214.301 6  25264167.711                    25264192.766    25264204.172         238.598                         186.168         178.407          30.000                          35.000          38.000  
G05 132415419.227 5 103180945.752 4 103180950.758 6                  25197809.664    25197835.477    25197835.594                        3707.328        2888.772        2888.759                          34.000          25.000          37.000                  
G06 112324117.307 7  87525348.902 7  87525280.898 7  83878390.553 8  21374567.547    21374583.516    21374583.957    21374589.012        -916.203        -713.803        -713.803        -684.062          46.000          47.000          47.000          52.000  
G09 125819028.366 5  98040937.685 4  98040933.679 6  93955924.174 7  23942559.664    23942589.574    23942589.543    23942598.512        1178.293         918.223         918.216         879.953          34.000          27.000          36.000          43.000  
G11 115473426.945 7  89979362.830 5  89979295.822 7  86230156.911 8  21973857.625    21973874.227    21973874.273    21973883.055         546.402         425.928         425.931         408.183          45.000          34.000          46.000          50.000  
G12 127117073.392 6  99052357.322 4  99052359.318 6                  24189575.070    24189592.305    24189592.590                        3268.168        2546.774        2546.779                          38.000          27.000          36.000                  
G14 116458208.896 7  90746729.904 5  90746648.895 7  86965534.570 8  22161263.016    22161283.547    22161283.438    22161293.391       -3221.832       -2510.425       -2510.421       -2405.823          43.000          31.000          45.000          48.000  
G17 115976715.411 7  90371525.736 6  90371459.736 7                  22069636.055    22069652.695    22069652.715                        -466.441        -363.311        -363.311                          44.000          41.000          44.000                  
G24 134436194.822 4 104755576.489 3 104755572.490 5 100390791.054 6  25582356.117    25582392.746    25582392.203    25582402.348       -1186.930        -924.774        -924.756        -886.220          29.000          18.000          32.000          39.000  
G22 111167337.006 8  86623946.611 6                                  21154442.352    21154457.531                                       -1814.008       -1413.319                                          48.000          38.000                                  
G20 114401040.411 7  89143752.536 5                                  21769789.391    21769807.281                                        2552.426        1989.062                                          46.000          35.000                                  
G19 109771521.343 7  85536290.865 6                                  20888824.461    20888835.910                                         588.422         458.557                                          46.000          38.000                                  
> 2025 03 13 08 51 57.0000000  0 12
G04 132763850.374 4                 103452518.280 5  99142036.172 6  25264122.367                    25264147.051    25264158.625         238.469                         185.878         178.129          29.000                          34.000          38.000  
G05 132411712.021 5 103178057.024 4 103178062.033 6                  25197103.969    25197129.918    25197130.234                        3707.000        2888.728        2888.725                          34.000          25.000          36.000                  
G06 112325033.499 7  87526062.822 7  87525994.816 7  83879074.726 8  21374741.633    21374757.691    21374758.043    21374763.098        -916.383        -713.920        -713.918        -684.173          46.000          47.000          47.000          52.000  
G09 125817850.237 5  98040019.678 4  98040015.668 6  93955044.416 7  23942335.180    23942365.230    23942365.262    23942374.211        1177.973         918.007         918.011         879.758          33.000          27.000          36.000          43.000  
G11 115472880.579 7  89978937.100 5  89978870.091 7  86229748.920 8  21973753.719    21973770.270    21973770.426    21973779.188         546.215         425.730         425.731         407.990          45.000          34.000          46.000          50.000  
G12 127113805.249 6  99049810.728 4  99049812.717 6                  24188953.211    24188969.961    24188970.410                        3268.051        2546.594        2546.601                          37.000          28.000          36.000                  
G14 116461430.907 7  90749240.556 5  90749159.551 7  86967940.612 8  22161876.016    22161897.027    22161896.785    22161906.727       -3222.223       -2510.652       -2510.656       -2406.042          43.000          31.000          45.000          48.000  
G17 115977181.866 7  90371889.206 6  90371823.207 7                  22069725.156    22069741.438    22069741.465                        -466.566        -363.470        -363.471                          44.000          41.000          44.000                  
G24 134437381.818 5 104756501.383 3 104756497.414 5 100391677.435 6  25582584.047    25582618.203    25582617.844    25582627.926       -1187.012        -924.894        -924.925        -886.381          30.000          18.000          32.000          38.000  
G22 111169151.272 8  86625360.323 6                                  21154787.461    21154802.598                                       -1814.551       -1413.712                                          48.000          38.000                                  
G20 114398488.176 7  89141763.790 5                                  21769303.664    21769321.340                                        2551.938        1988.746                                          46.000          35.000                                  
G19 109770933.052 7  85535832.457 6                                  20888712.289    20888723.898                                         588.293         458.407                                          46.000          37.000                                  
> 2025 03 13 08 51 58.0000000  0 12
G04 132763612.217 4                 103452332.714 5  99141858.342 6  25264076.930                    25264101.645    25264113.270         238.199                         185.566         177.830          29.000                          35.000          38.000  
G05 132408004.849 5 103175168.320 3 103175173.337 6                  25196397.922    25196424.547    25196424.734                        3707.086        2888.704        2888.696                          34.000          23.000          36.000                  
G06 112325949.848 7  87526776.863 7  87526708.857 7  83879759.017 8  21374916.016    21374932.266    21374932.711    21374937.707        -916.371        -714.041        -714.041        -684.290          46.000          47.000          46.000          52.000  
G09 125816672.410 5  98039101.904 4  98039097.896 6  93954164.885 7  23942110.461    23942140.848    23942140.609    23942149.953        1177.641         917.774         917.772         879.531          33.000          25.000          37.000          43.000  
G11 115472334.466 7  89978511.564 5  89978444.559 7  86229341.119 8  21973649.766    21973666.121    21973666.348    21973675.035         546.016         425.535         425.533         407.801          45.000          34.000          46.000          50.000  
G12 127110537.381 6  99047264.342 4  99047266.334 6                  24188331.969    24188348.320    24188348.633                        3267.766        2546.386        2546.383                          37.000          27.000          36.000                  
G14 116464653.220 7  90751751.444 5  90751670.443 7  86970346.883 8  22162489.367    22162510.297    22162510.324    22162520.141       -3222.539       -2510.889       -2510.892       -2406.271          43.000          31.000          45.000          48.000  
G17 115977648.514 7  90372252.825 6  90372186.827 7                  22069814.094    22069830.535    22069830.539                        -466.766        -363.619        -363.620                          44.000          41.000          44.000                  
G24 134438569.46335                                                  25582811.102                                                       -1186.918                                                          30.000                                                  
G22 111170966.028 8  86626774.417 6                                  21155132.805    21155147.863                                       -1815.102       -1414.094                                          48.000          38.000                                  
G20 114395936.350 7  89139775.360 5                                  21768817.914    21768836.004                                        2551.625        1988.429                                          46.000          34.000                                  
G19 109770344.954 7  85535374.201 6                                  20888600.289    20888612.043                                         588.062         458.256                                          46.000          37.000                                  
> 2025 03 13 08 51 59.0000000  0 12
G04 132763374.470 4                 103452147.460 5  99141680.818 6  25264031.727                    25264057.215    25264068.371         237.637                         185.254         177.525          29.000                          35.000          37.000  
G05 132404297.769 5 103172279.704 4 103172284.712 6                  25195693.031    25195719.492    25195719.363                        3707.168        2888.615        2888.626                          34.000          24.000          36.000                  
G06 112326866.380 7  87527491.045 7  87527423.037 7  83880443.443 8  21375090.602    21375106.344    21375106.824    21375111.816        -916.688        -714.182        -714.181        -684.426          46.000          47.000          46.000          51.000  
G09 125815494.874 5  98038184.340 4  98038180.345 6  93953285.563 7  23941887.391    23941916.945    23941916.551    23941925.949        1177.402         917.564         917.551         879.322          34.000          26.000          36.000          43.000  
G11 115471788.628 7  89978086.243 5  89978019.239 7  86228933.520 8  21973545.875    21973562.484    21973562.730    21973571.391         545.707         425.322         425.320         407.598          46.000          34.000          46.000          50.000  
G12 127107269.795 6  99044718.166 4  99044720.167 6                  24187709.664    24187726.688    24187727.223                        3267.363        2546.176        2546.167                          37.000          28.000          37.000                  
G14 116467875.852 7  90754262.583 5  90754181.582 7  86972753.389 8  22163102.438    22163123.277    22163123.188    22163133.164       -3222.770       -2511.138       -2511.139       -2406.506          43.000          32.000          44.000          48.000  
G17 115978115.384 7  90372616.619 6  90372550.619 7                  22069902.688    22069919.363    22069919.332                        -466.930        -363.794        -363.792                          44.000          41.000          44.000                  
G24 134439756.94025                                                  25583036.094                                                       -1187.738                                                          30.000                                                  
G22 111172781.300 8  86628188.915 6                                  21155478.273    21155493.230                                       -1815.570       -1414.498                                          48.000          38.000                                  
G20 114393384.958 7  89137787.273 5                                  21768332.258    21768350.707                                        2551.141        1988.087                                          46.000          34.000                                  
G19 109769757.078 7  85534916.117 6                                  20888488.547    20888499.984                                         587.836         458.084                                          46.000          37.000                                  
> 2025 03 13 08 52  0.0000000  0 12
G04 132763137.061 4                 103451962.468 5  99141503.543 6  25263987.375                    25264012.129    25264022.930         237.617                         184.992         177.275          29.000                          35.000          38.000  
G05 132400590.689 5 103169391.078 3 103169396.088 6                  25194986.914    25195013.695    25195013.527                        3707.192        2888.626        2888.624                          34.000          23.000          36.000                  
G06 112327783.021 7  87528205.314 8  87528137.306 7  83881127.950 8  21375264.805    21375281.000    21375281.367    21375286.484        -916.660        -714.269        -714.268        -684.507          46.000          48.000          47.000          52.000  
G09 125814317.582 5  98037266.967 4  98037262.981 6  93952406.422 7  23941662.867    23941692.953    23941692.402    23941701.809        1177.223         917.373         917.364         879.141          34.000          27.000          36.000          43.000  
G11 115471243.008 7  89977661.094 5  89977594.089 7  86228526.088 8  21973442.281    21973458.344    21973458.574    21973467.324         545.488         425.148         425.150         407.432          46.000          34.000          46.000          50.000  
G12 127104002.417 6  99042172.169 4  99042174.164 6                  24187087.789    24187104.926    24187105.633                        3267.164        2545.998        2546.003                          38.000          28.000          37.000                  
G14 116471098.738 7  90756773.918 5  90756692.914 7  86975160.084 8  22163716.117    22163736.488    22163736.676    22163746.508       -3223.031       -2511.335       -2511.332       -2406.694          43.000          31.000          45.000          48.000  
G17 115978582.398 7  90372980.526 7  90372914.524 7                  22069992.203    22070007.844    22070008.027                        -467.066        -363.907        -363.905                          45.000          42.000          44.000                  
G24 134440944.49435                                                  25583261.836                                                       -1187.551                                                          30.000                                                  
G22 111174597.031 8  86629603.769 6                                  21155823.469    21155838.961                                       -1815.938       -1414.854                                          48.000          39.000                                  
G20 114390833.937 7  89135799.474 5                                  21767846.680    21767865.020                                        2550.852        1987.799                                          46.000          35.000                                  
G19 109769169.362 7  85534458.158 6                                  20888376.641    20888388.281                                         587.617         457.959                                          46.000          37.000                                  
> 2025 03 13 08 52  1.0000000  0 12
G04 132762900.60034                                                  25263941.672                                                         236.711                                                          29.000                                                  
G05 132396883.646 5 103166502.467 3 103166507.489 6                  25194281.281    25194308.703    25194308.523                        3707.172        2888.610        2888.599                          34.000          22.000          36.000                  
G06 112328699.810 7  87528919.700 7  87528851.692 7  83881812.569 8  21375438.867    21375455.086    21375455.539    21375460.742        -916.914        -714.386        -714.386        -684.619          46.000          47.000          47.000          52.000  
G09 125813140.576 5  98036349.823 4  98036345.842 6  93951527.496 7  23941439.344    23941469.152    23941468.699    23941478.074        1177.008         917.144         917.139         878.925          34.000          25.000          37.000          43.000  
G11 115470697.636 7  89977236.133 5  89977169.130 7  86228118.839 8  21973338.578    21973354.555    21973354.809    21973363.668         545.262         424.961         424.959         407.250          46.000          35.000          46.000          50.000  
G12 127100735.308 6  99039626.382 4  99039628.373 6                  24186466.148    24186483.062    24186483.586                        3267.105        2545.787        2545.791                          38.000          29.000          37.000                  
G14 116474321.924 7  90759285.490 5  90759204.485 7  86977567.007 8  22164329.164    22164350.086    22164350.098    22164360.125       -3223.316       -2511.572       -2511.570       -2406.923          43.000          32.000          44.000          48.000  
G17 115979049.615 7  90373344.592 6  90373278.590 7                  22070081.258    22070096.859    22070097.234                        -467.344        -364.066        -364.066                          45.000          41.000          44.000                  
G24 134442131.795 5 104760202.65413 104760198.65415 100395224.45516  25583487.328    25583522.363    25583522.008    25583532.125       -1187.481           0.000           0.000           0.000          30.000          19.000          33.000          39.000  
G22 111176413.246 8  86631018.999 6                                  21156169.039    21156184.473                                       -1816.426       -1415.231                                          48.000          38.000                                  
G20 114388283.326 7  89133811.998 5                                  21767361.531    21767379.887                                        2550.449        1987.477                                          46.000          35.000                                  
G19 109768581.831 7  85534000.345 6                                  20888264.781    20888276.449                                         587.441         457.814                                          46.000          37.000                                  
> 2025 03 13 08 52  2.0000000  0 12
G04 132762663.432 4                 103451593.43815  99141149.88616  25263896.695                    25263922.062    25263932.719         236.562                           0.000           0.000          29.000                          35.000          38.000  
G05 132393176.643 5 103163613.896 4 103163618.920 6                  25193575.711    25193602.781    25193602.523                        3707.106        2888.571        2888.569                          34.000          24.000          36.000                  
G06 112329616.764 7  87529634.212 7  87529566.203 7  83882497.311 8  21375613.570    21375629.719    21375630.059    21375635.148        -917.070        -714.513        -714.512        -684.742          46.000          47.000          47.000          52.000  
G09 125811963.868 5  98035432.927 4  98035428.933 6  93950648.796 7  23941215.391    23941245.445    23941245.062    23941254.289        1176.469         916.896         916.909         878.700          34.000          26.000          37.000          43.000  
G11 115470152.524 7  89976811.375 5  89976744.371 7  86227711.780 8  21973234.398    21973251.109    21973250.926    21973260.082         545.105         424.758         424.760         407.059          45.000          34.000          46.000          50.000  
G12 127097468.445 6  99037080.778 4  99037082.772 6                  24185844.078    24185861.645    24185862.219                        3266.816        2545.604        2545.601                          38.000          29.000          37.000                  
G14 116477545.409 7  90761797.293 5  90761716.287 7  86979974.151 8  22164942.406    22164963.098    22164963.133    22164973.086       -3223.492       -2511.803       -2511.803       -2407.145          43.000          31.000          45.000          48.000  
G17 115979517.022 7  90373708.806 6  90373642.803 7                  22070169.828    22070185.965    22070186.074                        -467.504        -364.214        -364.213                          44.000          41.000          44.000                  
G24 134443320.28135                                                  25583713.445                                                       -1187.871                                                          31.000                                                  
G22 111178229.960 8  86632434.616 6                                  21156514.727    21156530.199                                       -1816.934       -1415.617                                          48.000          38.000                                  
G20 114385733.128 7  89131824.835 5                                  21766876.430    21766894.301                                        2550.059        1987.163                                          46.000          35.000                                  
G19 109767994.503 7  85533542.689 6                                  20888153.562    20888164.602                                         587.227         457.656                                          46.000          38.000                                  
> 2025 03 13 08 52  3.0000000  0 12
G04 132762427.226 5                 103451409.395 5  99140973.511 6  25263851.969                    25263877.004    25263887.641         236.191                         184.043         176.375          30.000                          35.000          38.000  
G05 132389469.700 5 103160725.383 3 103160730.402 6                  25192870.578    25192897.527    25192897.594                        3706.742        2888.514        2888.517                          34.000          23.000          36.000                  
G06 112330533.890 7  87530348.858 7  87530280.851 7  83883182.181 8  21375788.344    21375804.512    21375804.840    21375809.887        -917.242        -714.646        -714.648        -684.870          46.000          47.000          47.000          52.000  
G09 125810787.466 5  98034516.265 4  98034512.262 6  93949770.327 7  23940992.312    23941021.461    23941021.320    23941030.285        1176.434         916.662         916.671         878.469          34.000          27.000          37.000          43.000  
G11 115469607.681 7  89976386.829 5  89976319.826 7  86227304.925 8  21973130.789    21973147.379    21973147.309    21973156.199         544.766         424.546         424.544         406.855          45.000          34.000          46.000          50.000  
G12 127094201.865 6  99034535.391 4  99034537.388 6                  24185223.156    24185240.043    24185240.430                        3266.504        2545.387        2545.385                          38.000          29.000          37.000                  
G14 116480769.205 7  90764309.335 5  90764228.332 7  86982381.526 8  22165556.070    22165576.594    22165576.699    22165586.555       -3223.902       -2512.042       -2512.045       -2407.374          43.000          31.000          44.000          48.000  
G17 115979984.657 7  90374073.195 6  90374007.192 7                  22070258.562    22070274.465    22070274.715                        -467.699        -364.389        -364.389                          44.000          41.000          44.000                  
G24 134444508.50425                                                  25583941.062                                                       -1188.719                                                          32.000                                                  
G22 111180047.181 8  86633850.629 6                                  21156860.234    21156875.914                                       -1817.473       -1416.013                                          48.000          39.000                                  
G20 114383183.362 7  89129838.007 5                                  21766391.430    21766409.227                                        2549.543        1986.828                                          46.000          34.000                                  
G19 109767407.394 7  85533085.204 6                                  20888041.820    20888053.262                                         587.008         457.485                                          46.000          38.000                                  
> 2025 03 13 08 52  4.0000000  0 12
G04 132762191.364 5                 103451225.620 6  99140797.388 6  25263806.453                    25263832.113    25263842.633         235.746                         183.776         176.123          31.000                          36.000          39.000  
G05 132385762.789 5 103157836.906 3 103157841.912 5                  25192165.375    25192192.148    25192192.113                        3707.020        2888.477        2888.490                          33.000          22.000          35.000                  
G06 112331451.154 7  87531063.612 8  87530995.607 7  83883867.153 8  21375962.781    21375978.594    21375979.055    21375984.125        -917.305        -714.754        -714.756        -684.972          46.000          48.000          47.000          52.000  
G09 125809611.332 5  98033599.805 4  98033595.791 6  93948892.051 7  23940767.344    23940797.371    23940797.387    23940806.234        1176.234         916.460         916.471         878.276          34.000          26.000          36.000          43.000  
G11 115469063.092 7  89975962.483 5  89975895.478 7  86226898.262 8  21973027.547    21973043.785    21973043.793    21973052.469         544.477         424.346         424.348         406.663          45.000          35.000          47.000          50.000  
G12 127090935.545 6  99031990.213 4  99031992.207 6                  24184601.359    24184618.523    24184619.145                        3266.223        2545.178        2545.181                          38.000          29.000          38.000                  
G14 116483993.303 7  90766821.618 5  90766740.615 7  86984789.127 8  22166169.344    22166190.383    22166190.418    22166200.316       -3224.277       -2512.283       -2512.283       -2407.602          43.000          31.000          45.000          48.000  
G17 115980452.474 7  90374437.725 6  90374371.721 7                  22070347.531    22070364.031    22070364.352                        -467.863        -364.530        -364.529                          44.000          41.000          44.000                  
G24 134445696.88325                                                  25584166.914                                                       -1188.867                                                          31.000                                                  
G22 111181864.892 8  86635267.024 6                                  21157206.438    21157221.586                                       -1817.945       -1416.396                                          48.000          39.000                                  
G20 114380633.997 7  89127851.497 6                                  21765905.883    21765924.219                                        2549.234        1986.510                                          46.000          36.000                                  
G19 109766820.475 7  85532627.866 6                                  20887930.242    20887941.410                                         586.914         457.338                                          46.000          38.000                                  
> 2025 03 13 08 52  5.0000000  0 12
G04 132761955.907 5                 103451042.172 5  99140621.577 6  25263761.664                    25263787.559    25263798.070         235.316                         183.447         175.811          31.000                          35.000          38.000  
G05 132382055.908 5 103154948.443 3 103154953.445 6                  25191460.164    25191485.855    25191485.930                        3706.754        2888.463        2888.467                          34.000          23.000          36.000                  
G06 112332368.569 7  87531778.485 7  87531710.479 7  83884552.240 8  21376137.094    21376153.824    21376154.281    21376159.305        -917.566        -714.873        -714.872        -685.087          46.000          47.000          47.000          52.000  
G09 125808435.99235                                                  23940543.898                                                        1175.922                                                          34.000                                                  
G11 115468518.740 7  89975538.321 5  89975471.318 7  86226491.773 8  21972923.789    21972940.172    21972939.992    21972948.984         544.316         424.162         424.161         406.489          45.000          35.000          47.000          50.000  
G12 127087669.458 6  99029445.214 4  99029447.215 6                  24183979.531    24183996.879    24183997.672                        3266.109        2544.998        2544.992                          38.000          29.000          38.000                  
G14 116487217.687 7  90769334.123 5  90769253.119 7  86987196.945 8  22166783.008    22166803.914    22166803.789    22166814.109       -3224.520       -2512.505       -2512.504       -2407.818          43.000          31.000          45.000          48.000  
G17 115980920.479 7  90374802.402 6  90374736.398 7                  22070436.398    22070453.133    22070453.223                        -468.090        -364.677        -364.678                          44.000          41.000          44.000                  
G24 134446885.47325                                                  25584391.102                                                       -1188.766                                                          32.000                                                  
G22 111183683.076 7  86636683.784 6                                  21157552.727    21157567.590                                       -1818.414       -1416.760                                          47.000          38.000                                  
G20 114378085.036 7  89125865.304 5                                  21765420.805    21765438.965                                        2548.711        1986.192                                          46.000          35.000                                  
G19 109766233.737 7  85532170.668 6                                  20887818.320    20887829.586                                         586.648         457.198                                          46.000          38.000                                  
> 2025 03 13 08 52  6.0000000  0 12
G04 132761720.842 5                 103450859.024 6  99140446.053 6  25263718.000                    25263743.156    25263753.441         234.805                         183.148         175.524          31.000                          36.000          38.000  
G05 132378349.059 5 103152059.993 3 103152065.001 5                  25190754.641    25190780.930    25190781.078                        3706.742        2888.450        2888.444                          34.000          23.000          35.000                  
G06 112333286.140 7  87532493.479 7  87532425.473 7  83885237.445 8  21376312.008    21376327.969    21376328.336    21376333.555        -917.613        -714.994        -714.994        -685.205          46.000          47.000          47.000          52.000  
G09 125807260.52125                                                  23940319.453                                                        1175.074                                                          34.000                                                  
G11 115467974.650 7  89975114.367 5  89975047.359 7  86226085.482 8  21972820.023    21972836.707    21972836.551    21972845.531         544.000         423.955         423.959         406.291          45.000          35.000          47.000          50.000  
G12 127084403.641 6  99026900.434 4  99026902.436 6                  24183357.805    24183375.543    24183376.293                        3265.652        2544.780        2544.779                          38.000          29.000          37.000                  
G14 116490442.366 7  90771846.852 5  90771765.851 7  86989604.978 8  22167396.492    22167417.359    22167417.043    22167427.348       -3224.906       -2512.729       -2512.732       -2408.033          43.000          31.000          45.000          48.000  
G17 115981388.690 7  90375167.238 6  90375101.236 7                  22070525.172    22070542.223    22070542.344                        -468.152        -364.837        -364.838                          44.000          41.000          44.000                  
G24 134448074.24725                                                  25584617.438                                                       -1189.074                                                          31.000                                                  
G22 111185501.760 8  86638100.939 6                                  21157898.984    21157913.582                                       -1818.828       -1417.155                                          48.000          39.000                                  
G20 114375536.491 7  89123879.437 5                                  21764935.867    21764953.875                                        2548.363        1985.868                                          46.000          35.000                                  
G19 109765647.204 7  85531713.631 6                                  20887706.625    20887717.898                                         586.387         457.037                                          46.000          38.000                                  
> 2025 03 13 08 52  7.0000000  0 12
G04 132761486.181 5                 103450676.181 6  99140270.831 6  25263672.352                    25263698.426    25263708.688         234.141                         182.843         175.222          31.000                          36.000          38.000  
G05 132374642.298 5 103149171.607 3 103149176.616 5                  25190048.914    25190075.234    25190075.617                        3706.801        2888.386        2888.385                          34.000          22.000          35.000                  
G06 112334203.880 7  87533208.604 7  87533140.601 7  83885922.776 8  21376486.812    21376502.621    21376502.902    21376508.090        -917.906        -715.125        -715.128        -685.331          46.000          47.000          47.000          52.000  
G09 125806084.697 5  98030851.80114  98030847.79016  93946258.56017  23940095.898    23940126.285    23940125.750    23940135.051        1175.086           0.000           0.000           0.000          34.000          28.000          36.000          43.000  
G11 115467430.830 7  89974690.620 5  89974623.610 7  86225679.392 8  21972716.836    21972733.320    21972733.031    21972742.109         543.578         423.747         423.749         406.091          45.000          34.000          47.000          50.000  
G12 127081138.098 6  99024355.864 4  99024357.868 6                  24182736.938    24182754.387    24182755.012                        3265.398        2544.570        2544.568                          38.000          28.000          38.000                  
G14 116493667.363 7  90774359.836 5  90774278.833 7  86992013.251 8  22168010.242    22168031.367    22168031.215    22168041.371       -3225.262       -2512.984       -2512.982       -2408.272          43.000          31.000          45.000          48.000  
G17 115981857.109 7  90375532.238 6  90375466.236 7                  22070614.508    22070631.344    22070631.199                        -468.543        -365.000        -364.999                          44.000          41.000          44.000                  
G24 134449262.795 5 104765759.21013 104765755.22415 100400549.49116  25584844.016    25584879.609    25584879.273    25584889.164       -1188.977           0.000           0.000           0.000          31.000          19.000          34.000          39.000  
G22 111187320.944 8  86639518.485 6                                  21158245.195    21158259.941                                       -1819.340       -1417.546                                          48.000          39.000                                  
G20 114372988.366 7  89121893.896 5                                  21764450.695    21764469.055                                        2547.930        1985.540                                          46.000          34.000                                  
G19 109765060.868 7  85531256.750 6                                  20887595.242    20887606.707                                         586.203         456.881                                          46.000          39.000                                  
> 2025 03 13 08 52  8.0000000  0 12
G04 132761251.925 5                 103450493.655 6  99140095.916 6  25263628.281                    25263653.707    25263663.867         233.887                         182.525         174.915          31.000                          36.000          38.000  
G05 132370935.596 5 103146283.261 3 103146288.270 6                  25189343.211    25189369.652    25189370.309                        3706.625        2888.346        2888.346                          34.000          23.000          36.000                  
G06 112335121.815 7  87533923.884 8  87533855.878 8  83886608.251 8  21376661.562    21376677.316    21376677.605    21376682.781        -917.973        -715.280        -715.278        -685.475          46.000          48.000          48.000          52.000  
G09 125804909.755 5  98029936.274 4  98029932.263 6  93945381.179 7  23939873.805    23939902.754    23939902.539    23939911.672        1175.102         915.528         915.526         877.381          35.000          28.000          37.000          43.000  
G11 115466887.296 7  89974267.090 5  89974200.085 7  86225273.515 8  21972613.156    21972629.531    21972629.535    21972638.504         543.363         423.530         423.525         405.877          45.000          35.000          47.000          50.000  
G12 127077872.849 6  99021811.518 4  99021813.526 6                  24182115.406    24182132.941    24182133.719                        3265.152        2544.346        2544.342                          39.000          28.000          38.000                  
G14 116496892.686 7  90776873.074 5  90776792.069 7  86994421.765 8  22168624.070    22168644.938    22168644.672    22168654.855       -3225.453       -2513.237       -2513.235       -2408.515          43.000          31.000          45.000          49.000  
G17 115982325.759 7  90375897.419 6  90375831.415 7                  22070703.258    22070720.547    22070720.504                        -468.754        -365.181        -365.179                          44.000          41.000          45.000                  
G24 134450452.033 5 104766685.881 3 104766681.906 5 100401437.552 6  25585070.258    25585105.824    25585105.281    25585115.352       -1189.145        -926.671        -926.682        -888.061          30.000          19.000          34.000          39.000  
G22 111189140.661 8  86640936.449 6                                  21158591.359    21158606.270                                       -1819.961       -1417.964                                          48.000          39.000                                  
G20 114370440.698 7  89119908.708 6                                  21763966.039    21763984.125                                        2547.441        1985.188                                          46.000          36.000                                  
G19 109764474.776 7  85530800.060 6                                  20887483.367    20887495.074                                         586.012         456.691                                          46.000          39.000                                  
> 2025 03 13 08 52  9.0000000  0 12
G04 132761018.081 5                 103450311.455 5  99139921.309 6  25263583.711                    25263609.238    25263619.676         233.660                         182.200         174.608          31.000                          35.000          38.000  
G05 132367228.926 5 103143394.946 4 103143399.961 6                  25188638.320    25188664.219    25188664.926                        3706.574        2888.315        2888.308                          34.000          25.000          36.000                  
G06 112336039.887 7  87534639.267 8  87534571.265 8  83887293.829 8  21376836.211    21376852.043    21376852.234    21376857.414        -918.188        -715.383        -715.386        -685.578          46.000          48.000          48.000          52.000  
G09 125803735.108 5  98029020.973 4  98029016.969 6  93944504.018 7  23939650.633    23939679.289    23939679.023    23939688.117        1174.438         915.301         915.294         877.161          34.000          29.000          37.000          43.000  
G11 115466344.003 7  89973843.752 5  89973776.748 8  86224867.819 8  21972509.828    21972526.398    21972526.461    21972535.238         543.234         423.338         423.337         405.696          45.000          34.000          48.000          50.000  
G12 127074607.841 6  99019267.361 4  99019269.372 6                  24181493.414    24181511.492    24181512.199                        3264.824        2544.156        2544.153                          38.000          28.000          38.000                  
G14 116500118.295 7  90779386.530 5  90779305.527 7  86996830.495 8  22169237.797    22169258.836    22169258.598    22169268.961       -3225.734       -2513.457       -2513.458       -2408.730          43.000          31.000          45.000          49.000  
G17 115982794.588 7  90376262.738 6  90376196.733 7                  22070792.531    22070810.098    22070809.840                        -468.984        -365.319        -365.318                          44.000          41.000          45.000                  
G24 134451641.48915 104767612.73613 104767608.73915 100402325.76816  25585297.273    25585332.457    25585332.027    25585341.875       -1189.379        -926.671        -926.682        -888.061          32.000          21.000          33.000          39.000  
G22 111190960.858 8  86642354.784 6                                  21158937.359    21158952.559                                       -1820.520       -1418.335                                          48.000          39.000                                  
G20 114367893.420 7  89117923.826 5                                  21763480.844    21763499.922                                        2547.090        1984.882                                          46.000          35.000                                  
G19 109763888.867 7  85530343.507 6                                  20887371.930    20887383.109                                         585.840         456.553                                          46.000          38.000                                  
> 2025 03 13 08 52 10.0000000  0 12
G04 132760784.562 5                 103450129.498 6  99139746.933 6  25263539.961                    25263564.852    25263575.492         233.270                         181.957         174.376          31.000                          36.000          38.000  
G05 132363522.298 5 103140506.669 4 103140511.684 6                  25187932.094    25187958.930    25187959.625                        3706.621        2888.277        2888.277                          34.000          24.000          36.000                  
G06 112336958.104 7  87535354.765 8  87535286.763 8  83887979.514 8  21377010.852    21377026.738    21377026.988    21377032.320        -918.312        -715.499        -715.498        -685.685          46.000          48.000          48.000          52.000  
G09 125802560.716 5  98028105.868 4  98028101.873 6  93943627.047 7  23939427.086    23939455.695    23939455.711    23939464.500        1174.098         915.105         915.096         876.970          34.000          27.000          37.000          43.000  
G11 115465800.963 7  89973420.613 5  89973353.607 8  86224462.313 8  21972406.320    21972423.047    21972423.137    21972431.910         542.875         423.139         423.141         405.506          45.000          34.000          48.000          50.000  
G12 127071343.085 6  99016723.399 4  99016725.411 6                  24180872.156    24180889.840    24180890.527                        3264.566        2543.962        2543.962                          38.000          28.000          37.000                  
G14 116503344.193 7  90781900.212 5  90781819.212 7  86999239.441 8  22169851.516    22169872.691    22169872.465    22169882.656       -3226.051       -2513.682       -2513.685       -2408.946          43.000          32.000          46.000          49.000  
G17 115983263.607 7  90376628.206 6  90376562.205 7                  22070881.547    22070898.848    22070898.875                        -469.121        -365.468        -365.471                          44.000          41.000          45.000                  
G24 134452831.145 5 104768539.741 3 104768535.730 5 100403214.133 6  25585523.648    25585558.801    25585558.508    25585568.375       -1189.672        -927.004        -926.991        -888.365          31.000          20.000          34.000          39.000  
G22 111192781.542 8  86643773.493 6                                  21159283.844    21159299.293                                       -1820.926       -1418.710                                          48.000          39.000                                  
G20 114365346.548 7  89115939.263 5                                  21762996.102    21763014.906                                        2546.672        1984.563                                          46.000          35.000                                  
G19 109763303.156 7  85529887.109 6                                  20887260.984    20887271.996                                         585.496         456.398                                          46.000          39.000                                  
> 2025 03 13 08 52 11.0000000  0 12
G04 132760551.98535                                                  25263494.570                                                         232.895                                                          32.000                                                  
G05 132359815.698 5 103137618.417 4 103137623.435 6                  25187227.391    25187253.754    25187254.121                        3706.488        2888.252        2888.249                          34.000          24.000          36.000                  
G06 112337876.446 7  87536070.361 8  87536002.358 8  83888665.294 8  21377185.781    21377201.504    21377201.953    21377206.934        -918.469        -715.596        -715.596        -685.780          46.000          48.000          48.000          52.000  
G09 125801386.596 5  98027190.983 4  98027186.985 6  93942750.278 7  23939202.820    23939232.535    23939232.555    23939241.242        1174.023         914.884         914.888         876.770          33.000          26.000          36.000          43.000  
G11 115465258.135 7  89972997.638 5  89972930.633 8  86224056.963 8  21972302.852    21972319.441    21972319.355    21972328.277         542.797         422.975         422.974         405.350          45.000          34.000          48.000          50.000  
G12 127068078.554 6  99014179.615 4  99014181.625 6                  24180251.148    24180268.957    24180269.539                        3264.473        2543.784        2543.786                          37.000          29.000          38.000                  
G14 116506570.360 7  90784414.104 5  90784333.105 7  87001648.588 8  22170465.570    22170486.668    22170486.551    22170496.793       -3226.332       -2513.892       -2513.893       -2409.147          42.000          31.000          46.000          48.000  
G17 115983732.791 7  90376993.802 6  90376927.800 7                  22070971.141    22070988.141    22070987.855                        -469.305        -365.596        -365.596                          44.000          41.000          45.000                  
G24 134454020.949 5 104769466.853 3 104769462.833 5 100404102.611 6  25585751.414    25585785.180    25585784.816    25585794.660       -1190.348        -927.112        -927.104        -888.478          31.000          20.000          34.000          39.000  
G22 111194602.681 7  86645192.560 6                                  21159630.047    21159645.656                                       -1821.371       -1419.066                                          47.000          38.000                                  
G20 114362800.051 7  89113954.992 5                                  21762511.523    21762530.352                                        2546.328        1984.271                                          46.000          35.000                                  
G19 109762717.606 7  85529430.838 6                                  20887148.781    20887160.512                                         585.422         456.271                                          46.000          38.000                                  
> 2025 03 13 08 52 12.0000000  0 12
G04 132760319.21325                                                  25263451.406                                                         232.312                                                          32.000                                                  
G05 132356109.118 5 103134730.197 4 103134735.207 6                  25186523.367    25186548.227    25186548.562                        3706.644        2888.219        2888.229                          35.000          24.000          36.000                  
G06 112338794.925 7  87536786.061 8  87536718.059 8  83889351.173 8  21377360.555    21377376.426    21377376.918    21377381.871        -918.574        -715.699        -715.700        -685.879          46.000          48.000          48.000          52.000  
G09 125800212.746 5  98026276.301 4  98026272.304 6  93941873.710 7  23938978.703    23939009.230    23939009.184    23939017.922        1173.723         914.682         914.681         876.567          34.000          26.000          37.000          43.000  
G11 115464715.556 7  89972574.858 5  89972507.854 8  86223651.799 8  21972199.352    21972216.422    21972216.383    21972225.336         542.492         422.780         422.779         405.164          45.000          34.000          48.000          50.000  
G12 127064814.265 6  99011636.027 4  99011638.028 6                  24179629.156    24179647.918    24179648.316                        3264.105        2543.587        2543.597                          37.000          28.000          37.000                  
G14 116509796.804 7  90786928.209 5  90786847.212 7  87004057.939 8  22171079.758    22171100.434    22171100.281    22171110.473       -3226.559       -2514.105       -2514.107       -2409.352          43.000          32.000          46.000          48.000  
G17 115984202.162 7  90377359.544 7  90377293.543 7                  22071060.617    22071077.578    22071077.293                        -469.375        -365.741        -365.742                          44.000          42.000          44.000                  
G24 134455210.952 5 104770394.114 3 104770390.095 5 100404991.238 6  25585978.039    25586011.469    25586010.680    25586020.938       -1190.352        -927.262        -927.261        -888.627          32.000          20.000          34.000          39.000  
G22 111196424.307 8  86646612.005 6                                  21159977.156    21159992.566                                       -1821.812       -1419.446                                          48.000          39.000                                  
G20 114360253.943 7  89111971.018 5                                  21762027.352    21762045.566                                        2545.852        1983.974                                          46.000          35.000                                  
G19 109762132.245 7  85528974.717 6                                  20887037.688    20887049.129                                         585.293         456.121                                          46.000          38.000                                  
> 2025 03 13 08 52 13.0000000  0 12
G04 132760086.405 5                 103449585.51015  99139225.62816  25263407.781                    25263431.492    25263442.688         231.988                           0.000           0.000          32.000                          35.000          38.000  
G05 132352402.664 5 103131842.056 4 103131847.071 6                  25185817.602    25185843.082    25185843.176                        3706.352        2888.141        2888.136                          35.000          25.000          36.000                  
G06 112339713.617 7  87537501.928 7  87537433.925 8  83890037.213 8  21377535.148    21377551.164    21377551.738    21377556.699        -918.852        -715.867        -715.867        -686.040          46.000          47.000          48.000          52.000  
G09 125799039.235 5  98025361.889 4  98025357.889 6  93940997.398 7  23938756.016    23938785.625    23938785.789    23938794.316        1173.520         914.412         914.415         876.312          34.000          26.000          36.000          43.000  
G11 115464173.283 7  89972152.314 5  89972085.312 8  86223246.865 8  21972096.477    21972113.012    21972112.918    21972121.891         542.133         422.544         422.542         404.934          45.000          34.000          48.000          50.000  
G12 127061550.292 6  99009092.682 4  99009094.679 6                  24179008.578    24179026.531    24179026.719                        3263.738        2543.345        2543.348                          38.000          28.000          37.000                  
G14 116513023.608 7  90789442.600 5  90789361.601 7  87006467.565 8  22171693.414    22171714.625    22171714.684    22171724.832       -3226.953       -2514.391       -2514.389       -2409.625          42.000          30.000          46.000          49.000  
G17 115984671.782 7  90377725.481 6  90377659.480 7                  22071149.875    22071167.070    22071166.855                        -469.715        -365.938        -365.937                          44.000          41.000          45.000                  
G24 134456401.203 5 104771321.555 3 104771317.548 5 100405880.048 6  25586205.375    25586237.973    25586237.398    25586247.648       -1190.156        -927.441        -927.454        -888.809          32.000          20.000          34.000          39.000  
G22 111198246.474 8  86648031.870 6                                  21160324.305    21160339.121                                       -1822.438       -1419.865                                          48.000          39.000                                  
G20 114357708.302 7  89109987.407 5                                  21761542.883    21761561.414                                        2545.426        1983.611                                          46.000          35.000                                  
G19 109761547.133 7  85528518.790 6                                  20886926.422    20886937.664                                         585.031         455.927                                          46.000          38.000                                  
> 2025 03 13 08 52 14.0000000  0 12
G04 132759854.524 5                 103449404.837 5  99139052.486 6  25263363.266                    25263386.824    25263398.359         231.559                         180.673         173.142          32.000                          35.000          39.000  
G05 132348696.271 5 103128953.960 4 103128958.979 5                  25185112.055    25185137.891    25185137.957                        3706.465        2888.096        2888.093                          35.000          24.000          35.000                  
G06 112340632.491 7  87538217.937 8  87538149.934 8  83890723.388 8  21377710.039    21377726.023    21377726.437    21377731.555        -918.879        -716.009        -716.009        -686.175          46.000          48.000          48.000          52.000  
G09 125797866.054 5  98024447.731 4  98024443.727 6  93940121.328 7  23938531.906    23938562.223    23938562.590    23938571.016        1173.031         914.158         914.162         876.070          34.000          26.000          37.000          43.000  
G11 115463631.291 7  89971729.990 5  89971662.990 8  86222842.140 8  21971993.336    21972010.188    21972010.004    21972019.082         541.828         422.324         422.323         404.725          45.000          34.000          48.000          50.000  
G12 127058286.614 6  99006549.564 4  99006551.562 6                  24178388.234    24178405.707    24178405.992                        3263.582        2543.118        2543.117                          37.000          29.000          37.000                  
G14 116516250.736 7  90791957.242 5  90791876.241 7  87008877.427 8  22172307.367    22172328.715    22172328.797    22172338.832       -3227.188       -2514.642       -2514.640       -2409.863          42.000          31.000          46.000          49.000  
G17 115985141.630 7  90378091.596 6  90378025.594 7                  22071239.859    22071256.355    22071256.328                        -469.926        -366.114        -366.114                          44.000          41.000          45.000                  
G24 134457591.686 5 104772249.192 3 104772245.196 5 100406769.034 6  25586430.469    25586464.785    25586464.555    25586474.445       -1190.613        -927.637        -927.648        -888.987          32.000          20.000          34.000          39.000  
G22 111200069.156 8  86649452.140 6                                  21160671.266    21160686.113                                       -1822.871       -1420.270                                          48.000          39.000                                  
G20 114355163.093 7  89108004.133 5                                  21761058.523    21761077.082                                        2544.996        1983.274                                          46.000          35.000                                  
G19 109760962.253 7  85528063.042 6                                  20886814.711    20886826.570                                         584.785         455.749                                          46.000          38.000                                  
> 2025 03 13 08 52 15.0000000  0 12
G04 132759623.56235                                                  25263319.398                                                         230.996                                                          31.000                                                  
G05 132344989.909 5 103126065.901 4 103126070.915 6                  25184406.766    25184432.746    25184432.570                        3706.344        2888.059        2888.063                          35.000          25.000          36.000                  
G06 112341551.489 7  87538934.042 7  87538866.039 8  83891409.657 8  21377884.977    21377900.629    21377901.148    21377906.242        -919.094        -716.105        -716.105        -686.269          46.000          47.000          49.000          52.000  
G09 125796693.117 5  98023533.760 4  98023529.760 6  93939245.445 7  23938308.828    23938338.852    23938339.230    23938347.773        1172.949         913.971         913.966         875.883          33.000          26.000          36.000          43.000  
G11 115463089.522 7  89971307.839 5  89971240.840 7  86222437.581 8  21971890.828    21971907.023    21971906.418    21971915.824         541.738         422.151         422.149         404.559          46.000          35.000          47.000          50.000  
G12 127055023.160 6  99004006.616 4  99004008.622 6                  24177766.297    24177784.465    24177784.746                        3263.492        2542.948        2542.940                          37.000          27.000          37.000                  
G14 116519478.130 7  90794472.091 5  90794391.089 7  87011287.489 8  22172922.133    22172942.996    22172943.008    22172953.027       -3227.598       -2514.848       -2514.847       -2410.062          42.000          31.000          46.000          48.000  
G17 115985611.639 7  90378457.834 6  90378391.833 7                  22071329.664    22071345.633    22071345.480                        -469.980        -366.238        -366.239                          44.000          41.000          45.000                  
G24 134458782.346 5 104773176.961 3 104773172.986 5 100407658.158 6  25586656.203    25586691.500    25586691.164    25586700.895       -1190.711        -927.769        -927.790        -889.124          32.000          19.000          34.000          39.000  
G22 111201892.308 8  86650872.777 6                                  21161017.836    21161033.219                                       -1823.348       -1420.637                                          48.000          39.000                                  
G20 114352618.271 7  89106021.167 5                                  21760574.484    21760592.625                                        2544.625        1982.966                                          46.000          35.000                                  
G19 109760377.539 7  85527607.419 6                                  20886703.602    20886715.520                                         584.707         455.622                                          46.000          38.000                                  
> 2025 03 13 08 52 16.0000000  0 12
G04 132759391.828 5                 103449044.31116  99138706.99516  25263275.633                    25263299.363    25263310.699         231.074                           0.000           0.000          32.000                          36.000          39.000  
G05 132341283.548 5 103123177.821 4 103123182.844 6                  25183701.508    25183727.223    25183727.176                        3706.312        2888.080        2888.071                          35.000          25.000          36.000                  
G06 112342470.613 7  87539650.246 7  87539582.243 8  83892096.020 8  21378059.797    21378075.809    21378076.324    21378081.242        -919.234        -716.204        -716.204        -686.364          46.000          47.000          49.000          52.000  
G09 125795520.445 5  98022619.989 4  98022615.992 6  93938369.755 7  23938085.672    23938115.836    23938116.477    23938124.676        1172.344         913.771         913.768         875.690          34.000          25.000          36.000          43.000  
G11 115462547.988 7  89970885.876 5  89970818.874 8  86222033.198 8  21971787.359    21971804.051    21971803.594    21971812.797         541.367         421.963         421.967         404.383          46.000          35.000          48.000          50.000  
G12 127051759.945 6  99001463.858 4  99001465.866 6                  24177145.547    24177163.684    24177163.934                        3262.953        2542.757        2542.757                          37.000          28.000          37.000                  
G14 116522705.793 7  90796987.149 5  90796906.145 7  87013697.752 8  22173536.188    22173557.340    22173557.438    22173567.422       -3227.746       -2515.059       -2515.056       -2410.263          42.000          31.000          46.000          48.000  
G17 115986081.818 7  90378824.206 6  90378758.206 7                  22071418.742    22071435.277    22071435.156                        -470.297        -366.372        -366.372                          45.000          41.000          45.000                  
G24 134459973.177 5 104774104.876 3 104774100.901 5 100408547.404 6  25586882.469    25586917.715    25586917.570    25586927.238       -1190.621        -927.915        -927.915        -889.245          32.000          20.000          34.000          39.000  
G22 111203715.929 7  86652293.777 6                                  21161364.820    21161380.082                                       -1823.918       -1421.001                                          47.000          39.000                                  
G20 114350073.840 7  89104038.505 5                                  21760089.961    21760108.555                                        2544.199        1982.662                                          46.000          35.000                                  
G19 109759792.999 7  85527151.936 6                                  20886592.438    20886603.973                                         584.426         455.484                                          46.000          38.000                                  
> 2025 03 13 08 52 17.0000000  0 12
G04 132759161.095 5                 103448864.533 5  99138534.704 6  25263231.719                    25263255.387    25263266.402         230.211                         179.778         172.291          32.000                          35.000          39.000  
G05 132337577.274 5 103120289.820 4 103120294.834 6                  25182996.109    25183021.688    25183021.828                        3706.094        2888.001        2888.010                          34.000          25.000          36.000                  
G06 112343389.931 7  87540366.601 7  87540298.597 8  83892782.527 8  21378234.672    21378250.691    21378251.164    21378256.105        -919.316        -716.355        -716.354        -686.507          46.000          47.000          49.000          52.000  
G09 125794348.102 5  98021706.480 4  98021702.481 6  93937494.311 7  23937863.422    23937892.445    23937892.977    23937901.355        1172.500         913.509         913.511         875.444          34.000          26.000          36.000          43.000  
G11 115462006.733 7  89970464.126 5  89970397.125 8  86221629.022 8  21971683.938    21971700.891    21971700.852    21971709.844         541.102         421.750         421.749         404.177          46.000          34.000          48.000          50.000  
G12 127048497.027 6  98998921.334 4  98998923.338 6                  24176525.141    24176542.414    24176542.652                        3262.633        2542.525        2542.528                          38.000          28.000          37.000                  
G14 116525933.791 7  90799502.467 5  90799421.465 7  87016108.267 8  22174150.164    22174171.691    22174171.656    22174181.703       -3228.246       -2515.318       -2515.320       -2410.515          43.000          32.000          46.000          49.000  
G17 115986552.232 7  90379190.759 6  90379124.759 7                  22071508.367    22071524.660    22071524.590                        -470.445        -366.553        -366.554                          45.000          41.000          45.000                  
G24 134461164.239 5 104775032.981 3 104775029.000 5 100409436.827 6  25587109.789    25587144.441    25587143.840    25587153.734       -1191.449        -928.106        -928.098        -889.424          32.000          20.000          34.000          39.000  
G22 111205540.079 7  86653715.193 6                                  21161711.633    21161727.254                                       -1824.375       -1421.416                                          47.000          38.000                                  
G20 114347529.854 7  89102056.185 5                                  21759606.031    21759624.246                                        2543.777        1982.320                                          46.000          35.000                                  
G19 109759208.692 7  85526696.633 6                                  20886481.227    20886492.836                                         584.199         455.303                                          46.000          38.000                                  
> 2025 03 13 08 52 18.0000000  0 12
G04 132758930.729 5                 103448685.045 6  99138362.692 6  25263187.594                    25263211.750    25263222.641         230.121                         179.488         172.012          32.000                          36.000          39.000  
G05 132333871.026 5 103117401.841 4 103117406.849 6                  25182290.812    25182316.496    25182316.594                        3706.277        2887.979        2887.984                          35.000          24.000          36.000                  
G06 112344309.401 7  87541083.073 7  87541015.070 8  83893469.147 8  21378409.695    21378425.535    21378426.246    21378431.031        -919.660        -716.472        -716.473        -686.620          46.000          47.000          48.000          52.000  
G09 125793176.031 5  98020793.190 4  98020789.186 6  93936619.077 7  23937640.273    23937669.680    23937670.105    23937678.672        1171.852         913.290         913.295         875.234          34.000          27.000          36.000          43.000  
G11 115461465.739 7  89970042.581 5  89969975.579 7  86221225.043 8  21971580.883    21971598.023    21971598.070    21971606.945         540.844         421.545         421.546         403.978          46.000          34.000          47.000          50.000  
G12 127045234.364 6  98996379.003 4  98996381.004 6                  24175904.055    24175921.781    24175921.832                        3262.488        2542.331        2542.334                          37.000          27.000          37.000                  
G14 116529162.086 7  90802018.014 5  90801937.009 7  87018519.000 8  22174764.391    22174785.566    22174785.348    22174795.594       -3228.383       -2515.547       -2515.544       -2410.733          42.000          31.000          46.000          48.000  
G17 115987022.840 7  90379557.463 6  90379491.462 7                  22071598.188    22071614.398    22071614.320                        -470.668        -366.704        -366.703                          45.000          41.000          44.000                  
G24 134462355.519 5 104775961.259 3 104775957.272 5 100410326.416 6  25587336.852    25587370.957    25587370.410    25587380.215       -1191.777        -928.278        -928.273        -889.589          31.000          20.000          34.000          39.000  
G22 111207364.716 8  86655136.989 6                                  21162059.117    21162074.375                                       -1824.898       -1421.796                                          48.000          39.000                                  
G20 114344986.291 7  89100074.195 5                                  21759122.102    21759140.070                                        2543.309        1981.991                                          46.000          35.000                                  
G19 109758624.577 7  85526241.482 6                                  20886370.734    20886381.797                                         583.984         455.152                                          46.000          39.000                                  
> 2025 03 13 08 52 19.0000000  0 12
G04 132758700.751 5                 103448505.860 6  99138190.973 6  25263144.141                    25263167.664    25263178.547         229.812                         179.185         171.719          32.000                          36.000          38.000  
G05 132330164.798 5 103114513.881 4 103114518.887 6                  25181585.461    25181611.113    25181611.484                        3706.301        2887.960        2887.963                          35.000          25.000          36.000                  
G06 112345228.981 7  87541799.632 7  87541731.627 8  83894155.849 8  21378584.844    21378600.816    21378601.078    21378606.273        -919.613        -716.559        -716.557        -686.702          47.000          47.000          48.000          52.000  
G09 125792004.231 5  98019880.113 4  98019876.106 6  93935744.043 7  23937417.977    23937446.707    23937446.883    23937455.734        1171.856         913.077         913.080         875.034          34.000          27.000          36.000          43.000  
G11 115460924.963 7  89969621.203 5  89969554.202 8  86220821.226 8  21971478.336    21971494.879    21971494.816    21971503.832         540.605         421.378         421.377         403.817          46.000          35.000          48.000          50.000  
G12 127041971.937 6  98993836.863 4  98993838.858 6                  24175283.047    24175301.035    24175301.094                        3262.293        2542.139        2542.146                          37.000          28.000          36.000                  
G14 116532390.637 7  90804533.766 5  90804452.759 7  87020929.923 8  22175379.023    22175400.203    22175399.887    22175410.109       -3228.695       -2515.751       -2515.750       -2410.923          43.000          32.000          45.000          48.000  
G17 115987493.611 7  90379924.296 6  90379858.297 7                  22071687.594    22071703.887    22071703.648                        -470.801        -366.833        -366.835                          44.000          41.000          45.000                  
G24 134463546.957 5 104776889.657 3 104776885.663 5 100411216.117 6  25587563.375    25587597.977    25587597.625    25587607.285       -1191.598        -928.398        -928.391        -889.701          33.000          20.000          34.000          39.000  
G22 111209189.808 7  86656559.134 6                                  21162406.273    21162421.844                                       -1825.227       -1422.146                                          47.000          39.000                                  
G20 114342443.096 7  89098092.494 5                                  21758638.125    21758656.465                                        2543.062        1981.701                                          46.000          35.000                                  
G19 109758040.621 7  85525786.456 6                                  20886259.102    20886270.285                                         583.934         455.026                                          46.000          38.000                                  
> 2025 03 13 08 52 20.0000000  0 12
G04 132758471.120 5                 103448326.938 6  99138019.508 6  25263099.617                    25263124.406    25263135.117         229.641                         178.922         171.464          32.000                          36.000          38.000  
G05 132326458.598 5 103111625.943 4 103111630.944 6                  25180880.594    25180905.965    25180906.227                        3705.949        2887.938        2887.943                          35.000          24.000          36.000                  
G06 112346148.702 7  87542516.299 8  87542448.297 8  83894842.659 8  21378759.797    21378775.613    21378775.773    21378781.109        -919.820        -716.668        -716.669        -686.810          47.000          48.000          48.000          52.000  
G09 125790832.691 5  98018967.236 4  98018963.226 6  93934869.200 7  23937195.281    23937223.797    23937223.836    23937232.684        1171.285         912.877         912.880         874.842          34.000          27.000          36.000          43.000  
G11 115460384.418 7  89969200.009 5  89969133.004 8  86220417.581 8  21971375.438    21971392.121    21971391.734    21971401.008         540.414         421.194         421.198         403.645          46.000          34.000          48.000          50.000  
G12 127038709.740 6  98991294.896 4  98991296.888 6                  24174662.320    24174680.238    24174680.391                        3262.051        2541.967        2541.970                          38.000          29.000          37.000                  
G14 116535619.462 7  90807049.732 5  90806968.724 7  87023341.054 8  22175993.461    22176014.613    22176014.281    22176024.711       -3228.992       -2515.966       -2515.966       -2411.130          43.000          31.000          46.000          48.000  
G17 115987964.557 7  90380291.265 6  90380225.269 7                  22071777.297    22071793.715    22071793.605                        -471.000        -366.969        -366.971                          44.000          41.000          44.000                  
G24 134464738.591 5 104777818.186 3 104777814.200 5 100412105.961 6  25587789.312    25587824.535    25587824.512    25587834.117       -1191.504        -928.530        -928.538        -889.844          31.000          20.000          34.000          39.000  
G22 111211015.382 8  86657981.655 6                                  21162753.602    21162769.289                                       -1825.852       -1422.521                                          48.000          38.000                                  
G20 114339900.297 7  89096111.103 5                                  21758154.141    21758172.215                                        2542.555        1981.391                                          46.000          35.000                                  
G19 109757456.849 7  85525331.569 6                                  20886147.820    20886159.191                                         583.613         454.886                                          46.000          38.000                                  
> 2025 03 13 08 52 21.0000000  0 12
G04 132758241.934 5                 103448148.363 6  99137848.375 6  25263055.586                    25263081.180    25263091.352         228.422                         178.575         171.133          31.000                          37.000          39.000  
G05 132322752.496 5 103108738.071 4 103108743.083 6                  25180175.211    25180200.660    25180200.922                        3706.062        2887.872        2887.861                          34.000          25.000          36.000                  
G06 112347068.626 7  87543233.128 8  87543165.123 8  83895529.618 8  21378934.938    21378950.688    21378950.852    21378956.152        -920.094        -716.828        -716.826        -686.959          46.000          48.000          48.000          52.000  
G09 125789661.485 5  98018054.619 4  98018050.611 6  93933994.611 7  23936971.859    23937000.562    23937000.727    23937009.602        1171.137         912.618         912.615         874.590          35.000          27.000          36.000          43.000  
G11 115459844.181 7  89968779.050 5  89968712.049 8  86220014.166 8  21971272.742    21971289.254    21971289.113    21971298.164         540.031         420.959         420.955         403.416          46.000          35.000          48.000          50.000  
G12 127035447.855 6  98988753.177 4  98988755.166 6                  24174041.383    24174059.477    24174059.492                        3261.715        2541.720        2541.722                          37.000          28.000          37.000                  
G14 116538848.639 7  90809565.969 5  90809484.965 7  87025752.450 8  22176608.289    22176628.832    22176628.805    22176638.910       -3229.406       -2516.237       -2516.240       -2411.396          43.000          31.000          46.000          48.000  
G17 115988435.759 7  90380658.436 6  90380592.438 7                  22071866.500    22071883.074    22071882.875                        -471.270        -367.171        -367.169                          44.000          41.000          45.000                  
G24 134465930.436 5 104778746.890 3 104778742.893 5 100412995.957 6  25588016.695    25588051.262    25588051.422    25588060.801       -1192.051        -928.704        -928.693        -889.995          31.000          20.000          33.000          39.000  
G22 111212841.500 7  86659404.602 6                                  21163100.812    21163116.566                                       -1826.480       -1422.947                                          47.000          39.000                                  
G20 114337357.965 7  89094130.074 5                                  21757670.445    21757688.918                                        2542.055        1981.029                                          46.000          35.000                                  
G19 109756873.335 7  85524876.886 6                                  20886037.062    20886048.109                                         583.418         454.683                                          46.000          39.000                                  
> 2025 03 13 08 52 22.0000000  0 12
G04 132758013.212 5                 103447970.148 6  99137677.590 6  25263012.078                    25263037.598    25263047.738         228.949                         178.216         170.785          32.000                          36.000          39.000  
G05 132319046.497 5 103105850.283 3 103105855.297 6                  25179469.734    25179495.375    25179495.668                        3705.758        2887.788        2887.785                          34.000          23.000          36.000                  
G06 112347988.766 7  87543950.124 8  87543882.119 8  83896216.740 8  21379110.008    21379125.977    21379126.191    21379131.395        -920.277        -716.996        -716.996        -687.122          46.000          48.000          48.000          52.000  
G09 125788490.637 5  98017142.286 4  98017138.282 6  93933120.291 7  23936749.797    23936778.070    23936778.242    23936787.051        1170.648         912.332         912.329         874.319          34.000          27.000          36.000          43.000  
G11 115459304.263 7  89968358.343 5  89968291.341 8  86219610.989 8  21971169.719    21971186.625    21971186.332    21971195.582         539.867         420.707         420.708         403.177          46.000          35.000          48.000          50.000  
G12 127032186.294 6  98986211.703 4  98986213.698 6                  24173420.812    24173438.973    24173439.121                        3261.676        2541.473        2541.468                          38.000          28.000          37.000                  
G14 116542078.172 7  90812082.484 5  90812001.482 7  87028164.109 8  22177223.023    22177243.582    22177243.641    22177253.715       -3229.574       -2516.516       -2516.518       -2411.658          43.000          30.000          46.000          48.000  
G17 115988907.222 7  90381025.809 6  90380959.808 7                  22071956.227    22071972.770    22071972.699                        -471.566        -367.372        -367.370                          44.000          41.000          45.000                  
G24 134467122.564 5 104779675.805 3 104779671.817 5 100413886.180 6  25588243.492    25588278.238    25588278.156    25588287.500       -1192.191        -928.915        -928.924        -890.223          31.000          20.000          34.000          39.000  
G22 111214668.170 8  86660827.978 6                                  21163448.820    21163464.539                                       -1826.953       -1423.376                                          48.000          38.000                                  
G20 114334816.118 7  89092149.422 5                                  21757186.727    21757205.152                                        2541.602        1980.652                                          46.000          35.000                                  
G19 109756290.074 7  85524422.399 6                                  20885925.523    20885937.426                                         583.242         454.488                                          46.000          38.000                                  
> 2025 03 13 08 52 23.0000000  0 12
G04 132757784.855 5                 103447792.210 6  99137507.076 6  25262968.320                    25262994.641    25263004.941         228.164                         177.937         170.514          32.000                          37.000          39.000  
G05 132315340.532 5 103102962.526 4 103102967.540 5                  25178763.836    25178790.148    25178790.617                        3706.098        2887.757        2887.758                          34.000          24.000          35.000                  
G06 112348909.042 7  87544667.226 7  87544599.223 8  83896903.965 8  21379285.180    21379300.676    21379301.125    21379306.105        -920.316        -717.102        -717.104        -687.224          46.000          47.000          48.000          52.000  
G09 125787320.059 5  98016230.162 4  98016226.164 6  93932246.173 7  23936525.836    23936555.102    23936555.191    23936564.043        1170.520         912.124         912.117         874.119          34.000          27.000          36.000          43.000  
G11 115458764.580 7  89967937.822 5  89967870.817 8  86219207.988 8  21971067.148    21971083.508    21971083.289    21971092.469         539.570         420.521         420.524         403.001          46.000          35.000          48.000          50.000  
G12 127028924.986 6  98983670.433 4  98983672.426 6                  24172800.945    24172818.273    24172818.652                        3261.160        2541.271        2541.272                          37.000          29.000          37.000                  
G14 116545307.988 7  90814599.220 5  90814518.219 7  87030575.983 8  22177837.359    22177858.430    22177858.422    22177868.559       -3229.961       -2516.735       -2516.737       -2411.874          43.000          30.000          46.000          49.000  
G17 115989378.867 7  90381393.325 6  90381327.325 7                  22072046.086    22072062.766    22072062.781                        -471.781        -367.516        -367.517                          44.000          41.000          44.000                  
G24 134468314.893 5 104780604.881 3 104780600.894 5 100414776.553 6  25588470.656    25588505.098    25588504.797    25588514.309       -1192.231        -929.076        -929.077        -890.374          31.000          20.000          34.000          39.000  
G22 111216495.317 7  86662251.725 6                                  21163796.648    21163811.770                                       -1827.348       -1423.746                                          47.000          39.000                                  
G20 114332274.670 7  89090169.084 5                                  21756703.180    21756721.496                                        2541.285        1980.338                                          47.000          35.000                                  
G19 109755707.004 7  85523968.060 6                                  20885814.617    20885826.102                                         582.938         454.339                                          45.000          38.000                                  
> 2025 03 13 08 52 24.0000000  0 12
G04 132757556.809 5                 103447614.517 6  99137336.799 6  25262925.969                    25262951.176    25262961.176         227.980                         177.693         170.277          31.000                          38.000          39.000  
G05 132311634.540 5 103100074.758 4 103100079.764 5                  25178058.508    25178084.969    25178085.168                        3706.058        2887.769        2887.775                          34.000          24.000          35.000                  
G06 112349829.391 7  87545384.385 8  87545316.382 8  83897591.241 8  21379460.477    21379476.145    21379476.387    21379481.652        -920.328        -717.159        -717.159        -687.277          46.000          48.000          48.000          52.000  
G09 125786149.695 5  98015318.194 4  98015314.206 6  93931372.210 7  23936302.945    23936332.465    23936332.215    23936341.266        1170.156         911.968         911.958         873.962          35.000          27.000          36.000          43.000  
G11 115458225.069 7  89967517.430 5  89967450.428 8  86218805.116 8  21970964.047    21970980.836    21970980.590    21970989.953         539.434         420.392         420.389         402.871          46.000          35.000          48.000          50.000  
G12 127025663.855 6  98981129.297 4  98981131.296 6                  24172180.508    24172197.480    24172198.047                        3260.984        2541.136        2541.131                          37.000          28.000          38.000                  
G14 116548538.025 7  90817116.130 5  90817035.127 7  87032988.020 8  22178452.172    22178472.758    22178472.637    22178482.609       -3230.141       -2516.910       -2516.908       -2412.037          43.000          32.000          46.000          48.000  
G17 115989850.631 7  90381760.935 7  90381694.934 7                  22072135.570    22072152.461    22072152.520                        -471.852        -367.610        -367.608                          44.000          42.000          45.000                  
G24 134469507.84435                                                  25588697.875                                                       -1192.852                                                          31.000                                                  
G22 111218322.873 8  86663675.791 6                                  21164144.734    21164159.570                                       -1827.762       -1424.066                                          48.000          39.000                                  
G20 114329733.550 7  89088189.000 5                                  21756220.023    21756238.070                                        2540.902        1980.083                                          46.000          34.000                                  
G19 109755124.052 7  85523513.814 6                                  20885703.977    20885715.555                                         582.934         454.246                                          46.000          38.000                                  
> 2025 03 13 08 52 25.0000000  0 12
G04 132757329.108 5                 103447437.099 6  99137166.781 6  25262882.617                    25262907.820    25262917.770         227.621                         177.419         170.018          31.000                          37.000          39.000  
G05 132307928.574 5 103097187.003 4 103097192.008 5                  25177353.141    25177379.402    25177379.727                        3705.820        2887.754        2887.757                          34.000          25.000          35.000                  
G06 112350749.873 7  87546101.646 7  87546033.645 8  83898278.617 8  21379635.383    21379651.051    21379651.594    21379656.555        -920.566        -717.261        -717.263        -687.376          46.000          47.000          48.000          52.000  
G09 125784979.592 5  98014406.428 4  98014402.447 6  93930498.440 7  23936079.773    23936109.828    23936109.309    23936118.375        1169.746         911.766         911.760         873.770          34.000          26.000          36.000          43.000  
G11 115457685.784 7  89967097.216 5  89967030.214 8  86218402.414 8  21970862.039    21970878.574    21970878.438    21970887.605         539.168         420.214         420.214         402.702          45.000          35.000          48.000          50.000  
G12 127022402.950 6  98978588.334 4  98978590.341 6                  24171559.594    24171577.039    24171577.465                        3260.859        2540.963        2540.954                          37.000          28.000          37.000                  
G14 116551768.326 7  90819633.248 5  90819552.240 7  87035400.255 8  22179066.945    22179087.586    22179087.484    22179097.527       -3230.449       -2517.118       -2517.112       -2412.236          43.000          31.000          46.000          48.000  
G17 115990322.562 7  90382128.670 7  90382062.670 7                  22072225.312    22072242.199    22072242.047                        -472.055        -367.735        -367.736                          44.000          42.000          44.000                  
G24 134470699.989 5 104782463.37213 104782459.38315 100416557.60716  25588923.727    25588958.727    25588958.680    25588968.258       -1192.895           0.000           0.000           0.000          31.000          21.000          34.000          39.000  
G22 111220150.892 8  86665100.221 6                                  21164492.844    21164507.465                                       -1828.180       -1424.430                                          48.000          39.000                                  
G20 114327192.824 7  89086209.222 5                                  21755735.820    21755754.293                                        2540.570        1979.778                                          46.000          34.000                                  
G19 109754541.265 7  85523059.698 6                                  20885592.805    20885604.617                                         582.695         454.116                                          46.000          38.000                                  
> 2025 03 13 08 52 26.0000000  0 12
G04 132757101.909 5                 103447260.084 6  99136997.145 6  25262839.648                    25262864.891    25262874.797         226.680                         177.015         169.636          31.000                          37.000          39.000  
G05 132304222.738 5 103094299.344 4 103094304.350 5                  25176649.258    25176674.465    25176674.699                        3705.793        2887.659        2887.657                          35.000          24.000          35.000                  
G06 112351670.582 7  87546819.086 7  87546751.085 7  83898966.164 8  21379810.523    21379826.355    21379826.832    21379831.859        -920.742        -717.440        -717.440        -687.547          46.000          47.000          47.000          52.000  
G09 125783809.863 5  98013494.959 4  98013490.972 6  93929624.951 7  23935856.516    23935887.316    23935886.973    23935896.016        1169.738         911.469         911.475         873.489          34.000          25.000          36.000          43.000  
G11 115457146.838 7  89966677.267 5  89966610.263 7  86217999.964 8  21970759.469    21970775.754    21970775.613    21970784.793         538.770         419.949         419.951         402.450          45.000          35.000          46.000          50.000  
G12 127019142.389 6  98976047.645 4  98976049.652 6                  24170939.586    24170956.508    24170956.898                        3260.355        2540.688        2540.690                          38.000          28.000          37.000                  
G14 116554999.001 7  90822150.659 5  90822069.645 7  87037812.768 8  22179681.812    22179702.648    22179702.168    22179712.484       -3230.910       -2517.411       -2517.406       -2412.512          43.000          31.000          45.000          48.000  
G17 115990794.775 7  90382496.629 6  90382430.628 7                  22072314.914    22072332.168    22072332.113                        -472.289        -367.958        -367.958                          45.000          41.000          44.000                  
G24 134471892.85015 104783392.86213 104783388.87615 100417448.36716  25589150.602    25589186.020    25589185.910    25589195.336       -1192.715           0.000           0.000           0.000          31.000          20.000          34.000          39.000  
G22 111221979.485 8  86666525.098 6                                  21164840.828    21164855.578                                       -1828.852       -1424.877                                          48.000          39.000                                  
G20 114324652.586 7  89084229.825 5                                  21755253.078    21755271.066                                        2540.027        1979.396                                          46.000          34.000                                  
G19 109753958.765 7  85522605.806 6                                  20885481.508    20885493.684                                         582.426         453.892                                          46.000          37.000                                  
