     3.04           OBSERVATION DATA    G: GPS              RINEX VERSION / TYPE
RTKCONV demo5 b34i                      20250516 050449 UTC PGM / RUN BY / DATE 
format: u-blox UBX                                          COMMENT             
log: D:\20242\NGUYENDS\GNSS_DOA_Spoofing\hai\ngoc\2025-04-19COMMENT             
                                                            MARKER NAME         
                                                            MARKER NUMBER       
                                                            MARKER TYPE         
                                                            OBSERVER / AGENCY   
                                                            REC # / TYPE / VERS 
                                                            ANT # / TYPE        
 -1626589.2331  5730533.5184  2271870.0428                  APPROX POSITION XYZ 
        0.0000        0.0000        0.0000                  ANTENNA: DELTA H/E/N
G    8 C1C L1C D1C S1C C2X L2X D2X S2X                      SYS / # / OBS TYPES 
  2025    04    19    06    00   18.0000000     GPS         TIME OF FIRST OBS   
  2025    04    19    06    28   35.9990000     GPS         TIME OF LAST OBS    
G L1C                                                       SYS / PHASE SHIFT   
G L2X  0.00000                                              SYS / PHASE SHIFT   
  0                                                         GLONASS SLOT / FRQ #
                                                            GLONASS COD/PHS/BIS 
                                                            END OF HEADER       
> 2025 04 19 06 00 18.0000000  0 13                     
G20  22301501.174   117195251.4861       3169.900          41.000                                                                  
G30  25243836.627   132657242.3893      -2009.621          27.000    25243855.298   103369348.8681      -1565.059          29.000  
G04  25178981.781   132316459.5151        775.985          30.000                                                                  
G11  21898989.826   115079959.8381        995.795          44.000    21899003.610    89672777.8061        775.913          44.000  
G17  21807910.313   114601181.8691       -151.456          44.000    21807923.303    89299604.1531       -117.740          41.000  
G14  21200581.440   111409680.5321      -2627.867          43.000    21200592.396    86812725.4221      -2047.422          44.000  
G24  25132970.162   132074610.5351       -742.007          33.000                                                                  
G09  24016623.009   126208161.2501       1608.439          33.000    24016647.330    98344180.7551       1253.972          33.000  
G12  24848594.350   130580239.9181       3647.345          31.000                                                                  
G19  20830969.477   109467409.5431        880.566          45.000                                                                  
G03  25034477.373   131557039.8911      -3386.605          29.000    25034496.066   102512043.5951      -2639.362          30.000  
G06  20998775.002   110349304.8841       -647.348          46.000    20998789.739    85986530.5721       -504.465          45.000  
G22  20606960.360   108290246.8251      -1064.611          46.000                                                                  
> 2025 04 19 06 00 19.0000000  0 13                     
G20  22300898.057   117192081.848        3169.883          41.000                                                                  
G30  25244220.433   132659250.6801      -2008.649          27.000    25244237.571   103370914.242       -1565.389          29.000  
G04  25178834.225   132315684.075         775.536          30.000                                                                  
G11  21898800.414   115078964.253         995.838          44.000    21898814.163    89672002.018         775.888          44.000  
G17  21807939.228   114601333.230        -151.175          44.000    21807952.088    89299722.114        -117.896          41.000  
G14  21201081.501   111412308.523       -2628.081          43.000    21201092.480    86814773.207       -2047.703          44.000  
G24  25133111.515   132075353.327        -743.032          32.000                                                                  
G09  24016316.966   126206552.711        1608.850          33.000    24016341.177    98342927.358        1253.850          32.000  
G12  24847900.136   130576592.342        3647.789          31.000                                                                  
G19  20830801.969   109466529.108         880.634          45.000                                                                  
G03  25035121.936   131560426.512       -3386.678          29.000    25035140.516   102514682.546       -2639.120          30.000  
G06  20998898.185   110349952.403        -647.605          46.000    20998912.968    85987035.121        -504.574          45.000  
G22  20607162.950   108291311.888       -1065.191          46.000                                                                  
> 2025 04 19 06 00 20.0000000  0 13                     
G20  22300295.001   117188912.513        3169.187          41.000                                                                  
G30  25244604.684   132661259.192       -2008.550          27.000    25244619.777   103372479.216       -1564.948          29.000  
G04  25178686.769   132314908.907         774.923          30.000                                                                  
G11  21898610.999   115077968.967         995.072          44.000    21898624.908    89671226.465         775.347          44.000  
G17  21807968.100   114601484.712        -151.771          44.000    21807980.868    89299840.129        -117.867          41.000  
G14  21201581.686   111414936.916       -2628.776          43.000    21201592.687    86816821.302       -2048.371          44.000  
G24  25133252.936   132076096.305        -743.063          32.000                                                                  
G09  24016010.870   126204944.338        1607.764          33.000    24016035.063    98341674.091        1252.687          32.000  
G12  24847206.019   130572944.912        3647.606          31.000                                                                  
G19  20830634.404   109465648.793         880.164          45.000                                                                  
G03  25035766.367   131563813.292       -3387.209          29.000    25035785.189   102517321.586       -2639.005          29.000  
G06  20999021.472   110350600.121        -647.945          46.000    20999036.247    85987539.840        -504.907          45.000  
G22  20607365.800   108292377.462       -1065.931          45.000                                                                  
> 2025 04 19 06 00 21.0000000  0 13                     
G20  22299691.968   117185743.577        3168.309          41.000                                                                  
G30  25244988.274   132663267.434       -2008.693          27.000    25245001.918   103374044.088       -1564.767          29.000  
G04  25178539.443   132314134.151         773.909          30.000                                                                  
G11  21898421.797   115076974.064         994.480          44.000    21898435.480    89670451.216         775.002          44.000  
G17  21807996.974   114601636.397        -151.805          44.000    21808009.734    89299958.328        -118.216          41.000  
G14  21202081.845   111417565.802       -2629.225          43.000    21202092.887    86818869.782       -2048.558          44.000  
G24  25133394.387   132076839.716        -743.493          32.000                                                                  
G09  24015704.753   126203336.174        1607.687          33.000    24015728.719    98340420.977        1252.719          32.000  
G12  24846511.772   130569297.658        3647.438          31.000                                                                  
G19  20830466.918   109464768.676         880.011          45.000                                                                  
G03  25036410.972   131567200.304       -3388.180          30.000    25036429.794   102519960.807       -2639.393          29.000  
G06  20999144.718   110351248.146        -648.225          46.000    20999159.643    85988044.793        -505.058          45.000  
G22  20607568.674   108293443.670       -1066.565          45.000                                                                  
> 2025 04 19 06 00 22.0000000  0 13                     
G20  22299089.016   117182574.810        3168.394          41.000                                                                  
G30  25245368.990   132665275.154       -2007.045          27.000    25245384.189   103375608.613       -1564.713          29.000  
G04  25178391.980   132313359.549         774.506          31.000                                                                  
G11  21898232.513   115075979.347         994.400          44.000    21898246.257    89669676.115         774.698          44.000  
G17  21808025.890   114601788.116        -151.863          44.000    21808038.649    89300076.548        -118.506          41.000  
G14  21202582.111   111420195.007       -2629.656          43.000    21202593.143    86820918.505       -2049.113          44.000  
G24  25133535.935   132077583.344        -744.377          32.000                                                                  
G09  24015398.638   126201728.062        1608.207          33.000    24015422.353    98339167.896        1252.667          32.000  
G12  24845817.863   130565650.492        3646.552          32.000                                                                  
G19  20830299.467   109463888.584         879.865          45.000                                                                  
G03  25037055.648   131570587.380       -3387.538          30.000    25037074.327   102522600.152       -2640.143          29.000  
G06  20999268.080   110351896.292        -648.306          46.000    20999282.952    85988549.835        -505.199          45.000  
G22  20607771.664   108294510.294       -1067.087          46.000                                                                  
> 2025 04 19 06 00 23.0000000  0 13                     
G20  22298485.970   117179406.253        3168.470          41.000                                                                  
G30  25245748.039   132667282.595       -2007.445          27.000    25245766.232   103377172.809       -1564.352          29.000  
G04  25178244.657   132312585.187         773.684          30.000                                                                  
G11  21898043.253   115074984.849         994.252          44.000    21898057.069    89668901.167         774.884          44.000  
G17  21808054.788   114601939.861        -151.775          44.000    21808067.456    89300194.776        -118.327          41.000  
G14  21203082.428   111422824.514       -2629.618          43.000    21203093.546    86822967.481       -2049.183          44.000  
G24  25133677.409   132078327.126        -743.628          32.000                                                                  
G09  24015092.573   126200120.016        1608.022          33.000    24015116.125    98337914.859        1252.839          33.000  
G12  24845123.971   130562003.332        3646.711          32.000                                                                  
G19  20830132.064   109463008.528         879.871          45.000                                                                  
G03  25037700.239   131573974.474       -3386.599          30.000    25037718.878   102525239.514       -2640.439          30.000  
G06  20999391.494   110352544.567        -648.415          46.000    20999406.465    85989054.988        -505.414          45.000  
G22  20607974.720   108295577.367       -1067.284          46.000                                                                  
> 2025 04 19 06 00 24.0000000  0 13                     
G20  22297883.013   117176238.100        3167.838          41.000                                                                  
G30  25246126.665   132669289.744       -2007.011          28.000    25246148.240   103378736.814       -1564.265          29.000  
G04  25178097.308   132311811.193         773.560          30.000                                                                  
G11  21897854.076   115073990.726         993.779          44.000    21897867.843    89668126.545         774.240          44.000  
G17  21808083.697   114602091.823        -152.352          44.000    21808096.423    89300313.188        -118.620          41.000  
G14  21203582.957   111425454.541       -2630.503          43.000    21203594.005    86825016.847       -2049.718          44.000  
G24  25133818.892   132079071.359        -745.156          32.000                                                                  
G09  24014786.589   126198512.203        1607.715          33.000    24014810.170    98336661.998        1252.862          32.000  
G12  24844430.120   130558356.372        3646.297          33.000                                                                  
G19  20829964.602   109462128.673         879.584          45.000                                                                  
G03  25038344.937   131577361.895       -3387.678          30.000    25038363.244   102527878.961       -2639.442          30.000  
G06  20999514.931   110353193.159        -648.943          46.000    20999529.863    85989560.390        -505.834          46.000  
G22  20608177.897   108296645.061       -1068.153          46.000                                                                  
> 2025 04 19 06 00 25.0000000  0 13                     
G20  22297280.202   117173070.242        3167.942          41.000                                                                  
G30  25246508.662   132671296.613       -2007.411          27.000    25246530.100   103380300.555       -1563.629          29.000  
G04  25177950.076   132311037.486         773.650          30.000                                                                  
G11  21897664.927   115072996.906         993.850          44.000    21897678.785    89667352.119         774.613          44.000  
G17  21808112.749   114602243.899        -152.044          44.000    21808125.390    89300431.685        -118.434          41.000  
G14  21204083.516   111428084.968       -2630.318          43.000    21204094.481    86827066.528       -2049.765          44.000  
G24  25133960.688   132079815.850        -744.361          32.000                                                                  
G09  24014480.737   126196904.565        1607.669          33.000    24014504.337    98335409.295        1253.059          33.000  
G12  24843736.071   130554709.508        3646.745          32.000                                                                  
G19  20829797.128   109461248.930         879.938          45.000                                                                  
G03  25038989.681   131580749.428       -3387.037          30.000    25039007.880   102530518.677       -2639.976          30.000  
G06  20999638.371   110353841.965        -648.757          46.000    20999653.289    85990065.943        -505.652          46.000  
G22  20608381.208   108297713.289       -1068.292          46.000                                                                  
> 2025 04 19 06 00 26.0000000  0 13                     
G20  22296677.436   117169902.493        3167.924          41.000                                                                  
G30  25246889.071   132673302.914       -2006.828          27.000    25246911.924   103381863.906       -1563.533          29.000  
G04  25177802.877   132310263.903         773.554          30.000                                                                  
G11  21897475.786   115072003.197         993.543          44.000    21897489.731    89666577.819         773.997          44.000  
G17  21808141.756   114602395.929        -152.076          44.000    21808154.395    89300550.164        -118.878          41.000  
G14  21204584.071   111430715.641       -2631.047          43.000    21204595.100    86829116.383       -2049.985          44.000  
G24  25134102.474   132080560.469        -743.920          32.000                                                                  
G09  24014174.795   126195296.868        1607.832          32.000    24014198.459    98334156.530        1252.530          32.000  
G12  24843042.155   130551062.574        3646.740          32.000                                                                  
G19  20829629.709   109460369.147         879.669          45.000                                                                  
G03  25039634.339   131584136.981       -3388.063          30.000    25039652.473   102533158.258       -2639.364          29.000  
G06  20999761.851   110354490.808        -648.899          46.000    20999776.683    85990571.536        -505.752          46.000  
G22  20608584.541   108298781.873       -1068.878          46.000                                                                  
> 2025 04 19 06 00 27.0000000  0 13                     
G20  22296074.685   117166735.235        3166.984          41.000                                                                  
G30  25247265.231   132675309.003       -2007.070          27.000    25247293.874   103383427.089       -1563.218          28.000  
G04  25177655.779   132309490.817         772.425          30.000                                                                  
G11  21897286.678   115071009.930         993.109          44.000    21897300.678    89665803.846         773.602          44.000  
G17  21808170.755   114602548.238        -152.633          44.000    21808183.417    89300668.821        -118.734          41.000  
G14  21205084.795   111433346.844       -2631.632          43.000    21205095.849    86831166.682       -2050.651          44.000  
G24  25134244.170   132081305.576        -745.205          32.000                                                                  
G09  24013868.784   126193689.452        1608.119          32.000    24013892.664    98332904.007        1252.724          32.000  
G12  24842348.198   130547415.939        3645.943          31.000                                                                  
G19  20829462.418   109459489.617         879.407          45.000                                                                  
G03  25040278.977   131587524.816       -3387.758          30.000    25040297.017   102535798.169       -2640.399          30.000  
G06  20999885.383   110355140.018        -649.413          46.000    20999900.160    85991077.414        -506.225          46.000  
G22  20608788.095   108299851.140       -1069.654          46.000                                                                  
> 2025 04 19 06 00 28.0000000  0 13                     
G20  22295472.043   117163568.449        3166.792          41.000                                                                  
G30  25247645.887   132677314.968       -2005.728          27.000    25247675.757   103384990.189       -1562.976          28.000  
G04  25177508.701   132308718.174         772.536          30.000                                                                  
G11  21897097.721   115070017.188         992.622          44.000    21897111.724    89665030.266         773.655          44.000  
G17  21808199.931   114602700.881        -152.870          44.000    21808212.461    89300787.749        -118.803          41.000  
G14  21205585.683   111435978.678       -2631.937          43.000    21205596.705    86833217.457       -2050.920          44.000  
G24  25134386.113   132082051.195        -746.519          32.000                                                                  
G09  24013563.057   126192082.443        1607.477          32.000    24013586.668    98331651.752        1252.987          32.000  
G12  24841654.299   130543769.574        3646.491          31.000                                                                  
G19  20829295.112   109458610.427         879.224          45.000                                                                  
G03  25040923.674   131590913.005       -3388.068          29.000    25040941.756   102538438.346       -2640.510          29.000  
G06  21000008.985   110355789.667        -649.680          46.000    21000023.790    85991583.628        -506.251          46.000  
G22  20608991.718   108300921.151       -1070.198          46.000                                                                  
> 2025 04 19 06 00 29.0000000  0 13                     
G20  22294869.437   117160401.872        3166.208          41.000                                                                  
G30  25248031.032   132679320.478       -2005.028          27.000    25248057.414   103386552.921       -1562.331          28.000  
G04  25177361.620   132307945.787         771.520          30.000                                                                  
G11  21896908.901   115069024.614         992.340          44.000    21896922.924    89664256.837         773.218          44.000  
G17  21808228.918   114602853.533        -152.815          44.000    21808241.465    89300906.699        -118.962          41.000  
G14  21206086.559   111438610.821       -2632.514          43.000    21206097.504    86835268.467       -2051.250          44.000  
G24  25134528.005   132082797.004        -746.622          32.000                                                                  
G09  24013257.166   126190475.445        1607.106          32.000    24013280.853    98330399.512        1252.821          32.000  
G12  24840960.305   130540123.281        3645.753          31.000                                                                  
G19  20829127.839   109457731.249         879.138          45.000                                                                  
G03  25041568.399   131594301.234       -3387.872          29.000    25041586.608   102541078.548       -2640.105          29.000  
G06  21000132.591   110356439.418        -649.955          46.000    21000147.456    85992089.917        -506.268          46.000  
G22  20609195.452   108301991.586       -1070.876          46.000                                                                  
> 2025 04 19 06 00 30.0000000  0 13                     
G20  22294266.975   117157235.668        3166.066          41.000                                                                  
G30  25248411.917   132681325.784       -2004.996          28.000    25248439.053   103388115.460       -1561.992          28.000  
G04  25177214.839   132307173.715         771.556          31.000                                                                  
G11  21896720.132   115068032.409         992.242          44.000    21896734.120    89663483.689         773.194          44.000  
G17  21808258.003   114603006.378        -152.670          44.000    21808270.537    89301025.813        -119.153          41.000  
G14  21206587.551   111441243.439       -2632.735          43.000    21206598.456    86837319.860       -2051.502          44.000  
G24  25134669.690   132083543.134        -746.242          32.000                                                                  
G09  24012951.513   126188868.681        1607.072          32.000    24012975.144    98329147.549        1251.500          32.000  
G12  24840266.532   130536477.138        3646.163          32.000                                                                  
G19  20828960.691   109456852.264         879.071          45.000                                                                  
G03  25042213.212   131597689.725       -3388.239          29.000    25042231.333   102543718.935       -2640.407          29.000  
G06  21000256.337   110357089.476        -650.166          46.000    21000271.211    85992596.466        -506.658          46.000  
G22  20609399.273   108303062.619       -1071.204          46.000                                                                  
> 2025 04 19 06 00 31.0000000  0 13                     
G20  22293664.547   117154069.676        3165.715          41.000                                                                  
G30  25248796.967   132683330.770       -2005.274          27.000    25248820.591   103389677.748       -1561.835          28.000  
G04  25177067.859   132306401.883         771.528          31.000                                                                  
G11  21896531.359   115067040.449         991.757          44.000    21896545.390    89662710.739         772.695          44.000  
G17  21808287.119   114603159.301        -153.129          44.000    21808299.628    89301144.970        -119.473          41.000  
G14  21207088.600   111443876.406       -2633.365          43.000    21207099.431    86839371.508       -2051.778          44.000  
G24  25134811.424   132084289.522        -746.623          32.000                                                                  
G09  24012645.735   126187262.008        1606.455          32.000    24012669.184    98327895.560        1252.048          32.000  
G12  24839572.623   130532831.066        3646.141          32.000                                                                  
G19  20828793.347   109455973.328         878.882          45.000                                                                  
G03  25042858.022   131601078.302       -3388.374          29.000    25042876.131   102546359.447       -2641.064          29.000  
G06  21000380.050   110357739.676        -650.464          46.000    21000394.860    85993103.115        -506.852          46.000  
G22  20609603.135   108304134.126       -1071.889          46.000                                                                  
> 2025 04 19 06 00 32.0000000  0 13                     
G20  22293062.075   117150904.127        3165.335          41.000                                                                  
G30  25249177.639   132685335.468       -2005.275          27.000    25249201.840   103391239.894       -1562.492          28.000  
G04  25176921.086   132305630.506         770.708          31.000                                                                  
G11  21896342.621   115066048.910         991.274          44.000    21896356.650    89661938.098         772.575          44.000  
G17  21808316.199   114603312.461        -153.338          44.000    21808328.798    89301264.282        -119.178          41.000  
G14  21207589.764   111446509.904       -2633.806          43.000    21207600.610    86841423.593       -2052.400          44.000  
G24  25134953.598   132085036.369        -747.239          32.000                                                                  
G09  24012339.959   126185655.566        1606.119          32.000    24012363.617    98326643.783        1252.306          32.000  
G12  24838878.663   130529185.247        3645.971          32.000                                                                  
G19  20828626.069   109455094.650         878.394          45.000                                                                  
G03  25043502.792   131604467.200       -3388.954          29.000    25043521.014   102549000.121       -2641.437          28.000  
G06  21000503.851   110358390.223        -650.726          46.000    21000518.686    85993610.030        -506.924          46.000  
G22  20609807.090   108305206.274       -1072.425          45.000                                                                  
> 2025 04 19 06 00 33.0000000  0 13                     
G20  22292459.738   117147738.766        3165.522          41.000                                                                  
G30  25249559.504   132687339.700       -2004.748          27.000    25249583.272   103392801.584       -1561.451          28.000  
G04  25176774.223   132304859.297         771.258          31.000                                                                  
G11  21896154.007   115065057.552         991.430          44.000    21896168.016    89661165.612         772.569          44.000  
G17  21808345.364   114603465.638        -153.018          44.000    21808358.009    89301383.645        -119.297          41.000  
G14  21208091.034   111449143.698       -2633.776          43.000    21208101.774    86843475.903       -2052.529          44.000  
G24  25135095.694   132085783.353        -746.836          32.000                                                                  
G09  24012034.398   126184049.235        1606.270          32.000    24012057.740    98325392.087        1251.688          32.000  
G12  24838184.984   130525539.453        3645.879          32.000                                                                  
G19  20828458.812   109454215.974         878.900          45.000                                                                  
G03  25044147.495   131607856.098       -3388.760          28.000    25044165.877   102551640.808       -2640.802          28.000  
G06  21000627.643   110359040.878        -650.600          46.000    21000642.494    85994117.027        -506.834          46.000  
G22  20610011.275   108306278.858       -1072.656          45.000                                                                  
> 2025 04 19 06 00 34.0000000  0 13                     
G20  22291857.403   117144573.752        3164.900          41.000                                                                  
G30  25249938.477   132689343.629       -2004.066          26.000    25249964.609   103394363.122       -1561.644          28.000  
G04  25176627.681   132304088.452         770.957          31.000                                                                  
G11  21895965.454   115064066.543         990.753          44.000    21895979.423    89660393.394         772.180          44.000  
G17  21808374.425   114603618.997        -153.497          44.000    21808387.189    89301503.141        -119.466          41.000  
G14  21208592.320   111451777.945       -2634.451          43.000    21208602.984    86845528.559       -2052.960          44.000  
G24  25135237.680   132086530.730        -747.733          32.000                                                                  
G09  24011728.768   126182443.020        1606.070          32.000    24011752.106    98324140.493        1251.879          32.000  
G12  24837491.017   130521893.792        3645.635          32.000                                                                  
G19  20828291.562   109453337.483         878.406          45.000                                                                  
G03  25044792.422   131611245.261       -3389.412          28.000    25044810.740   102554281.681       -2640.712          28.000  
G06  21000751.553   110359691.805        -651.053          46.000    21000766.331    85994624.242        -507.354          46.000  
G22  20610215.473   108307352.013       -1073.370          45.000                                                                  
> 2025 04 19 06 00 35.0000000  0 13                     
G20  22291255.222   117141409.241        3164.339          41.000                                                                  
G30  25250319.973   132691347.456       -2003.966          26.000    25250345.824   103395924.538       -1561.556          28.000  
G04  25176481.187   132303318.099         770.244          31.000                                                                  
G11  21895776.948   115063076.004         990.536          44.000    21895790.916    89659621.563         771.627          44.000  
G17  21808403.727   114603772.650        -153.575          44.000    21808416.477    89301622.879        -119.851          41.000  
G14  21209093.755   111454412.799       -2635.185          43.000    21209104.427    86847581.692       -2053.500          44.000  
G24  25135380.086   132087278.582        -748.247          31.000                                                                  
G09  24011423.216   126180837.201        1605.785          32.000    24011446.573    98322889.186        1251.475          32.000  
G12  24836797.383   130518248.449        3645.544          32.000                                                                  
G19  20828124.496   109452459.296         878.058          45.000                                                                  
G03  25045437.391   131614634.682       -3389.371          28.000    25045455.758   102556922.856       -2641.643          27.000  
G06  21000875.470   110360343.132        -651.423          46.000    21000890.210    85995131.771        -507.672          45.000  
G22  20610419.811   108308425.891       -1074.287          45.000                                                                  
> 2025 04 19 06 00 36.0000000  0 13                     
G20  22290653.125   117138245.017        3164.206          41.000                                                                  
G30  25250701.957   132693350.918       -2003.283          26.000    25250727.106   103397485.686       -1561.071          28.000  
G04  25176334.715   132302548.030         770.484          31.000                                                                  
G11  21895588.473   115062085.774         990.218          44.000    21895602.475    89658849.947         771.388          44.000  
G17  21808433.029   114603926.450        -153.887          44.000    21808445.821    89301742.709        -119.822          41.000  
G14  21209595.199   111457048.065       -2635.445          43.000    21209605.835    86849635.131       -2053.429          44.000  
G24  25135522.394   132088026.743        -748.593          32.000                                                                  
G09  24011117.593   126179231.502        1605.709          32.000    24011141.172    98321638.043        1250.906          32.000  
G12  24836103.548   130514603.217        3645.329          32.000                                                                  
G19  20827957.455   109451581.224         878.137          45.000                                                                  
G03  25046082.466   131618024.295       -3389.382          28.000    25046100.792   102559564.164       -2641.604          27.000  
G06  21000999.509   110360994.688        -651.639          46.000    21001014.255    85995639.476        -507.687          46.000  
G22  20610624.150   108309500.294       -1074.574          46.000                                                                  
> 2025 04 19 06 00 37.0000000  0 13                     
G20  22290051.094   117135080.996        3163.821          41.000                                                                  
G30  25251083.120                       -2002.857          26.000    25251108.114   103399046.443       -1560.516          29.000  
G04  25176188.214   132301778.137         770.190          31.000                                                                  
G11  21895400.065   115061095.722         989.849          44.000    21895414.182    89658078.469         771.290          44.000  
G17  21808462.334   114604080.249        -153.989          44.000    21808475.027    89301862.558        -120.176          41.000  
G14  21210096.686   111459683.616       -2635.856          43.000    21210107.405    86851688.807       -2053.989          44.000  
G24  25135664.742   132088775.039        -748.435          32.000                                                                  
G09  24010812.160   126177625.892        1605.024          32.000    24010835.958    98320386.871        1250.592          32.000  
G12  24835410.160   130510958.029        3644.573          32.000                                                                  
G19  20827790.318   109450703.159         877.728          45.000                                                                  
G03  25046727.526   131621413.983       -3389.564          28.000    25046745.686   102562205.413       -2641.497          27.000  
G06  21001123.639   110361646.341        -651.991          46.000    21001138.254    85996147.256        -507.986          45.000  
G22  20610828.669   108310575.115       -1075.179          46.000                                                                  
> 2025 04 19 06 00 38.0000000  0 13                     
G20  22289449.032   117131917.378        3163.239          41.000                                                                  
G30  25251463.697                       -2003.486          26.000    25251489.209   103400607.087       -1560.381          28.000  
G04  25176041.980   132301008.668         769.613          31.000                                                                  
G11  21895211.667   115060106.082         989.471          44.000    21895225.822    89657307.323         770.844          44.000  
G17  21808491.669   114604234.279        -154.134          44.000    21808504.359    89301982.566        -120.143          41.000  
G14  21210598.257   111462319.694       -2636.269          43.000    21210609.081    86853742.894       -2054.266          44.000  
G24  25135807.083   132089523.810        -749.616          32.000                                                                  
G09  24010506.537   126176020.493        1604.848          32.000    24010530.603    98319135.891        1250.827          32.000  
G12  24834716.566   130507313.025        3644.742          32.000                                                                  
G19  20827623.143   109449825.326         877.667          45.000                                                                  
G03  25047372.701   131624803.925       -3390.030          27.000    25047390.685   102564846.920       -2641.418          27.000  
G06  21001247.725   110362298.330        -652.166          46.000    21001262.356    85996655.296        -508.113          45.000  
G22  20611033.303   108311650.576       -1075.795          46.000                                                                  
> 2025 04 19 06 00 39.0000000  0 13                     
G20  22288847.050   117128754.014        3163.302          41.000                                                                  
G30  25251844.329   132699336.7043      -2001.904          27.000    25251870.269   103402167.440       -1560.006          28.000  
G04  25175895.779   132300239.462         769.192          31.000                                                                  
G11  21895023.357   115059116.689         989.378          44.000    21895037.607    89656536.364         770.908          44.000  
G17  21808520.965   114604388.403        -154.279          44.000    21808533.610    89302102.655        -120.099          41.000  
G14  21211100.003   111464956.132       -2636.573          43.000    21211110.808    86855797.259       -2054.574          44.000  
G24  25135949.661   132090272.785        -749.126          32.000                                                                  
G09  24010201.060   126174415.188        1605.204          32.000    24010225.118    98317885.008        1250.950          32.000  
G12  24834022.994   130503668.099        3644.794          32.000                                                                  
G19  20827456.169   109448947.571         877.740          45.000                                                                  
G03  25048017.813   131628194.038       -3390.604          27.000    25048035.865   102567488.552       -2641.468          27.000  
G06  21001371.772   110362950.479        -652.124          46.000    21001386.421    85997163.464        -508.092          45.000  
G22  20611238.113   108312726.525       -1076.124          46.000                                                                  
> 2025 04 19 06 00 40.0000000  0 13                     
G20  22288245.027   117125590.920        3163.307          41.000                                                                  
G30  25252223.758   132701338.8332      -2002.120          27.000    25252251.322   103403727.519       -1559.995          28.000  
G04  25175749.292   132299470.571         768.470          32.000                                                                  
G11  21894835.172   115058127.595         988.815          44.000    21894849.286    89655765.635         770.456          44.000  
G17  21808550.284   114604542.637        -154.393          44.000    21808562.961    89302222.835        -120.465          41.000  
G14  21211601.907   111467592.970       -2637.009          43.000    21211612.520    86857851.934       -2054.878          44.000  
G24  25136092.295   132091022.095        -749.833          32.000                                                                  
G09  24009895.553   126172810.073        1604.739          32.000    24009919.712    98316634.220        1250.916          32.000  
G12  24833329.324   130500023.288        3644.671          32.000                                                                  
G19  20827289.186   109448069.941         877.344          45.000                                                                  
G03  25048662.813   131631584.181       -3390.240          27.000    25048680.987   102570130.299       -2641.862          27.000  
G06  21001495.770   110363602.859        -652.496          46.000    21001510.643    85997671.820        -508.528          45.000  
G22  20611442.985   108313803.006       -1076.770          46.000                                                                  
> 2025 04 19 06 00 41.0000000  0 13                     
G20  22287643.139   117122428.164        3162.497          41.000                                                                  
G30  25252608.356   132703340.6542      -2002.012          27.000    25252632.077   103405287.322       -1559.528          28.000  
G04  25175603.161   132298701.925         768.211          31.000                                                                  
G11  21894647.020   115057138.767         988.843          44.000    21894661.058    89654995.121         770.527          44.000  
G17  21808579.648   114604696.987        -154.498          44.000    21808592.202    89302343.099        -120.268          41.000  
G14  21212103.839   111470230.221       -2637.432          43.000    21212114.344    86859906.926       -2055.183          44.000  
G24  25136234.831   132091771.680        -749.565          32.000                                                                  
G09  24009590.177   126171205.053        1605.083          32.000    24009614.292    98315383.587        1250.537          32.000  
G12  24832635.875   130496378.584        3645.091          32.000                                                                  
G19  20827122.204   109447192.406         877.594          45.000                                                                  
G03  25049307.943   131634974.518       -3390.075          27.000    25049326.081   102572772.106       -2641.070          27.000  
G06  21001619.955   110364255.439        -652.554          46.000    21001634.814    85998180.311        -508.414          45.000  
G22  20611647.833   108314880.014       -1077.291          46.000                                                                  
> 2025 04 19 06 00 42.0000000  0 13                     
G20  22287041.285   117119265.595        3162.635          41.000                                                                  
G30  25252989.461   132705341.9512      -2001.154          28.000    25253012.872   103406846.853       -1559.657          28.000  
G04  25175456.960   132297933.504         768.394          31.000                                                                  
G11  21894458.921   115056150.173         988.604          44.000    21894472.957    89654224.785         770.349          44.000  
G17  21808608.934   114604851.393        -154.567          44.000    21808621.672    89302463.411        -120.278          41.000  
G14  21212605.762   111472867.795       -2637.830          43.000    21212616.247    86861962.174       -2055.484          44.000  
G24  25136377.382   132092521.463        -749.237          32.000                                                                  
G09  24009284.791   126169600.119        1605.009          32.000    24009308.735    98314133.004        1250.140          32.000  
G12  24831942.319   130492733.964        3644.603          32.000                                                                  
G19  20826955.210   109446314.925         877.521          45.000                                                                  
G03  25049953.065   131638365.000       -3390.563          27.000    25049971.168   102575414.018       -2641.799          27.000  
G06  21001744.239   110364908.165        -652.702          46.000    21001759.076    85998688.925        -508.419          45.000  
G22  20611852.780   108315957.467       -1077.612          45.000                                                                  
> 2025 04 19 06 00 43.0000000  0 13                     
G20  22286439.575   117116103.373        3161.954          41.000                                                                  
G30  25253370.169   132707342.5481      -2001.415          28.000    25253393.556   103408406.083       -1559.296          28.000  
G04  25175310.728   132297165.442         767.510          31.000                                                                  
G11  21894270.841   115055161.905         987.835          44.000    21894284.967    89653454.706         769.771          44.000  
G17  21808638.274   114605005.944        -155.150          44.000    21808651.105    89302583.822        -120.396          41.000  
G14  21213107.732   111475505.801       -2638.289          42.000    21213118.271    86864017.758       -2055.913          44.000  
G24  25136520.176   132093271.563        -749.592          32.000                                                                  
G09  24008979.448   126167995.387        1604.212          32.000    24009003.432    98312882.558        1250.161          32.000  
G12  24831248.830   130489089.470        3644.091          32.000                                                                  
G19  20826788.339   109445437.586         877.026          45.000                                                                  
G03  25050598.309   131641755.600       -3390.749          27.000    25050616.400   102578056.096       -2642.203          27.000  
G06  21001868.493   110365561.138        -653.304          46.000    21001883.383    85999197.738        -508.980          45.000  
G22  20612057.936   108317035.484       -1078.568          45.000                                                                  
> 2025 04 19 06 00 44.0000000  0 13                     
G20  22285837.786   117112941.379        3161.783          41.000                                                                  
G30  25253751.415   132709343.187       -2000.625          28.000    25253774.413   103409964.976       -1558.165          28.000  
G04  25175164.760   132296397.570         768.315          31.000                                                                  
G11  21894082.841   115054173.858         987.902          44.000    21894096.962    89652684.807         769.710          44.000  
G17  21808667.665   114605160.541        -154.539          44.000    21808680.451    89302704.281        -120.328          41.000  
G14  21213609.835   111478144.152       -2638.444          43.000    21213620.451    86866073.620       -2056.135          44.000  
G24  25136662.941   132094021.974        -750.671          32.000                                                                  
G09  24008674.173   126166390.756        1604.165          32.000    24008698.003    98311632.186        1249.639          32.000  
G12  24830555.318   130485445.012        3644.890          32.000                                                                  
G19  20826621.389   109444560.309         877.112          45.000                                                                  
G03  25051243.550   131645146.323       -3390.735          27.000    25051261.563   102580698.224       -2642.156          27.000  
G06  21001992.789   110366214.266        -653.101          46.000    21002007.567    85999706.676        -509.004          45.000  
G22  20612263.185   108318113.965       -1078.687          46.000                                                                  
> 2025 04 19 06 00 45.0000000  0 13                     
G20  22285236.060   117109779.702        3161.482          41.000                                                                  
G30  25254132.058   132711343.531       -2000.601          28.000    25254155.156   103411523.717       -1558.815          29.000  
G04  25175018.633   132295630.065         767.266          31.000                                                                  
G11  21893894.882   115053186.118         987.454          44.000    21893908.905    89651915.140         769.507          44.000  
G17  21808697.087   114605315.299        -154.921          44.000    21808709.859    89302824.885        -120.789          41.000  
G14  21214111.999   111480782.934       -2639.183          43.000    21214122.583    86868129.802       -2056.567          44.000  
G24  25136805.750   132094772.619        -750.359          32.000                                                                  
G09  24008368.770   126164786.249        1604.023          32.000    24008392.839    98310381.912        1249.654          32.000  
G12  24829861.919   130481800.708        3644.135          33.000                                                                  
G19  20826454.522   109443683.166         876.892          45.000                                                                  
G03  25051888.774   131648537.212       -3390.934          27.000    25051906.814   102583340.460       -2642.466          27.000  
G06  21002117.122   110366867.616        -653.571          46.000    21002131.948    86000215.776        -509.412          45.000  
G22  20612468.537   108319192.990       -1079.537          45.000                                                                  
> 2025 04 19 06 00 46.0000000  0 13                     
G20  22284634.499   117106618.524        3161.112          41.000                                                                  
G30  25254511.362   132713343.742       -2000.060          28.000    25254535.754   103413082.233       -1558.177          29.000  
G04  25174872.530   132294863.030         766.995          32.000                                                                  
G11  21893707.050   115052198.889         986.881          44.000    21893720.974    89651145.859         769.063          44.000  
G17  21808726.643   114605470.386        -155.374          44.000    21808739.478    89302945.721        -121.149          41.000  
G14  21214614.250   111483422.302       -2639.516          43.000    21214624.864    86870186.444       -2056.677          44.000  
G24  25136948.659   132095523.801        -751.127          32.000                                                                  
G09  24008063.525   126163182.077        1603.735          32.000    24008087.569    98309131.889        1250.145          32.000  
G12  24829168.517   130478156.732        3643.760          32.000                                                                  
G19  20826287.670   109442806.329         876.691          45.000                                                                  
G03  25052534.031   131651928.479       -3391.673          28.000    25052552.180   102585982.924       -2641.941          28.000  
G06  21002241.497   110367521.395        -654.009          46.000    21002256.353    86000725.200        -509.418          45.000  
G22  20612674.069   108320272.739       -1080.036          45.000                                                                  
> 2025 04 19 06 00 47.0000000  0 13                     
G20  22284033.034   117103457.531        3160.766          41.000                                                                  
G30  25254893.784   132715343.471       -1999.701          28.000    25254916.445   103414640.493       -1558.141          29.000  
G04  25174726.552   132294096.175         766.662          31.000                                                                  
G11  21893519.249   115051211.810         986.952          44.000    21893533.200    89650376.706         769.061          44.000  
G17  21808756.221   114605625.457        -155.417          44.000    21808768.912    89303066.545        -121.087          41.000  
G14  21215116.572   111486061.965       -2639.889          43.000    21215127.133    86872243.329       -2056.994          44.000  
G24  25137091.694   132096275.151        -751.327          32.000                                                                  
G09  24007758.329   126161577.976        1604.121          31.000    24007782.309    98307881.928        1249.752          32.000  
G12  24828475.011   130474512.732        3643.992          32.000                                                                  
G19  20826120.835   109441929.515         876.630          45.000                                                                  
G03  25053179.399   131655319.717       -3391.259          28.000    25053197.567   102588625.549       -2642.810          28.000  
G06  21002365.975   110368175.273        -654.094          46.000    21002380.764    86001234.716        -509.621          46.000  
G22  20612879.655   108321352.909       -1080.606          46.000                                                                  
> 2025 04 19 06 00 48.0000000  0 13                     
G20  22283431.576   117100296.892        3159.939          41.000                                                                  
G30  25255272.390   132717342.919       -1999.346          28.000    25255296.979   103416198.455       -1557.098          29.000  
G04  25174580.598   132293329.644         766.249          31.000                                                                  
G11  21893331.425   115050225.079         986.430          44.000    21893345.410    89649607.835         768.564          44.000  
G17  21808785.760   114605780.696        -155.562          44.000    21808798.462    89303187.513        -121.095          41.000  
G14  21215618.922   111488702.073       -2640.538          43.000    21215629.526    86874300.558       -2057.537          44.000  
G24  25137234.677   132097026.818        -751.132          32.000                                                                  
G09  24007453.140   126159974.069        1603.077          31.000    24007476.918    98306632.079        1249.990          32.000  
G12  24827781.506   130470868.931        3643.100          32.000                                                                  
G19  20825954.023   109441052.844         876.465          45.000                                                                  
G03  25053824.779   131658711.215       -3391.690          29.000    25053842.937   102591268.270       -2643.018          29.000  
G06  21002490.431   110368829.396        -654.382          46.000    21002505.337    86001744.434        -510.079          46.000  
G22  20613085.345   108322433.635       -1081.160          46.000                                                                  
> 2025 04 19 06 00 49.0000000  0 13                     
G20  22282830.060   117097136.595        3160.042          41.000                                                                  
G30  25255651.993   132719342.099       -1999.050          28.000    25255677.532   103417756.296       -1557.832          29.000  
G04  25174434.794   132292563.503         766.316          31.000                                                                  
G11  21893143.680   115049238.712         986.220          44.000    21893157.726    89648839.231         768.439          44.000  
G17  21808815.320   114605936.135        -155.942          44.000    21808827.950    89303308.608        -120.924          41.000  
G14  21216121.254   111491342.658       -2640.730          43.000    21216132.113    86876358.154       -2057.841          44.000  
G24  25137377.740   132097778.878        -751.863          32.000                                                                  
G09  24007147.930   126158370.321        1603.719          32.000    24007171.645    98305382.439        1249.959          32.000  
G12  24827088.186   130467225.239        3643.922          32.000                                                                  
G19  20825787.294   109440176.361         876.385          45.000                                                                  
G03  25054470.275   131662102.894       -3391.561          29.000    25054488.370   102593911.122       -2642.806          29.000  
G06  21002614.989   110369483.799        -654.489          47.000    21002629.836    86002254.358        -510.079          46.000  
G22  20613291.093   108323514.961       -1081.747          46.000                                                                  
> 2025 04 19 06 00 50.0000000  0 13                     
G20  22282228.695   117093976.644        3160.048          41.000                                                                  
G30  25256034.962   132721340.991       -1998.480          28.000    25256057.913   103419313.864       -1557.635          29.000  
G04  25174289.070   132291797.722         765.607          31.000                                                                  
G11  21892955.982   115048252.675         985.983          44.000    21892970.208    89648070.896         768.246          44.000  
G17  21808844.923   114606091.721        -155.976          44.000    21808857.526    89303429.861        -121.641          41.000  
G14  21216623.830   111493983.708       -2641.550          43.000    21216634.680    86878416.094       -2058.018          44.000  
G24  25137521.024   132098531.341        -753.713          31.000                                                                  
G09  24006842.835   126156766.779        1604.095          31.000    24006866.532    98304132.957        1249.441          32.000  
G12  24826394.748   130463581.772        3643.296          32.000                                                                  
G19  20825620.622   109439300.050         876.239          45.000                                                                  
G03  25055115.660   131665494.779       -3391.432          29.000    25055133.943   102596554.176       -2643.275          30.000  
G06  21002739.526   110370138.480        -654.778          46.000    21002754.417    86002764.494        -510.240          46.000  
G22  20613497.101   108324596.867       -1082.247          46.000                                                                  
> 2025 04 19 06 00 51.0000000  0 13                     
G20  22281627.393   117090816.850        3159.585          41.000                                                                  
G30  25256416.549   132723339.364       -1998.146          28.000    25256438.149   103420870.976       -1555.135          29.000  
G04  25174143.373   132291032.041         765.678          31.000                                                                  
G11  21892768.476   115047266.773         985.991          44.000    21892782.601    89647302.654         768.356          44.000  
G17  21808874.601   114606247.258        -155.286          44.000    21808887.188    89303551.055        -121.153          41.000  
G14  21217126.527   111496624.970       -2641.333          43.000    21217137.236    86880474.235       -2058.203          44.000  
G24  25137664.201   132099283.844        -752.882          32.000                                                                  
G09  24006537.750   126155163.261        1603.943          31.000    24006561.486    98302883.392        1250.405          32.000  
G12  24825701.058   130459938.225        3643.356          32.000                                                                  
G19  20825453.848   109438423.696         876.343          45.000                                                                  
G03  25055761.130   131668886.685       -3391.522          30.000    25055779.404   102599197.251       -2644.243          30.000  
G06  21002864.035   110370793.197        -654.787          47.000    21002878.917    86003274.659        -510.220          46.000  
G22  20613702.980   108325679.134       -1082.398          46.000                                                                  
> 2025 04 19 06 00 52.0000000  0 13                     
G20  22281026.117   117087657.300        3159.602          41.000                                                                  
G30  25256795.114   132725337.390       -1997.340          29.000    25256818.289   103422427.921       -1556.082          29.000  
G04  25173997.720   132290266.687         764.042          31.000                                                                  
G11  21892580.877   115046281.142         985.554          44.000    21892595.081    89646534.630         767.873          44.000  
G17  21808904.273   114606402.914        -155.714          44.000    21808916.864    89303672.346        -121.476          41.000  
G14  21217629.261   111499266.629       -2641.819          43.000    21217639.955    86882532.668       -2058.658          44.000  
G24  25137807.424   132100036.637        -752.859          32.000                                                                  
G09  24006232.496   126153559.869        1603.025          31.000    24006256.297    98301634.038        1248.929          32.000  
G12  24825007.822   130456294.760        3643.746          33.000                                                                  
G19  20825287.093   109437547.428         876.434          45.000                                                                  
G03  25056406.653   131672278.702       -3392.555          30.000    25056424.888   102601840.334       -2642.910          29.000  
G06  21002988.695   110371448.109        -654.942          46.000    21003003.455    86003784.972        -510.280          46.000  
G22  20613908.984   108326761.905       -1082.979          46.000                                                                  
> 2025 04 19 06 00 53.0000000  0 13                     
G20  22280424.846   117084498.131        3158.858          41.000                                                                  
G30  25257174.416   132727335.152       -1997.741          29.000    25257198.436   103423984.600       -1556.672          29.000  
G04  25173852.124   132289501.591         764.907          31.000                                                                  
G11  21892393.351   115045295.840         985.145          44.000    21892407.753    89645766.862         767.566          44.000  
G17  21808933.889   114606558.743        -156.134          44.000    21808946.463    89303793.747        -121.670          41.000  
G14  21218132.057   111501908.728       -2642.394          43.000    21218142.701    86884591.440       -2058.908          44.000  
G24  25137950.778   132100789.801        -753.992          32.000                                                                  
G09  24005927.440   126151956.645        1602.672          31.000    24005951.136    98300384.712        1249.439          32.000  
G12  24824314.699   130452651.494        3643.391          33.000                                                                  
G19  20825120.342   109436671.332         875.989          45.000                                                                  
G03  25057052.135   131675670.929       -3392.641          30.000    25057070.384   102604483.626       -2643.533          29.000  
G06  21003113.499   110372103.279        -655.396          46.000    21003128.210    86004295.499        -510.755          46.000  
G22  20614115.144   108327845.257       -1083.674          46.000                                                                  
> 2025 04 19 06 00 54.0000000  0 13                     
G20  22279823.688   117081339.400        3158.867          41.000                                                                  
G30  25257554.363   132729332.685       -1996.971          29.000    25257578.613   103425541.147       -1556.179          29.000  
G04  25173706.685   132288737.013         764.646          31.000                                                                  
G11  21892205.963   115044310.995         984.926          44.000    21892220.323    89644999.449         767.505          44.000  
G17  21808963.514   114606714.837        -155.865          44.000    21808976.202    89303915.385        -121.606          41.000  
G14  21218634.915   111504551.396       -2642.706          43.000    21218645.533    86886650.664       -2059.339          44.000  
G24  25138094.192   132101543.369        -753.668          32.000                                                                  
G09  24005622.336   126150353.717        1603.603          32.000    24005646.155    98299135.753        1249.056          32.000  
G12  24823621.563   130449008.513        3643.082          33.000                                                                  
G19  20824953.662   109435795.520         875.897          45.000                                                                  
G03  25057697.820   131679063.393       -3391.984          30.000    25057715.936   102607127.112       -2642.794          30.000  
G06  21003238.255   110372758.829        -655.740          46.000    21003252.949    86004806.310        -510.831          46.000  
G22  20614321.454   108328929.293       -1084.199          46.000                                                                  
> 2025 04 19 06 00 55.0000000  0 13                     
G20  22279222.727   117078180.845        3158.382          41.000                                                                  
G30  25257936.359   132731329.782       -1996.690          29.000    25257958.591   103427097.292       -1556.189          29.000  
G04  25173561.407   132287972.609         763.821          31.000                                                                  
G11  21892018.667   115043326.335         984.345          44.000    21892033.002    89644232.169         767.177          44.000  
G17  21808993.143   114606870.943        -156.114          44.000    21809005.951    89304037.025        -121.481          41.000  
G14  21219137.746   111507194.355       -2643.190          43.000    21219148.489    86888710.097       -2059.476          44.000  
G24  25138237.737   132102297.140        -754.213          32.000                                                                  
G09  24005317.386   126148750.878        1602.745          32.000    24005341.204    98297886.703        1249.770          32.000  
G12  24822928.412   130445365.494        3643.047          33.000                                                                  
G19  20824787.030   109434919.695         875.769          45.000                                                                  
G03  25058343.502   131682456.018       -3392.698          30.000    25058361.659   102609770.719       -2643.059          29.000  
G06  21003363.116   110373414.459        -655.645          46.000    21003377.840    86005317.196        -510.879          45.000  
G22  20614527.790   108330013.735       -1084.744          46.000                                                                  
> 2025 04 19 06 00 56.0000000  0 13                     
G20  22278621.729   117075022.462        3158.685          41.000                                                                  
G30  25258313.045   132733326.466       -1997.061          29.000    25258338.640   103428653.132       -1555.810          29.000  
G04  25173416.069   132287208.326         764.189          31.000                                                                  
G11  21891831.333   115042341.828         984.196          44.000    21891845.586    89643465.024         767.023          44.000  
G17  21809022.876   114607027.057        -156.137          44.000    21809035.675    89304158.669        -121.855          41.000  
G14  21219640.747   111509837.596       -2643.471          43.000    21219651.451    86890769.764       -2059.886          44.000  
G24  25138381.106   132103051.051        -753.860          32.000                                                                  
G09  24005012.481   126147148.055        1602.436          32.000    24005036.332    98296637.779        1248.658          33.000  
G12  24822235.383   130441722.503        3642.935          33.000                                                                  
G19  20824620.334   109434043.873         875.653          45.000                                                                  
G03  25058989.059   131685848.576       -3392.889          30.000    25059007.067   102612414.293       -2643.288          30.000  
G06  21003487.850   110374070.204        -655.792          46.000    21003502.562    86005828.161        -510.891          46.000  
G22  20614734.219   108331098.590       -1085.152          46.000                                                                  
> 2025 04 19 06 00 57.0000000  0 13                     
G20  22278020.756   117071864.430        3157.945          41.000                                                                  
G30  25258694.682   132735322.790       -1996.440          29.000    25258718.590   103430208.677       -1554.901          29.000  
G04  25173270.750   132286444.384         764.743          31.000                                                                  
G11  21891644.069   115041357.626         984.306          44.000    21891658.339    89642698.120         767.027          44.000  
G17  21809052.638   114607183.312        -156.141          44.000    21809065.495    89304280.410        -121.724          41.000  
G14  21220143.863   111512481.259       -2643.861          43.000    21220154.485    86892829.755       -2059.996          44.000  
G24  25138524.621   132103805.272        -753.265          32.000                                                                  
G09  24004707.625   126145545.326        1602.687          32.000    24004731.685    98295388.916        1248.410          33.000  
G12  24821542.289   130438079.631        3642.839          34.000                                                                  
G19  20824453.685   109433168.188         875.842          45.000                                                                  
G03  25059634.616   131689241.298       -3392.330          30.000    25059652.738   102615058.100       -2645.229          29.000  
G06  21003612.602   110374726.167        -655.848          46.000    21003627.366    86006339.304        -511.134          46.000  
G22  20614940.802   108332183.993       -1085.510          46.000                                                                  
> 2025 04 19 06 00 58.0000000  0 13                     
G20  22277419.915   117068706.714        3157.329          41.000                                                                  
G30  25259072.399   132737318.765       -1995.129          29.000    25259098.439   103431764.024       -1555.302          29.000  
G04  25173125.378   132285680.821         763.216          31.000                                                                  
G11  21891456.886   115040373.766         983.483          44.000    21891471.059    89641931.480         766.289          44.000  
G17  21809082.387   114607339.727        -156.759          44.000    21809095.164    89304402.291        -122.290          41.000  
G14  21220647.011   111515125.363       -2644.644          43.000    21220657.768    86894890.104       -2060.941          44.000  
G24  25138668.234   132104559.955        -755.804          32.000                                                                  
G09  24004402.659   126143942.817        1602.663          32.000    24004426.792    98294140.170        1248.811          32.000  
G12  24820849.472   130434436.924        3642.241          34.000                                                                  
G19  20824287.142   109432292.670         875.201          45.000                                                                  
G03  25060280.267   131692634.310       -3393.780          30.000    25060298.338   102617701.890       -2644.078          29.000  
G06  21003737.480   110375382.397        -656.570          46.000    21003752.273    86006850.652        -511.648          45.000  
G22  20615147.506   108333269.967       -1086.557          46.000                                                                  
> 2025 04 19 06 00 59.0000000  0 13                     
G20  22276819.217   117065549.448        3157.374          40.000                                                                  
G30  25259454.190   132739314.681       -1995.810          29.000    25259478.128   103433319.227       -1555.061          29.000  
G04  25172980.286   132284917.721         762.728          31.000                                                                  
G11  21891269.745   115039390.363         983.484          44.000    21891283.839    89641165.191         766.122          44.000  
G17  21809112.230   114607496.430        -156.695          44.000    21809124.923    89304524.390        -122.160          41.000  
G14  21221150.222   111517770.034       -2644.706          43.000    21221161.019    86896950.865       -2060.980          44.000  
G24  25138811.823   132105314.957        -755.440          32.000                                                                  
G09  24004097.636   126142340.669        1601.859          32.000    24004121.841    98292891.749        1247.746          32.000  
G12  24820156.454   130430794.494        3642.486          34.000                                                                  
G19  20824120.647   109431417.427         875.220          45.000                                                                  
G03  25060926.092   131696027.559       -3393.820          29.000    25060944.034   102620345.994       -2643.910          29.000  
G06  21003862.354   110376039.002        -656.687          46.000    21003877.274    86007362.286        -511.731          46.000  
G22  20615354.349   108334356.621       -1086.828          46.000                                                                  
> 2025 04 19 06 01 00.0000000  0 13                     
G20  22276218.438   117062392.452        3156.684          40.000                                                                  
G30  25259835.363   132741330.1623      -1995.651          29.000    25259857.732   103434874.142       -1554.608          29.000  
G04  25172834.986   132284154.855         762.366          30.000                                                                  
G11  21891082.660   115038407.210         982.835          44.000    21891096.614    89640399.098         765.764          44.000  
G17  21809142.128   114607653.213        -156.904          44.000    21809154.703    89304646.544        -122.163          41.000  
G14  21221653.643   111520415.056       -2645.142          43.000    21221664.425    86899011.925       -2061.121          44.000  
G24  25138955.508   132106070.298        -756.077          32.000                                                                  
G09  24003792.775   126140738.586        1601.689          32.000    24003816.974    98291643.338        1248.006          32.000  
G12  24819463.375   130427152.116        3642.532          33.000                                                                  
G19  20823954.111   109430542.259         875.195          45.000                                                                  
G03  25061571.661   131699420.916       -3393.395          29.000    25061589.755   102622990.206       -2644.310          30.000  
G06  21003987.342   110376695.762        -656.859          46.000    21004002.275    86007874.050        -511.914          46.000  
G22  20615561.102   108335443.770       -1087.440          46.000                                                                  
> 2025 04 19 06 01 01.0000000  0 13                     
G20  22275617.690   117059235.917        3156.635          41.000                                                                  
G30  25260214.399   132743325.420       -1994.517          29.000    25260237.441   103436428.941       -1554.888          29.000  
G04  25172689.813   132283392.423         762.366          30.000                                                                  
G11  21890895.706   115037424.499         982.797          44.000    21890909.559    89639633.349         765.825          44.000  
G17  21809172.079   114607810.272        -156.823          44.000    21809184.647    89304768.951        -122.501          41.000  
G14  21222157.047   111523060.650       -2645.625          43.000    21222167.814    86901073.423       -2061.393          44.000  
G24  25139099.265   132106825.974        -755.007          32.000                                                                  
G09  24003487.996   126139136.795        1601.900          31.000    24003512.243    98290395.214        1248.312          32.000  
G12  24818770.190   130423510.057        3641.538          33.000                                                                  
G19  20823787.583   109429667.367         875.226          45.000                                                                  
G03  25062217.503   131702814.601       -3393.608          29.000    25062235.424   102625634.670       -2644.392          29.000  
G06  21004112.405   110377352.905        -656.921          46.000    21004127.313    86008386.108        -511.854          46.000  
G22  20615768.244   108336531.591       -1087.689          46.000                                                                  
> 2025 04 19 06 01 02.0000000  0 13                     
G20  22275017.094   117056079.522        3156.425          41.000                                                                  
G30  25260594.139   132745320.187       -1994.371          29.000    25260617.102   103437983.300       -1554.086          29.000  
G04  25172544.762   132282630.163         761.721          31.000                                                                  
G11  21890708.706   115036441.921         982.718          44.000    21890722.719    89638867.699         765.734          44.000  
G17  21809201.841   114607967.295        -156.830          44.000    21809214.628    89304891.269        -122.112          41.000  
G14  21222660.541   111525706.486       -2645.902          43.000    21222671.276    86903135.117       -2061.846          44.000  
G24  25139242.920   132107581.908        -756.394          32.000                                                                  
G09  24003183.066   126137535.024        1601.848          31.000    24003207.553    98289147.078        1247.728          32.000  
G12  24818077.158   130419867.906        3642.357          33.000                                                                  
G19  20823621.067   109428792.438         875.128          45.000                                                                  
G03  25062863.411   131706208.299       -3393.562          29.000    25062881.058   102628279.105       -2644.613          30.000  
G06  21004237.420   110378010.111        -657.168          46.000    21004252.452    86008898.199        -511.952          46.000  
G22  20615975.243   108337619.795       -1088.287          46.000                                                                  
> 2025 04 19 06 01 03.0000000  0 13                     
G20  22274416.416   117052923.354        3156.267          41.000                                                                  
G30  25260973.136   132747314.615       -1994.179          28.000    25260996.740   103439537.349       -1553.734          29.000  
G04  25172399.735   132281868.111         761.958          31.000                                                                  
G11  21890521.696   115035459.584         982.167          44.000    21890535.690    89638102.240         765.364          44.000  
G17  21809231.839   114608124.399        -157.272          44.000    21809244.583    89305013.680        -122.433          41.000  
G14  21223163.964   111528352.650       -2646.213          43.000    21223174.822    86905197.059       -2061.965          44.000  
G24  25139386.694   132108338.004        -755.889          32.000                                                                  
G09  24002878.075   126135933.324        1601.340          31.000    24002902.926    98287898.970        1247.890          33.000  
G12  24817384.111   130416225.836        3642.104          33.000                                                                  
G19  20823454.564   109427917.561         875.098          45.000                                                                  
G03  25063509.329   131709602.068       -3393.797          28.000    25063526.787   102630923.648       -2645.835          29.000  
G06  21004362.582   110378667.455        -657.418          46.000    21004377.560    86009410.425        -512.382          46.000  
G22  20616182.409   108338708.455       -1088.800          46.000                                                                  
> 2025 04 19 06 01 04.0000000  0 13                     
G20  22273815.897   117049767.364        3155.944          41.000                                                                  
G30  25261352.874   132749308.585       -1994.090          28.000    25261376.198   103441091.092       -1553.812          28.000  
G04  25172254.904   132281106.215         762.423          30.000                                                                  
G11  21890334.866   115034477.401         982.112          44.000    21890348.738    89637336.887         765.444          44.000  
G17  21809261.713   114608281.467        -157.301          44.000    21809274.500    89305136.074        -122.386          41.000  
G14  21223667.544   111530999.101       -2646.600          43.000    21223678.410    86907259.216       -2062.112          44.000  
G24  25139530.537   132109094.286        -756.843          32.000                                                                  
G09  24002573.327   126134331.641        1601.166          31.000    24002598.288    98286650.910        1248.019          32.000  
G12  24816690.907   130412583.748        3642.505          33.000                                                                  
G19  20823288.105   109427042.683         874.756          45.000                                                                  
G03  25064155.108   131712995.896       -3394.240          28.000    25064172.653   102633568.126       -2644.822          30.000  
G06  21004487.633   110379324.882        -657.572          46.000    21004502.649    86009922.700        -512.311          46.000  
G22  20616389.762   108339797.513       -1089.295          46.000                                                                  
> 2025 04 19 06 01 05.0000000  0 13                     
G20  22273215.387   117046611.905        3155.162          41.000                                                                  
G30  25261732.534   132751302.408       -1994.346          28.000    25261755.573   103442644.647       -1552.978          28.000  
G04  25172109.953   132280344.882         760.712          30.000                                                                  
G11  21890148.042   115033495.729         981.400          44.000    21890162.015    89636571.961         764.532          44.000  
G17  21809291.664   114608438.887        -157.757          44.000    21809304.450    89305258.739        -122.971          41.000  
G14  21224171.360   111533646.180       -2647.430          43.000    21224182.060    86909321.888       -2063.074          44.000  
G24  25139674.725   132109851.072        -757.016          32.000                                                                  
G09  24002268.612   126132730.366        1600.583          32.000    24002293.668    98285403.150        1246.966          32.000  
G12  24815997.891   130408942.044        3641.372          34.000                                                                  
G19  20823121.628   109426168.145         874.322          45.000                                                                  
G03  25064800.866   131716390.042       -3394.684          28.000    25064818.649   102636212.937       -2645.372          29.000  
G06  21004612.863   110379982.757        -658.217          46.000    21004627.775    86010435.326        -512.860          46.000  
G22  20616597.030   108340887.328       -1090.314          46.000                                                                  
> 2025 04 19 06 01 06.0000000  0 13                     
G20  22272615.074   117043456.752        3155.136          41.000                                                                  
G30  25262112.002   132753295.843       -1993.128          28.000    25262134.942   103444198.053       -1553.291          28.000  
G04  25171965.204   132279583.835         761.106          29.000                                                                  
G11  21889961.348   115032514.368         981.169          44.000    21889975.313    89635807.261         764.486          44.000  
G17  21809321.583   114608596.446        -157.594          44.000    21809334.440    89305381.502        -122.795          41.000  
G14  21224675.109   111536293.671       -2647.725          43.000    21224685.867    86911384.854       -2063.157          44.000  
G24  25139818.761   132110608.160        -757.083          32.000                                                                  
G09  24001963.822   126131129.217        1600.942          32.000    24001989.060    98284155.473        1248.156          32.000  
G12  24815305.004   130405300.436        3641.501          34.000                                                                  
G19  20822955.197   109425293.746         874.121          45.000                                                                  
G03  25065446.860   131719784.334       -3393.801          28.000    25065464.561   102638857.894       -2645.363          29.000  
G06  21004738.157   110380640.853        -658.194          46.000    21004752.990    86010948.133        -512.990          45.000  
G22  20616804.527   108341977.679       -1090.498          45.000                                                                  
> 2025 04 19 06 01 07.0000000  0 13                     
G20  22272014.643   117040301.826        3154.792          41.000                                                                  
G30  25262491.304   132755288.955       -1993.136          27.000    25262514.032   103445751.029       -1552.156          28.000  
G04  25171820.538   132278823.015         760.895          29.000                                                                  
G11  21889774.668   115031533.227         980.813          44.000    21889788.727    89635042.735         764.219          44.000  
G17  21809351.615   114608754.044        -157.625          44.000    21809364.456    89305504.313        -123.192          41.000  
G14  21225178.994   111538941.495       -2648.106          43.000    21225189.783    86913448.090       -2063.407          44.000  
G24  25139962.977   132111365.507        -756.622          32.000                                                                  
G09  24001659.015   126129528.158        1600.668          31.000    24001684.442    98282907.894        1247.495          32.000  
G12  24814612.099   130401658.897        3641.498          34.000                                                                  
G19  20822788.774   109424419.371         874.274          45.000                                                                  
G03  25066092.858   131723178.782       -3394.581          28.000    25066110.838                       -2650.440          30.000  
G06  21004863.411   110381299.089        -658.439          46.000    21004878.217    86011461.043        -513.191          45.000  
G22  20617012.099   108343068.496       -1091.202          45.000                                                                  
> 2025 04 19 06 01 08.0000000  0 13                     
G20  22271414.332   117037147.100        3154.513          41.000                                                                  
G30  25262870.601   132757281.597       -1993.092          27.000    25262893.341   103447303.788       -1552.628          29.000  
G04  25171675.733   132278062.419         760.420          29.000                                                                  
G11  21889588.049   115030552.239         980.853          44.000    21889602.023    89634278.337         764.010          44.000  
G17  21809381.679   114608911.642        -157.531          43.000    21809394.475    89305627.093        -122.707          41.000  
G14  21225682.842   111541589.596       -2648.512          43.000    21225693.745    86915511.554       -2063.868          44.000  
G24  25140107.113   132112123.002        -757.675          32.000                                                                  
G09  24001354.403   126127927.135        1600.541          31.000    24001379.874    98281660.356        1247.021          32.000  
G12  24813919.164   130398017.339        3641.312          33.000                                                                  
G19  20822622.338   109423545.007         874.280          45.000                                                                  
G03  25066738.882   131726573.260       -3394.785          28.000    25066756.527   102644176.8921      -2644.814          29.000  
G06  21004988.704   110381957.417        -658.541          46.000    21005003.541    86011974.026        -513.204          45.000  
G22  20617219.710   108344159.712       -1091.561          45.000                                                                  
> 2025 04 19 06 01 09.0000000  0 13                     
G20  22270814.099   117033992.656        3154.373          41.000                                                                  
G30  25263249.765   132759273.869       -1992.285          27.000    25263272.663   103448856.265       -1552.652          29.000  
G04  25171530.937   132277302.064         760.505          29.000                                                                  
G11  21889401.450   115029571.561         980.808          44.000    21889415.234    89633514.163         764.145          44.000  
G17  21809411.697   114609069.394        -157.672          43.000    21809424.635    89305750.015        -122.944          41.000  
G14  21226186.777   111544238.110       -2648.526          43.000    21226197.681    86917575.311       -2063.719          44.000  
G24  25140251.309   132112880.798        -757.206          32.000                                                                  
G09  24001049.899   126126326.246        1600.739          31.000    24001075.186    98280412.882        1247.793          32.000  
G12  24813226.013   130394375.911        3641.411          33.000                                                                  
G19  20822456.006   109422670.777         874.286          45.000                                                                  
G03  25067384.778   131729967.813       -3394.414          28.000    25067402.552   102646822.030       -2644.023          30.000  
G06  21005113.996   110382615.968        -658.453          47.000    21005128.778    86012487.176        -513.049          46.000  
G22  20617427.468   108345251.469       -1091.869          45.000                                                                  
> 2025 04 19 06 01 10.0000000  0 13                     
G20  22270213.880   117030838.515        3154.259          41.000                                                                  
G30  25263628.988   132761265.821       -1991.980          28.000    25263651.581   103450408.389       -1552.081          29.000  
G04  25171386.479   132276542.031         760.043          30.000                                                                  
G11  21889214.836   115028591.180         980.279          44.000    21889228.653    89632750.228         763.854          44.000  
G17  21809441.743   114609227.243        -158.015          44.000    21809454.812    89305873.003        -122.802          41.000  
G14  21226690.891   111546887.025       -2649.106          43.000    21226701.708    86919639.403       -2064.249          44.000  
G24  25140395.527   132113638.926        -758.243          32.000                                                                  
G09  24000745.363   126124725.503        1600.835          32.000    24000770.666    98279165.572        1247.133          32.000  
G12  24812532.911   130390734.610        3640.985          33.000                                                                  
G19  20822289.581   109421796.661         873.999          45.000                                                                  
G03  25068030.834   131733362.618       -3394.754          28.000    25068048.797   102649467.346       -2645.493          29.000  
G06  21005239.217   110383274.734        -658.926          46.000    21005254.146    86013000.499        -513.490          46.000  
G22  20617635.409   108346343.752       -1092.690          45.000                                                                  
> 2025 04 19 06 01 11.0000000  0 13                     
G20  22269613.809   117027684.791        3153.630          41.000                                                                  
G30  25264008.080   132763257.556       -1992.293          28.000    25264030.492   103451960.390       -1552.327          28.000  
G04  25171241.916   132275782.397         759.667          30.000                                                                  
G11  21889028.391   115027611.213         979.537          44.000    21889042.296    89631986.602         763.380          44.000  
G17  21809471.786   114609385.333        -158.311          43.000    21809484.833    89305996.190        -123.243          41.000  
G14  21227195.103   111549536.444       -2649.626          43.000    21227205.900    86921703.882       -2064.613          44.000  
G24  25140539.897   132114397.404        -758.702          32.000                                                                  
G09  24000440.786   126123125.047        1600.990          31.000    24000466.015    98277918.453        1247.121          32.000  
G12  24811840.155   130387093.497        3640.905          32.000                                                                  
G19  20822123.364   109420922.763         873.877          45.000                                                                  
G03  25068676.859   131736757.602       -3394.764          28.000    25068694.714   102652112.822       -2645.654          29.000  
G06  21005364.607   110383933.811        -659.185          46.000    21005379.494    86013514.066        -513.684          46.000  
G22  20617843.422   108347436.657       -1093.258          46.000                                                                  
> 2025 04 19 06 01 12.0000000  0 13                     
G20  22269013.771   117024531.279        3153.560          40.000                                                                  
G30  25264387.013   132765248.827       -1990.892          27.000    25264409.359   103453512.054       -1551.783          28.000  
G04  25171097.481   132275023.008         759.222          30.000                                                                  
G11  21888841.940   115026631.438         979.704          44.000    21888855.855    89631223.148         763.399          44.000  
G17  21809501.808   114609543.474        -158.184          44.000    21809514.957    89306119.426        -123.584          41.000  
G14  21227699.392   111552186.211       -2649.879          43.000    21227710.091    86923768.628       -2064.828          44.000  
G24  25140684.266   132115156.160        -759.360          32.000                                                                  
G09  24000136.204   126121524.638        1600.633          31.000    24000161.285    98276671.359        1247.139          32.000  
G12  24811147.103   130383452.425        3641.360          32.000                                                                  
G19  20821957.048   109420048.916         874.017          45.000                                                                  
G03  25069322.851   131740152.751       -3395.369          27.000    25069340.948   102654758.410       -2645.986          29.000  
G06  21005490.037   110384593.043        -659.421          46.000    21005505.076    86014027.753        -513.781          46.000  
G22  20618051.461   108348530.043       -1093.628          46.000                                                                  
> 2025 04 19 06 01 13.0000000  0 13                     
G20  22268413.661   117021378.145        3152.869          40.000                                                                  
G30  25264765.851   132767239.881       -1990.797          27.000    25264788.173   103455063.479       -1551.224          28.000  
G04  25170953.112   132274263.998         757.967          30.000                                                                  
G11  21888655.574   115025652.017         979.039          44.000    21888669.410    89630459.975         762.658          44.000  
G17  21809532.016   114609701.803        -158.644          44.000    21809545.152    89306242.772        -123.418          41.000  
G14  21228203.688   111554836.421       -2650.564          43.000    21228214.513    86925833.725       -2065.390          44.000  
G24  25140828.844   132115915.176        -758.768          32.000                                                                  
G09  23999831.838   126119924.464        1599.939          31.000    23999856.685    98275424.485        1246.062          32.000  
G12  24810454.290   130379811.568        3640.492          32.000                                                                  
G19  20821790.865   109419175.261         873.389          45.000                                                                  
G03  25069968.929   131743548.049       -3395.362          27.000    25069987.023   102657404.060       -2645.756          29.000  
G06  21005615.608   110385252.541        -659.791          46.000    21005630.546    86014541.647        -514.122          46.000  
G22  20618259.662   108349623.996       -1094.480          46.000                                                                  
> 2025 04 19 06 01 14.0000000  0 13                     
G20  22267813.705   117018225.427        3152.447          40.000                                                                  
G30  25265144.644   132769230.740       -1991.164          26.000    25265167.039   103456614.780       -1551.573          28.000  
G04  25170808.798   132273505.341         758.330          30.000                                                                  
G11  21888469.240   115024673.008         978.961          44.000    21888483.044    89629697.115         762.591          44.000  
G17  21809562.181   114609860.373        -158.680          43.000    21809575.360    89306366.343        -123.644          41.000  
G14  21228708.075   111557487.172       -2651.074          43.000    21228718.924    86927899.232       -2065.577          44.000  
G24  25140973.225   132116674.667        -759.304          31.000                                                                  
G09  23999527.288   126118324.535        1600.008          31.000    23999552.039    98274177.802        1246.320          32.000  
G12  24809761.645   130376170.964        3640.237          32.000                                                                  
G19  20821624.663   109418301.841         873.224          45.000                                                                  
G03  25070615.079   131746943.634       -3395.571          27.000    25070633.176   102660049.986       -2645.886          29.000  
G06  21005741.196   110385912.372        -659.896          46.000    21005756.062    86015055.794        -514.305          45.000  
G22  20618467.924   108350718.617       -1094.970          46.000                                                                  
> 2025 04 19 06 01 15.0000000  0 13                     
G20  22267213.777   117015072.926        3152.621          40.000                                                                  
G30  25265523.380   132771221.181       -1990.464          26.000    25265545.639   103458165.772       -1551.265          28.000  
G04  25170664.647   132272746.982         757.727          30.000                                                                  
G11  21888282.963   115023694.236         978.831          44.000    21888296.780    89628934.427         762.643          44.000  
G17  21809592.354   114610019.011        -158.690          44.000    21809605.528    89306489.937        -123.451          41.000  
G14  21229212.554   111560138.256       -2651.537          43.000    21229223.393    86929965.002       -2065.713          44.000  
G24  25141117.561   132117434.394        -759.899          31.000                                                                  
G09  23999222.736   126116724.701        1600.128          30.000    23999247.580    98272931.156        1246.591          32.000  
G12  24809068.952   130372530.388        3640.740          33.000                                                                  
G19  20821458.469   109417428.470         873.474          45.000                                                                  
G03  25071261.199   131750339.322       -3395.600          27.000    25071279.250   102662696.9781      -2645.872          29.000  
G06  21005866.766   110386572.350        -659.956          46.000    21005881.742    86015570.067        -514.257          45.000  
G22  20618676.267   108351813.684       -1095.246          46.000                                                                  
> 2025 04 19 06 01 16.0000000  0 13                     
G20  22266613.906   117011920.595        3151.961          40.000                                                                  
G30  25265902.183   132773211.073       -1989.554          26.000    25265924.449   103459716.320       -1550.427          28.000  
G04  25170520.437   132271988.715         757.758          30.000                                                                  
G11  21888096.752   115022715.600         978.250          44.000    21888110.582    89628171.838         762.363          44.000  
G17  21809622.515   114610177.590        -158.652          44.000    21809635.664    89306613.513        -123.854          41.000  
G14  21229717.189   111562789.555       -2651.534          43.000    21229728.001    86932030.964       -2066.316          44.000  
G24  25141262.140   132118194.206        -760.231          32.000                                                                  
G09  23998918.096   126115124.903        1599.340          30.000    23998943.374    98271684.534        1246.180          32.000  
G12  24808376.363   130368889.769        3640.331          33.000                                                                  
G19  20821292.348   109416555.059         873.132          45.000                                                                  
G03  25071907.346   131753735.004       -3395.842          27.000    25071925.422   102665342.913       -2645.341          30.000  
G06  21005992.320   110387232.378        -660.319          46.000    21006007.336    86016084.370        -514.614          45.000  
G22  20618884.727   108352909.124       -1095.919          46.000                                                                  
> 2025 04 19 06 01 17.0000000  0 13                     
G20  22266014.038   117008768.706        3151.344          41.000                                                                  
G30  25266280.897   132775200.784       -1989.435          26.000    25266303.274   103461266.764       -1550.493          28.000  
G04  25170376.315   132271230.934         757.259          30.000                                                                  
G11  21887910.563   115021737.386         978.003          44.000    21887924.410    89627409.600         762.097          44.000  
G17  21809652.831   114610336.457        -158.980          44.000    21809665.853    89306737.282        -123.631          41.000  
G14  21230221.818   111565441.437       -2652.287          43.000    21230232.616    86934097.351       -2066.590          44.000  
G24  25141406.880   132118954.519        -761.029          32.000                                                                  
G09  23998613.432   126113525.319        1600.087          30.000    23998638.963    98270438.151        1246.196          32.000  
G12  24807683.775   130365249.449        3639.623          33.000                                                                  
G19  20821126.129   109415681.916         872.992          45.000                                                                  
G03  25072553.610   131757130.923       -3395.594          27.000    25072571.680   102667989.151       -2646.349          30.000  
G06  21006117.982   110387892.768        -660.551          46.000    21006132.960    86016598.960        -514.760          46.000  
G22  20619093.315   108354005.230       -1096.406          46.000                                                                  
> 2025 04 19 06 01 18.0000000  0 13                     
G20  22265414.219   117005617.129        3151.472          41.000                                                                  
G30  25266659.524   132777190.225       -1989.077          26.000    25266681.949   103462816.980       -1550.668          28.000  
G04  25170232.294   132270473.440         757.196          30.000                                                                  
G11  21887724.426   115020759.504         977.704          44.000    21887738.376    89626647.621         761.694          44.000  
G17  21809683.091   114610495.469        -158.956          44.000    21809696.073    89306861.194        -123.873          41.000  
G14  21230726.594   111568093.738       -2652.653          43.000    21230737.284    86936164.069       -2066.789          44.000  
G24  25141551.624   132119715.124        -760.875          32.000                                                                  
G09  23998308.973   126111926.002        1599.468          31.000    23998334.658    98269191.904        1245.827          32.000  
G12  24806991.061   130361609.240        3640.270          33.000                                                                  
G19  20820959.949   109414808.930         872.766          45.000                                                                  
G03  25073199.833   131760527.125       -3396.713          28.000    25073217.875   102670635.509       -2646.324          30.000  
G06  21006243.745   110388553.414        -660.968          46.000    21006258.632    86017113.749        -515.033          46.000  
G22  20619301.995   108355101.909       -1097.054          46.000                                                                  
> 2025 04 19 06 01 19.0000000  0 13                     
G20  22264814.503   117002465.642        3151.590          40.000                                                                  
G30  25267038.032   132779179.179       -1988.832          26.000    25267060.386   103464366.780       -1550.063          28.000  
G04  25170088.122   132269716.031         757.708          30.000                                                                  
G11  21887538.269   115019781.709         977.683          44.000    21887552.325    89625885.694         761.873          44.000  
G17  21809713.393   114610654.399        -158.923          44.000    21809726.298    89306985.034        -123.788          41.000  
G14  21231231.312   111570746.237       -2652.718          43.000    21231242.034    86938230.957       -2066.863          44.000  
G24  25141696.387   132120475.799        -760.054          32.000                                                                  
G09  23998004.429   126110326.608        1599.539          31.000    23998030.052    98267945.567        1246.669          32.000  
G12  24806298.233   130357968.952        3640.709          33.000                                                                  
G19  20820793.735   109413935.846         873.169          45.000                                                                  
G03  25073845.947   131763923.173       -3395.990          28.000    25073864.247   102673281.818       -2645.985          31.000  
G06  21006369.447   110389214.058        -660.873          46.000    21006384.402    86017628.519        -514.631          46.000  
G22  20619510.738   108356198.901       -1097.329          46.000                                                                  
> 2025 04 19 06 01 20.0000000  0 13                     
G20  22264214.795   116999314.417        3151.486          40.000                                                                  
G30  25267416.341   132781167.716       -1988.874          26.000    25267438.833   103465916.212       -1549.641          28.000  
G04  25169943.921   132268958.927         757.306          30.000                                                                  
G11  21887352.258   115018804.134         977.553          44.000    21887366.257    89625123.955         761.673          44.000  
G17  21809743.526   114610813.395        -158.829          44.000    21809756.562    89307108.917        -123.981          41.000  
G14  21231736.129   111573399.071       -2652.825          43.000    21231746.802    86940298.102       -2067.285          44.000  
G24  25141841.189   132121236.764        -761.479          32.000                                                                  
G09  23997700.031   126108727.294        1599.420          31.000    23997725.585    98266699.341        1246.766          32.000  
G12  24805605.667   130354328.742        3640.240          33.000                                                                  
G19  20820627.690   109413062.835         873.047          45.000                                                                  
G03  25074492.057   131767319.365       -3396.122          28.000    25074510.549   102675928.200       -2645.840          31.000  
G06  21006495.289   110389874.846        -660.790          46.000    21006510.101    86018143.432        -514.939          46.000  
G22  20619719.469   108357296.357       -1097.590          46.000                                                                  
> 2025 04 19 06 01 21.0000000  0 13                     
G20  22263615.238   116996163.463        3150.647          40.000                                                                  
G30  25267794.644   132783155.786       -1988.969          25.000    25267817.268   103467465.400       -1549.402          28.000  
G04  25169799.850   132268202.113         754.971          30.000                                                                  
G11  21887166.360   115017826.827         976.833          44.000    21887180.328    89624362.409         761.241          44.000  
G17  21809773.832   114610972.472        -159.396          44.000    21809786.836    89307232.858        -124.076          41.000  
G14  21232241.159   111576052.273       -2653.723          43.000    21232251.812    86942365.532       -2067.893          44.000  
G24  25141986.170   132121997.948        -762.043          32.000                                                                  
G09  23997395.700   126107128.085        1598.904          31.000    23997421.182    98265453.207        1246.075          32.000  
G12  24804912.931   130350688.641        3639.291          33.000                                                                  
G19  20820461.502   109412189.911         872.424          45.000                                                                  
G03  25075138.101   131770715.632       -3396.353          28.000    25075156.891   102678574.679       -2647.160          31.000  
G06  21006621.075   110390535.830        -661.673          46.000    21006636.019    86018658.476        -515.528          46.000  
G22  20619928.373   108358394.314       -1098.606          46.000                                                                  
> 2025 04 19 06 01 22.0000000  0 13                     
G20  22263015.704   116993013.035        3150.271          40.000                                                                  
G04  25169655.748   132267445.747         755.651          29.000                                                                  
G11  21886980.494   115016850.037         976.796          44.000    21886994.509    89623601.268         761.183          44.000  
G17  21809804.170   114611131.921        -159.396          44.000    21809817.233    89307357.104        -124.290          41.000  
G14  21232746.212   111578706.117       -2654.018          43.000    21232756.821    86944433.463       -2068.066          44.000  
G24  25142131.076   132122759.623        -761.396          32.000                                                                  
G09  23997091.434   126105529.269        1598.867          31.000    23997116.792    98264207.379        1246.159          32.000  
G12  24804220.373   130347048.839        3639.969          33.000                                                                  
G19  20820295.469   109411317.323         872.638          45.000                                                                  
G03  25075784.455   131774112.323       -3396.644          28.000    25075803.207   102681221.505       -2648.110          31.000  
G06  21006746.969   110391197.237        -661.419          46.000    21006761.873    86019173.861        -515.357          46.000  
G22  20620137.457   108359493.024       -1098.920          46.000                                                                  
G30                                                                  25268195.481   103469014.441       -1548.823          28.000  
> 2025 04 19 06 01 23.0000000  0 13                     
G20  22262416.291   116989862.933        3149.888          41.000                                                                  
G04  25169511.808   132266689.695         755.868          30.000                                                                  
G11  21886794.695   115015873.552         976.466          44.000    21886808.679    89622840.373         760.883          44.000  
G17  21809834.547   114611291.492        -159.476          44.000    21809847.677    89307481.441        -124.445          41.000  
G14  21233251.373   111581360.379       -2654.488          43.000    21233261.881    86946501.701       -2068.323          44.000  
G24  25142276.193   132123521.673        -762.443          32.000                                                                  
G09  23996787.272   126103930.590        1598.651          30.000    23996812.588    98262961.682        1245.507          32.000  
G12  24803527.833   130343409.188        3639.940          33.000                                                                  
G19  20820129.474   109410444.889         872.351          45.000                                                                  
G03  25076430.833   131777509.167       -3396.774          28.000    25076449.744   102683868.337       -2646.851          30.000  
G06  21006872.784   110391858.890        -661.864          46.000    21006887.729    86019689.423        -515.496          46.000  
G22  20620346.715   108360592.272       -1099.284          46.000                                                                  
G30                                                                  25268573.644   103470563.293       -1548.477          28.000  
> 2025 04 19 06 01 24.0000000  0 13                     
G20  22261816.886   116986713.084        3149.124          40.000                                                                  
G04  25169367.932   132265933.936         755.285          30.000                                                                  
G11  21886608.900   115014897.295         976.133          44.000    21886622.968    89622079.660         760.613          44.000  
G17  21809865.002   114611451.135        -159.605          44.000    21809878.100    89307605.833        -124.424          41.000  
G14  21233756.561   111584014.970       -2654.901          43.000    21233767.049    86948570.202       -2068.460          44.000  
G24  25142421.132   132124283.922        -762.593          32.000                                                                  
G09  23996482.926   126102331.996        1598.823          30.000    23996508.219    98261715.986        1246.311          32.000  
G12  24802835.411   130339769.573        3640.064          33.000                                                                  
G19  20819963.460   109409572.498         872.382          45.000                                                                  
G03  25077077.279   131780906.103       -3396.961          28.000    25077096.240   102686515.364       -2647.662          30.000  
G06  21006998.686   110392520.681        -661.828          46.000    21007013.642    86020205.111        -515.815          46.000  
G22  20620556.039   108361691.990       -1099.965          46.000                                                                  
G30                                                                  25268951.858   103472111.760       -1547.888          28.000  
> 2025 04 19 06 01 25.0000000  0 13                     
G20  22261217.630   116983563.483        3149.428          40.000                                                                  
G04  25169224.149   132265178.423         755.362          30.000                                                                  
G11  21886423.152   115013921.348         975.719          44.000    21886437.190    89621319.170         760.230          44.000  
G17  21809895.317   114611610.916        -159.883          44.000    21809908.460    89307730.336        -124.854          41.000  
G14  21234261.706   111586669.977       -2655.364          43.000    21234272.337    86950639.046       -2069.229          44.000  
G24  25142566.244   132125046.482        -763.573          33.000                                                                  
G09  23996178.741   126100733.600        1598.769          30.000    23996204.014    98260470.518        1244.868          32.000  
G12  24802142.813   130336130.163        3639.052          33.000                                                                  
G19  20819797.567   109408700.247         871.875          45.000                                                                  
G03  25077723.650   131784303.235       -3397.667          28.000    25077742.731   102689162.436       -2647.295          31.000  
G06  21007124.625   110393182.711        -662.383          46.000    21007139.564    86020720.976        -516.181          46.000  
G22  20620765.420   108362792.248       -1100.718          46.000                                                                  
G30                                                                  25269329.888   103473660.120       -1548.221          28.000  
> 2025 04 19 06 01 26.0000000  0 13                     
G20  22260618.339   116980414.187        3148.680          40.000                                                                  
G04  25169080.326   132264423.211         754.948          30.000                                                                  
G11  21886237.552   115012945.635         975.579          44.000    21886251.480    89620558.882         760.017          44.000  
G17  21809925.703   114611770.773        -160.141          44.000    21809938.814    89307854.885        -124.735          41.000  
G14  21234767.078   111589325.353       -2655.996          43.000    21234777.618    86952708.172       -2069.583          44.000  
G24  25142711.360   132125809.234        -762.915          32.000                                                                  
G09  23995874.420   126099135.302        1598.241          30.000    23995899.526    98259225.104        1244.591          32.000  
G12  24801450.369   130332490.773        3639.201          33.000                                                                  
G19  20819631.593   109407828.067         871.771          45.000                                                                  
G03  25078369.990   131787700.383       -3397.301          28.000    25078389.210   102691809.597       -2646.823          31.000  
G06  21007250.650   110393844.894        -662.523          46.000    21007265.550    86021236.965        -516.293          46.000  
G22  20620974.868   108363892.984       -1101.262          46.000                                                                  
G30                                                                  25269707.728   103475208.114       -1548.111          28.000  
> 2025 04 19 06 01 27.0000000  0 13                     
G20  22260019.089   116977265.105        3149.007          40.000                                                                  
G04  25168936.701   132263668.248         755.061          30.000                                                                  
G11  21886051.944   115011970.180         975.247          44.000    21886065.804    89619798.782         759.971          44.000  
G17  21809956.117   114611930.701        -159.842          44.000    21809969.239    89307979.508        -124.705          41.000  
G14  21235272.434   111591981.046       -2655.815          43.000    21235282.972    86954777.543       -2069.474          44.000  
G24  25142856.645   132126572.248        -762.534          32.000                                                                  
G09  23995570.223   126097537.115        1598.132          30.000    23995595.175    98257979.710        1245.648          32.000  
G12  24800757.900   130328851.479        3639.182          33.000                                                                  
G19  20819465.552   109406955.945         872.143          45.000                                                                  
G03  25079016.379   131791097.711       -3397.164          28.000    25079035.822   102694456.857       -2646.972          31.000  
G06  21007376.659   110394507.235        -662.500          46.000    21007391.453    86021753.065        -516.100          46.000  
G22  20621184.422   108364994.192       -1101.398          46.000                                                                  
G30                                                                  25270085.782   103476755.740       -1547.489          28.000  
> 2025 04 19 06 01 28.0000000  0 13                     
G20  22259419.886   116974116.249        3148.648          40.000                                                                  
G04  25168792.949   132262913.447         754.459          30.000                                                                  
G11  21885866.287   115010994.896         974.867          44.000    21885880.188    89619038.820         759.651          44.000  
G17  21809986.574   114612090.653        -160.200          43.000    21809999.676    89308104.135        -124.807          41.000  
G14  21235777.994   111594637.065       -2656.482          43.000    21235788.374    86956847.158       -2069.978          44.000  
G24  25143001.951   132127335.541        -764.030          32.000                                                                  
G09  23995266.156   126095939.000        1597.957          30.000    23995291.220    98256734.410        1245.504          32.000  
G12  24800065.287   130325212.169        3638.990          33.000                                                                  
G19  20819299.578   109406083.846         871.875          45.000                                                                  
G03  25079662.894   131794495.055       -3397.244          28.000    25079682.346   102697104.171       -2647.780          31.000  
G06  21007502.724   110395169.681        -662.657          46.000    21007517.530    86022269.267        -516.453          46.000  
G22  20621393.989   108366095.838       -1102.083          46.000                                                                  
G30                                                                  25270463.577   103478303.089       -1547.581          29.000  
> 2025 04 19 06 01 29.0000000  0 13                     
G20  22258820.606   116970967.645        3148.650          40.000                                                                  
G04  25168649.453   132262158.918         754.872          30.000                                                                  
G11  21885680.803   115010019.860         974.874          44.000    21885694.592    89618279.048         759.599          44.000  
G17  21810017.117   114612250.687        -160.061          43.000    21810030.251    89308228.842        -124.873          41.000  
G14  21236283.468   111597293.424       -2656.465          43.000    21236293.905    86958917.059       -2070.171          44.000  
G24  25143147.146   132128098.984        -763.842          32.000                                                                  
G09  23994962.187   126094340.942        1598.098          31.000    23994987.042    98255489.111        1246.650          32.000  
G12  24799372.850   130321572.967        3639.144          32.000                                                                  
G19  20819133.697   109405211.827         871.967          45.000                                                                  
G03  25080309.597   131797892.507       -3397.333          28.000    25080328.843   102699751.510       -2646.937          32.000  
G06  21007628.853   110395832.301        -662.724          46.000    21007643.728    86022785.587        -516.446          46.000  
G22  20621603.695   108367197.959       -1102.278          46.000                                                                  
G30                                                                  25270841.283   103479850.081       -1546.648          29.000  
> 2025 04 19 06 01 30.0000000  0 13                     
G20  22258221.480   116967819.381        3147.736          40.000                                                                  
G04  25168505.812   132261404.711         753.861          30.000                                                                  
G11  21885495.387   115009045.107         974.879          44.000    21885509.250    89617519.510         759.318          44.000  
G17  21810047.589   114612410.858        -160.580          43.000    21810060.726    89308353.628        -125.076          41.000  
G14  21236789.102   111599950.193       -2656.949          43.000    21236799.473    86960987.266       -2070.649          44.000  
G24  25143292.547   132128862.755        -763.923          32.000                                                                  
G09  23994658.050   126092743.123        1596.557          31.000    23994683.045    98254244.051        1245.347          32.000  
G12  24798680.338   130317933.867        3638.447          32.000                                                                  
G19  20818967.814   109404339.929         871.893          45.000                                                                  
G03  25080956.081   131801290.134       -3397.547          28.000    25080975.453   102702399.057       -2648.390          31.000  
G06  21007754.878   110396495.139        -663.025          46.000    21007769.889    86023302.082        -516.624          46.000  
G22  20621813.425   108368300.616       -1102.930          46.000                                                                  
G30                                                                  25271219.199   103481396.861       -1546.483          29.000  
> 2025 04 19 06 01 31.0000000  0 13                     
G20  22257622.403   116964671.503        3147.325          40.000                                                                  
G04  25168362.361   132260650.965         752.593          29.000                                                                  
G11  21885309.962   115008070.797         973.988          44.000    21885323.894    89616760.293         759.025          44.000  
G17  21810078.057   114612571.268        -160.786          43.000    21810091.206    89308478.623        -125.470          41.000  
G14  21237294.665   111602607.497       -2657.738          43.000    21237305.179    86963057.885       -2071.100          44.000  
G24  25143437.945   132129626.936        -764.039          32.000                                                                  
G09  23994353.873   126091145.496        1596.795          31.000    23994378.860    98252999.187        1244.353          32.000  
G12  24797987.684   130314294.994        3638.867          31.000                                                                  
G19  20818801.909   109403468.292         871.307          45.000                                                                  
G03  25081602.604   131804688.005       -3398.183          28.000    25081621.984   102705046.688       -2647.642          31.000  
G06  21007881.070   110397158.320        -663.620          46.000    21007896.075    86023818.844        -517.036          46.000  
G22  20622023.406   108369403.925       -1103.631          46.000                                                                  
G30                                                                  25271596.847   103482943.466       -1546.630          29.000  
> 2025 04 19 06 01 32.0000000  0 13                     
G20  22257023.392   116961524.058        3146.771          40.000                                                                  
G04  25168218.865   132259897.560         753.099          29.000                                                                  
G11  21885124.638   115007096.871         973.982          44.000    21885138.536    89616001.395         758.671          44.000  
G17  21810108.549   114612731.909        -160.724          43.000    21810121.811    89308603.783        -125.026          41.000  
G14  21237800.424   111605265.310       -2657.969          43.000    21237810.869    86965128.896       -2071.080          44.000  
G24  25143583.604   132130391.545        -764.624          33.000                                                                  
G09  23994050.138   126089548.130        1597.083          30.000    23994074.906    98251754.477        1244.621          32.000  
G12  24797295.162   130310656.377        3638.409          32.000                                                                  
G19  20818636.126   109402596.889         871.362          45.000                                                                  
G03  25082249.130   131808086.150       -3398.143          28.000    25082268.696   102707694.614       -2647.538          31.000  
G06  21008007.440   110397821.810        -663.582          46.000    21008022.467    86024335.848        -516.995          46.000  
G22  20622233.550   108370507.862       -1104.022          46.000                                                                  
G30                                                                  25271974.694   103484489.891       -1546.360          29.000  
> 2025 04 19 06 01 33.0000000  0 13                     
G20  22256424.415   116958376.794        3146.876          40.000                                                                  
G04  25168075.571   132259144.369         753.322          30.000                                                                  
G11  21884939.368   115006123.159         973.518          44.000    21884953.307    89615242.648         758.651          44.000  
G17  21810139.114   114612892.593        -160.791          43.000    21810152.431    89308728.989        -125.149          41.000  
G14  21238306.274   111607923.438       -2658.467          43.000    21238316.628    86967200.152       -2071.388          44.000  
G24  25143729.009   132131156.318        -764.729          33.000                                                                  
G09  23993746.319   126087950.843        1597.058          31.000    23993770.932    98250509.813        1244.840          32.000  
G12  24796602.854   130307017.800        3638.906          33.000                                                                  
G19  20818470.374   109401725.523         871.124          45.000                                                                  
G03  25082895.794   131811484.381       -3398.396          28.000    25082915.303   102710342.561       -2647.100          31.000  
G06  21008133.707   110398485.432        -663.741          46.000    21008148.766    86024852.948        -517.016          46.000  
G22  20622443.749   108371612.253       -1104.572          46.000                                                                  
G30                                                                  25272352.359   103486035.990       -1545.059          29.000  
> 2025 04 19 06 01 34.0000000  0 13                     
G20  22255825.647   116955229.842        3146.792          40.000                                                                  
G30  25272708.004                       -1983.115          25.000    25272730.056   103487581.844       -1546.042          30.000  
G04  25167932.392   132258391.515         752.288          29.000                                                                  
G11  21884754.104   115005149.727         973.001          44.000    21884768.066    89614484.139         758.278          44.000  
G17  21810169.755   114613053.408        -160.888          44.000    21810182.965    89308854.299        -125.457          41.000  
G14  21238812.142   111610581.961       -2658.699          43.000    21238822.590    86969271.734       -2071.731          44.000  
G24  25143874.539   132131921.404        -764.725          32.000                                                                  
G09  23993442.301   126086353.712        1597.027          30.000    23993467.228    98249265.310        1244.901          32.000  
G12  24795910.551   130303379.355        3638.460          33.000                                                                  
G19  20818304.475   109400854.264         871.228          45.000                                                                  
G03  25083542.516   131814882.720       -3398.712          28.000    25083562.092   102712990.666       -2648.196          31.000  
G06  21008260.064   110399149.276        -663.974          46.000    21008275.021    86025370.231        -517.331          46.000  
G22  20622654.013   108372717.169       -1105.226          46.000                                                                  
> 2025 04 19 06 01 35.0000000  0 13                     
G20  22255226.892   116952083.254        3146.554          40.000                                                                  
G30  25273085.741                       -1982.170          25.000    25273107.665   103489127.400       -1545.342          30.000  
G04  25167789.320   132257639.000         752.403          30.000                                                                  
G11  21884568.928   115004176.634         972.809          44.000    21884582.831    89613725.875         758.032          44.000  
G17  21810200.362   114613214.383        -161.294          44.000    21810213.623    89308979.724        -125.463          41.000  
G14  21239318.114   111613240.928       -2659.189          43.000    21239328.625    86971343.644       -2072.131          44.000  
G24  25144020.233   132132686.834        -765.883          32.000                                                                  
G09  23993138.330   126084756.798        1596.592          30.000    23993163.540    98248020.921        1245.123          32.000  
G12  24795218.255   130299741.080        3637.925          33.000                                                                  
G19  20818138.692   109399983.180         870.862          45.000                                                                  
G03  25084189.150   131818281.229       -3398.293          28.000    25084208.781   102715638.909       -2649.281          32.000  
G06  21008386.394   110399813.357        -664.061          46.000    21008401.362    86025887.703        -517.579          46.000  
G22  20622864.343   108373822.643       -1105.806          46.000                                                                  
> 2025 04 19 06 01 36.0000000  0 13                     
G20  22254628.115   116948937.105        3145.858          40.000                                                                  
G30  25273461.049                       -1983.133          26.000    25273484.992   103490672.826       -1545.021          30.000  
G04  25167646.182   132256886.910         752.229          29.000                                                                  
G11  21884383.706   115003203.947         972.548          44.000    21884397.653    89612967.948         757.744          44.000  
G17  21810231.038   114613375.586        -161.039          43.000    21810244.368    89309105.347        -125.712          41.000  
G14  21239824.148   111615900.414       -2659.517          43.000    21239834.773    86973415.982       -2072.635          44.000  
G24  25144165.700   132133452.664        -766.344          32.000                                                                  
G09  23992834.459   126083160.120        1597.050          31.000    23992859.925    98246776.833        1244.000          32.000  
G12  24794525.896   130296103.023        3637.735          33.000                                                                  
G19  20817973.069   109399112.324         870.996          45.000                                                                  
G03  25084835.932   131821680.033       -3398.620          28.000    25084855.554   102718287.312       -2648.576          32.000  
G06  21008512.838   110400477.787        -664.489          46.000    21008527.831    86026405.429        -517.764          46.000  
G22  20623074.865   108374928.784       -1106.626          46.000                                                                  
> 2025 04 19 06 01 37.0000000  0 13                     
G20  22254029.470   116945791.369        3145.393          40.000                                                                  
G30  25273839.588                       -1982.969          26.000    25273862.326   103492218.115       -1545.211          29.000  
G04  25167503.207   132256135.242         752.061          30.000                                                                  
G11  21884198.760   115002231.694         972.234          44.000    21884212.686    89612210.340         757.618          44.000  
G17  21810261.796   114613537.084        -161.510          44.000    21810275.042    89309231.172        -125.723          41.000  
G14  21240330.344   111618560.442       -2660.169          43.000    21240340.940    86975488.719       -2072.825          44.000  
G24  25144311.645   132134218.904        -766.302          32.000                                                                  
G09  23992530.763   126081563.732        1596.843          31.000    23992556.281    98245532.879        1243.986          32.000  
G12  24793833.778   130292465.226        3637.918          33.000                                                                  
G19  20817807.353   109398241.732         870.654          45.000                                                                  
G03  25085482.635   131825079.176       -3399.211          28.000    25085502.297   102720935.940       -2648.137          31.000  
G06  21008639.365   110401142.558        -664.735          46.000    21008654.361    86026923.438        -518.060          46.000  
G22  20623285.447   108376035.557       -1106.873          46.000                                                                  
> 2025 04 19 06 01 38.0000000  0 13                     
G20  22253430.971   116942645.920        3145.402          40.000                                                                  
G30  25274216.737                       -1982.486          26.000    25274239.684   103493763.133       -1544.868          29.000  
G04  25167360.162   132255383.847         751.935          30.000                                                                  
G11  21884013.873   115001259.734         971.919          44.000    21884027.781    89611452.961         757.250          44.000  
G17  21810292.627   114613698.689        -161.791          43.000    21810305.773    89309357.095        -126.037          41.000  
G14  21240836.535   111621220.869       -2660.633          43.000    21240847.216    86977561.768       -2073.016          44.000  
G24  25144457.543   132134985.465        -766.792          31.000                                                                  
G09  23992226.925   126079967.544        1596.403          31.000    23992252.328    98244289.087        1243.322          32.000  
G12  24793141.546   130288827.559        3637.357          32.000                                                                  
G19  20817641.780   109397371.268         870.447          45.000                                                                  
G03  25086129.565   131828478.396       -3398.982          27.000    25086149.135   102723584.743       -2649.005          31.000  
G06  21008765.892   110401807.545        -665.175          46.000    21008780.934    86027441.602        -518.193          46.000  
G22  20623496.118   108377142.886       -1107.520          46.000                                                                  
> 2025 04 19 06 01 39.0000000  0 13                     
G20  22252832.497   116939500.839        3144.913          40.000                                                                  
G30  25274591.822                       -1981.149          26.000    25274617.054   103495307.891       -1544.533          29.000  
G04  25167217.066   132254632.849         751.049          30.000                                                                  
G11  21883829.014   115000288.103         971.329          44.000    21883842.805    89610695.842         757.074          44.000  
G17  21810323.495   114613860.452        -161.960          43.000    21810336.500    89309483.140        -126.263          41.000  
G14  21241342.838   111623881.729       -2660.966          43.000    21241353.501    86979635.171       -2073.442          44.000  
G24  25144603.459   132135752.333        -766.799          31.000                                                                  
G09  23991923.259   126078371.523        1595.831          31.000    23991948.684    98243045.414        1243.814          32.000  
G12  24792449.363   130285190.032        3637.708          32.000                                                                  
G19  20817476.169   109396500.960         870.258          45.000                                                                  
G03  25086776.421   131831877.843       -3399.439          27.000    25086796.097   102726233.652       -2648.772          30.000  
G06  21008892.454   110402472.779        -665.404          46.000    21008907.473    86027959.976        -518.606          46.000  
G22  20623706.967   108378250.776       -1108.087          46.000                                                                  
> 2025 04 19 06 01 40.0000000  0 13                     
G20  22252233.924   116936355.902        3144.830          40.000                                                                  
G30  25274968.734                       -1981.811          25.000    25274994.202   103496852.261       -1543.888          29.000  
G04  25167074.210   132253882.022         750.444          30.000                                                                  
G11  21883644.156   114999316.613         971.325          44.000    21883657.891    89609938.843         756.892          44.000  
G17  21810354.201   114614022.195        -161.689          44.000    21810367.311    89309609.166        -125.755          41.000  
G14  21241849.152   111626542.848       -2660.981          43.000    21241859.818    86981708.763       -2073.580          44.000  
G24  25144749.426   132136519.321        -766.261          31.000                                                                  
G09  23991619.441   126076775.514        1596.374          31.000    23991644.796    98241801.774        1243.365          32.000  
G12  24791757.113   130281552.512        3637.552          32.000                                                                  
G19  20817310.496   109395630.622         870.416          45.000                                                                  
G03  25087423.383   131835277.312       -3399.694          27.000    25087443.010   102728882.552       -2648.522          30.000  
G06  21009019.048   110403138.072        -665.226          46.000    21009034.032    86028478.376        -518.426          46.000  
G22  20623917.910   108379359.041       -1108.405          46.000                                                                  
> 2025 04 19 06 01 41.0000000  0 13                     
G20  22251635.547   116933211.172        3144.376          40.000                                                                  
G04  25166931.078   132253131.360         749.318          29.000                                                                  
G11  21883459.279   114998345.295         970.973          44.000    21883473.110    89609181.979         756.577          44.000  
G17  21810385.055   114614183.946        -161.788          43.000    21810398.121    89309735.222        -126.247          41.000  
G14  21242355.543   111629204.261       -2661.812          43.000    21242366.296    86983782.606       -2074.311          44.000  
G24  25144895.273   132137286.578        -767.715          31.000                                                                  
G09  23991315.674   126075179.553        1596.121          31.000    23991341.054    98240558.127        1244.094          32.000  
G12  24791064.693   130277914.970        3637.985          32.000                                                                  
G19  20817144.819   109394760.304         870.135          45.000                                                                  
G03  25088070.382   131838676.745       -3399.667          26.000    25088089.991   102731531.542       -2648.867          30.000  
G06  21009145.749   110403803.466        -665.400          46.000    21009160.692    86028996.872        -518.717          46.000  
G22  20624128.807   108380467.737       -1109.145          46.000                                                                  
G30                                                                  25275371.065   103498396.350       -1544.157          29.000  
> 2025 04 19 06 01 42.0000000  0 13                     
G20  22251037.198   116930066.838        3144.414          40.000                                                                  
G04  25166788.242   132252381.064         749.975          29.000                                                                  
G11  21883274.491   114997374.373         970.822          44.000    21883288.296    89608425.407         756.638          44.000  
G17  21810415.868   114614345.965        -162.338          43.000    21810428.972    89309861.432        -126.263          41.000  
G14  21242862.107   111631866.175       -2662.047          43.000    21242872.794    86985856.793       -2074.296          44.000  
G24  25145041.156   132138054.205        -767.847          31.000                                                                  
G09  23991011.889   126073583.854        1595.513          31.000    23991037.362    98239314.714        1243.616          32.000  
G12  24790372.524   130274277.675        3637.335          32.000                                                                  
G19  20816979.246   109393890.204         870.074          45.000                                                                  
G03  25088717.660   131842076.533       -3399.823          26.000    25088736.979   102734180.711       -2649.411          30.000  
G06  21009272.454   110404469.181        -665.717          46.000    21009287.282    86029515.606        -518.788          46.000  
G22  20624339.851   108381577.042       -1109.541          46.000                                                                  
G30                                                                  25275748.101   103499940.219       -1544.395          30.000  
> 2025 04 19 06 01 43.0000000  0 13                     
G20  22250438.947   116926922.824        3143.652          40.000                                                                  
G04  25166645.402   132251631.146         749.419          29.000                                                                  
G11  21883089.868   114996403.782         970.069          44.000    21883103.617    89607669.093         756.236          44.000  
G17  21810446.784   114614508.078        -162.156          43.000    21810459.735    89309987.760        -126.364          41.000  
G14  21243368.609   111634528.499       -2662.299          43.000    21243379.373    86987931.344       -2074.661          44.000  
G24  25145187.063   132138822.054        -766.843          31.000                                                                  
G09  23990708.339   126071988.321        1595.328          30.000    23990733.442    98238071.458        1242.855          32.000  
G12  24789680.374   130270640.528        3637.112          32.000                                                                  
G19  20816813.790   109393020.242         869.727          45.000                                                                  
G03  25089364.795   131845476.406       -3399.810          26.000    25089383.958   102736829.957       -2648.939          30.000  
G06  21009399.201   110405135.125        -666.118          46.000    21009413.964    86030034.518        -519.022          46.000  
G22  20624550.986   108382686.896       -1110.042          46.000                                                                  
G30                                                                  25276125.150   103501483.840       -1543.772          30.000  
> 2025 04 19 06 01 44.0000000  0 13                     
G20  22249840.710   116923779.251        3143.366          40.000                                                                  
G04  25166502.732   132250881.650         748.534          29.000                                                                  
G11  21882905.189   114995433.578         969.966          44.000    21882918.993    89606913.089         756.018          44.000  
G17  21810477.679   114614670.457        -162.511          43.000    21810490.608    89310114.287        -126.572          41.000  
G14  21243875.279   111637191.358       -2663.060          43.000    21243886.072    86990006.287       -2075.075          44.000  
G24  25145333.247   132139590.409        -768.045          31.000                                                                  
G09  23990404.864   126070393.046        1595.058          31.000    23990429.723    98236828.353        1243.036          32.000  
G12  24788988.244   130267003.610        3636.940          33.000                                                                  
G19  20816648.329   109392150.504         869.757          45.000                                                                  
G03  25090011.747   131848876.636       -3400.737          26.000    25090030.885   102739479.488       -2649.685          30.000  
G06  21009525.947   110405801.394        -666.188          46.000    21009540.703    86030553.695        -519.369          46.000  
G22  20624762.276   108383797.403       -1110.841          46.000                                                                  
G30                                                                  25276502.090   103503027.290       -1543.719          30.000  
> 2025 04 19 06 01 45.0000000  0 13                     
G20  22249242.685   116920636.094        3142.594          40.000                                                                  
G04  25166360.159   132250132.479         749.465          29.000                                                                  
G11  21882720.722   114994463.787         969.477          44.000    21882734.454    89606157.410         755.562          44.000  
G17  21810508.640   114614833.088        -163.169          43.000    21810521.538    89310241.002        -126.854          41.000  
G14  21244382.199   111639854.737       -2663.843          43.000    21244392.893    86992081.636       -2075.548          44.000  
G24  25145479.441   132140359.190        -769.643          32.000                                                                  
G09  23990101.375   126068798.062        1594.544          31.000    23990126.107    98235585.523        1242.485          32.000  
G12  24788296.107   130263366.941        3636.856          33.000                                                                  
G19  20816482.877   109391281.035         869.232          45.000                                                                  
G03  25090659.036   131852277.092       -3400.878          26.000    25090677.986   102742129.171       -2649.538          31.000  
G06  21009652.763   110406468.014        -666.889          46.000    21009667.562    86031073.131        -519.728          46.000  
G22  20624973.793   108384908.567       -1111.653          46.000                                                                  
G30                                                                  25276878.939   103504570.520       -1542.885          30.000  
> 2025 04 19 06 01 46.0000000  0 13                     
G20  22248644.642   116917493.411        3142.757          40.000                                                                  
G30  25277235.114                       -1980.082          26.000    25277255.993   103506113.707       -1543.230          30.000  
G04  25166217.816   132249383.859         748.715          30.000                                                                  
G11  21882536.315   114993494.463         969.474          44.000    21882550.005    89605402.097         755.380          44.000  
G17  21810539.671   114614996.002        -162.646          44.000    21810552.512    89310367.945        -126.780          41.000  
G14  21244889.173   111642518.681       -2664.064          43.000    21244899.843    86994157.436       -2075.897          44.000  
G24  25145625.928   132141128.369        -769.166          32.000                                                                  
G09  23989797.939   126067203.393        1594.657          31.000    23989822.514    98234342.865        1243.573          32.000  
G12  24787603.979   130259730.560        3636.848          33.000                                                                  
G19  20816317.378   109390411.856         869.312          45.000                                                                  
G03  25091306.266   131855677.867       -3401.344          26.000    25091325.023   102744779.137       -2649.912          31.000  
G06  21009779.728   110407135.007        -666.892          46.000    21009794.485    86031592.854        -519.666          46.000  
G22  20625185.454   108386020.415       -1111.925          46.000                                                                  
> 2025 04 19 06 01 47.0000000  0 13                     
G20  22248046.637   116914350.957        3142.367          40.000                                                                  
G30  25277609.467                       -1979.818          26.000    25277632.880   103507656.492       -1542.476          29.000  
G04  25166075.372   132248635.459         748.505          30.000                                                                  
G11  21882351.889   114992525.368         968.959          44.000    21882365.564    89604646.953         754.916          44.000  
G17  21810570.621   114615158.979        -163.050          44.000    21810583.576    89310494.953        -127.218          41.000  
G14  21245396.125   111645182.960       -2664.558          43.000    21245406.871    86996233.493       -2076.357          44.000  
G24  25145772.349   132141897.812        -769.504          32.000                                                                  
G09  23989494.681   126065608.796        1594.578          31.000    23989518.982    98233100.363        1243.023          32.000  
G12  24786912.015   130256094.246        3636.247          33.000                                                                  
G19  20816151.961   109389542.722         869.000          45.000                                                                  
G03  25091953.381   131859078.669       -3400.901          27.000    25091972.104   102747429.148       -2650.191          31.000  
G06  21009906.668   110407802.155        -667.342          46.000    21009921.430    86032112.706        -519.976          46.000  
G22  20625397.154   108387132.721       -1112.531          46.000                                                                  
> 2025 04 19 06 01 48.0000000  0 13                     
G20  22247448.743   116911208.804        3141.815          40.000                                                                  
G30  25277986.256                       -1979.731          27.000    25278009.624   103509199.058       -1542.596          29.000  
G04  25165932.959   132247887.396         747.577          30.000                                                                  
G11  21882167.460   114991556.548         968.622          44.000    21882181.252    89603892.025         754.766          44.000  
G17  21810601.713   114615322.090        -163.444          43.000    21810614.586    89310622.022        -127.189          41.000  
G14  21245903.206   111647847.626       -2665.016          43.000    21245913.906    86998309.854       -2076.659          44.000  
G24  25145918.873   132142667.499        -769.605          31.000                                                                  
G09  23989191.328   126064014.414        1593.331          31.000    23989215.667    98231857.971        1241.694          32.000  
G12  24786220.228   130252458.051        3636.211          33.000                                                                  
G19  20815986.608   109388673.697         868.774          45.000                                                                  
G03  25092600.462   131862479.658       -3400.888          27.000    25092619.466   102750079.281       -2650.341          31.000  
G06  21010033.661   110408469.477        -667.587          46.000    21010048.444    86032632.706        -520.316          46.000  
G22  20625608.900   108388245.540       -1113.167          46.000                                                                  
> 2025 04 19 06 01 49.0000000  0 13                     
G20  22246850.909   116908067.127        3141.750          40.000                                                                  
G30  25278360.711   132838681.3393      -1979.198          27.000    25278386.475   103510741.454       -1541.833          29.000  
G04  25165790.675   132247139.757         747.396          29.000                                                                  
G11  21881983.161   114990588.183         968.365          44.000    21881997.045    89603137.463         754.546          44.000  
G17  21810632.785   114615485.467        -163.248          44.000    21810645.637    89310749.349        -127.594          41.000  
G14  21246410.501   111650512.876       -2665.438          44.000    21246421.016    87000386.654       -2076.950          44.000  
G24  25146065.380   132143437.670        -769.937          31.000                                                                  
G09  23988888.138   126062420.281        1593.559          31.000    23988912.350    98230615.756        1242.865          32.000  
G12  24785528.187   130248822.124        3635.965          33.000                                                                  
G19  20815821.298   109387804.965         868.549          45.000                                                                  
G03  25093247.759   131865880.967       -3401.171          28.000    25093266.792   102752729.685       -2650.836          32.000  
G06  21010160.741   110409137.189        -667.901          46.000    21010175.624    86033153.006        -520.401          46.000  
G22  20625820.708   108389359.060       -1113.857          46.000                                                                  
> 2025 04 19 06 01 50.0000000  0 13                     
G20  22246253.046   116904925.576        3141.107          40.000                                                                  
G30  25278738.056   132840660.2762      -1978.946          27.000    25278763.024   103512283.477       -1541.816          29.000  
G04  25165648.380   132246392.236         747.384          30.000                                                                  
G11  21881798.885   114989619.926         967.905          44.000    21881812.855    89602382.960         754.495          44.000  
G17  21810663.925   114615648.790        -163.427          43.000    21810676.701    89310876.581        -127.302          41.000  
G14  21246917.684   111653178.291       -2665.469          43.000    21246928.241    87002463.615       -2077.189          44.000  
G24  25146211.925   132144207.901        -770.061          31.000                                                                  
G09  23988584.771   126060826.114        1593.945          31.000    23988609.083    98229373.577        1241.927          32.000  
G12  24784836.229   130245186.127        3636.222          33.000                                                                  
G19  20815655.962   109386936.153         868.658          45.000                                                                  
G03  25093894.983   131869282.228       -3401.167          28.000    25093913.941   102755380.004       -2651.141          32.000  
G06  21010287.838   110409804.926        -667.947          46.000    21010302.677    86033673.303        -520.332          46.000  
G22  20626032.661   108390472.912       -1114.181          46.000                                                                  
> 2025 04 19 06 01 51.0000000  0 13                     
G20  22245655.220   116901784.219        3141.056          40.000                                                                  
G30  25279117.650   132842638.7892      -1978.396          27.000    25279139.459   103513825.162       -1541.214          29.000  
G04  25165506.081   132245644.947         747.156          29.000                                                                  
G11  21881614.610   114988651.855         968.318          44.000    21881628.690    89601628.636         754.298          44.000  
G17  21810694.987   114615812.165        -163.576          43.000    21810707.870    89311003.870        -126.896          41.000  
G14  21247424.973   111655844.064       -2665.926          43.000    21247435.556    87004540.835       -2077.451          43.000  
G24  25146358.402   132144978.395        -770.494          31.000                                                                  
G09  23988281.482   126059232.014        1594.772          31.000    23988305.541    98228131.409        1243.172          32.000  
G12  24784144.290   130241550.225        3635.002          32.000                                                                  
G19  20815490.634   109386067.384         868.848          45.000                                                                  
G03  25094542.478   131872683.587       -3401.288          28.000    25094561.131   102758030.367       -2649.823          32.000  
G06  21010414.840   110410472.785        -667.727          46.000    21010429.823    86034193.710        -520.172          45.000  
G22  20626244.725   108391587.214       -1114.578          46.000                                                                  
> 2025 04 19 06 01 52.0000000  0 13                     
G20  22245057.453   116898643.177        3140.723          40.000                                                                  
G30  25279493.614   132844616.9392      -1977.701          27.000    25279515.824   103515366.650       -1542.236          28.000  
G04  25165363.998   132244897.949         747.207          30.000                                                                  
G11  21881430.442   114987684.122         967.407          44.000    21881444.510    89600874.555         753.782          44.000  
G17  21810726.087   114615975.672        -163.869          43.000    21810738.989    89311131.296        -127.878          41.000  
G14  21247932.364   111658510.257       -2666.771          43.000    21247942.918    87006618.372       -2077.832          44.000  
G24  25146505.196   132145749.182        -771.012          31.000                                                                  
G09  23987978.128   126057638.153        1593.457          31.000    23988002.324    98226889.431        1241.549          32.000  
G12  24783452.427   130237914.417        3635.138          33.000                                                                  
G19  20815325.344   109385198.768         868.274          45.000                                                                  
G03  25095189.856   131876085.073       -3401.945          28.000    25095208.387   102760680.914       -2650.839          33.000  
G06  21010542.038   110411140.885        -668.628          46.000    21010556.947    86034714.308        -520.799          46.000  
G22  20626456.906   108392702.057       -1115.352          46.000                                                                  
> 2025 04 19 06 01 53.0000000  0 13                     
G20  22244459.843   116895502.718        3140.334          40.000                                                                  
G30  25279867.420   132846595.0212      -1977.626          27.000    25279892.185   103516908.017       -1541.651          28.000  
G04  25165221.890   132244151.551         746.048          30.000                                                                  
G11  21881246.463   114986716.911         967.124          44.000    21881260.440    89600120.886         753.420          44.000  
G17  21810757.239   114616139.561        -164.130          43.000    21810770.140    89311258.997        -127.860          41.000  
G14  21248439.852   111661177.076       -2667.341          43.000    21248450.517    87008696.415       -2078.342          43.000  
G24  25146652.042   132146520.500        -771.421          31.000                                                                  
G09  23987675.008   126056044.647        1592.764          31.000    23987699.079    98225647.743        1241.837          32.000  
G12  24782760.692   130234278.988        3635.194          33.000                                                                  
G19  20815160.103   109384330.514         868.097          45.000                                                                  
G03  25095837.287   131879486.978       -3402.221          29.000    25095855.846   102763331.740       -2651.012          32.000  
G06  21010669.220   110411809.434        -668.647          46.000    21010684.164    86035235.261        -520.973          46.000  
G22  20626669.201   108393817.676       -1116.017          46.000                                                                  
> 2025 04 19 06 01 54.0000000  0 13                     
G20  22243862.335   116892362.638        3139.908          40.000                                                                  
G30  25280240.424   132848572.9232      -1978.087          27.000    25280268.463   103518449.134       -1540.766          28.000  
G04  25165079.826   132243405.438         746.533          30.000                                                                  
G11  21881062.454   114985750.098         966.580          44.000    21881076.472    89599367.518         753.056          44.000  
G17  21810788.446   114616303.663        -164.236          43.000    21810801.338    89311386.865        -128.004          41.000  
G14  21248947.380   111663844.382       -2667.578          43.000    21248958.064    87010774.836       -2078.453          44.000  
G24  25146798.787   132147292.201        -771.561          31.000                                                                  
G09  23987371.807   126054451.394        1592.604          31.000    23987396.032    98224406.234        1241.519          32.000  
G12  24782069.054   130230643.785        3634.944          33.000                                                                  
G19  20814994.938   109383462.468         867.999          45.000                                                                  
G03  25096484.765   131882889.077       -3402.115          29.000    25096503.236   102765982.749       -2651.279          33.000  
G06  21010796.526   110412478.283        -669.047          46.000    21010811.442    86035756.440        -521.264          46.000  
G22  20626881.569   108394933.915       -1116.554          46.000                                                                  
> 2025 04 19 06 01 55.0000000  0 13                     
G20  22243264.845   116889222.867        3139.956          40.000                                                                  
G30  25280616.741   132850549.8961      -1977.296          27.000    25280644.698   103519990.032       -1540.565          27.000  
G04  25164938.044   132242659.732         746.541          30.000                                                                  
G11  21880878.581   114984783.561         966.361          44.000    21880892.452    89598614.362         753.355          44.000  
G17  21810819.671   114616467.888        -163.987          43.000    21810832.574    89311514.818        -127.854          41.000  
G14  21249455.039   111666512.102       -2667.741          42.000    21249465.719    87012853.582       -2078.815          43.000  
G24  25146945.686   132148064.164        -771.839          31.000                                                                  
G09  23987068.711   126052858.251        1593.577          31.000    23987093.029    98223164.857        1241.395          32.000  
G12  24781377.368   130227008.726        3634.887          33.000                                                                  
G19  20814829.716   109382594.538         868.231          45.000                                                                  
G03  25097132.225   131886291.322       -3401.237          29.000    25097150.934   102768633.893       -2651.260          32.000  
G06  21010923.848   110413147.341        -668.899          46.000    21010938.832    86036277.786        -521.312          45.000  
G22  20627094.082   108396050.666       -1116.896          46.000                                                                  
> 2025 04 19 06 01 56.0000000  0 13                     
G20  22242667.361   116886083.249        3139.864          40.000                                                                  
G30  25280995.046   132852526.905       -1976.520          28.000    25281020.840   103521530.562       -1540.006          27.000  
G04  25164796.179   132241914.209         744.928          30.000                                                                  
G11  21880694.711   114983817.155         966.520          44.000    21880708.558    89597861.330         753.089          44.000  
G17  21810850.911   114616632.075        -164.110          43.000    21810863.768    89311642.758        -127.886          41.000  
G14  21249962.774   111669180.057       -2668.031          43.000    21249973.367    87014932.496       -2079.018          44.000  
G24  25147092.774   132148836.298        -771.994          32.000                                                                  
G09  23986765.805   126051265.157        1593.425          31.000    23986790.044    98221923.484        1241.660          32.000  
G12  24780685.798   130223373.593        3635.272          33.000                                                                  
G19  20814664.654   109381726.595         867.828          45.000                                                                  
G03  25097779.681   131889693.619       -3401.962          29.000    25097798.439   102771285.023       -2651.269          32.000  
G06  21011051.129   110413816.469        -669.017          46.000    21011066.184    86036799.171        -521.224          45.000  
G22  20627306.575   108397167.801       -1117.273          46.000                                                                  
> 2025 04 19 06 01 57.0000000  0 13                     
G20  22242069.925   116882943.834        3139.672          40.000                                                                  
G30  25281371.704   132854503.472       -1976.455          27.000    25281396.975   103523070.782       -1540.223          27.000  
G04  25164654.329   132241168.822         745.587          30.000                                                                  
G11  21880510.885   114982850.976         965.941          44.000    21880524.762    89597108.456         752.639          44.000  
G17  21810882.158   114616796.321        -164.257          43.000    21810895.031    89311770.734        -127.933          41.000  
G14  21250470.605   111671848.347       -2668.392          43.000    21250481.183    87017011.678       -2079.403          43.000  
G24  25147239.932   132149608.654        -772.687          31.000                                                                  
G09  23986462.748   126049672.147        1593.479          31.000    23986486.944    98220682.181        1241.268          32.000  
G12  24779994.030   130219738.552        3634.742          33.000                                                                  
G19  20814499.510   109380858.689         867.938          45.000                                                                  
G03  25098427.252   131893095.948       -3402.349          29.000    25098445.897   102773936.129       -2650.494          32.000  
G06  21011178.433   110414485.722        -669.312          46.000    21011193.554    86037320.674        -521.604          45.000  
G22  20627519.259   108398285.385       -1117.871          46.000                                                                  
> 2025 04 19 06 01 58.0000000  0 13                     
G20  22241472.598   116879804.782        3139.130          40.000                                                                  
G30  25281750.654   132856479.825       -1976.469          28.000    25281773.069   103524610.784       -1540.136          27.000  
G04  25164512.664   132240423.771         745.075          30.000                                                                  
G11  21880327.100   114981885.083         965.989          44.000    21880340.912    89596355.817         752.790          44.000  
G17  21810913.372   114616960.723        -164.300          43.000    21810926.370    89311898.842        -128.135          41.000  
G14  21250978.382   111674517.038       -2668.806          43.000    21250989.007    87019091.182       -2079.600          44.000  
G24  25147386.833   132150381.298        -772.755          31.000                                                                  
G09  23986159.746   126048079.318        1593.065          31.000    23986183.880    98219441.011        1240.399          32.000  
G12  24779302.419   130216103.625        3635.037          32.000                                                                  
G19  20814334.427   109379990.934         867.902          45.000                                                                  
G03  25099074.455   131896498.448       -3402.269          29.000    25099093.222   102776587.509       -2651.715          32.000  
G06  21011305.823   110415155.209        -669.605          46.000    21011320.877    86037842.345        -521.618          45.000  
G22  20627732.026   108399403.513       -1118.275          45.000                                                                  
> 2025 04 19 06 01 59.0000000  0 13                     
G20  22240875.286   116876666.046        3138.859          40.000                                                                  
G30  25282126.597   132858455.766       -1975.811          28.000    25282148.985   103526150.361       -1539.180          27.000  
G04  25164371.090   132239679.087         744.419          31.000                                                                  
G11  21880143.400   114980919.532         965.389          44.000    21880157.223    89595603.453         752.025          44.000  
G17  21810944.652   114617125.280        -164.863          43.000    21810957.723    89312027.056        -128.362          41.000  
G14  21251486.203   111677186.166       -2669.396          43.000    21251496.879    87021171.017       -2080.175          44.000  
G24  25147533.975   132151154.285        -773.265          32.000                                                                  
G09  23985856.701   126046486.666        1592.110          31.000    23985880.747    98218199.940        1240.570          32.000  
G12  24778610.680   130212468.862        3634.286          32.000                                                                  
G19  20814169.348   109379123.354         867.297          45.000                                                                  
G03  25099721.926   131899901.151       -3403.370          30.000    25099740.930   102779238.948       -2651.666          32.000  
G06  21011433.362   110415824.939        -669.980          46.000    21011448.269    86038364.205        -521.947          46.000  
G22  20627944.941   108400522.208       -1119.081          46.000                                                                  
> 2025 04 19 06 02 00.0000000  0 13                     
G20  22240278.074   116873527.534        3138.798          40.000                                                                  
G30  25282504.869   132860431.332       -1975.217          27.000    25282524.873   103527689.833       -1539.342          27.000  
G04  25164229.392   132238934.629         743.800          30.000                                                                  
G11  21879959.631   114979954.202         965.202          44.000    21879973.527    89594851.227         752.177          44.000  
G17  21810976.066   114617289.876        -164.597          43.000    21810988.955    89312155.305        -127.963          41.000  
G14  21251994.187   111679855.610       -2669.416          43.000    21252004.803    87023251.113       -2080.401          44.000  
G24  25147681.170   132151927.442        -773.163          32.000                                                                  
G09  23985553.722   126044894.059        1592.871          31.000    23985577.643    98216958.969        1241.232          32.000  
G12  24777919.068   130208834.145        3634.660          32.000                                                                  
G19  20814004.234   109378255.805         867.657          45.000                                                                  
G03  25100369.429   131903303.878       -3402.440          30.000    25100388.563   102781890.438       -2651.372          32.000  
G06  21011560.829   110416494.803        -669.882          46.000    21011575.877    86038886.190        -522.123          46.000  
G22  20628157.997   108401641.352       -1119.243          46.000                                                                  
> 2025 04 19 06 02 01.0000000  0 13                     
G20  22239680.927   116870389.451        3137.716          40.000                                                                  
G30  25282881.647   132862406.628       -1974.916          27.000    25282900.870   103529229.068       -1539.608          27.000  
G04  25164087.651   132238190.516         744.308          30.000                                                                  
G11  21879776.001   114978989.239         964.889          44.000    21879789.862    89594099.321         751.629          44.000  
G17  21811007.447   114617454.700        -164.760          43.000    21811020.412    89312283.737        -128.219          41.000  
G14  21252502.281   111682525.577       -2670.292          43.000    21252512.908    87025331.580       -2080.651          44.000  
G24  25147828.464   132152701.042        -774.030          32.000                                                                  
G09  23985250.690   126043301.732        1593.084          31.000    23985274.986    98215718.203        1240.215          32.000  
G12  24777227.547   130205199.657        3634.254          33.000                                                                  
G19  20813839.159   109377388.486         867.395          45.000                                                                  
G03  25101017.030   131906706.906       -3403.565          31.000    25101036.120   102784542.158       -2652.210          32.000  
G06  21011688.418   110417164.984        -670.492          46.000    21011703.438    86039408.396        -522.536          46.000  
G22  20628370.979   108402761.124       -1119.990          46.000                                                                  
> 2025 04 19 06 02 02.0000000  0 13                     
G20  22239083.721   116867251.615        3137.846          40.000                                                                  
G30  25283255.413   132864381.613       -1975.054          26.000    25283276.870   103530767.947       -1538.926          27.000  
G04  25163945.970   132237446.763         743.166          30.000                                                                  
G11  21879592.370   114978024.540         964.678          44.000    21879606.267    89593347.597         751.604          44.000  
G17  21811038.894   114617619.624        -165.136          43.000    21811051.771    89312412.239        -128.508          41.000  
G14  21253010.537   111685195.892       -2670.539          43.000    21253021.029    87027412.325       -2080.677          44.000  
G24  25147975.759   132153474.867        -773.992          32.000                                                                  
G09  23984947.608   126041709.556        1592.134          31.000    23984972.076    98214477.486        1240.459          32.000  
G12  24776536.032   130201565.234        3634.187          33.000                                                                  
G19  20813674.169   109376521.260         866.833          45.000                                                                  
G03  25101664.492   131910110.012       -3402.902          30.000    25101683.467   102787193.941       -2651.940          31.000  
G06  21011816.041   110417835.310        -670.494          46.000    21011831.050    86039930.741        -522.719          46.000  
G22  20628584.231   108403881.371       -1120.730          46.000                                                                  
> 2025 04 19 06 02 03.0000000  0 13                     
G20  22238486.671   116864114.122        3137.360          40.000                                                                  
G30  25283633.218   132866356.260       -1974.808          26.000    25283652.722   103532306.595       -1538.431          27.000  
G04  25163804.424   132236703.270         743.306          30.000                                                                  
G11  21879408.941   114977060.185         963.856          44.000    21879422.795    89592596.144         751.258          44.000  
G17  21811070.385   114617784.702        -165.215          43.000    21811083.266    89312540.880        -128.984          41.000  
G14  21253518.732   111687866.638       -2671.008          43.000    21253529.229    87029493.442       -2081.333          44.000  
G24  25148122.922   132154248.987        -774.452          32.000                                                                  
G09  23984644.650   126040117.536        1592.303          32.000    23984669.106    98213236.969        1240.345          32.000  
G12  24775844.667   130197931.007        3633.946          33.000                                                                  
G19  20813509.205   109375654.168         867.163          45.000                                                                  
G03  25102312.192   131913513.315       -3403.291          30.000    25102330.857   102789845.865       -2651.485          31.000  
G06  21011943.657   110418505.902        -670.693          46.000    21011958.636    86040453.264        -522.582          46.000  
G22  20628797.650   108405002.181       -1121.125          46.000                                                                  
> 2025 04 19 06 02 04.0000000  0 13                     
G20  22237889.617   116860976.767        3136.844          40.000                                                                  
G30  25284009.219   132868330.339       -1973.924          26.000    25284028.342   103533844.846       -1538.070          27.000  
G04  25163662.961   132235959.917         743.115          30.000                                                                  
G11  21879225.420   114976095.878         964.415          44.000    21879239.173    89591844.752         751.239          44.000  
G17  21811101.800   114617949.702        -165.096          43.000    21811114.668    89312669.443        -128.749          41.000  
G14  21254026.946   111690537.582       -2671.263          43.000    21254037.444    87031574.692       -2081.436          44.000  
G24  25148270.223   132155023.217        -774.034          32.000                                                                  
G09  23984341.605   126038525.501        1591.438          32.000    23984365.876    98211996.423        1240.317          32.000  
G12  24775153.080   130194296.695        3634.119          33.000                                                                  
G19  20813344.174   109374787.027         866.998          45.000                                                                  
G03  25102959.803   131916916.574       -3403.427          30.000    25102978.396   102792497.765       -2651.928          31.000  
G06  21012071.205   110419176.498        -670.732          46.000    21012086.158    86040975.803        -522.540          46.000  
G22  20629011.029   108406123.318       -1121.363          46.000                                                                  
> 2025 04 19 06 02 05.0000000  0 13                     
G20  22237292.547   116857839.574        3136.783          40.000                                                                  
G30  25284385.519                       -1974.016          26.000    25284403.683   103535382.739       -1537.787          27.000  
G04  25163521.364   132235216.775         742.808          30.000                                                                  
G11  21879041.939   114975131.796         963.675          44.000    21879055.689    89591093.505         751.057          44.000  
G17  21811133.218   114618114.726        -165.279          43.000    21811146.097    89312798.038        -129.010          41.000  
G14  21254535.285   111693208.832       -2671.821          43.000    21254545.855    87033656.172       -2081.850          44.000  
G24  25148417.730   132155797.667        -775.123          32.000                                                                  
G09  23984038.882   126036933.462        1592.044          32.000    23984062.725    98210755.869        1240.438          32.000  
G12  24774461.632   130190662.384        3633.906          33.000                                                                  
G19  20813179.274   109373919.892         866.919          45.000                                                                  
G03  25103607.426   131920319.840       -3403.579          30.000    25103625.764   102795149.686       -2651.988          31.000  
G06  21012198.890   110419847.200        -670.926          46.000    21012213.762    86041498.437        -522.986          46.000  
G22  20629224.420   108407244.890       -1122.121          46.000                                                                  
> 2025 04 19 06 02 06.0000000  0 13                     
G20  22236695.650   116854702.969        3136.612          40.000                                                                  
G30  25284757.514                       -1973.232          26.000    25284779.155   103536920.616       -1537.953          27.000  
G04  25163380.016   132234474.181         742.313          30.000                                                                  
G11  21878858.593   114974168.264         963.283          44.000    21878872.308    89590342.704         750.621          44.000  
G17  21811164.706   114618280.156        -165.396          43.000    21811177.648    89312926.922        -128.796          41.000  
G14  21255043.799   111695880.746       -2672.360          43.000    21255054.313    87035738.182       -2082.267          44.000  
G24  25148565.215   132156572.644        -775.047          32.000                                                                  
G09  23983736.064   126035341.877        1592.163          32.000    23983759.589    98209515.664        1240.018          32.000  
G12  24773770.219   130187028.485        3633.844          33.000                                                                  
G19  20813014.321   109373053.157         866.608          45.000                                                                  
G03  25104255.138   131923723.562       -3404.187          30.000    25104273.461   102797801.979       -2652.908          31.000  
G06  21012326.589   110420518.396        -671.372          46.000    21012341.411    86042021.442        -523.123          46.000  
G22  20629438.004   108408367.254       -1122.725          46.000                                                                  
> 2025 04 19 06 02 07.0000000  0 13                     
G20  22236098.959   116851567.008        3135.457          40.000                                                                  
G30  25285133.433                       -1972.234          26.000    25285154.812   103538458.414       -1537.006          27.000  
G04  25163238.648   132233732.242         741.694          30.000                                                                  
G11  21878675.301   114973205.356         962.448          45.000    21878689.076    89589592.381         749.887          44.000  
G17  21811196.276   114618446.047        -166.255          43.000    21811209.270    89313056.188        -129.571          41.000  
G14  21255552.410   111698553.378       -2673.224          43.000    21255562.862    87037820.746       -2082.908          44.000  
G24  25148712.722   132157348.276        -776.466          32.000                                                                  
G09  23983433.352   126033750.830        1590.918          32.000    23983456.500    98208275.868        1239.435          32.000  
G12  24773078.661   130183395.048        3633.262          33.000                                                                  
G19  20812849.385   109372186.867         865.826          45.000                                                                  
G03  25104902.900   131927127.719       -3404.278          30.000    25104921.235   102800454.580       -2652.904          31.000  
G06  21012454.427   110421190.127        -672.044          46.000    21012469.267    86042544.861        -523.553          46.000  
G22  20629651.797   108409490.467       -1123.715          46.000                                                                  
> 2025 04 19 06 02 08.0000000  0 13                     
G20  22235502.330   116848431.388        3135.291          40.000                                                                  
G30  25285507.839                       -1973.016          26.000    25285530.304   103539996.122       -1537.517          27.000  
G04  25163097.436   132232990.645         741.439          29.000                                                                  
G11  21878492.044   114972242.785         962.324          44.000    21878506.048    89588842.321         749.997          44.000  
G17  21811227.771   114618612.121        -166.320          43.000    21811240.837    89313185.586        -129.716          41.000  
G14  21256061.078   111701226.489       -2673.996          43.000    21256071.625    87039903.677       -2083.276          44.000  
G24  25148860.397   132158124.225        -776.465          32.000                                                                  
G09  23983130.715   126032159.942        1590.778          32.000    23983153.696    98207036.211        1239.710          32.000  
G12  24772387.391   130179761.798        3632.614          33.000                                                                  
G19  20812684.592   109371320.760         865.875          45.000                                                                  
G03  25105550.740   131930532.175       -3405.212          30.000    25105568.898   102803107.338       -2653.513          31.000  
G06  21012582.224   110421862.115        -672.190          46.000    21012597.133    86043068.495        -523.924          46.000  
G22  20629865.633   108410614.265       -1124.171          46.000                                                                  
> 2025 04 19 06 02 09.0000000  0 13                     
G20  22234905.781   116845296.208        3134.627          40.000                                                                  
G30  25285883.658                       -1972.629          26.000    25285905.813   103541533.600       -1538.136          27.000  
G04  25162956.277   132232249.483         740.519          29.000                                                                  
G11  21878309.024   114971280.615         962.118          44.000    21878322.923    89588092.596         749.479          44.000  
G17  21811259.437   114618778.439        -166.644          43.000    21811272.438    89313315.168        -129.553          41.000  
G14  21256569.940   111703900.079       -2673.946          43.000    21256580.405    87041987.003       -2083.612          44.000  
G24  25149008.038   132158900.590        -776.469          32.000                                                                  
G09  23982828.149   126030569.367        1590.125          32.000    23982850.974    98205796.773        1238.953          32.000  
G12  24771695.818   130176128.748        3632.924          33.000                                                                  
G19  20812519.805   109370454.903         865.662          45.000                                                                  
G03  25106198.617   131933936.822       -3404.914          30.000    25106216.800   102805760.308       -2652.863          31.000  
G06  21012710.196   110422534.442        -672.504          46.000    21012725.129    86043592.374        -523.964          46.000  
G22  20630079.583   108411738.726       -1124.880          46.000                                                                  
> 2025 04 19 06 02 10.0000000  0 13                     
G20  22234309.202   116842161.464        3134.366          40.000                                                                  
G30  25286257.990                       -1973.597          26.000    25286281.292   103543070.912       -1537.798          26.000  
G04  25162815.329   132231508.734         740.416          29.000                                                                  
G11  21878125.977   114970318.893         961.583          44.000    21878139.982    89587343.190         749.138          44.000  
G17  21811291.084   114618944.998        -166.590          43.000    21811304.106    89313444.957        -129.653          41.000  
G14  21257078.850   111706574.221       -2674.374          43.000    21257089.308    87044070.745       -2083.944          44.000  
G24  25149155.816   132159677.377        -777.341          32.000                                                                  
G09  23982525.695   126028979.012        1590.399          32.000    23982548.496    98204557.585        1238.745          32.000  
G12  24771004.451   130172495.994        3632.771          33.000                                                                  
G19  20812355.078   109369589.289         865.546          45.000                                                                  
G03  25106846.441   131937341.694       -3405.127          30.000    25106864.810   102808413.554       -2654.406          30.000  
G06  21012838.194   110423207.112        -672.833          46.000    21012853.134    86044116.531        -524.204          46.000  
G22  20630293.678   108412863.835       -1125.495          46.000                                                                  
> 2025 04 19 06 02 11.0000000  0 13                     
G20  22233712.671   116839026.919        3133.954          40.000                                                                  
G30  25286631.167   132882143.3303      -1971.626          27.000    25286656.575   103544607.851       -1537.192          26.000  
G04  25162674.500   132230768.168         740.857          30.000                                                                  
G11  21877942.994   114969357.315         961.648          44.000    21877956.955    89586593.911         749.131          44.000  
G17  21811322.750   114619111.594        -166.769          43.000    21811335.798    89313574.772        -129.864          41.000  
G14  21257587.850   111709248.633       -2674.403          43.000    21257598.323    87046154.714       -2084.122          44.000  
G24  25149303.475   132160454.348        -776.826          32.000                                                                  
G09  23982223.237   126027388.735        1590.521          32.000    23982245.980    98203318.321        1240.076          32.000  
G12  24770313.017   130168863.220        3633.266          33.000                                                                  
G19  20812190.360   109368723.685         865.533          45.000                                                                  
G03  25107494.383   131940746.669       -3405.210          29.000    25107512.704   102811066.746       -2653.383          30.000  
G06  21012966.260   110423879.857        -672.698          46.000    21012981.162    86044640.755        -524.317          46.000  
G22  20630507.935   108413989.340       -1125.605          46.000                                                                  
> 2025 04 19 06 02 12.0000000  0 13                     
G20  22233116.148   116835892.320        3134.208          40.000                                                                  
G30  25287008.268   132884115.1142      -1971.187          27.000    25287031.665   103546144.240       -1536.222          26.000  
G04  25162533.610   132230027.614         740.018          30.000                                                                  
G11  21877760.016   114968395.727         961.228          44.000    21877773.990    89585844.613         749.106          44.000  
G17  21811354.444   114619277.966        -166.580          43.000    21811367.424    89313704.418        -129.986          41.000  
G14  21258096.744   111711923.131       -2674.654          43.000    21258107.336    87048238.718       -2084.198          44.000  
G24  25149451.353   132161231.279        -777.850          32.000                                                                  
G09  23981920.474   126025798.319        1590.149          32.000    23981943.610    98202079.094        1238.715          33.000  
G12  24769621.571   130165230.264        3632.887          33.000                                                                  
G19  20812025.542   109367857.874         865.729          45.000                                                                  
G03  25108142.534   131944151.434       -3405.220          30.000    25108160.715   102813719.833       -2653.949          29.000  
G06  21013094.288   110424552.503        -672.798          46.000    21013109.235    86045164.894        -524.387          46.000  
G22  20630722.229   108415115.070       -1126.101          46.000                                                                  
> 2025 04 19 06 02 13.0000000  0 13                     
G20  22232519.780   116832758.259        3133.441          40.000                                                                  
G30  25287386.222   132886086.2491      -1971.375          27.000    25287406.952   103547680.582       -1536.611          26.000  
G04  25162392.676   132229287.526         740.013          29.000                                                                  
G11  21877577.052   114967434.629         960.642          44.000    21877591.012    89585095.700         748.592          44.000  
G17  21811386.102   114619444.682        -166.800          43.000    21811399.150    89313834.288        -129.530          41.000  
G14  21258605.924   111714598.233       -2675.323          43.000    21258616.379    87050323.212       -2084.906          44.000  
G24  25149599.257   132162008.633        -776.939          32.000                                                                  
G09  23981617.814   126024208.260        1589.301          32.000    23981641.305    98200840.027        1239.288          32.000  
G12  24768930.347   130161597.609        3632.884          33.000                                                                  
G19  20811860.888   109366992.390         865.387          45.000                                                                  
G03  25108790.545   131947556.557       -3405.319          30.000    25108808.701   102816373.155       -2653.664          29.000  
G06  21013222.286   110425225.544        -673.014          46.000    21013237.307    86045689.347        -524.571          46.000  
G22  20630936.480   108416241.510       -1126.702          46.000                                                                  
> 2025 04 19 06 02 14.0000000  0 13                     
G20  22231923.419   116829624.608        3133.096          40.000                                                                  
G30  25287762.314   132888057.643       -1970.945          27.000    25287782.063   103549216.707       -1536.059          26.000  
G04  25162251.897   132228547.893         739.423          29.000                                                                  
G11  21877394.300   114966473.900         960.771          44.000    21877408.330    89584347.087         748.570          44.000  
G17  21811417.946   114619611.628        -166.926          44.000    21811430.989    89313964.390        -129.901          41.000  
G14  21259115.058   111717273.822       -2675.570          43.000    21259125.436    87052408.097       -2085.117          44.000  
G24  25149747.145   132162786.473        -777.911          32.000                                                                  
G09  23981315.295   126022618.421        1590.027          32.000    23981338.795    98199601.202        1239.374          33.000  
G12  24768239.292   130157965.243        3632.342          33.000                                                                  
G19  20811696.236   109366127.146         865.320          45.000                                                                  
G03  25109438.659   131950961.906       -3404.675          30.000    25109456.655   102819026.733       -2653.662          29.000  
G06  21013350.549   110425898.918        -673.146          46.000    21013365.530    86046214.044        -524.614          46.000  
G22  20631150.920   108417368.597       -1127.240          46.000                                                                  
> 2025 04 19 06 02 15.0000000  0 13                     
G20  22231327.133   116826491.311        3133.458          40.000                                                                  
G30  25288136.127   132890028.812       -1971.513          27.000    25288157.083   103550752.559       -1535.352          25.000  
G04  25162111.241   132227808.632         739.037          29.000                                                                  
G11  21877211.515   114965513.584         960.063          44.000    21877225.601    89583598.781         748.059          44.000  
G17  21811449.689   114619778.799        -167.380          44.000    21811462.731    89314094.649        -130.527          41.000  
G14  21259624.394   111719949.904       -2676.231          43.000    21259634.731    87054493.344       -2085.388          44.000  
G24  25149895.049   132163564.658        -778.656          32.000                                                                  
G09  23981012.803   126021028.890        1589.203          33.000    23981036.256    98198362.600        1238.599          32.000  
G12  24767548.326   130154333.064        3631.904          33.000                                                                  
G19  20811531.652   109365262.113         864.819          45.000                                                                  
G03  25110086.797   131954367.538       -3405.943          30.000    25110104.774   102821680.444       -2654.017          29.000  
G06  21013478.835   110426572.600        -673.869          46.000    21013493.761    86046738.983        -525.069          46.000  
G22  20631365.508   108418496.291       -1127.936          46.000                                                                  
> 2025 04 19 06 02 16.0000000  0 13                     
G20  22230730.974   116823358.264        3133.127          40.000                                                                  
G30  25288508.323   132891999.476       -1971.103          27.000    25288532.184   103552288.202       -1534.947          26.000  
G04  25161970.760   132227069.564         739.481          30.000                                                                  
G11  21877028.840   114964553.428         960.190          44.000    21877042.859    89582850.610         748.180          44.000  
G17  21811481.492   114619945.966        -166.963          43.000    21811494.493    89314224.902        -130.165          41.000  
G14  21260133.616   111722626.276       -2676.280          43.000    21260144.031    87056578.823       -2085.438          44.000  
G24  25150043.138   132164343.031        -778.353          32.000                                                                  
G09  23980710.270   126019439.353        1589.569          32.000    23980733.618    98197123.969        1239.270          32.000  
G12  24766857.149   130150700.899        3632.423          33.000                                                                  
G19  20811367.083   109364397.083         865.240          45.000                                                                  
G03  25110734.786   131957773.222       -3405.687          29.000    25110753.016   102824334.210       -2653.563          29.000  
G06  21013607.064   110427246.354        -673.612          46.000    21013621.953    86047263.993        -525.024          46.000  
G22  20631580.115   108419624.399       -1128.063          46.000                                                                  
> 2025 04 19 06 02 17.0000000  0 13                     
G20  22230134.797   116820225.373        3133.089          40.000                                                                  
G30  25288883.907   132893969.680       -1970.347          28.000    25288906.967   103553823.400       -1534.786          26.000  
G04  25161830.132   132226330.704         739.162          30.000                                                                  
G11  21876846.129   114963593.426         960.210          44.000    21876860.160    89582102.570         747.917          44.000  
G17  21811513.411   114620113.158        -167.204          43.000    21811526.304    89314355.176        -130.187          41.000  
G14  21260642.943   111725302.950       -2677.093          43.000    21260653.361    87058664.532       -2086.030          44.000  
G24  25150191.138   132165121.527        -778.199          31.000                                                                  
G09  23980407.805   126017849.881        1589.282          32.000    23980431.141    98195885.398        1238.751          32.000  
G12  24766165.991   130147068.782        3631.459          33.000                                                                  
G19  20811202.459   109363532.073         864.905          45.000                                                                  
G03  25111382.802   131961178.884       -3405.706          29.000    25111401.109   102826987.997       -2653.988          29.000  
G06  21013735.275   110427920.212        -673.724          46.000    21013750.147    86047789.066        -525.005          46.000  
G22  20631794.908   108420752.918       -1128.706          46.000                                                                  
> 2025 04 19 06 02 18.0000000  0 13                     
G20  22229538.711   116817092.726        3132.655          40.000                                                                  
G30  25289261.118   132895939.499       -1970.072          28.000    25289281.801   103555358.324       -1534.416          26.000  
G04  25161689.589   132225592.037         738.604          30.000                                                                  
G11  21876663.496   114962633.683         959.178          44.000    21876677.431    89581354.682         747.750          44.000  
G17  21811545.170   114620280.399        -167.700          43.000    21811558.093    89314485.485        -130.504          41.000  
G14  21261152.378   111727979.900       -2677.296          43.000    21261162.834    87060750.468       -2086.318          44.000  
G24  25150339.154   132165900.303        -779.037          32.000                                                                  
G09  23980105.386   126016260.448        1589.209          32.000    23980129.011    98194646.905        1238.190          32.000  
G12  24765474.880   130143436.634        3631.771          33.000                                                                  
G19  20811037.872   109362667.088         864.679          45.000                                                                  
G03  25112030.791   131964584.660       -3406.045          29.000    25112049.152   102829641.787       -2653.660          29.000  
G06  21013863.509   110428594.199        -674.286          46.000    21013878.354    86048314.249        -525.284          46.000  
G22  20632009.769   108421881.883       -1129.341          46.000                                                                  
> 2025 04 19 06 02 19.0000000  0 13                     
G20  22228942.590   116813960.543        3132.275          40.000                                                                  
G30  25289638.412   132897909.105       -1969.994          28.000    25289656.630   103556893.147       -1535.210          26.000  
G04  25161549.083   132224853.879         737.873          30.000                                                                  
G11  21876480.920   114961674.340         959.231          44.000    21876494.796    89580607.162         747.301          44.000  
G17  21811576.972   114620447.908        -167.601          43.000    21811590.065    89314616.019        -130.791          41.000  
G14  21261661.894   111730657.449       -2678.108          43.000    21261672.314    87062836.852       -2086.654          44.000  
G24  25150487.347   132166679.484        -779.198          32.000                                                                  
G09  23979802.906   126014671.365        1588.965          32.000    23979826.863    98193408.652        1238.055          33.000  
G12  24764783.743   130139804.802        3631.780          33.000                                                                  
G19  20810873.306   109361802.390         864.569          45.000                                                                  
G03  25112679.010   131967990.703       -3406.607          30.000    25112697.406   102832295.898       -2654.245          29.000  
G06  21013991.816   110429268.550        -674.186          46.000    21014006.716    86048839.736        -525.784          46.000  
G22  20632224.793   108423011.536       -1130.142          46.000                                                                  
> 2025 04 19 06 02 20.0000000  0 13                     
G20  22228346.749   116810828.778        3131.502          40.000                                                                  
G30  25290012.854   132899878.455       -1969.364          28.000    25290031.355   103558427.703       -1534.677          26.000  
G04  25161408.718   132224116.073         737.683          30.000                                                                  
G11  21876298.430   114960715.388         958.820          44.000    21876312.457    89579859.935         747.039          44.000  
G17  21811608.963   114620615.658        -167.905          43.000    21811621.946    89314746.710        -130.639          41.000  
G14  21262171.513   111733335.446       -2678.424          43.000    21262181.918    87064923.606       -2086.933          43.000  
G24  25150635.759   132167459.067        -779.812          32.000                                                                  
G09  23979500.530   126013082.519        1588.495          31.000    23979524.394    98192170.572        1238.074          32.000  
G12  24764092.684   130136173.181        3631.565          32.000                                                                  
G19  20810708.833   109360937.908         864.441          45.000                                                                  
G03  25113326.995   131971396.950       -3406.246          31.000    25113345.550   102834950.137       -2654.050          29.000  
G06  21014120.265   110429943.213        -674.803          46.000    21014135.206    86049365.427        -525.804          46.000  
G22  20632439.893   108424141.799       -1130.587          46.000                                                                  
> 2025 04 19 06 02 21.0000000  0 13                     
G20  22227750.863   116807697.198        3131.492          40.000                                                                  
G30  25290386.700   132901847.414       -1968.972          28.000    25290405.890   103559961.924       -1534.238          27.000  
G04  25161268.464   132223378.527         736.219          30.000                                                                  
G11  21876115.876   114959756.653         958.474          44.000    21876130.030    89579112.853         746.706          44.000  
G17  21811640.996   114620783.425        -167.892          43.000    21811653.844    89314877.430        -130.505          41.000  
G14  21262681.222   111736013.764       -2678.907          43.000    21262691.571    87067010.594       -2087.269          44.000  
G24  25150783.970   132168238.824        -780.010          32.000                                                                  
G09  23979198.341   126011493.717        1589.239          32.000    23979222.009    98190932.554        1238.037          32.000  
G12  24763401.657   130132541.618        3631.230          33.000                                                                  
G19  20810544.354   109360073.457         864.130          45.000                                                                  
G03  25113975.314   131974803.326       -3407.010          31.000    25113993.720   102837604.438       -2654.191          29.000  
G06  21014248.686   110430617.976        -674.882          46.000    21014263.563    86049891.219        -525.917          46.000  
G22  20632655.047   108425272.490       -1130.885          46.000                                                                  
> 2025 04 19 06 02 22.0000000  0 13                     
G20  22227155.060   116804565.897        3130.809          39.000                                                                  
G30  25290763.904   132903815.925       -1967.792          27.000    25290780.448   103561495.853       -1534.192          27.000  
G04  25161128.031   132222641.182         736.559          30.000                                                                  
G11  21875933.548   114958798.144         958.303          44.000    21875947.648    89578365.964         746.811          44.000  
G17  21811672.913   114620951.292        -168.053          43.000    21811685.926    89315008.247        -131.013          41.000  
G14  21263190.947   111738692.412       -2678.888          43.000    21263201.306    87069097.874       -2087.551          44.000  
G24  25150932.495   132169018.833        -779.671          31.000                                                                  
G09  23978896.080   126009905.054        1588.458          32.000    23978919.610    98189694.648        1237.494          32.000  
G12  24762710.751   130128910.131        3631.373          33.000                                                                  
G19  20810379.838   109359209.082         864.191          45.000                                                                  
G03  25114623.556   131978209.697       -3405.783          31.000    25114641.824   102840258.814       -2654.552          29.000  
G06  21014377.153   110431292.931        -675.229          46.000    21014391.938    86050417.138        -526.005          45.000  
G22  20632870.304   108426403.678       -1131.482          46.000                                                                  
> 2025 04 19 06 02 23.0000000  0 13                     
G20  22226559.193   116801434.902        3130.891          40.000                                                                  
G30  25291136.855   132905784.210       -1968.120          27.000    25291154.931   103563029.477       -1533.039          27.000  
G04  25160987.543   132221904.137         737.241          30.000                                                                  
G11  21875751.248   114957839.945         957.863          44.000    21875765.254    89577619.301         746.597          44.000  
G17  21811704.801   114621119.279        -168.248          43.000    21811717.869    89315139.133        -130.911          41.000  
G14  21263700.727   111741371.478       -2679.206          43.000    21263711.104    87071185.439       -2087.596          43.000  
G24  25151080.977   132169799.139        -780.877          31.000                                                                  
G09  23978593.893   126008316.555        1588.580          32.000    23978617.275    98188456.855        1237.286          32.000  
G12  24762019.781   130125278.773        3631.129          32.000                                                                  
G19  20810215.332   109358344.831         864.056          45.000                                                                  
G03  25115271.840   131981616.327       -3406.747          30.000    25115289.996   102842913.325       -2654.725          28.000  
G06  21014505.699   110431968.064        -675.111          46.000    21014520.386    86050943.222        -526.043          45.000  
G22  20633085.712   108427535.388       -1131.973          46.000                                                                  
> 2025 04 19 06 02 24.0000000  0 13                     
G20  22225963.521   116798304.133        3130.161          40.000                                                                  
G30  25291509.440   132907751.984       -1967.565          27.000    25291529.377   103564562.881       -1533.486          27.000  
G04  25160847.166   132221167.331         736.961          29.000                                                                  
G11  21875568.957   114956881.937         957.555          44.000    21875583.031    89576872.811         746.220          44.000  
G17  21811736.752   114621287.309        -168.090          43.000    21811749.890    89315270.062        -131.140          41.000  
G14  21264210.646   111744050.870       -2679.749          43.000    21264221.026    87073273.275       -2088.010          44.000  
G24  25151229.534   132170579.654        -780.688          32.000                                                                  
G09  23978291.596   126006728.117        1588.299          33.000    23978315.274    98187219.077        1238.257          32.000  
G12  24761328.679   130121647.439        3631.358          32.000                                                                  
G19  20810050.882   109357480.638         863.623          45.000                                                                  
G03  25115920.153   131985022.985       -3406.829          30.000    25115938.196   102845567.874       -2654.624          28.000  
G06  21014634.206   110432643.333        -675.442          46.000    21014648.899    86051469.420        -526.477          45.000  
G22  20633301.147   108428667.541       -1132.393          46.000                                                                  
> 2025 04 19 06 02 25.0000000  0 13                     
G20  22225367.745   116795173.690        3129.973          40.000                                                                  
G30  25291883.484   132909719.439       -1967.067          27.000    25291903.615   103566095.944       -1533.079          27.000  
G04  25160707.038   132220430.895         736.110          30.000                                                                  
G11  21875386.691   114955924.244         957.547          44.000    21875400.866    89576126.566         745.884          44.000  
G17  21811768.813   114621455.522        -168.478          43.000    21811781.981    89315401.122        -131.226          41.000  
G14  21264720.668   111746730.682       -2680.125          43.000    21264730.947    87075361.444       -2088.557          44.000  
G24  25151378.172   132171360.460        -780.917          32.000                                                                  
G09  23977989.383   126005139.908        1587.823          33.000    23978013.252    98185981.544        1236.340          33.000  
G12  24760637.655   130118016.301        3630.828          32.000                                                                  
G19  20809886.447   109356616.564         863.971          45.000                                                                  
G03  25116568.413   131988429.791       -3407.008          30.000    25116586.456   102848222.601       -2655.438          29.000  
G06  21014762.782   110433318.860        -675.829          46.000    21014777.287    86051995.792        -526.659          46.000  
G22  20633516.702   108429800.260       -1133.416          46.000                                                                  
> 2025 04 19 06 02 26.0000000  0 13                     
G20  22224772.115   116792043.726        3129.665          40.000                                                                  
G30  25292255.728   132911686.811       -1967.177          27.000    25292278.081   103567628.933       -1532.910          28.000  
G04  25160566.884   132219694.924         735.503          30.000                                                                  
G11  21875204.485   114954967.021         956.960          44.000    21875218.685    89575380.671         745.683          44.000  
G17  21811800.893   114621623.994        -168.473          43.000    21811814.041    89315532.405        -131.139          41.000  
G14  21265230.750   111749411.046       -2680.289          44.000    21265240.955    87077450.030       -2088.747          44.000  
G24  25151526.934   132172141.757        -781.740          32.000                                                                  
G09  23977687.174   126003551.979        1587.994          33.000    23977711.116    98184744.193        1236.615          32.000  
G12  24759946.658   130114385.415        3630.708          32.000                                                                  
G19  20809721.966   109355752.795         863.995          45.000                                                                  
G03  25117216.865   131991836.917       -3407.326          30.000    25117234.743   102850877.465       -2654.534          28.000  
G06  21014891.296   110433994.743        -676.233          47.000    21014905.855    86052522.447        -526.789          46.000  
G22  20633732.405   108430933.654       -1133.710          46.000                                                                  
> 2025 04 19 06 02 27.0000000  0 13                     
G20  22224176.560   116788914.061        3129.106          40.000                                                                  
G30  25292628.912   132913653.732       -1967.077          28.000    25292652.348   103569161.610       -1532.931          28.000  
G04  25160426.873   132218959.215         735.292          30.000                                                                  
G11  21875022.360   114954010.058         956.771          44.000    21875036.512    89574634.992         745.340          44.000  
G17  21811833.027   114621792.610        -168.918          43.000    21811846.077    89315663.785        -131.609          41.000  
G14  21265740.977   111752091.795       -2680.826          44.000    21265751.135    87079538.927       -2089.163          44.000  
G24  25151675.704   132172923.291        -781.434          32.000                                                                  
G09  23977384.984   126001964.231        1587.475          33.000    23977409.023    98183506.947        1237.079          32.000  
G12  24759255.660   130110754.659        3630.270          32.000                                                                  
G19  20809557.636   109354889.162         863.391          45.000                                                                  
G03  25117865.327   131995244.219       -3407.974          30.000    25117883.174   102853532.489       -2655.041          29.000  
G06  21015019.950   110434670.816        -676.430          47.000    21015034.493    86053049.257        -526.980          46.000  
G22  20633948.247   108432067.572       -1134.451          46.000                                                                  
> 2025 04 19 06 02 28.0000000  0 13                     
G20  22223581.068   116785784.842        3129.146          40.000                                                                  
G30  25293000.653   132915620.493       -1966.797          28.000    25293026.606   103570694.107       -1532.400          28.000  
G04  25160287.124   132218223.943         735.947          30.000                                                                  
G11  21874840.413   114953053.538         956.498          44.000    21874854.473    89573889.646         745.305          44.000  
G17  21811865.223   114621961.465        -168.857          43.000    21811878.181    89315795.354        -131.620          41.000  
G14  21266251.201   111754773.106       -2681.549          44.000    21266261.335    87081628.237       -2089.223          44.000  
G24  25151824.432   132173705.310        -782.381          32.000                                                                  
G09  23977082.986   126000376.763        1587.341          33.000    23977107.019    98182269.934        1236.981          33.000  
G12  24758564.525   130107124.152        3630.168          32.000                                                                  
G19  20809393.345   109354025.766         863.544          45.000                                                                  
G03  25118513.832   131998651.772       -3407.745          30.000    25118531.555   102856187.743       -2655.014          28.000  
G06  21015148.709   110435347.244        -676.602          47.000    21015163.211    86053576.349        -527.229          46.000  
G22  20634164.143   108433202.154       -1134.815          46.000                                                                  
> 2025 04 19 06 02 29.0000000  0 13                     
G20  22222985.600   116782655.663        3128.926          41.000                                                                  
G30  25293376.591   132917586.667       -1966.671          28.000    25293400.858   103572226.174       -1532.005          28.000  
G04  25160147.308   132217488.742         735.532          30.000                                                                  
G11  21874658.311   114952097.068         955.955          44.000    21874672.405    89573144.316         745.146          44.000  
G17  21811897.241   114622130.196        -168.826          43.000    21811910.334    89315926.843        -131.919          41.000  
G14  21266761.402   111757454.525       -2681.776          44.000    21266771.591    87083717.677       -2090.094          44.000  
G24  25151973.261   132174487.266        -781.943          32.000                                                                  
G09  23976780.804   125998789.179        1587.256          32.000    23976804.778    98181032.835        1237.439          32.000  
G12  24757873.540   130103493.492        3630.649          32.000                                                                  
G19  20809229.038   109353162.265         863.025          45.000                                                                  
G03  25119162.217   132002059.162       -3407.387          30.000    25119179.906   102858842.903       -2655.434          28.000  
G06  21015277.426   110436023.624        -676.819          47.000    21015291.994    86054103.395        -527.394          46.000  
G22  20634380.160   108434337.004       -1135.452          46.000                                                                  
> 2025 04 19 06 02 30.0000000  0 13                     
G20  22222390.256   116779526.958        3128.718          40.000                                                                  
G30  25293752.688   132919552.607       -1965.726          28.000    25293774.954   103573758.067       -1531.782          28.000  
G04  25160007.528   132216754.027         735.119          30.000                                                                  
G11  21874476.374   114951141.005         956.013          44.000    21874490.560    89572399.345         744.835          44.000  
G17  21811929.487   114622299.235        -169.416          43.000    21811942.506    89316058.551        -132.021          41.000  
G14  21267271.687   111760136.504       -2682.132          43.000    21267281.946    87085807.522       -2090.226          44.000  
G24  25152122.097   132175269.753        -782.963          32.000                                                                  
G09  23976478.792   125997201.923        1587.103          32.000    23976502.490    98179796.010        1236.823          32.000  
G12  24757182.592   130099863.162        3630.383          32.000                                                                  
G19  20809064.757   109352299.019         863.116          45.000                                                                  
G03  25119810.667   132005466.916       -3408.516          30.000    25119828.499   102861498.326       -2655.535          28.000  
G06  21015406.248   110436700.364        -676.972          46.000    21015420.779    86054630.731        -527.692          46.000  
G22  20634596.257   108435472.535       -1136.013          46.000                                                                  
> 2025 04 19 06 02 31.0000000  0 13                     
G20  22221795.067   116776398.590        3128.109          40.000                                                                  
G30  25294125.451   132921518.261       -1965.235          28.000    25294148.914   103575289.719       -1531.467          28.000  
G04  25159867.635   132216019.665         733.510          30.000                                                                  
G11  21874294.596   114950185.289         955.227          44.000    21874308.729    89571654.641         744.213          44.000  
G17  21811961.775   114622468.404        -169.325          43.000    21811974.705    89316190.349        -131.708          41.000  
G14  21267782.069   111762818.920       -2682.801          44.000    21267792.361    87087897.704       -2090.663          44.000  
G24  25152271.132   132176052.518        -783.309          32.000                                                                  
G09  23976176.616   125995614.823        1587.158          32.000    23976200.281    98178559.352        1236.359          32.000  
G12  24756491.703   130096232.964        3630.115          32.000                                                                  
G19  20808900.588   109351435.928         862.988          45.000                                                                  
G03  25120459.167   132008874.834       -3408.384          29.000    25120476.976   102864153.841       -2655.854          28.000  
G06  21015535.058   110437377.349        -677.233          46.000    21015549.638    86055158.247        -527.833          46.000  
G22  20634812.381   108436608.602       -1136.322          46.000                                                                  
> 2025 04 19 06 02 32.0000000  0 13                     
G20  22221199.867   116773270.748        3128.108          40.000                                                                  
G30  25294500.020   132923483.824       -1965.497          27.000    25294522.956   103576821.360       -1531.653          28.000  
G04  25159728.166   132215285.755         733.996          30.000                                                                  
G11  21874112.910   114949230.071         954.897          44.000    21874126.984    89570910.303         744.238          44.000  
G17  21811994.046   114622637.932        -169.458          43.000    21812006.940    89316322.453        -132.109          41.000  
G14  21268292.643   111765501.959       -2683.448          43.000    21268302.975    87089988.365       -2090.912          44.000  
G24  25152420.276   132176835.794        -783.900          33.000                                                                  
G09  23975874.692   125994028.188        1586.432          32.000    23975898.174    98177322.977        1236.353          32.000  
G12  24755801.035   130092603.133        3629.676          32.000                                                                  
G19  20808736.261   109350573.205         862.567          45.000                                                                  
G03  25121107.711   132012283.070       -3408.408          29.000    25121125.514   102866809.655       -2655.906          27.000  
G06  21015663.935   110438054.768        -677.522          46.000    21015678.554    86055686.105        -528.123          46.000  
G22  20635028.715   108437745.446       -1137.240          46.000                                                                  
> 2025 04 19 06 02 33.0000000  0 13                     
G20  22220604.711   116770143.117        3127.727          40.000                                                                  
G30  25294874.398   132925448.981       -1965.318          27.000    25294896.795   103578352.585       -1531.248          28.000  
G04  25159588.474   132214552.089         733.562          30.000                                                                  
G11  21873931.194   114948275.044         954.863          44.000    21873945.261    89570166.135         743.934          44.000  
G17  21812026.228   114622807.489        -169.527          43.000    21812039.316    89316454.591        -132.189          41.000  
G14  21268803.256   111768185.264       -2683.272          44.000    21268813.545    87092079.262       -2090.960          44.000  
G24  25152569.545   132177619.304        -783.780          33.000                                                                  
G09  23975572.680   125992441.532        1586.841          33.000    23975596.252    98176086.642        1236.157          32.000  
G12  24755110.410   130088973.331        3629.549          32.000                                                                  
G19  20808572.216   109349710.483         862.665          45.000                                                                  
G03  25121756.299   132015691.409       -3408.733          29.000    25121774.230   102869465.483       -2655.795          27.000  
G06  21015792.841   110438732.287        -677.545          46.000    21015807.512    86056214.031        -527.946          46.000  
G22  20635245.050   108438882.702       -1137.230          46.000                                                                  
> 2025 04 19 06 02 34.0000000  0 13                     
G20  22220009.619   116767015.720        3127.212          40.000                                                                  
G30  25295251.126   132927413.602       -1964.509          27.000    25295270.746   103579883.524       -1531.203          27.000  
G04  25159448.930   132213818.607         733.841          30.000                                                                  
G11  21873749.552   114947320.216         954.696          44.000    21873763.534    89569422.112         743.998          44.000  
G17  21812058.542   114622977.098        -169.463          43.000    21812071.625    89316586.733        -132.226          41.000  
G14  21269313.975   111770868.917       -2683.940          43.000    21269324.269    87094170.410       -2091.420          44.000  
G24  25152718.643   132178402.968        -784.142          33.000                                                                  
G09  23975270.760   125990855.015        1586.279          33.000    23975294.501    98174850.380        1235.815          33.000  
G12  24754419.765   130085343.568        3630.113          33.000                                                                  
G19  20808408.008   109348847.810         862.604          45.000                                                                  
G03  25122405.076   132019099.856       -3409.048          29.000    25122422.929   102872121.455       -2656.855          27.000  
G06  21015921.751   110439409.938        -677.795          46.000    21015936.389    86056742.074        -528.125          46.000  
G22  20635461.614   108440020.412       -1138.087          46.000                                                                  
> 2025 04 19 06 02 35.0000000  0 13                     
G20  22219414.631   116763888.787        3126.648          40.000                                                                  
G30  25295626.788   132929378.099       -1964.363          27.000    25295644.726   103581414.246       -1530.588          27.000  
G04  25159309.643   132213085.638         732.892          30.000                                                                  
G11  21873567.909   114946365.866         953.793          44.000    21873581.888    89568678.448         743.533          44.000  
G17  21812090.861   114623146.971        -169.465          43.000    21812103.920    89316719.101        -132.384          41.000  
G14  21269824.728   111773553.096       -2684.421          43.000    21269835.061    87096261.978       -2091.735          44.000  
G24  25152867.763   132179187.032        -784.140          33.000                                                                  
G09  23974968.802   125989268.764        1586.151          33.000    23974992.756    98173614.313        1236.542          33.000  
G12  24753728.955   130081714.100        3629.253          32.000                                                                  
G19  20808243.853   109347985.416         862.366          45.000                                                                  
G03  25123053.759   132022508.513       -3408.685          29.000    25123071.719   102874777.523       -2656.237          28.000  
G06  21016050.742   110440087.940        -677.869          46.000    21016065.479    86057270.390        -528.432          46.000  
G22  20635678.188   108441158.789       -1138.488          46.000                                                                  
> 2025 04 19 06 02 36.0000000  0 13                     
G20  22218819.564   116760762.127        3126.684          40.000                                                                  
G30  25295998.121   132931342.257       -1964.141          27.000    25296018.512   103582944.768       -1530.257          27.000  
G04  25159170.114   132212352.983         732.558          30.000                                                                  
G11  21873386.356   114945411.746         953.961          44.000    21873400.261    89567934.991         743.412          44.000  
G17  21812123.197   114623316.993        -169.889          44.000    21812136.268    89316851.579        -132.394          41.000  
G14  21270335.629   111776237.680       -2684.724          43.000    21270345.927    87098353.853       -2091.974          44.000  
G24  25153017.021   132179971.427        -784.364          33.000                                                                  
G09  23974667.089   125987682.698        1586.200          33.000    23974690.910    98172378.446        1235.284          32.000  
G12  24753038.267   130078084.727        3629.407          32.000                                                                  
G19  20808079.771   109347123.157         862.256          45.000                                                                  
G03  25123702.533   132025917.363       -3409.131          30.000    25123720.504   102877433.794       -2656.431          29.000  
G06  21016179.770   110440766.157        -678.240          46.000    21016194.536    86057798.867        -528.700          46.000  
G22  20635894.889   108442297.704       -1139.217          46.000                                                                  
> 2025 04 19 06 02 37.0000000  0 13                     
G20  22218224.590   116757635.766        3126.292          40.000                                                                  
G30  25296372.400   132933306.076       -1963.671          26.000    25296392.300   103584474.975       -1529.872          27.000  
G04  25159030.701   132211620.538         732.506          30.000                                                                  
G11  21873204.889   114944457.913         953.769          44.000    21873218.722    89567191.748         743.051          44.000  
G17  21812155.639   114623487.094        -169.975          44.000    21812168.745    89316984.126        -132.810          41.000  
G14  21270846.540   111778922.618       -2685.073          43.000    21270856.727    87100446.007       -2092.228          43.000  
G24  25153166.466   132180756.085        -784.540          33.000                                                                  
G09  23974365.432   125986096.745        1585.840          33.000    23974389.188    98171142.622        1235.754          32.000  
G12  24752347.718   130074455.464        3629.430          32.000                                                                  
G19  20807915.663   109346260.975         862.140          45.000                                                                  
G03  25124351.209   132029326.288       -3409.433          30.000    25124369.187   102880090.076       -2656.262          29.000  
G06  21016308.863   110441444.553        -678.347          46.000    21016323.615    86058327.482        -528.751          46.000  
G22  20636111.738   108443437.092       -1139.429          46.000                                                                  
> 2025 04 19 06 02 38.0000000  0 13                     
G20  22217629.734   116754509.476        3126.370          41.000                                                                  
G30  25296745.611   132935269.175       -1962.710          26.000    25296765.835   103586004.755       -1529.760          27.000  
G04  25158891.293   132210888.201         732.336          29.000                                                                  
G11  21873023.326   114943504.126         953.864          44.000    21873037.312    89566448.536         743.138          44.000  
G17  21812188.003   114623657.099        -170.006          44.000    21812201.116    89317116.587        -132.657          41.000  
G14  21271357.508   111781607.723       -2685.253          43.000    21271367.689    87102538.297       -2092.464          44.000  
G24  25153315.834   132181540.786        -784.778          33.000                                                                  
G09  23974063.759   125984510.719        1586.182          33.000    23974087.510    98169906.721        1236.322          33.000  
G12  24751657.020   130070826.110        3629.007          32.000                                                                  
G19  20807751.550   109345398.687         862.158          45.000                                                                  
G03  25125000.052   132032735.110       -3408.815          31.000    25125017.907   102882746.346       -2656.585          29.000  
G06  21016437.964   110442122.921        -678.563          46.000    21016452.781    86058856.071        -528.704          46.000  
G22  20636328.708   108444576.802       -1139.985          46.000                                                                  
> 2025 04 19 06 02 39.0000000  0 13                     
G20  22217034.810   116751383.339        3125.846          41.000                                                                  
G30  25297118.485   132937231.940       -1962.842          27.000    25297139.258   103587534.162       -1529.427          26.000  
G04  25158751.855   132210155.990         731.893          29.000                                                                  
G11  21872841.868   114942550.456         953.989          44.000    21872855.887    89565705.425         742.903          44.000  
G17  21812220.350   114623827.051        -170.060          44.000    21812233.493    89317249.009        -132.568          41.000  
G14  21271868.599   111784293.058       -2685.736          43.000    21271878.705    87104630.755       -2092.556          43.000  
G24  25153465.214   132182325.618        -784.857          33.000                                                                  
G09  23973762.068   125982924.686        1586.353          33.000    23973785.673    98168670.837        1236.096          32.000  
G12  24750966.332   130067196.672        3629.912          32.000                                                                  
G19  20807587.523   109344536.360         862.250          45.000                                                                  
G03  25125648.820   132036143.933       -3408.950          31.000    25125666.556   102885402.556       -2656.219          30.000  
G06  21016567.098   110442801.319        -678.387          46.000    21016581.857    86059384.691        -528.715          46.000  
G22  20636545.601   108445716.848       -1140.272          46.000                                                                  
> 2025 04 19 06 02 40.0000000  0 13                     
G20  22216439.955   116748257.734        3125.143          41.000                                                                  
G30  25297493.447                       -1964.287          26.000    25297512.650   103589063.401       -1529.121          26.000  
G04  25158612.655   132209424.310         731.210          29.000                                                                  
G11  21872660.572   114941597.336         952.530          44.000    21872674.513    89564962.727         742.246          44.000  
G17  21812252.723   114623997.379        -170.615          44.000    21812265.860    89317381.734        -133.261          41.000  
G14  21272379.793   111786979.011       -2686.393          43.000    21272389.795    87106723.712       -2093.421          43.000  
G24  25153614.640   132183110.903        -785.160          33.000                                                                  
G09  23973460.544   125981339.044        1585.461          33.000    23973484.099    98167435.301        1235.278          32.000  
G12  24750275.773   130063567.644        3628.635          32.000                                                                  
G19  20807423.540   109343674.395         861.566          45.000                                                                  
G03  25126297.550   132039553.162       -3410.216          31.000    25126315.216   102888059.053       -2656.522          30.000  
G06  21016696.243   110443480.168        -679.194          46.000    21016710.981    86059913.659        -529.209          46.000  
G22  20636762.608   108446857.665       -1141.348          46.000                                                                  
> 2025 04 19 06 02 41.0000000  0 13                     
G20  22215845.281   116745132.589        3125.852          40.000                                                                  
G30  25297864.544                       -1962.491          26.000    25297886.228   103590592.544       -1529.063          26.000  
G04  25158473.555   132208693.137         731.285          29.000                                                                  
G11  21872479.198   114940644.652         952.713          44.000    21872493.233    89564220.380         742.355          44.000  
G17  21812285.171   114624168.008        -170.621          43.000    21812298.369    89317514.677        -132.969          41.000  
G14  21272891.059   111789665.546       -2686.565          44.000    21272901.005    87108817.116       -2093.571          43.000  
G24  25153764.323   132183896.755        -785.902          33.000                                                                  
G09  23973158.996   125979753.738        1585.681          33.000    23973182.485    98166199.972        1235.724          33.000  
G12  24749585.568   130059938.909        3629.102          33.000                                                                  
G19  20807259.626   109342812.731         861.499          45.000                                                                  
G03  25126946.273   132042962.594       -3408.211          31.000    25126964.069   102890715.814       -2656.171          30.000  
G06  21016825.420   110444159.387        -679.102          46.000    21016840.190    86060442.916        -529.061          46.000  
G22  20636979.802   108447999.168       -1141.423          46.000                                                                  
> 2025 04 19 06 02 42.0000000  0 13                     
G20  22215250.534   116742007.864        3124.422          40.000                                                                  
G30  25298238.269                       -1962.349          26.000    25298259.505   103592121.506       -1529.157          26.000  
G04  25158334.298   132207962.329         730.935          29.000                                                                  
G11  21872297.881   114939692.340         952.196          43.000    21872312.004    89563478.306         741.995          44.000  
G17  21812317.599   114624338.832        -170.759          43.000    21812330.894    89317647.786        -133.038          41.000  
G14  21273402.409   111792352.541       -2687.120          44.000    21273412.307    87110910.875       -2093.979          44.000  
G24  25153913.995   132184682.938        -786.984          33.000                                                                  
G09  23972857.325   125978168.678        1584.845          33.000    23972881.096    98164964.832        1235.614          32.000  
G12  24748895.239   130056310.366        3628.737          33.000                                                                  
G19  20807095.748   109341951.250         861.224          45.000                                                                  
G03  25127595.031   132046372.347       -3409.501          32.000    25127612.949   102893372.799       -2657.484          31.000  
G06  21016954.710   110444838.900        -679.581          46.000    21016969.556    86060972.406        -529.457          46.000  
G22  20637197.094   108449141.283       -1142.285          46.000                                                                  
> 2025 04 19 06 02 43.0000000  0 13                     
G20  22214655.994   116738883.445        3124.080          40.000                                                                  
G30  25298613.217                       -1963.112          26.000    25298632.954   103593650.161       -1527.947          26.000  
G04  25158195.195   132207231.842         730.297          29.000                                                                  
G11  21872116.729   114938740.357         951.290          44.000    21872130.893    89562736.491         741.403          44.000  
G17  21812350.162   114624509.823        -171.303          43.000    21812363.449    89317781.008        -133.451          41.000  
G14  21273913.879   111795039.961       -2687.913          43.000    21273923.673    87113004.953       -2094.284          44.000  
G24  25154063.754   132185469.386        -786.642          33.000                                                                  
G09  23972555.721   125976583.802        1584.204          33.000    23972579.456    98163729.862        1234.949          32.000  
G12  24748204.913   130052681.987        3628.230          33.000                                                                  
G19  20806931.889   109341089.917         860.968          45.000                                                                  
G03  25128243.705   132049782.256       -3410.281          32.000    25128261.839   102896029.857       -2657.686          31.000  
G06  21017084.064   110445518.632        -680.037          47.000    21017098.812    86061502.060        -529.717          46.000  
G22  20637414.517   108450283.930       -1143.223          46.000                                                                  
> 2025 04 19 06 02 44.0000000  0 13                     
G20  22214061.457   116735759.205        3124.116          40.000                                                                  
G30  25298986.691                       -1961.332          26.000    25299006.237   103595178.612       -1528.997          26.000  
G04  25158056.463   132206501.583         729.987          29.000                                                                  
G11  21871935.604   114937788.514         951.533          44.000    21871949.742    89561994.801         741.538          44.000  
G17  21812382.799   114624680.815        -171.112          43.000    21812396.005    89317914.241        -133.018          41.000  
G14  21274425.318   111797727.654       -2688.002          44.000    21274435.097    87115099.252       -2094.462          44.000  
G24  25154213.397   132186256.061        -787.353          33.000                                                                  
G09  23972254.076   125974998.939        1584.631          33.000    23972277.931    98162494.901        1234.998          33.000  
G12  24747514.512   130049053.590        3628.511          33.000                                                                  
G19  20806767.982   109340228.597         861.279          45.000                                                                  
G03  25128892.667   132053192.164       -3409.659          32.000    25128910.819   102898686.888       -2655.776          31.000  
G06  21017213.454   110446198.459        -679.951          47.000    21017228.265    86062031.806        -529.958          46.000  
G22  20637632.046   108451426.982       -1143.256          46.000                                                                  
> 2025 04 19 06 02 45.0000000  0 13                     
G20  22213467.060   116732635.338        3124.084          40.000                                                                  
G30  25299356.534                       -1961.307          26.000    25299379.404   103596706.698       -1528.216          25.000  
G04  25157917.498   132205771.689         729.474          29.000                                                                  
G11  21871754.474   114936837.022         951.483          44.000    21871768.667    89561253.384         741.204          44.000  
G17  21812415.296   114624852.000        -171.314          43.000    21812428.555    89318047.637        -133.620          41.000  
G14  21274936.730   111800415.794       -2688.334          44.000    21274946.633    87117193.904       -2094.619          44.000  
G24  25154363.422   132187043.036        -787.516          33.000                                                                  
G09  23971952.545   125973414.302        1584.625          33.000    23971976.634    98161260.145        1234.631          32.000  
G12  24746824.168   130045425.441        3627.769          33.000                                                                  
G19  20806604.120   109339367.467         861.090          45.000                                                                  
G03  25129541.736   132056602.290       -3410.170          32.000    25129559.746   102901344.217       -2657.648          31.000  
G06  21017342.830   110446878.555        -680.153          47.000    21017357.712    86062561.741        -530.014          46.000  
G22  20637849.667   108452570.641       -1143.903          46.000                                                                  
> 2025 04 19 06 02 46.0000000  0 13                     
G20  22212872.687   116729511.961        3123.105          40.000                                                                  
G30  25299731.334                       -1960.403          25.000    25299752.536   103598234.596       -1527.598          25.000  
G04  25157778.676   132205042.187         729.314          29.000                                                                  
G11  21871573.516   114935885.961         951.076          44.000    21871587.716    89560512.296         741.077          44.000  
G17  21812447.909   114625023.440        -171.533          43.000    21812461.275    89318181.221        -133.574          41.000  
G14  21275448.320   111803104.480       -2688.859          43.000    21275458.336    87119288.977       -2095.011          44.000  
G24  25154513.441   132187830.404        -786.963          33.000                                                                  
G09  23971651.041   125971829.964        1584.619          33.000    23971675.399    98160025.590        1234.369          33.000  
G12  24746133.986   130041797.507        3628.077          33.000                                                                  
G19  20806440.305   109338506.610         860.693          45.000                                                                  
G03  25130190.574   132060012.692       -3410.521          32.000    25130208.669   102904001.656       -2657.825          31.000  
G06  21017472.402   110447558.991        -680.459          46.000    21017487.283    86063091.954        -530.316          46.000  
G22  20638067.265   108453714.948       -1144.470          46.000                                                                  
> 2025 04 19 06 02 47.0000000  0 13                     
G20  22212278.390   116726388.756        3122.764          40.000                                                                  
G30  25300102.505                       -1959.440          25.000    25300125.513   103599762.235       -1527.052          25.000  
G04  25157640.020   132204312.943         728.893          29.000                                                                  
G11  21871392.585   114934935.095         950.778          44.000    21871406.743    89559771.354         740.952          44.000  
G17  21812480.664   114625194.933        -171.677          43.000    21812493.863    89318314.841        -133.588          41.000  
G14  21275960.054   111805793.451       -2688.986          44.000    21275970.094    87121384.282       -2095.429          44.000  
G24  25154663.341   132188618.025        -787.979          33.000                                                                  
G09  23971349.629   125970245.721        1584.021          33.000    23971373.851    98158791.059        1234.894          33.000  
G12  24745443.637   130038169.602        3627.949          33.000                                                                  
G19  20806276.554   109337645.780         860.541          45.000                                                                  
G03  25130839.498   132063423.126       -3410.292          32.000    25130857.640   102906659.154       -2657.944          31.000  
G06  21017601.933   110448239.544        -680.766          47.000    21017616.814    86063622.246        -530.328          46.000  
G22  20638285.077   108454859.681       -1144.867          46.000                                                                  
> 2025 04 19 06 02 48.0000000  0 13                     
G20  22211684.205   116723265.807        3122.333          40.000                                                                  
G04  25157501.342   132203583.887         729.071          29.000                                                                  
G11  21871211.708   114933984.443         950.627          44.000    21871225.930    89559030.593         740.551          44.000  
G17  21812513.316   114625366.488        -171.826          43.000    21812526.527    89318448.507        -133.649          41.000  
G14  21276471.698   111808482.768       -2689.601          44.000    21276481.900    87123479.843       -2095.902          44.000  
G24  25154813.424   132189405.803        -787.261          33.000                                                                  
G09  23971048.115   125968661.540        1584.039          33.000    23971072.335    98157556.631        1234.387          33.000  
G12  24744753.310   130034541.765        3628.134          33.000                                                                  
G19  20806112.737   109336784.991         860.645          45.000                                                                  
G03  25131488.592   132066833.668       -3410.703          31.000    25131506.641   102909316.696       -2657.971          30.000  
G06  21017731.444   110448920.220        -680.816          46.000    21017746.246    86064152.653        -530.573          45.000  
G22  20638503.032   108456004.879       -1145.499          46.000                                                                  
G30                                                                  25300498.496   103601289.546       -1527.015          24.000  
> 2025 04 19 06 02 49.0000000  0 13                     
G20  22211089.932   116720143.079        3122.787          40.000                                                                  
G30  25300849.006                       -1958.205          24.000    25300871.474   103602816.571       -1527.067          24.000  
G04  25157362.628   132202855.154         728.585          29.000                                                                  
G11  21871030.966   114933034.055         950.035          44.000    21871045.090    89558290.014         740.341          44.000  
G17  21812546.073   114625538.089        -171.534          43.000    21812559.154    89318582.220        -133.571          41.000  
G14  21276983.451   111811172.405       -2689.895          43.000    21276993.742    87125575.658       -2096.067          44.000  
G24  25154963.425   132190193.878        -788.101          33.000                                                                  
G09  23970746.700   125967077.444        1584.546          33.000    23970770.931    98156322.321        1233.868          33.000  
G12  24744062.733   130030913.996        3628.137          33.000                                                                  
G19  20805948.902   109335924.275         860.541          45.000                                                                  
G03  25132137.623   132070244.277       -3410.937          31.000    25132155.739   102911974.324       -2658.730          31.000  
G06  21017861.043   110449601.065        -680.906          46.000    21017875.781    86064683.178        -530.580          46.000  
G22  20638721.079   108457150.556       -1146.194          46.000                                                                  
> 2025 04 19 06 02 50.0000000  0 13                     
G20  22210495.715   116717020.742        3121.914          40.000                                                                  
G30  25301221.429                       -1958.350          23.000    25301244.354   103604343.337       -1527.099          24.000  
G04  25157223.711   132202126.704         728.265          29.000                                                                  
G11  21870850.206   114932083.962         950.081          44.000    21870864.367    89557549.687         740.088          44.000  
G17  21812578.780   114625709.873        -171.877          43.000    21812591.893    89318716.092        -134.062          41.000  
G14  21277495.341   111813862.468       -2690.161          44.000    21277505.665    87127671.823       -2096.422          44.000  
G24  25155113.447   132190982.273        -789.152          33.000                                                                  
G09  23970445.309   125965493.601        1583.679          33.000    23970469.436    98155088.121        1233.875          33.000  
G12  24743372.496   130027286.460        3627.121          32.000                                                                  
G19  20805785.138   109335063.727         860.577          45.000                                                                  
G03  25132786.700   132073655.022       -3410.415          31.000    25132804.697   102914632.054       -2658.025          30.000  
G06  21017990.595   110450282.154        -681.221          46.000    21018005.267    86065213.893        -530.882          46.000  
G22  20638939.195   108458296.776       -1146.455          46.000                                                                  
> 2025 04 19 06 02 51.0000000  0 13                     
G20  22209901.769   116713898.953        3121.660          40.000                                                                  
G30  25301593.907                       -1958.494          22.000    25301617.638                       -1526.686          24.000  
G04  25157085.299   132201398.845         727.570          29.000                                                                  
G11  21870669.476   114931134.394         949.561          44.000    21870683.672    89556809.776         739.764          44.000  
G17  21812611.471   114625882.034        -172.291          43.000    21812624.578    89318850.229        -134.170          41.000  
G14  21278007.427   111816553.195       -2690.924          44.000    21278017.645    87129768.479       -2096.879          44.000  
G24  25155263.565   132191771.172        -789.488          33.000                                                                  
G09  23970143.993   125963910.161        1583.295          33.000    23970168.107    98153854.212        1234.424          32.000  
G12  24742682.056   130023659.218        3627.186          33.000                                                                  
G19  20805621.453   109334203.557         860.022          45.000                                                                  
G03  25133435.831   132077066.251       -3411.655          30.000    25133453.677   102917290.117       -2657.928          30.000  
G06  21018120.288   110450963.697        -681.875          46.000    21018135.101    86065744.963        -531.358          46.000  
G22  20639157.518   108459443.784       -1147.210          46.000                                                                  
> 2025 04 19 06 02 52.0000000  0 13                     
G20  22209307.792   116710777.450        3121.625          40.000                                                                  
G04  25156946.864   132200671.284         727.584          29.000                                                                  
G11  21870488.802   114930185.155         949.385          44.000    21870502.920    89556070.097         739.782          44.000  
G17  21812644.328   114626054.322        -172.057          43.000    21812657.385    89318984.483        -134.247          41.000  
G14  21278519.503   111819244.313       -2691.125          44.000    21278529.753    87131865.441       -2096.654          44.000  
G24  25155413.620   132192560.342        -789.263          33.000                                                                  
G09  23969842.828   125962326.850        1583.289          33.000    23969866.525    98152620.472        1234.045          32.000  
G12  24741992.089   130020032.163        3626.948          33.000                                                                  
G19  20805457.755   109333343.511         860.248          45.000                                                                  
G03  25134084.910   132080477.579       -3411.652          30.000    25134102.891   102919948.342       -2658.187          30.000  
G06  21018250.042   110451645.433        -681.477          46.000    21018264.732    86066276.182        -531.032          46.000  
G22  20639375.923   108460591.315       -1147.554          46.000                                                                  
G30                                                                  25301991.297                       -1526.154          25.000  
> 2025 04 19 06 02 53.0000000  0 13                     
G20  22208713.853   116707656.223        3121.155          40.000                                                                  
G30  25302338.302                       -1959.973          22.000    25302363.063                       -1525.622          25.000  
G04  25156808.252   132199943.944         727.301          29.000                                                                  
G11  21870308.089   114929236.097         949.139          44.000    21870322.368    89555330.575         739.540          44.000  
G17  21812677.207   114626226.678        -172.246          43.000    21812690.189    89319118.771        -134.211          41.000  
G14  21279031.745   111821935.751       -2691.494          43.000    21279041.951    87133962.677       -2097.334          44.000  
G24  25155563.839   132193349.775        -790.207          33.000                                                                  
G09  23969541.682   125960743.654        1582.703          33.000    23969565.083    98151386.821        1233.905          32.000  
G12  24741301.941   130016405.147        3626.548          33.000                                                                  
G19  20805294.146   109332483.535         860.089          45.000                                                                  
G03  25134733.948   132083888.959       -3411.511          30.000    25134752.048   102922606.586       -2658.940          30.000  
G06  21018379.822   110452327.326        -681.936          46.000    21018394.676    86066807.523        -531.198          46.000  
G22  20639594.382   108461739.310       -1148.250          46.000                                                                  
> 2025 04 19 06 02 54.0000000  0 13                     
G20  22208119.995   116704535.192        3120.726          40.000                                                                  
G30  25302708.418                       -1948.739          22.000    25302736.296                       -1525.437          25.000  
G04  25156669.695   132199216.860         726.579          28.000                                                                  
G11  21870127.707   114928287.272         948.662          44.000    21870141.748    89554591.229         739.029          44.000  
G17  21812710.048   114626399.068        -172.589          44.000    21812722.977    89319253.100        -134.546          41.000  
G14  21279543.882   111824627.499       -2692.016          43.000    21279554.232    87136060.131       -2097.718          43.000  
G24  25155714.290   132194139.338        -789.695          33.000                                                                  
G09  23969240.407   125959160.521        1582.928          33.000    23969264.041    98150153.227        1233.215          32.000  
G12  24740611.761   130012778.179        3626.300          33.000                                                                  
G19  20805130.428   109331623.574         859.784          45.000                                                                  
G03  25135383.192   132087300.374       -3411.254          29.000    25135401.298   102925264.871       -2658.220          30.000  
G06  21018509.613   110453009.338        -682.357          46.000    21018524.471    86067338.961        -531.515          46.000  
G22  20639812.859   108462887.719       -1148.719          46.000                                                                  
> 2025 04 19 06 02 55.0000000  0 13                     
G20  22207526.194   116701414.559        3120.302          40.000                                                                  
G30  25303080.864                       -1956.888          22.000    25303109.685                       -1527.059          25.000  
G04  25156531.145   132198490.087         726.547          28.000                                                                  
G11  21869947.313   114927338.779         948.353          44.000    21869961.226    89553852.141         739.115          44.000  
G17  21812742.931   114626571.646        -172.435          44.000    21812755.854    89319387.578        -134.587          41.000  
G14  21280056.133   111827319.710       -2692.524          43.000    21280066.566    87138157.959       -2098.010          43.000  
G24  25155864.611   132194929.321        -790.152          32.000                                                                  
G09  23968939.270   125957577.607        1583.228          33.000    23968962.790    98148919.815        1232.770          33.000  
G12  24739921.603   130009151.371        3626.761          33.000                                                                  
G19  20804966.809   109330763.816         859.534          45.000                                                                  
G03  25136032.458   132090712.064       -3411.407          29.000    25136050.529   102927923.328       -2658.776          29.000  
G06  21018639.405   110453691.605        -682.359          46.000    21018654.283    86067870.608        -531.873          46.000  
G22  20640031.573   108464036.738       -1149.344          46.000                                                                  
> 2025 04 19 06 02 56.0000000  0 13                     
G20  22206932.371   116698294.149        3120.470          40.000                                                                  
G30  25303453.846                       -1951.027          21.000    25303482.872                       -1524.732          25.000  
G04  25156392.774   132197763.613         726.272          28.000                                                                  
G11  21869766.856   114926390.508         948.404          44.000    21869780.706    89553113.236         738.860          44.000  
G17  21812775.871   114626744.299        -172.241          43.000    21812788.659    89319522.112        -134.527          41.000  
G14  21280568.578   111830012.231       -2692.448          44.000    21280578.892    87140256.027       -2098.092          43.000  
G24  25156015.004   132195719.495        -789.820          33.000                                                                  
G09  23968638.230   125955994.810        1582.770          33.000    23968661.631    98147686.433        1233.075          33.000  
G12  24739231.309   130005524.642        3627.112          33.000                                                                  
G19  20804803.109   109329904.108         859.967          45.000                                                                  
G03  25136681.656   132094123.823       -3411.576          29.000    25136699.833   102930581.817       -2658.359          29.000  
G06  21018769.171   110454374.025        -682.406          46.000    21018784.120    86068402.346        -531.755          46.000  
G22  20640250.329   108465186.214       -1149.468          46.000                                                                  
> 2025 04 19 06 02 57.0000000  0 13                     
G20  22206338.626   116695173.858        3120.681          40.000                                                                  
G30  25303825.977                       -1957.902          20.000    25303855.819                       -1524.547          25.000  
G04  25156254.395   132197037.235         726.253          28.000                                                                  
G11  21869586.335   114925442.346         948.216          44.000    21869600.212    89552374.394         738.861          44.000  
G17  21812808.703   114626916.896        -172.469          43.000    21812821.613    89319656.604        -134.598          41.000  
G14  21281080.919   111832704.977       -2692.948          44.000    21281091.300    87142354.259       -2098.361          43.000  
G24  25156165.439   132196509.731        -790.023          33.000                                                                  
G09  23968336.946   125954411.961        1582.965          33.000    23968360.372    98146453.017        1233.881          33.000  
G12  24738541.258   130001897.876        3626.770          34.000                                                                  
G19  20804639.493   109329044.354         859.784          45.000                                                                  
G03  25137330.792   132097535.507       -3411.941          29.000    25137349.127   102933240.301       -2658.659          29.000  
G06  21018899.097   110455056.452        -682.351          46.000    21018913.953    86068934.113        -531.810          46.000  
G22  20640469.241   108466336.023       -1149.883          46.000                                                                  
> 2025 04 19 06 02 58.0000000  0 13                     
G20  22205744.922   116692053.888        3119.681          40.000                                                                  
G04  25156116.098   132196311.153         725.777          29.000                                                                  
G11  21869405.911   114924494.467         947.714          44.000    21869419.861    89551635.786         738.396          44.000  
G17  21812841.567   114627089.627        -172.947          43.000    21812854.329    89319791.185        -134.943          41.000  
G14  21281593.417   111835398.097       -2693.320          44.000    21281603.845    87144452.793       -2098.767          43.000  
G24  25156315.934   132197300.323        -791.175          33.000                                                                  
G09  23968035.787   125952829.281        1582.458          33.000    23968059.329    98145219.767        1233.264          33.000  
G12  24737851.211   129998271.245        3626.568          34.000                                                                  
G19  20804475.761   109328184.712         859.320          45.000                                                                  
G03  25137979.838   132100947.335       -3412.174          29.000    25137998.263   102935898.849       -2658.834          29.000  
G06  21019028.974   110455739.079        -682.709          46.000    21019043.760    86069466.027        -531.972          46.000  
G22  20640688.177   108467486.363       -1150.659          46.000                                                                  
G30                                                                  25304227.749                       -1524.224          25.000  
> 2025 04 19 06 02 59.0000000  0 13                     
G20  22205151.322   116688934.262        3119.089          40.000                                                                  
G30  25304572.071                       -1957.795          21.000    25304600.128                       -1523.921          24.000  
G04  25155978.044   132195585.431         725.486          29.000                                                                  
G11  21869225.636   114923546.915         947.200          44.000    21869239.604    89550897.435         738.176          44.000  
G17  21812874.404   114627262.513        -173.081          44.000    21812887.139    89319925.893        -134.737          41.000  
G14  21282105.925   111838091.658       -2693.802          44.000    21282116.355    87146551.675       -2099.130          43.000  
G24  25156466.490   132198091.172        -790.782          33.000                                                                  
G09  23967734.699   125951246.809        1582.184          33.000    23967758.480    98143986.661        1232.837          33.000  
G12  24737161.185   129994644.768        3626.628          33.000                                                                  
G19  20804312.306   109327325.239         859.192          45.000                                                                  
G03  25138629.042   132104359.312       -3412.180          29.000    25138647.605   102938557.585       -2659.493          30.000  
G06  21019158.973   110456421.968        -683.157          46.000    21019173.737    86069998.143        -532.255          46.000  
G22  20640907.252   108468637.262       -1151.240          46.000                                                                  
> 2025 04 19 06 03 00.0000000  0 13                     
G20  22204557.709   116685814.962        3119.027          40.000                                                                  
G30  25304945.631                       -1953.774          22.000    25304973.175                       -1522.869          25.000  
G04  25155839.895   132194860.037         725.531          28.000                                                                  
G11  21869045.291   114922599.662         947.354          44.000    21869059.385    89550159.325         737.990          44.000  
G17  21812907.246   114627435.568        -173.110          44.000    21812920.120    89320060.729        -134.886          41.000  
G14  21282618.662   111840785.639       -2694.253          44.000    21282629.041    87148650.885       -2099.570          43.000  
G24  25156617.017   132198882.360        -790.918          33.000                                                                  
G09  23967433.549   125949664.502        1582.813          33.000    23967457.308    98142753.714        1232.941          33.000  
G12  24736471.038   129991018.443        3626.371          33.000                                                                  
G19  20804148.857   109326465.912         859.338          45.000                                                                  
G03  25139278.494   132107771.513       -3412.158          29.000    25139296.981   102941216.392       -2658.678          30.000  
G06  21019288.928   110457105.080        -683.098          46.000    21019303.666    86070530.444        -532.372          46.000  
G22  20641126.246   108469788.722       -1151.729          46.000                                                                  
> 2025 04 19 06 03 01.0000000  0 13                     
G20  22203964.154   116682695.871        3119.105          40.000                                                                  
G30  25305318.434                       -1956.822          23.000    25305344.800                       -1523.456          24.000  
G04  25155701.658   132194134.878         724.911          29.000                                                                  
G11  21868865.123   114921652.624         946.937          44.000    21868879.166    89549421.365         737.794          44.000  
G17  21812940.217   114627608.645        -173.112          43.000    21812953.074    89320195.604        -135.138          41.000  
G14  21283131.321   111843479.931       -2694.689          44.000    21283141.694    87150750.319       -2099.685          43.000  
G24  25156767.828   132199673.730        -791.460          33.000                                                                  
G09  23967132.613   125948082.314        1581.897          33.000    23967156.187    98141520.801        1232.513          33.000  
G12  24735780.932   129987392.163        3626.268          33.000                                                                  
G19  20803985.426   109325606.625         859.088          45.000                                                                  
G03  25139927.754   132111183.722       -3412.529          29.000    25139946.452   102943875.263       -2659.001          30.000  
G06  21019418.887   110457788.316        -683.430          46.000    21019433.770    86071062.827        -532.599          46.000  
G22  20641345.339   108470940.605       -1152.111          46.000                                                                  
> 2025 04 19 06 03 02.0000000  0 13                     
G20  22203370.640   116679577.208        3117.947          41.000                                                                  
G30  25305688.469                       -1947.536          23.000    25305714.197                       -1524.864          24.000  
G04  25155563.634   132193410.055         724.754          28.000                                                                  
G11  21868685.009   114920705.954         946.165          44.000    21868698.949    89548683.692         737.426          44.000  
G17  21812973.167   114627781.917        -173.162          44.000    21812986.115    89320330.623        -135.304          41.000  
G14  21283644.104   111846174.677       -2695.098          44.000    21283654.493    87152850.124       -2100.255          44.000  
G24  25156918.580   132200465.515        -792.292          33.000                                                                  
G09  23966831.581   125946500.326        1581.647          33.000    23966855.612    98140288.082        1232.477          33.000  
G12  24735090.710   129983766.101        3625.166          32.000                                                                  
G19  20803821.953   109324747.538         858.917          45.000                                                                  
G03  25140577.225   132114596.142       -3412.729          30.000    25140595.790   102946534.347       -2659.563          29.000  
G06  21019549.024   110458471.827        -683.797          46.000    21019563.827    86071595.435        -532.923          46.000  
G22  20641564.660   108472093.092       -1152.999          46.000                                                                  
> 2025 04 19 06 03 03.0000000  0 13                     
G20  22202777.129   116676458.789        3118.417          40.000                                                                  
G30  25306060.703                       -1953.851          24.000    25306086.146                       -1522.177          24.000  
G04  25155425.816   132192685.575         724.177          28.000                                                                  
G11  21868504.928   114919759.512         946.349          44.000    21868518.920    89547946.204         737.372          44.000  
G17  21813006.142   114627955.312        -173.454          43.000    21813019.071    89320465.701        -134.951          41.000  
G14  21284157.063   111848869.779       -2695.208          43.000    21284167.435    87154950.193       -2100.122          44.000  
G24  25157069.381   132201257.493        -792.416          33.000                                                                  
G09  23966530.576   125944918.465        1581.793          33.000    23966554.801    98139055.448        1232.751          33.000  
G12  24734400.530   129980140.087        3626.288          32.000                                                                  
G19  20803658.472   109323888.541         859.113          45.000                                                                  
G03  25141226.626   132118008.681       -3412.756          30.000    25141245.131   102949193.442       -2658.706          30.000  
G06  21019679.074   110459155.499        -683.570          46.000    21019693.978    86072128.169        -532.788          46.000  
G22  20641784.105   108473246.053       -1153.126          46.000                                                                  
> 2025 04 19 06 03 04.0000000  0 13                     
G20  22202183.769   116673340.546        3118.171          40.000                                                                  
G30  25306431.577                       -1953.890          25.000    25306457.618                       -1522.276          25.000  
G04  25155287.947   132191961.167         724.444          28.000                                                                  
G11  21868324.832   114918813.215         946.370          44.000    21868338.872    89547208.841         737.274          44.000  
G17  21813039.142   114628128.666        -173.236          43.000    21813052.096    89320600.792        -135.085          41.000  
G14  21284669.989   111851565.135       -2695.414          43.000    21284680.404    87157050.478       -2100.583          44.000  
G24  25157220.094   132202049.623        -792.174          33.000                                                                  
G09  23966229.495   125943336.633        1581.427          33.000    23966253.610    98137822.832        1232.697          33.000  
G12  24733710.404   129976514.108        3625.410          32.000                                                                  
G19  20803494.995   109323029.537         858.832          45.000                                                                  
G03  25141875.806   132121421.200       -3412.344          30.000    25141894.539   102951852.615       -2659.475          29.000  
G06  21019809.136   110459839.234        -683.755          46.000    21019824.096    86072660.944        -532.810          46.000  
G22  20642003.581   108474399.417       -1153.676          46.000                                                                  
> 2025 04 19 06 03 05.0000000  0 13                     
G20  22201590.545   116670222.769        3117.830          40.000                                                                  
G30  25306800.809                       -1952.226          25.000    25306828.253                       -1522.822          25.000  
G04  25155150.387   132191237.329         723.669          29.000                                                                  
G11  21868144.847   114917867.392         945.587          44.000    21868158.856    89546471.823         736.918          44.000  
G17  21813072.213   114628302.339        -173.697          43.000    21813085.171    89320736.121        -135.557          41.000  
G14  21285182.874   111854261.055       -2696.025          43.000    21285193.426    87159151.179       -2100.836          44.000  
G24  25157371.088   132202842.177        -792.499          33.000                                                                  
G09  23965928.542   125941755.108        1581.464          33.000    23965952.149    98136590.496        1231.647          33.000  
G12  24733020.488   129972888.418        3624.863          32.000                                                                  
G19  20803331.543   109322170.823         858.521          45.000                                                                  
G03  25142525.264   132124834.089       -3413.152          29.000    25142544.019   102954511.979       -2659.739          29.000  
G06  21019939.347   110460523.354        -684.148          46.000    21019954.310    86073194.017        -533.118          46.000  
G22  20642223.201   108475553.468       -1154.279          46.000                                                                  
