     3.04           OBSERVATION DATA    G: GPS              RINEX VERSION / TYPE
RTKCONV demo5 b34i                      20250516 050452 UTC PGM / RUN BY / DATE 
format: u-blox UBX                                          COMMENT             
log: D:\20242\NGUYENDS\GNSS_DOA_Spoofing\hai\ngoc\2025-04-19COMMENT             
                                                            MARKER NAME         
                                                            MARKER NUMBER       
                                                            MARKER TYPE         
                                                            OBSERVER / AGENCY   
                                                            REC # / TYPE / VERS 
                                                            ANT # / TYPE        
 -1626588.0603  5730533.1802  2271868.7040                  APPROX POSITION XYZ 
        0.0000        0.0000        0.0000                  ANTENNA: DELTA H/E/N
G    8 C1C L1C D1C S1C C2X L2X D2X S2X                      SYS / # / OBS TYPES 
  2025    04    19    06    00   17.9940000     GPS         TIME OF FIRST OBS   
  2025    04    19    06    28   35.9930000     GPS         TIME OF LAST OBS    
G L1C                                                       SYS / PHASE SHIFT   
G L2X  0.00000                                              SYS / PHASE SHIFT   
  0                                                         GLONASS SLOT / FRQ #
                                                            GLONASS COD/PHS/BIS 
                                                            END OF HEADER       
> 2025 04 19 06 00 17.9940000  0 13                     
G20  20504168.778   107750153.7251       3283.340          35.000                                                                  
G19  19033640.660   100022379.7841        994.183          40.000                                                                  
G17  20010581.353   105156149.7191        -37.408          39.000    20010594.410    81939841.3691        -29.585          37.000  
G11  20101659.251   105634929.2511       1109.870          38.000    20101673.087    82313017.8171        864.591          40.000  
G04  23381653.309   122871436.6241        889.678          28.000    23381690.669    95744116.4891        692.813          31.000  
G09  22219293.636   116763147.9221       1722.640          33.000    22219318.062    90984350.0231       1341.753          34.000  
G03  23237150.352   122112038.7431      -3272.928          28.000    23237168.487    95152350.0531      -2550.311          31.000  
G12  23051270.077   121135224.8041       3760.717          31.000                                                                  
G06  19201445.521   100904264.2191       -533.558          41.000    19201459.836    78626784.4341       -415.815          40.000  
G30  23446502.861                       -1894.162          23.000    23446524.598    96009568.2921      -1477.163          31.000  
G14  19403251.337   101964660.4441      -2514.155          38.000    19403262.102    79452953.3821      -1958.776          41.000  
G22  18809630.318    98845188.0071       -950.744          40.000                                                                  
G24                                                                  23335670.274    95555637.5581       -489.887          34.000  
> 2025 04 19 06 00 18.9940000  0 13                     
G20  20503543.880   107746870.003        3284.229          35.000                                                                  
G19  19033451.330   100021385.277         994.995          40.000                                                                  
G17  20010588.547   105156187.027         -37.145          39.000    20010601.482    81939870.417         -29.111          37.000  
G11  20101448.045   105633819.607        1109.887          38.000    20101461.887    82312153.167         864.739          40.000  
G04  23381484.111   122870547.089         889.750          28.000    23381521.400    95743423.353         693.094          30.000  
G09  22218966.017   116761425.326        1723.082          32.000    22218990.215    90983007.751        1342.170          34.000  
G03  23237773.106   122115311.279       -3272.425          29.000    23237791.104    95154900.120       -2550.105          31.000  
G12  23050554.264   121131463.180        3761.719          31.000                                                                  
G06  19201547.056   100904797.688        -533.682          41.000    19201561.391    78627200.126        -416.169          40.000  
G30  23446862.246                       -1893.221          23.000    23446885.250    96011044.699       -1476.269          31.000  
G14  19403729.691   101967174.354       -2513.765          38.000    19403740.480    79454912.279       -1958.826          41.000  
G22  18809811.320    98846139.007        -951.058          40.000                                                                  
G24                                                                  23335789.843    95556127.435        -490.025          34.000  
> 2025 04 19 06 00 19.9940000  0 13                     
G20  20502919.050   107743586.576        3283.257          36.000                                                                  
G19  19033262.060   100020390.837         994.299          40.000                                                                  
G17  20010595.650   105156224.390         -37.669          39.000    20010608.587    81939899.514         -29.046          37.000  
G11  20101237.013   105632710.198        1109.193          38.000    20101250.791    82311288.672         864.440          40.000  
G04  23381314.818   122869657.812         889.250          28.000    23381352.166    95742730.442         693.140          30.000  
G09  22218638.041   116759702.773        1723.095          32.000    22218662.367    90981665.483        1342.627          34.000  
G03  23238395.970   122118583.929       -3272.659          28.000    23238413.879    95157450.212       -2549.611          31.000  
G12  23049838.571   121127701.626        3761.634          31.000                                                                  
G06  19201648.629   100905331.265        -533.394          41.000    19201662.955    78627615.887        -415.679          40.000  
G30  23447222.856                       -1893.074          23.000    23447245.749    96012520.803       -1476.490          31.000  
G14  19404208.180   101969688.639       -2514.851          38.000    19404218.877    79456871.445       -1959.343          41.000  
G22  18809992.379    98847090.443        -951.459          40.000                                                                  
G24                                                                  23335909.298    95556617.494        -490.474          34.000  
> 2025 04 19 06 00 20.9940000  0 13                     
G20  20502294.234   107740303.498        3283.188          36.000                                                                  
G19  19033072.850   100019396.645         994.031          40.000                                                                  
G17  20010602.822   105156261.980         -37.549          39.000    20010615.750    81939928.836         -29.752          37.000  
G11  20101026.034   105631601.223        1108.681          38.000    20101039.751    82310424.540         863.849          40.000  
G04  23381145.556   122868768.986         888.376          28.000    23381182.945    95742037.850         692.635          31.000  
G09  22218310.338   116757980.588        1722.006          32.000    22218334.730    90980323.536        1341.002          34.000  
G03  23239018.834   122121856.813       -3272.225          28.000    23239036.788    95160000.598       -2550.737          31.000  
G12  23049122.937   121123940.362        3761.061          31.000                                                                  
G06  19201750.145   100905865.219        -534.021          41.000    19201764.598    78628031.952        -416.041          40.000  
G30  23447583.939                       -1894.318          24.000    23447606.091    96013996.757       -1475.543          31.000  
G14  19404686.693   101972203.455       -2515.392          38.000    19404697.542    79458831.032       -1959.887          41.000  
G22  18810173.588    98848042.589        -952.504          40.000                                                                  
G24                                                                  23336028.924    95557107.888        -491.221          34.000  
> 2025 04 19 06 00 21.9940000  0 13                     
G20  20501669.635   107737020.979        3282.088          36.000                                                                  
G19  19032883.691   100018402.753         993.561          40.000                                                                  
G17  20010610.108   105156299.883         -37.498          39.000    20010623.029    81939958.357         -29.720          37.000  
G11  20100815.107   105630492.703        1108.397          38.000    20100828.807    82309560.755         863.785          40.000  
G04  23380976.501   122867880.594         888.061          28.000    23381013.913    95741345.649         691.885          31.000  
G09  22217982.570   116756258.678        1721.668          32.000    22218007.213    90978981.759        1341.579          34.000  
G03  23239641.684   122125130.175       -3273.469          28.000    23239659.763    95162551.169       -2550.094          31.000  
G12  23048407.170   121120179.356        3760.136          31.000                                                                  
G06  19201851.837   100906399.577        -534.683          41.000    19201866.279    78628448.343        -416.677          40.000  
G30  23447943.778                       -1893.399          24.000    23447966.576    96015472.555       -1474.708          31.000  
G14  19405165.418   101974718.852       -2515.846          38.000    19405176.193    79460791.084       -1960.365          41.000  
G22  18810354.932    98848995.409        -953.201          40.000                                                                  
G24                                                                  23336148.777    95557598.640        -491.225          34.000  
> 2025 04 19 06 00 22.9940000  0 13                     
G20  20501045.083   107733738.628        3282.069          36.000                                                                  
G19  19032694.720   100017408.887         993.683          40.000                                                                  
G17  20010617.383   105156337.855         -38.080          39.000    20010630.299    81939987.924         -29.538          37.000  
G11  20100604.165   105629384.400        1108.172          38.000    20100617.947    82308697.151         863.441          40.000  
G04  23380807.529   122866992.414         887.924          28.000    23380844.989    95740653.568         691.011          31.000  
G09  22217654.815   116754536.820        1721.965          32.000    22217679.590    90977640.075        1341.272          34.000  
G03  23240264.772   122128403.520       -3273.719          29.000    23240282.730    95165101.863       -2550.622          32.000  
G12  23047691.469   121116418.347        3760.886          31.000                                                                  
G06  19201953.508   100906934.035        -534.501          41.000    19201967.964    78628864.808        -416.675          40.000  
G30  23448305.786                       -1891.980          24.000    23448326.890    96016948.048       -1474.112          31.000  
G14  19405644.149   101977234.554       -2515.887          38.000    19405654.931    79462751.370       -1960.343          41.000  
G22  18810536.304    98849948.686        -953.763          40.000                                                                  
G24                                                                  23336268.657    95558089.550        -490.908          34.000  
> 2025 04 19 06 00 23.9940000  0 13                     
G20  20500420.429   107730456.385        3281.911          36.000                                                                  
G19  19032505.415   100016414.959         993.274          40.000                                                                  
G17  20010624.628   105156375.730         -38.135          39.000    20010637.509    81940017.433         -29.636          37.000  
G11  20100393.318   105628276.199        1107.974          38.000    20100407.057    82307833.612         863.264          40.000  
G04  23380638.277   122866104.341         888.189          28.000    23380675.888    95739961.529         692.358          31.000  
G09  22217327.011   116752814.951        1721.576          32.000    22217351.965    90976298.286        1342.161          34.000  
G03  23240887.674   122131676.795       -3273.390          29.000    23240905.399    95167652.457       -2550.180          31.000  
G12  23046975.987   121112657.306        3760.479          31.000                                                                  
G06  19202055.238   100907468.569        -535.071          41.000    19202069.661    78629281.302        -416.552          40.000  
G30  23448668.115                       -1893.330          23.000    23448687.274    96018423.227       -1475.514          31.000  
G14  19406122.886   101979750.503       -2516.261          38.000    19406133.758    79464711.843       -1960.871          41.000  
G22  18810717.775    98850902.289        -954.049          40.000                                                                  
G24                                                                  23336388.333    95558580.561        -491.032          34.000  
> 2025 04 19 06 00 24.9940000  0 13                     
G20  20499795.925   107727174.526        3281.734          36.000                                                                  
G19  19032316.444   100015421.229         993.463          40.000                                                                  
G17  20010631.939   105156413.825         -38.403          39.000    20010644.826    81940047.115         -30.031          37.000  
G11  20100182.403   105627168.379        1107.324          38.000    20100196.256    82306970.377         863.032          40.000  
G04  23380469.285   122865216.642         887.860          28.000    23380507.054    95739269.930         690.572          30.000  
G09  22216999.416   116751093.283        1721.455          31.000    22217024.644    90974956.803        1340.657          34.000  
G03  23241510.524   122134950.349       -3273.613          29.000    23241528.378    95170203.297       -2550.856          31.000  
G12  23046260.292   121108896.430        3760.922          31.000                                                                  
G06  19202157.139   100908003.368        -535.025          41.000    19202171.323    78629698.043        -417.119          40.000  
G30  23449029.449                       -1894.191          23.000    23449047.432    96019898.153       -1474.786          31.000  
G14  19406601.824   101982266.939       -2517.132          38.000    19406612.610    79466672.697       -1961.168          41.000  
G22  18810899.360    98851856.536        -955.171          40.000                                                                  
G24                                                                  23336508.562    95559071.873        -491.370          34.000  
> 2025 04 19 06 00 25.9940000  0 13                     
G20  20499171.531   107723893.070        3280.703          36.000                                                                  
G19  19032127.315   100014427.661         993.481          40.000                                                                  
G17  20010639.161   105156452.075         -38.399          39.000    20010652.043    81940076.912         -29.924          37.000  
G11  20099971.743   105626060.900        1107.227          38.000    20099985.509    82306107.402         862.880          40.000  
G04  23380300.400   122864329.354         886.827          28.000    23380338.220    95738578.484         691.342          30.000  
G09  22216671.733   116749371.878        1720.520          32.000    22216697.151    90973615.357        1340.715          34.000  
G03  23242133.710   122138224.115       -3274.025          29.000    23242151.327    95172754.255       -2549.993          31.000  
G12  23045544.821   121105135.783        3759.821          31.000                                                                  
G06  19202258.898   100908538.446        -535.051          41.000    19202273.186    78630114.990        -417.013          40.000  
G30  23449387.639                       -1892.539          23.000    23449407.487    96021372.835       -1474.938          31.000  
G14  19407080.730   101984783.804       -2516.596          38.000    19407091.538    79468633.908       -1961.449          41.000  
G22  18811080.979    98852811.340        -955.104          40.000                                                                  
G24                                                                  23336628.622    95559563.444        -491.538          34.000  
> 2025 04 19 06 00 26.9940000  0 13                     
G20  20498547.187   107720611.881        3281.334          36.000                                                                  
G19  19031938.221   100013434.301         993.030          40.000                                                                  
G17  20010646.394   105156490.540         -38.698          39.000    20010659.488    81940106.869         -30.046          37.000  
G11  20099761.076   105624953.806        1106.680          38.000    20099774.874    82305244.729         862.465          40.000  
G04  23380131.385   122863442.358         886.684          28.000    23380169.478    95737887.301         691.609          30.000  
G09  22216343.916   116747650.556        1721.532          32.000    22216369.589    90972274.122        1341.311          34.000  
G03  23242756.612   122141498.085       -3274.039          29.000    23242774.302    95175305.461       -2550.674          31.000  
G12  23044829.153   121101375.267        3759.731          31.000                                                                  
G06  19202360.761   100909073.807        -535.438          41.000    19202375.179    78630532.158        -417.290          40.000  
G30  23449748.515                       -1891.642          24.000    23449767.471    96022847.328       -1474.227          30.000  
G14  19407559.697   101987301.195       -2517.700          38.000    19407570.508    79470595.500       -1962.090          41.000  
G22  18811262.773    98853766.762        -955.657          40.000                                                                  
G24                                                                  23336748.845    95560055.349        -492.162          34.000  
> 2025 04 19 06 00 27.9940000  0 13                     
G20  20497923.009   107717331.256        3280.623          36.000                                                                  
G19  19031749.353   100012441.228         993.036          40.000                                                                  
G17  20010653.778   105156529.307         -39.139          39.000    20010666.906    81940137.081         -30.434          37.000  
G11  20099550.339   105623847.172        1106.591          38.000    20099564.273    82304382.407         862.426          41.000  
G04  23379962.715   122862555.873         886.214          29.000    23380000.659    95737196.589         691.481          30.000  
G09  22216016.417   116745929.668        1721.012          32.000    22216042.003    90970933.184        1340.183          34.000  
G03  23243379.826   122144772.437       -3274.740          29.000    23243397.440    95177856.944       -2552.651          31.000  
G12  23044113.600   121097615.040        3759.640          31.000                                                                  
G06  19202462.643   100909609.598        -536.000          41.000    19202477.142    78630949.627        -417.480          40.000  
G30  23450107.781                       -1891.847          24.000    23450127.631    96024321.743       -1474.954          30.000  
G14  19408038.818   101989819.146       -2517.913          38.000    19408049.760    79472557.536       -1962.142          40.000  
G22  18811444.530    98854722.893        -956.514          40.000                                                                  
G24                                                                  23336869.177    95560547.577        -492.583          34.000  
> 2025 04 19 06 00 28.9940000  0 13                     
G20  20497298.823   107714051.092        3279.425          36.000                                                                  
G19  19031560.385   100011448.462         992.603          40.000                                                                  
G17  20010661.198   105156568.357         -39.262          39.000    20010674.384    81940167.486         -30.008          38.000  
G11  20099339.900   105622741.009        1106.029          38.000    20099353.766    82303520.485         861.645          40.000  
G04  23379794.052   122861669.837         885.892          28.000    23379832.016    95736506.252         690.002          31.000  
G09  22215689.135   116744209.066        1720.903          32.000    22215714.509    90969592.421        1341.027          34.000  
G03  23244003.042   122148047.109       -3274.724          28.000    23244020.652    95180408.637       -2551.647          31.000  
G12  23043398.010   121093855.118        3759.896          30.000                                                                  
G06  19202564.736   100910145.742        -536.213          41.000    19202579.039    78631367.432        -418.217          40.000  
G30  23450466.850                       -1890.353          24.000    23450487.727    96025795.928       -1474.073          30.000  
G14  19408518.094   101992337.697       -2518.989          38.000    19408529.088    79474520.044       -1962.719          41.000  
G22  18811626.586    98855679.740        -957.362          40.000                                                                  
G24                                                                  23336989.379    95561040.171        -492.174          34.000  
> 2025 04 19 06 00 29.9940000  0 13                     
G20  20496674.684   107710771.156        3279.879          36.000                                                                  
G19  19031371.378   100010455.738         992.834          40.000                                                                  
G17  20010668.682   105156607.482         -38.964          39.000    20010681.900    81940197.984         -30.392          38.000  
G11  20099129.411   105621635.058        1106.330          38.000    20099143.386    82302658.712         861.745          40.000  
G04  23379625.224   122860784.064         885.722          29.000    23379663.501    95735816.009         690.321          31.000  
G09  22215361.500   116742488.605        1720.397          32.000    22215387.016    90968251.779        1340.705          34.000  
G03  23244626.076   122151321.851       -3274.658          28.000    23244643.870    95182960.362       -2551.307          31.000  
G12  23042682.724   121090095.281        3760.194          31.000                                                                  
G06  19202666.760   100910682.075        -536.202          41.000    19202681.092    78631785.356        -418.149          40.000  
G30  23450829.397                       -1891.502          25.000    23450847.706    96027269.893       -1474.004          30.000  
G14  19408997.443   101994856.571       -2518.993          38.000    19409008.454    79476482.814       -1963.189          41.000  
G22  18811808.791    98856637.052        -957.735          40.000                                                                  
G24                                                                  23337109.680    95561532.986        -492.393          34.000  
> 2025 04 19 06 00 30.9940000  0 13                     
G20  20496050.493   107707491.407        3279.634          36.000                                                                  
G19  19031182.602   100009463.070         992.560          40.000                                                                  
G17  20010676.082   105156646.664         -39.572          39.000    20010689.337    81940228.512         -30.473          38.000  
G11  20098919.046   105620529.384        1105.371          38.000    20098933.017    82301797.129         861.281          40.000  
G04  23379456.774   122859898.495         885.591          29.000    23379495.082    95735126.005         690.191          31.000  
G09  22215034.137   116740768.168        1720.463          32.000    22215059.593    90966911.159        1340.616          34.000  
G03  23245249.210   122154596.702       -3275.567          28.000    23245267.190    95185512.206       -2551.544          31.000  
G12  23041967.283   121086335.471        3759.802          31.000                                                                  
G06  19202768.793   100911218.551        -536.891          41.000    19202783.193    78632203.361        -418.223          40.000  
G30  23451188.282                       -1892.766          25.000    23451207.597    96028743.495       -1473.503          30.000  
G14  19409476.837   101997375.826       -2519.916          38.000    19409487.937    79478445.840       -1963.312          41.000  
G22  18811991.176    98857594.798        -957.940          40.000                                                                  
G24                                                                  23337229.870    95562025.949        -492.776          34.000  
> 2025 04 19 06 00 31.9940000  0 13                     
G20  20495426.476   107704212.190        3278.690          36.000                                                                  
G19  19030993.794   100008470.716         991.724          40.000                                                                  
G17  20010683.650   105156686.138         -39.624          39.000    20010696.761    81940259.261         -31.037          38.000  
G11  20098708.731   105619424.177        1104.409          38.000    20098722.596    82300935.913         860.911          40.000  
G04  23379288.513   122859013.426         884.780          29.000    23379326.772    95734436.382         689.108          31.000  
G09  22214706.767   116739048.088        1719.583          32.000    22214732.457    90965570.841        1339.757          34.000  
G03  23245872.546   122157871.907       -3275.620          28.000    23245890.456    95188064.325       -2552.025          30.000  
G12  23041251.837   121082575.959        3759.308          31.000                                                                  
G06  19202870.934   100911755.405        -537.083          41.000    19202885.328    78632621.705        -418.575          40.000  
G30  23451546.421                       -1890.822          25.000    23451567.525    96030216.975       -1472.834          31.000  
G14  19409956.285   101999895.613       -2520.007          38.000    19409967.394    79480409.328       -1963.979          41.000  
G22  18812173.500    98858553.301        -959.442          40.000                                                                  
G24                                                                  23337350.286    95562519.330        -493.470          33.000  
> 2025 04 19 06 00 32.9940000  0 13                     
G20  20494802.518   107700933.413        3278.746          36.000                                                                  
G19  19030804.897   100007478.622         992.133          40.000                                                                  
G17  20010691.236   105156725.910         -39.766          39.000    20010704.313    81940290.246         -30.860          38.000  
G11  20098498.455   105618319.404        1104.482          38.000    20098512.312    82300075.060         860.572          40.000  
G04  23379120.172   122858128.828         884.440          29.000    23379158.356    95733747.015         689.933          31.000  
G09  22214379.381   116737328.310        1719.173          32.000    22214405.617    90964230.761        1339.551          34.000  
G03  23246495.636   122161147.374       -3275.110          27.000    23246513.605    95190616.650       -2552.083          30.000  
G12  23040536.359   121078816.748        3759.129          31.000                                                                  
G06  19202973.233   100912292.652        -537.426          41.000    19202987.548    78633040.325        -418.588          40.000  
G30  23451906.201                       -1889.166          25.000    23451927.558    96031690.407       -1473.560          31.000  
G14  19410435.901   102002415.998       -2520.437          38.000    19410446.926    79482373.256       -1964.307          41.000  
G22  18812355.904    98859512.450        -959.676          40.000                                                                  
G24                                                                  23337470.922    95563013.049        -493.762          33.000  
> 2025 04 19 06 00 33.9940000  0 13                     
G20  20494178.558   107697654.975        3278.097          36.000                                                                  
G19  19030616.082   100006486.702         991.742          40.000                                                                  
G17  20010698.822   105156765.838         -40.340          39.000    20010712.047    81940321.347         -31.041          38.000  
G11  20098288.331   105617214.956        1104.003          38.000    20098302.174    82299214.443         860.379          40.000  
G04  23378951.675   122857244.563         883.647          29.000    23378990.258    95733058.066         688.721          31.000  
G09  22214052.278   116735608.671        1720.274          32.000    22214078.421    90962890.792        1339.681          34.000  
G03  23247118.921   122164423.077       -3275.733          27.000    23247137.087    95193169.207       -2552.484          29.000  
G12  23039821.239   121075057.669        3758.306          31.000                                                                  
G06  19203075.569   100912830.163        -537.928          41.000    19203089.950    78633459.160        -419.121          40.000  
G30  23452265.520                       -1890.676          24.000    23452287.439    96033163.516       -1473.461          31.000  
G14  19410915.618   102004936.844       -2521.295          38.000    19410926.673    79484337.528       -1964.346          41.000  
G22  18812538.461    98860472.163        -960.005          40.000                                                                  
G24                                                                  23337591.527    95563507.019        -494.375          33.000  
> 2025 04 19 06 00 34.9940000  0 13                     
G20  20493554.705   107694376.841        3278.066          36.000                                                                  
G19  19030427.244   100005494.895         991.681          40.000                                                                  
G17  20010706.477   105156805.897         -40.496          39.000    20010719.756    81940352.564         -31.377          38.000  
G11  20098078.101   105616110.802        1104.131          38.000    20098092.069    82298354.072         860.396          40.000  
G04  23378783.370   122856360.543         883.848          29.000    23378822.072    95732369.251         689.027          30.000  
G09  22213725.144   116733889.223        1720.016          32.000    22213751.496    90961550.951        1339.678          34.000  
G03  23247742.331   122167698.969       -3276.257          27.000    23247760.416    95195721.773       -2552.545          29.000  
G12  23039106.048   121071298.696        3758.938          31.000                                                                  
G06  19203177.977   100913367.866        -537.921          41.000    19203192.241    78633878.141        -418.710          40.000  
G30  23452626.252                       -1891.640          24.000    23452647.202    96034636.359       -1472.352          31.000  
G14  19411395.395   102007458.080       -2521.821          38.000    19411406.476    79486302.123       -1964.536          41.000  
G22  18812721.283    98861432.416        -960.363          40.000                                                                  
G24                                                                  23337712.112    95564001.217        -494.046          33.000  
> 2025 04 19 06 00 35.9940000  0 13                     
G20  20492930.972   107691099.025        3277.161          36.000                                                                  
G19  19030238.620   100004503.210         991.595          40.000                                                                  
G17  20010714.120   105156846.059         -40.428          39.000    20010727.435    81940383.859         -31.599          38.000  
G11  20097868.038   105615006.966        1103.543          38.000    20097881.995    82297493.934         860.029          40.000  
G04  23378615.583   122855476.878         883.676          29.000    23378653.954    95731680.640         689.143          30.000  
G09  22213398.015   116732169.904        1719.789          32.000    22213424.439    90960211.192        1340.032          34.000  
G03  23248365.589   122170974.948       -3276.190          27.000    23248383.676    95198274.535       -2552.713          29.000  
G12  23038390.545   121067539.855        3758.611          31.000                                                                  
G06  19203280.300   100913905.800        -538.160          41.000    19203294.697    78634297.335        -419.405          40.000  
G30  23452986.387                       -1887.511          25.000    23453006.862    96036108.987       -1472.146          31.000  
G14  19411875.349   102009979.727       -2522.222          38.000    19411886.313    79488267.053       -1965.405          41.000  
G22  18812904.178    98862393.227        -961.202          40.000                                                                  
G24                                                                  23337832.705    95564495.672        -494.807          33.000  
> 2025 04 19 06 00 36.9940000  0 13                     
G20  20492307.386   107687821.532        3277.371          36.000                                                                  
G19  19030049.874   100003511.691         991.327          40.000                                                                  
G17  20010721.828   105156886.410         -40.641          39.000    20010735.132    81940415.299         -31.679          38.000  
G11  20097657.995   105613903.468        1103.118          38.000    20097672.038    82296634.068         859.578          40.000  
G04  23378447.576   122854593.552         883.066          29.000    23378485.803    95730992.389         688.233          30.000  
G09  22213071.115   116730450.828        1718.801          32.000    22213097.418    90958871.665        1339.372          34.000  
G03  23248989.049   122174251.176       -3276.799          27.000    23249007.115    95200827.436       -2552.970          29.000  
G12  23037675.244   121063781.174        3758.480          31.000                                                                  
G06  19203382.727   100914444.020        -538.602          41.000    19203397.159    78634716.715        -419.716          40.000  
G30  23453346.574                       -1890.847          24.000    23453366.445    96037581.423       -1472.955          31.000  
G14  19412355.231   102012501.828       -2522.385          38.000    19412366.154    79490232.319       -1965.553          41.000  
G22  18813087.069    98863354.602        -962.016          40.000                                                                  
G24                                                                  23337953.497    95564990.390        -495.399          33.000  
> 2025 04 19 06 00 37.9940000  0 13                     
G20  20491683.843   107684544.462        3276.801          36.000                                                                  
G19  19029861.256   100002520.402         991.046          40.000                                                                  
G17  20010729.590   105156926.990         -40.966          39.000    20010742.906    81940446.917         -31.823          38.000  
G11  20097448.007   105612800.356        1103.069          38.000    20097462.148    82295774.505         859.364          40.000  
G04  23378279.579   122853710.674         881.989          29.000    23378317.583    95730304.391         688.185          30.000  
G09  22212744.154   116728731.981        1719.212          32.000    22212770.610    90957532.291        1339.001          34.000  
G03  23249612.401   122177527.654       -3276.678          27.000    23249630.488    95203380.543       -2553.257          29.000  
G12  23036959.971   121060022.749        3758.293          32.000                                                                  
G06  19203485.291   100914982.526        -538.370          41.000    19203499.626    78635136.346        -419.929          40.000  
G30  23453704.342                       -1887.349          24.000    23453726.095    96039053.605       -1472.074          31.000  
G14  19412835.262   102015024.443       -2523.082          38.000    19412846.134    79492197.979       -1965.700          41.000  
G22  18813270.064    98864316.590        -962.274          40.000                                                                  
G24                                                                  23338074.389    95565485.386        -495.084          33.000  
> 2025 04 19 06 00 38.9940000  0 13                     
G20  20491060.283   107681267.644        3276.805          36.000                                                                  
G19  19029672.678   100001529.201         991.095          40.000                                                                  
G17  20010737.273   105156967.657         -40.995          39.000    20010750.759    81940478.585         -31.581          38.000  
G11  20097238.212   105611697.521        1102.689          38.000    20097252.285    82294915.141         859.213          40.000  
G04  23378111.595   122852827.971         882.676          29.000    23378149.479    95729616.649         687.139          30.000  
G09  22212417.163   116727013.239        1719.124          32.000    22212443.601    90956193.023        1339.223          34.000  
G03  23250235.962   122180804.231       -3276.347          27.000    23250254.024    95205933.759       -2553.376          29.000  
G12  23036244.658   121056264.401        3757.944          31.000                                                                  
G06  19203587.838   100915521.234        -538.696          41.000    19203602.123    78635556.101        -419.644          40.000  
G30  23454063.642                       -1889.301          25.000    23454085.483    96040525.599       -1472.016          31.000  
G14  19413315.426   102017547.435       -2523.344          38.000    19413326.186    79494163.945       -1965.906          41.000  
G22  18813453.066    98865279.092        -962.611          40.000                                                                  
G24                                                                  23338195.223    95565980.626        -495.138          33.000  
> 2025 04 19 06 00 39.9940000  0 13                     
G20  20490436.819   107677991.191        3276.392          35.000                                                                  
G19  19029484.214   100000538.178         990.900          40.000                                                                  
G17  20010745.026   105157008.507         -40.874          39.000    20010758.621    81940510.425         -31.814          38.000  
G11  20097028.376   105610595.039        1102.257          39.000    20097042.486    82294056.053         859.177          40.000  
G04  23377943.565   122851945.643         882.561          29.000    23377981.367    95728929.163         687.249          30.000  
G09  22212090.073   116725294.748        1718.485          32.000    22212116.613    90954853.911        1339.227          34.000  
G03  23250859.497   122184081.096       -3276.712          27.000    23250877.605    95208487.161       -2553.575          29.000  
G12  23035529.560   121052506.198        3758.213          32.000                                                                  
G06  19203690.376   100916060.238        -538.849          41.000    19203704.690    78635976.098        -419.927          40.000  
G30  23454423.783                       -1890.052          25.000    23454444.943    96041997.292       -1471.766          31.000  
G14  19413795.611   102020070.892       -2523.787          38.000    19413806.483    79496130.277       -1966.236          41.000  
G22  18813636.286    98866242.197        -963.387          40.000                                                                  
G24                                                                  23338316.127    95566476.147        -495.806          33.000  
> 2025 04 19 06 00 40.9940000  0 13                     
G20  20489813.329   107674714.938        3276.131          35.000                                                                  
G19  19029295.728    99999547.187         990.881          40.000                                                                  
G17  20010752.831   105157049.393         -40.918          39.000    20010766.430    81940542.277         -32.210          38.000  
G11  20096818.552   105609492.732        1102.537          39.000    20096832.810    82293197.147         858.647          40.000  
G04  23377775.697   122851063.563         882.266          30.000    23377813.441    95728241.848         686.126          31.000  
G09  22211763.006   116723576.293        1718.357          32.000    22211789.426    90953514.824        1338.763          34.000  
G03  23251483.068   122187357.913       -3276.393          27.000    23251501.249    95211040.551       -2553.463          29.000  
G12  23034814.389   121048748.022        3758.204          32.000                                                                  
G06  19203793.015   100916599.360        -539.217          41.000    19203807.244    78636396.202        -420.348          40.000  
G30  23454784.222                       -1887.070          25.000    23454804.304    96043468.682       -1471.150          31.000  
G14  19414275.891   102022594.663       -2523.949          38.000    19414286.733    79498096.853       -1966.644          41.000  
G22  18813819.682    98867205.725        -963.716          40.000                                                                  
G24                                                                  23338437.093    95566971.805        -495.539          33.000  
> 2025 04 19 06 00 41.9940000  0 13                     
G20  20489189.864   107671438.745        3275.898          36.000                                                                  
G19  19029107.225    99998556.044         991.382          40.000                                                                  
G17  20010760.499   105157090.150         -41.026          39.000    20010774.128    81940574.024         -31.756          38.000  
G11  20096608.817   105608390.503        1102.113          39.000    20096623.108    82292338.255         858.693          40.000  
G04  23377607.929   122850181.505         882.199          29.000    23377645.491    95727554.564         686.260          31.000  
G09  22211436.013   116721857.715        1718.507          32.000    22211462.196    90952175.680        1339.032          34.000  
G03  23252106.846   122190634.703       -3276.268          27.000    23252124.779    95213593.904       -2553.156          29.000  
G12  23034099.032   121044989.778        3757.708          32.000                                                                  
G06  19203895.611   100917138.427        -539.059          40.000    19203909.822    78636816.247        -419.956          40.000  
G30  23455142.525                       -1888.626          25.000    23455163.409    96044939.609       -1470.615          31.000  
G14  19414756.198   102025118.588       -2524.212          38.000    19414766.998    79500063.544       -1966.760          41.000  
G22  18814003.130    98868169.543        -964.095          40.000                                                                  
G24                                                                  23338558.148    95567467.551        -496.345          33.000  
> 2025 04 19 06 00 42.9940000  0 13                     
G20  20488566.425   107668162.521        3275.933          36.000                                                                  
G19  19028918.351    99997564.734         991.223          40.000                                                                  
G17  20010768.360   105157130.723         -40.930          39.000    20010781.864    81940605.620         -31.494          38.000  
G11  20096399.128   105607288.251        1102.121          38.000    20096413.347    82291479.332         858.956          40.000  
G04  23377440.064   122849299.439         882.534          30.000    23377477.560    95726867.233         687.367          31.000  
G09  22211108.915   116720138.986        1718.549          32.000    22211134.935    90950836.390        1339.283          34.000  
G03  23252730.444   122193911.419       -3277.100          27.000    23252748.178    95216147.152       -2553.257          29.000  
G12  23033383.734   121041231.290        3758.039          32.000                                                                  
G06  19203998.234   100917677.423        -539.182          40.000    19204012.426    78637236.237        -419.767          40.000  
G30  23455499.792                       -1884.614          25.000    23455522.603    96046410.082       -1471.144          31.000  
G14  19415236.508   102027642.616       -2524.198          38.000    19415247.416    79502030.311       -1966.865          41.000  
G22  18814186.552    98869133.572        -964.617          40.000                                                                  
G24                                                                  23338679.115    95567963.241        -495.935          33.000  
> 2025 04 19 06 00 43.9940000  0 13                     
G20  20487943.023   107664886.484        3275.974          36.000                                                                  
G19  19028729.683    99996573.420         991.241          40.000                                                                  
G17  20010776.056   105157171.279         -40.549          39.000    20010789.540    81940637.235         -31.512          38.000  
G11  20096189.439   105606186.169        1102.245          38.000    20096203.536    82290620.580         858.796          40.000  
G04  23377272.270   122848417.556         881.874          30.000    23377309.618    95726180.087         686.822          30.000  
G09  22210781.690   116718420.302        1718.074          32.000    22210807.847    90949497.126        1339.495          34.000  
G03  23253354.091   122197188.047       -3276.448          27.000    23253371.720    95218700.443       -2553.945          30.000  
G12  23032668.510   121037472.738        3759.202          32.000                                                                  
G06  19204100.816   100918216.513        -538.985          41.000    19204115.042    78637656.315        -420.006          40.000  
G30  23455857.256                       -1885.637          25.000    23455881.664    96047880.128       -1470.095          31.000  
G14  19415716.744   102030166.939       -2524.892          38.000    19415727.794    79503997.322       -1967.364          41.000  
G22  18814370.069    98870098.002        -964.545          40.000                                                                  
G24                                                                  23338800.240    95568459.043        -495.597          32.000  
> 2025 04 19 06 00 44.9940000  0 13                     
G20  20487319.694   107661610.685        3275.603          36.000                                                                  
G19  19028540.887    99995582.138         991.382          40.000                                                                  
G17  20010783.722   105157211.905         -40.781          39.000    20010797.284    81940668.878         -31.637          38.000  
G11  20095979.813   105605084.313        1101.711          38.000    20095993.867    82289761.984         858.445          40.000  
G04  23377104.497   122847535.918         881.479          30.000    23377141.731    95725493.090         686.215          31.000  
G09  22210454.677   116716701.638        1719.045          32.000    22210480.712    90948157.915        1339.789          34.000  
G03  23253977.559   122200464.811       -3276.797          28.000    23253995.177    95221253.757       -2553.981          30.000  
G12  23031953.198   121033714.333        3758.265          32.000                                                                  
G06  19204203.376   100918755.725        -539.161          41.000    19204217.663    78638076.483        -420.227          40.000  
G30  23456217.006                       -1887.855          25.000    23456240.557    96049349.883       -1469.253          31.000  
G14  19416197.218   102032691.581       -2524.953          38.000    19416208.082    79505964.543       -1967.175          41.000  
G22  18814553.613    98871062.910        -965.352          40.000                                                                  
G24                                                                  23338921.121    95568955.054        -495.937          32.000  
> 2025 04 19 06 00 45.9940000  0 13                     
G20  20486696.368   107658335.365        3274.576          36.000                                                                  
G19  19028352.494    99994591.154         990.674          40.000                                                                  
G17  20010791.514   105157252.817         -41.347          39.000    20010805.158    81940700.761         -32.397          38.000  
G11  20095770.206   105603982.908        1100.789          38.000    20095784.155    82288903.732         858.013          40.000  
G04  23376936.776   122846654.675         881.293          30.000    23376973.897    95724806.412         686.491          31.000  
G09  22210127.682   116714983.327        1718.464          32.000    22210153.807    90946818.997        1338.725          34.000  
G03  23254601.157   122203741.920       -3277.570          28.000    23254618.711    95223807.293       -2553.475          30.000  
G12  23031238.082   121029956.191        3757.611          32.000                                                                  
G06  19204305.946   100919295.350        -539.967          41.000    19204320.313    78638496.963        -420.785          40.000  
G30  23456576.388                       -1885.225          25.000    23456599.455    96050819.498       -1469.921          31.000  
G14  19416677.761   102035216.783       -2525.616          38.000    19416688.707    79507932.253       -1968.033          41.000  
G22  18814737.376    98872028.486        -966.134          40.000                                                                  
G24                                                                  23339042.196    95569451.452        -496.813          32.000  
> 2025 04 19 06 00 46.9940000  0 13                     
G20  20486073.145   107655060.523        3274.976          36.000                                                                  
G19  19028164.025    99993600.517         990.576          40.000                                                                  
G17  20010799.345   105157294.071         -41.287          39.000    20010812.983    81940732.903         -32.305          38.000  
G11  20095560.748   105602882.015        1100.762          38.000    20095574.649    82288045.906         857.824          40.000  
G04  23376769.073   122845774.050         880.433          29.000    23376806.307    95724120.198         686.298          31.000  
G09  22209800.795   116713265.381        1717.781          32.000    22209826.792    90945480.321        1339.164          34.000  
G03  23255224.812   122207019.363       -3277.492          29.000    23255242.373    95226361.194       -2554.002          30.000  
G12  23030522.977   121026198.389        3757.683          32.000                                                                  
G06  19204408.720   100919835.421        -540.430          41.000    19204423.090    78638917.784        -420.975          40.000  
G30  23456933.980                       -1887.347          26.000    23456958.464    96052289.071       -1469.972          31.000  
G14  19417158.442   102037742.645       -2526.317          38.000    19417169.399    79509900.454       -1968.589          41.000  
G22  18814921.406    98872994.844        -966.954          40.000                                                                  
G24                                                                  23339163.341    95569948.267        -497.810          32.000  
> 2025 04 19 06 00 47.9940000  0 13                     
G20  20485450.019   107651785.944        3274.510          36.000                                                                  
G19  19027975.613    99992609.936         990.198          40.000                                                                  
G17  20010807.233   105157335.413         -42.068          39.000    20010820.903    81940765.085         -32.448          38.000  
G11  20095351.320   105601781.384        1100.154          38.000    20095365.327    82287188.258         857.488          40.000  
G04  23376601.589   122844893.607         879.976          29.000    23376638.916    95723434.205         685.446          31.000  
G09  22209473.865   116711547.524        1717.931          32.000    22209499.953    90944141.760        1338.483          34.000  
G03  23255848.467   122210296.918       -3277.650          29.000    23255866.042    95228915.119       -2554.255          30.000  
G12  23029808.037   121022440.641        3757.277          32.000                                                                  
G06  19204511.440   100920375.632        -540.786          41.000    19204525.857    78639338.726        -421.202          40.000  
G30  23457293.163                       -1887.948          25.000    23457317.270    96053758.294       -1469.021          31.000  
G14  19417639.148   102040268.844       -2526.708          38.000    19417650.115    79511868.889       -1968.626          41.000  
G22  18815105.396    98873961.647        -967.138          40.000                                                                  
G24                                                                  23339284.818    95570445.196        -497.349          32.000  
> 2025 04 19 06 00 48.9940000  0 13                     
G20  20484826.933   107648511.801        3274.008          36.000                                                                  
G19  19027787.011    99991619.555         990.240          40.000                                                                  
G17  20010815.092   105157376.936         -41.612          39.000    20010828.832    81940797.452         -32.486          38.000  
G11  20095141.878   105600681.129        1100.095          38.000    20095156.005    82286330.919         857.311          41.000  
G04  23376433.965   122844013.598         879.485          30.000    23376471.427    95722748.484         685.604          31.000  
G09  22209147.171   116709829.952        1717.175          32.000    22209172.968    90942803.391        1337.813          34.000  
G03  23256472.285   122213574.670       -3276.990          30.000    23256489.509    95231469.275       -2554.375          31.000  
G12  23029092.987   121018683.093        3757.794          32.000                                                                  
G06  19204614.368   100920916.142        -540.610          41.000    19204628.697    78639759.915        -421.311          40.000  
G30  23457651.151                       -1885.049          25.000    23457675.899    96055227.380       -1469.608          31.000  
G14  19418119.973   102042795.530       -2527.049          38.000    19418130.917    79513837.761       -1969.208          41.000  
G22  18815289.334    98874929.080        -967.707          40.000                                                                  
G24                                                                  23339406.307    95570942.437        -496.664          32.000  
> 2025 04 19 06 00 49.9940000  0 13                     
G20  20484203.813   107645237.811        3274.266          35.000                                                                  
G19  19027598.477    99990629.234         990.289          40.000                                                                  
G17  20010823.022   105157418.524         -41.945          39.000    20010836.790    81940829.833         -32.100          37.000  
G11  20094932.600   105599581.074        1099.677          38.000    20094946.691    82285473.744         857.039          41.000  
G04  23376266.558   122843133.768         879.346          30.000    23376303.879    95722062.889         685.548          31.000  
G09  22208820.345   116708112.426        1716.991          32.000    22208846.027    90941465.009        1338.210          34.000  
G03  23257096.035   122216852.610       -3278.103          30.000    23257113.311    95234023.437       -2553.954          31.000  
G12  23028378.150   121014925.583        3757.799          32.000                                                                  
G06  19204717.200   100921456.800        -540.705          40.000    19204731.648    78640181.193        -421.357          40.000  
G30  23458008.231                       -1883.635          25.000    23458034.613    96056696.060       -1468.369          31.000  
G14  19418600.923   102045322.530       -2527.004          38.000    19418611.868    79515806.842       -1969.173          41.000  
G22  18815473.515    98875896.963        -967.765          40.000                                                                  
G24                                                                  23339527.832    95571439.936        -497.879          32.000  
> 2025 04 19 06 00 50.9940000  0 13                     
G20  20483580.919   107641963.969        3273.438          35.000                                                                  
G19  19027410.059    99989638.814         990.356          40.000                                                                  
G17  20010830.974   105157460.009         -41.827          39.000    20010844.719    81940862.167         -32.341          37.000  
G11  20094723.245   105598481.106        1099.727          38.000    20094737.397    82284616.626         857.054          41.000  
G04  23376099.142   122842254.052         879.134          30.000    23376136.584    95721377.390         685.581          31.000  
G09  22208493.527   116706394.831        1717.091          32.000    22208519.311    90940126.615        1338.820          34.000  
G03  23257719.951   122220130.419       -3278.153          31.000    23257737.080    95236577.583       -2553.638          31.000  
G12  23027663.149   121011168.018        3757.003          32.000                                                                  
G06  19204820.084   100921997.462        -540.839          40.000    19204834.468    78640602.481        -421.178          40.000  
G30  23458367.381                       -1885.646          26.000    23458393.094    96058164.426       -1469.485          31.000  
G14  19419081.832   102047849.752       -2527.425          38.000    19419092.814    79517776.109       -1969.355          41.000  
G22  18815657.818    98876865.187        -968.587          40.000                                                                  
G24                                                                  23339649.342    95571937.422        -497.496          32.000  
> 2025 04 19 06 00 51.9940000  0 13                     
G20  20482957.904   107638690.552        3273.321          35.000                                                                  
G19  19027221.622    99988648.678         990.430          40.000                                                                  
G17  20010838.785   105157501.774         -41.653          39.000    20010852.658    81940894.722         -32.530          38.000  
G11  20094513.978   105597381.606        1099.633          38.000    20094528.245    82283759.864         856.714          41.000  
G04  23375931.612   122841374.754         879.203          30.000    23375969.195    95720692.236         685.324          31.000  
G09  22208166.738   116704677.534        1717.369          32.000    22208192.892    90938788.475        1338.090          34.000  
G03  23258343.667   122223408.577       -3278.455          31.000    23258360.997    95239132.008       -2554.530          31.000  
G12  23026948.303   121007410.706        3756.606          32.000                                                                  
G06  19204923.010   100922538.517        -541.203          40.000    19204937.467    78641024.070        -421.444          40.000  
G30  23458726.092                       -1884.270          26.000    23458751.662    96059632.536       -1468.245          31.000  
G14  19419562.845   102050377.548       -2528.088          38.000    19419573.858    79519745.798       -1969.871          41.000  
G22  18815842.250    98877834.075        -968.919          40.000                                                                  
G24                                                                  23339770.955    95572435.268        -497.957          32.000  
> 2025 04 19 06 00 52.9940000  0 13                     
G20  20482335.227   107635417.529        3272.635          36.000                                                                  
G19  19027033.103    99987658.736         989.697          40.000                                                                  
G17  20010846.929   105157543.763         -42.443          39.000    20010860.649    81940927.391         -32.254          37.000  
G11  20094304.739   105596282.454        1099.241          38.000    20094319.024    82282903.383         856.339          41.000  
G04  23375764.452   122840495.891         877.870          30.000    23375802.002    95720007.428         685.052          31.000  
G09  22207839.971   116702960.467        1717.330          32.000    22207866.250    90937450.494        1337.816          34.000  
G03  23258967.339   122226686.901       -3278.114          30.000    23258984.853    95241686.571       -2554.334          31.000  
G12  23026233.391   121003653.525        3757.353          32.000                                                                  
G06  19205026.075   100923079.813        -541.314          40.000    19205040.437    78641445.874        -421.750          40.000  
G30  23459086.260                       -1882.928          27.000    23459110.139    96061100.475       -1467.015          31.000  
G14  19420043.937   102052905.798       -2528.721          38.000    19420054.934    79521715.859       -1970.020          41.000  
G22  18816026.823    98878803.575        -969.535          40.000                                                                  
G24                                                                  23339892.589    95572933.460        -499.074          32.000  
> 2025 04 19 06 00 53.9940000  0 13                     
G20  20481712.421   107632144.719        3272.565          36.000                                                                  
G19  19026844.854    99986668.852         990.027          40.000                                                                  
G17  20010854.915   105157585.795         -42.135          39.000    20010868.637    81940960.174         -32.726          37.000  
G11  20094095.662   105595183.551        1098.708          38.000    20094109.891    82282047.077         856.417          40.000  
G04  23375597.213   122839617.252         877.363          30.000    23375634.815    95719322.717         685.977          31.000  
G09  22207513.024   116701243.483        1717.156          32.000    22207539.645    90936112.575        1337.947          34.000  
G03  23259591.351   122229965.392       -3278.453          30.000    23259608.978    95244241.227       -2554.758          31.000  
G12  23025518.392   120999896.477        3756.955          32.000                                                                  
G06  19205129.125   100923621.304        -541.530          41.000    19205143.440    78641867.821        -421.978          40.000  
G30  23459445.468                       -1881.641          27.000    23459468.503    96062568.095       -1467.290          31.000  
G14  19420525.083   102055434.383       -2528.823          38.000    19420536.091    79523686.196       -1970.428          41.000  
G22  18816211.345    98879773.551        -970.296          40.000                                                                  
G24                                                                  23340014.379    95573431.757        -498.723          32.000  
> 2025 04 19 06 00 54.9940000  0 13                     
G20  20481089.722   107628872.296        3272.176          36.000                                                                  
G19  19026656.463    99985679.152         989.624          40.000                                                                  
G17  20010863.013   105157628.026         -42.202          39.000    20010876.666    81940993.081         -33.353          38.000  
G11  20093886.719   105594085.007        1098.348          38.000    20093900.865    82281191.083         855.704          40.000  
G04  23375430.141   122838738.937         877.641          30.000    23375467.734    95718638.418         684.516          31.000  
G09  22207186.523   116699526.781        1716.437          32.000    22207213.052    90934774.868        1337.436          35.000  
G03  23260215.423   122233244.076       -3278.684          30.000    23260232.821    95246796.012       -2554.602          31.000  
G12  23024803.526   120996139.600        3756.908          32.000                                                                  
G06  19205232.202   100924163.067        -541.874          41.000    19205246.566    78642289.986        -422.589          40.000  
G30  23459803.565   123282098.8623      -1881.594          27.000    23459826.789    96064035.561       -1466.885          31.000  
G14  19421006.373   102057963.472       -2529.405          38.000    19421017.312    79525656.908       -1970.915          41.000  
G22  18816396.006    98880744.129        -971.154          40.000                                                                  
G24                                                                  23340136.124    95573930.382        -499.007          32.000  
> 2025 04 19 06 00 55.9940000  0 13                     
G20  20480467.201   107625600.217        3271.405          36.000                                                                  
G19  19026468.083    99984689.607         989.716          40.000                                                                  
G17  20010871.076   105157670.417         -42.754          39.000    20010884.764    81941026.100         -33.171          38.000  
G11  20093677.723   105592986.785        1097.798          38.000    20093691.856    82280335.320         855.585          40.000  
G04  23375263.129   122837860.953         878.010          30.000    23375300.694    95717954.299         684.553          30.000  
G09  22206859.890   116697810.179        1716.394          32.000    22206886.315    90933437.278        1336.879          35.000  
G03  23260839.192   122236522.954       -3279.818          30.000    23260856.837    95249351.055       -2556.080          31.000  
G12  23024088.691   120992382.870        3756.526          32.000                                                                  
G06  19205335.336   100924705.104        -542.297          41.000    19205349.692    78642712.329        -422.581          40.000  
G30  23460160.880   123283981.8432      -1882.304          27.000    23460184.883    96065502.793       -1467.419          31.000  
G14  19421487.714   102060493.009       -2530.162          38.000    19421498.639    79527627.961       -1971.189          41.000  
G22  18816580.824    98881715.255        -971.349          40.000                                                                  
G24                                                                  23340257.945    95574429.248        -499.018          32.000  
> 2025 04 19 06 00 56.9940000  0 13                     
G20  20479844.619   107622328.529        3271.074          36.000                                                                  
G19  19026279.829    99983700.304         988.806          40.000                                                                  
G17  20010879.168   105157713.030         -42.815          39.000    20010892.818    81941059.321         -33.673          38.000  
G11  20093468.928   105591888.964        1097.208          38.000    20093482.951    82279479.882         855.125          40.000  
G04  23375095.986   122836983.391         876.780          30.000    23375133.826    95717270.507         684.264          31.000  
G09  22206533.253   116696093.861        1716.647          32.000    22206559.725    90932099.867        1337.102          35.000  
G03  23261463.260   122239802.035       -3279.040          30.000    23261480.893    95251906.186       -2554.578          31.000  
G12  23023373.782   120988626.378        3756.081          32.000                                                                  
G06  19205438.576   100925247.424        -542.748          41.000    19205452.864    78643134.931        -422.896          40.000  
G30  23460518.450   123285864.6182      -1883.091          27.000    23460543.220    96066969.843       -1467.231          31.000  
G14  19421969.216   102063023.026       -2530.357          38.000    19421979.979    79529599.413       -1971.841          41.000  
G22  18816765.676    98882687.027        -972.046          40.000                                                                  
G24                                                                  23340379.581    95574928.452        -500.027          32.000  
> 2025 04 19 06 00 57.9940000  0 13                     
G20  20479221.987   107619057.416        3271.053          36.000                                                                  
G19  19026091.627    99982711.394         988.873          40.000                                                                  
G17  20010887.365   105157756.068         -43.019          39.000    20010901.005    81941092.836         -33.399          38.000  
G11  20093260.134   105590791.695        1097.599          38.000    20093274.220    82278624.885         854.756          40.000  
G04  23374929.217   122836106.434         877.147          30.000    23374967.124    95716587.202         683.306          31.000  
G09  22206206.881   116694377.969        1715.971          32.000    22206233.116    90930762.791        1337.164          35.000  
G03  23262087.027   122243081.618       -3279.449          30.000    23262104.993    95254461.719       -2555.530          31.000  
G12  23022659.069   120984870.272        3756.265          32.000                                                                  
G06  19205541.885   100925790.268        -542.822          41.000    19205556.165    78643557.931        -423.184          40.000  
G30  23460877.104   123287747.2522      -1882.305          27.000    23460901.440    96068436.809       -1466.566          31.000  
G14  19422450.816   102065553.739       -2530.840          38.000    19422461.640    79531571.392       -1972.040          41.000  
G22  18816950.637    98883659.606        -972.649          40.000                                                                  
G24                                                                  23340501.495    95575428.096        -499.917          32.000  
> 2025 04 19 06 00 58.9940000  0 13                     
G20  20478599.437   107615786.339        3271.105          36.000                                                                  
G19  19025903.383    99981722.337         988.831          40.000                                                                  
G17  20010895.406   105157798.935         -42.992          39.000    20010909.133    81941126.223         -33.340          38.000  
G11  20093051.332   105589694.486        1097.094          38.000    20093065.271    82277769.878         855.075          40.000  
G04  23374762.416   122835229.475         877.429          30.000    23374800.222    95715903.895         682.820          32.000  
G09  22205880.329   116692661.946        1716.951          32.000    22205906.509    90929425.669        1336.631          35.000  
G03  23262711.018   122246361.058       -3279.415          29.000    23262728.997    95257017.155       -2555.983          31.000  
G12  23021944.325   120981114.035        3756.173          33.000                                                                  
G06  19205645.082   100926333.034        -542.733          41.000    19205659.430    78643980.865        -423.033          40.000  
G30  23461236.464   123289629.2782      -1881.926          27.000    23461259.497    96069903.288       -1465.618          30.000  
G14  19422932.419   102068084.580       -2531.112          38.000    19422943.307    79533543.469       -1972.038          41.000  
G22  18817135.718    98884632.453        -973.271          40.000                                                                  
G24                                                                  23340623.110    95575927.748        -500.107          32.000  
> 2025 04 19 06 00 59.9940000  0 13                     
G20  20477977.070   107612515.630        3270.542          36.000                                                                  
G19  19025715.435    99980733.465         988.660          40.000                                                                  
G17  20010903.579   105157842.013         -42.820          39.000    20010917.205    81941159.787         -33.340          38.000  
G11  20092842.594   105588597.625        1096.646          38.000    20092856.553    82276915.204         854.401          40.000  
G04  23374595.420   122834352.948         875.608          30.000    23374633.432    95715220.842         682.844          32.000  
G09  22205553.844   116690946.181        1715.950          32.000    22205580.134    90928088.659        1337.012          35.000  
G03  23263335.206   122249640.748       -3280.018          29.000    23263353.107    95259572.704       -2555.290          31.000  
G12  23021229.370   120977357.973        3755.800          32.000                                                                  
G06  19205748.391   100926876.119        -543.349          41.000    19205762.814    78644404.031        -423.238          40.000  
G30  23461594.942   123291511.0812      -1881.938          27.000    23461617.644    96071369.614       -1465.989          30.000  
G14  19423414.054   102070615.915       -2531.588          38.000    19423425.012    79535515.938       -1972.793          41.000  
G22  18817320.958    98885605.892        -973.724          40.000                                                                  
G24                                                                  23340745.273    95576427.677        -499.861          32.000  
> 2025 04 19 06 01 00.9940000  0 13                     
G20  20477354.737   107609245.322        3270.096          36.000                                                                  
G19  19025527.421    99979744.802         988.446          40.000                                                                  
G17  20010911.818   105157885.326         -43.562          39.000    20010925.376    81941193.536         -34.208          38.000  
G11  20092633.955   105587501.128        1096.520          38.000    20092647.902    82276060.794         854.085          40.000  
G04  23374428.695   122833476.727         875.858          29.000    23374466.720    95714538.134         682.355          32.000  
G09  22205227.461   116689230.672        1714.484          32.000    22205253.474    90926751.873        1337.039          35.000  
G03  23263959.406   122252920.620       -3279.313          29.000    23263977.221    95262128.522       -2555.597          31.000  
G12  23020514.633   120973602.121        3755.237          32.000                                                                  
G06  19205851.773   100927419.482        -543.638          41.000    19205866.285    78644827.437        -423.797          40.000  
G30  23461953.507   123293392.578       -1881.742          27.000    23461975.729    96072835.731       -1466.156          30.000  
G14  19423895.852   102073147.731       -2532.284          38.000    19423906.760    79537488.782       -1973.380          41.000  
G22  18817506.372    98886579.929        -974.064          40.000                                                                  
G24                                                                  23340867.429    95576927.938        -500.792          32.000  
> 2025 04 19 06 01 01.9940000  0 13                     
G20  20476732.375   107605975.309        3270.260          36.000                                                                  
G19  19025339.435    99978756.267         988.428          40.000                                                                  
G17  20010920.205   105157928.724         -43.032          39.000    20010933.666    81941227.356         -34.125          38.000  
G11  20092425.319   105586404.972        1096.095          38.000    20092439.318    82275206.635         853.984          40.000  
G04  23374262.019   122832600.829         875.953          29.000    23374300.000    95713855.644         682.131          32.000  
G09  22204901.062   116687515.244        1715.448          32.000    22204927.050    90925415.190        1336.638          35.000  
G03  23264583.422   122256200.755       -3280.170          29.000    23264601.390    95264684.396       -2555.564          31.000  
G12  23019799.772   120969846.352        3755.820          32.000                                                                  
G06  19205955.173   100927963.075        -543.669          40.000    19205969.758    78645251.005        -423.678          40.000  
G30  23462313.815   123295273.822       -1881.950          27.000    23462333.797    96074301.599       -1465.764          30.000  
G14  19424377.623   102075679.958       -2532.690          38.000    19424388.619    79539461.948       -1973.651          41.000  
G22  18817691.832    98887554.533        -974.798          40.000                                                                  
G24                                                                  23340989.794    95577428.382        -500.728          32.000  
> 2025 04 19 06 01 02.9940000  0 13                     
G20  20476110.177   107602705.623        3269.938          36.000                                                                  
G19  19025151.297    99977767.867         988.251          40.000                                                                  
G17  20010928.473   105157972.301         -43.821          39.000    20010941.892    81941261.293         -34.037          38.000  
G11  20092216.831   105585309.090        1095.999          38.000    20092230.841    82274352.708         853.660          40.000  
G04  23374095.365   122831725.314         875.182          29.000    23374133.247    95713173.401         682.172          31.000  
G09  22204574.677   116685800.031        1715.322          32.000    22204600.648    90924078.614        1336.989          34.000  
G03  23265207.673   122259480.965       -3280.475          29.000    23265225.645    95267240.491       -2557.188          31.000  
G12  23019085.178   120966090.782        3755.407          32.000                                                                  
G06  19206058.702   100928506.892        -543.707          40.000    19206073.256    78645674.770        -424.065          40.000  
G30  23462671.126   123297154.649       -1880.781          28.000    23462691.788    96075767.227       -1465.278          30.000  
G14  19424859.529   102078212.606       -2532.767          38.000    19424870.568    79541435.422       -1973.678          41.000  
G22  18817877.350    98888529.664        -975.337          40.000                                                                  
G24                                                                  23341112.131    95577929.111        -500.517          32.000  
> 2025 04 19 06 01 03.9940000  0 13                     
G20  20475488.000   107599436.344        3269.102          36.000                                                                  
G19  19024963.165    99976779.648         988.306          40.000                                                                  
G17  20010936.853   105158016.040         -43.865          39.000    20010950.177    81941295.363         -33.923          37.000  
G11  20092008.363   105584213.559        1095.800          38.000    20092022.377    82273499.059         853.486          40.000  
G04  23373928.981   122830850.059         875.328          29.000    23373966.668    95712491.480         681.413          31.000  
G09  22204248.375   116684085.028        1715.067          32.000    22204274.122    90922742.286        1335.977          35.000  
G03  23265832.014   122262761.499       -3281.089          29.000    23265849.979    95269796.667       -2555.951          31.000  
G12  23018370.604   120962335.378        3755.369          33.000                                                                  
G06  19206162.264   100929051.000        -544.071          40.000    19206176.799    78646098.757        -424.469          40.000  
G30  23463030.782   123299035.163       -1879.456          27.000    23463049.710    96077232.653       -1466.256          30.000  
G14  19425341.572   102080745.730       -2533.386          38.000    19425352.554    79543409.287       -1974.009          41.000  
G22  18818062.995    98889505.420        -976.339          40.000                                                                  
G24                                                                  23341234.594    95578430.130        -501.281          32.000  
> 2025 04 19 06 01 04.9940000  0 13                     
G20  20474865.938   107596167.376        3268.700          35.000                                                                  
G19  19024775.283    99975791.622         988.098          40.000                                                                  
G17  20010945.219   105158059.971         -43.497          39.000    20010958.567    81941329.613         -34.312          37.000  
G11  20091799.980   105583118.446        1094.774          38.000    20091814.027    82272645.683         853.501          40.000  
G04  23373762.500   122829975.221         875.034          29.000    23373800.050    95711809.760         681.671          31.000  
G09  22203921.941   116682370.277        1714.417          32.000    22203947.753    90921406.070        1336.225          35.000  
G03  23266456.300   122266042.202       -3281.391          29.000    23266474.305    95272353.073       -2556.730          31.000  
G12  23017656.133   120958580.162        3755.346          33.000                                                                  
G06  19206265.823   100929595.388        -544.448          40.000    19206280.338    78646522.944        -424.271          40.000  
G30  23463386.998   123300915.567       -1879.826          27.000    23463407.657    96078697.854       -1465.350          30.000  
G14  19425823.637   102083279.318       -2533.604          38.000    19425834.710    79545383.518       -1974.457          41.000  
G22  18818248.595    98890481.742        -976.865          40.000                                                                  
G24                                                                  23341356.788    95578931.414        -501.447          32.000  
> 2025 04 19 06 01 05.9940000  0 13                     
G20  20474243.907   107592898.791        3268.172          35.000                                                                  
G19  19024587.344    99974803.782         987.573          40.000                                                                  
G17  20010953.557   105158104.092         -44.305          39.000    20010966.960    81941363.972         -34.672          37.000  
G11  20091591.678   105582023.611        1094.767          38.000    20091605.675    82271792.587         852.866          40.000  
G04  23373596.075   122829100.753         874.148          29.000    23373633.524    95711128.393         681.574          31.000  
G09  22203595.524   116680655.681        1714.335          32.000    22203621.658    90920070.013        1336.465          35.000  
G03  23267080.757   122269323.051       -3281.043          29.000    23267098.530    95274909.623       -2556.926          31.000  
G12  23016941.527   120954825.124        3754.686          32.000                                                                  
G06  19206369.442   100930140.030        -544.587          40.000    19206383.983    78646947.348        -424.583          40.000  
G30  23463746.949   123302795.637       -1879.953          27.000    23463765.273    96080162.787       -1465.226          30.000  
G14  19426305.878   102085813.372       -2534.363          38.000    19426316.875    79547358.092       -1974.927          41.000  
G22  18818434.520    98891458.633        -977.050          40.000                                                                  
G24                                                                  23341479.092    95579432.963        -501.854          32.000  
> 2025 04 19 06 01 06.9940000  0 13                     
G20  20473622.137   107589630.651        3267.678          35.000                                                                  
G19  19024399.444    99973816.166         988.025          40.000                                                                  
G17  20010962.018   105158148.474         -44.344          39.000    20010975.414    81941398.547         -34.692          37.000  
G11  20091383.446   105580929.261        1094.043          38.000    20091397.480    82270939.844         852.430          40.000  
G04  23373429.690   122828226.682         874.378          29.000    23373467.080    95710447.341         681.347          31.000  
G09  22203269.350   116678941.379        1714.528          31.000    22203295.386    90918734.224        1335.885          35.000  
G03  23267705.109   122272604.233       -3281.209          29.000    23267722.909    95277466.377       -2556.733          31.000  
G12  23016227.166   120951070.334        3754.228          32.000                                                                  
G06  19206473.186   100930685.057        -545.197          40.000    19206487.662    78647372.015        -424.453          40.000  
G30  23464103.798   123304675.491       -1879.383          27.000    23464122.865    96081627.578       -1464.547          30.000  
G14  19426788.136   102088347.959       -2534.698          38.000    19426799.252    79549333.081       -1974.980          41.000  
G22  18818620.558    98892436.232        -978.056          40.000                                                                  
G24                                                                  23341601.809    95579934.826        -501.148          32.000  
> 2025 04 19 06 01 07.9940000  0 13                     
G20  20473000.217   107586362.404        3268.396          36.000                                                                  
G19  19024211.548    99972828.328         988.263          40.000                                                                  
G17  20010970.363   105158192.579         -43.887          39.000    20010983.855    81941432.913         -34.246          37.000  
G11  20091175.227   105579834.790        1094.289          38.000    20091189.222    82270087.010         852.610          40.000  
G04  23373263.567   122827352.611         873.914          29.000    23373300.645    95709766.213         681.811          31.000  
G09  22202942.980   116677226.864        1715.129          31.000    22202969.147    90917398.253        1335.773          34.000  
G03  23268329.239   122275885.203       -3281.076          29.000    23268347.322    95280022.969       -2556.524          30.000  
G12  23015512.570   120947315.271        3755.043          32.000                                                                  
G06  19206576.806   100931229.903        -544.868          40.000    19206591.285    78647796.567        -424.428          40.000  
G30  23464461.449   123306554.598       -1878.615          26.000    23464480.365    96083091.833       -1463.794          30.000  
G14  19427270.549   102090882.592       -2534.778          38.000    19427281.601    79551308.104       -1974.852          41.000  
G22  18818806.665    98893413.959        -977.622          40.000                                                                  
G24                                                                  23341724.417    95580436.682        -501.659          32.000  
> 2025 04 19 06 01 08.9940000  0 13                     
G20  20472378.260   107583094.359        3267.659          36.000                                                                  
G19  19024023.543    99971840.487         987.567          40.000                                                                  
G17  20010978.783   105158236.719         -44.498          39.000    20010992.301    81941467.286         -34.399          37.000  
G11  20090966.921   105578740.487        1094.369          38.000    20090981.036    82269234.300         852.496          40.000  
G04  23373097.184   122826478.674         873.315          29.000    23373134.215    95709085.291         679.945          31.000  
G09  22202616.612   116675512.376        1713.439          31.000    22202643.035    90916062.257        1335.579          35.000  
G03  23268953.546   122279166.196       -3281.705          29.000    23268971.689    95282579.635       -2557.862          30.000  
G12  23014797.874   120943560.258        3754.459          32.000                                                                  
G06  19206680.540   100931774.842        -545.302          41.000    19206694.968    78648221.197        -424.652          40.000  
G30  23464817.376   123308433.275       -1878.498          26.000    23464837.730    96084555.703       -1463.628          30.000  
G14  19427752.914   102093417.456       -2535.159          38.000    19427763.934    79553283.361       -1975.636          41.000  
G22  18818992.749    98894392.088        -978.676          40.000                                                                  
G24                                                                  23341847.171    95580938.685        -502.893          32.000  
> 2025 04 19 06 01 09.9940000  0 13                     
G20  20471756.442   107579826.684        3267.569          35.000                                                                  
G19  19023835.365    99970852.845         987.683          40.000                                                                  
G17  20010987.148   105158281.033         -44.214          39.000    20011000.829    81941501.818         -34.359          37.000  
G11  20090758.809   105577646.599        1093.704          38.000    20090772.893    82268381.909         852.410          40.000  
G04  23372931.030   122825605.115         873.345          29.000    23372967.922    95708404.590         680.557          31.000  
G09  22202290.368   116673798.139        1713.677          31.000    22202316.837    90914726.472        1335.720          35.000  
G03  23269578.160   122282447.349       -3280.445          29.000    23269596.065    95285136.453       -2557.372          30.000  
G12  23014083.254   120939805.399        3754.150          31.000                                                                  
G06  19206784.327   100932320.063        -545.049          41.000    19206798.795    78648646.064        -425.001          40.000  
G30  23465173.171   123310311.713       -1878.001          26.000    23465195.041    96086019.429       -1462.728          30.000  
G14  19428235.461   102095952.873       -2535.675          38.000    19428246.342    79555258.983       -1975.806          41.000  
G22  18819179.090    98895370.838        -978.919          40.000                                                                  
G24                                                                  23341969.875    95581440.926        -502.398          32.000  
> 2025 04 19 06 01 10.9940000  0 13                     
G20  20471134.804   107576559.105        3267.164          36.000                                                                  
G19  19023647.370    99969865.108         987.445          40.000                                                                  
G17  20010995.623   105158325.278         -44.441          39.000    20011009.109    81941536.305         -34.875          37.000  
G11  20090550.652   105576552.744        1093.842          38.000    20090564.684    82267529.561         852.316          40.000  
G04  23372764.768   122824731.626         873.333          29.000    23372801.689    95707723.927         680.984          31.000  
G09  22201964.178   116672083.788        1714.926          31.000    22201990.787    90913390.651        1334.937          35.000  
G03  23270202.541   122285728.563       -3280.942          28.000    23270220.544    95287693.178       -2557.162          30.000  
G12  23013368.703   120936050.406        3755.047          31.000                                                                  
G06  19206888.099   100932865.299        -545.350          40.000    19206902.586    78649070.923        -425.219          40.000  
G30  23465530.362   123312189.607       -1877.909          26.000    23465552.425    96087482.664       -1462.283          30.000  
G14  19428717.925   102098488.431       -2535.854          38.000    19428728.854    79557234.753       -1976.231          41.000  
G22  18819365.349    98896349.905        -979.645          40.000                                                                  
G24                                                                  23342092.491    95581943.264        -502.619          32.000  
> 2025 04 19 06 01 11.9940000  0 13                     
G20  20470513.210   107573292.002        3266.373          36.000                                                                  
G19  19023459.366    99968877.612         987.201          40.000                                                                  
G17  20011004.155   105158369.774         -44.931          39.000    20011017.663    81941570.964         -35.202          37.000  
G11  20090342.543   105575459.363        1092.849          38.000    20090356.579    82266677.557         851.813          40.000  
G04  23372598.610   122823858.566         872.699          29.000    23372635.521    95707043.702         680.319          32.000  
G09  22201637.907   116670369.730        1714.570          31.000    22201664.766    90912055.006        1335.444          35.000  
G03  23270827.105   122289010.043       -3282.184          28.000    23270844.908    95290250.216       -2557.347          30.000  
G12  23012654.229   120932295.751        3754.575          32.000                                                                  
G06  19206991.906   100933410.889        -545.663          40.000    19207006.400    78649496.061        -425.507          40.000  
G30  23465886.085   123314067.250       -1877.360          26.000    23465909.675    96088945.826       -1463.085          30.000  
G14  19429200.453   102101024.544       -2536.412          38.000    19429211.539    79559210.932       -1976.535          41.000  
G22  18819551.817    98897329.645        -980.319          40.000                                                                  
G24                                                                  23342215.035    95582445.876        -502.309          32.000  
> 2025 04 19 06 01 12.9940000  0 13                     
G20  20469891.574   107570025.531        3266.659          36.000                                                                  
G19  19023271.686    99967890.647         986.871          40.000                                                                  
G17  20011012.787   105158414.797         -44.886          39.000    20011026.220    81941606.038         -34.795          37.000  
G11  20090134.464   105574366.640        1092.760          38.000    20090148.684    82265826.095         851.493          41.000  
G04  23372432.589   122822986.216         872.341          30.000    23372469.559    95706363.955         680.175          32.000  
G09  22201312.049   116668656.277        1713.806          32.000    22201338.617    90910719.819        1335.178          35.000  
G03  23271451.537   122292292.078       -3282.403          28.000    23271469.515    95292807.607       -2557.376          30.000  
G12  23011939.836   120928541.612        3753.636          32.000                                                                  
G06  19207095.809   100933957.103        -546.280          40.000    19207110.319    78649921.669        -425.702          40.000  
G30  23466241.680   123315944.981       -1876.957          27.000    23466267.187    96090408.969       -1462.450          30.000  
G14  19429683.170   102103561.471       -2537.137          38.000    19429694.219    79561187.740       -1976.676          41.000  
G22  18819738.567    98898310.297        -980.893          40.000                                                                  
G24                                                                  23342337.802    95582949.130        -503.446          31.000  
> 2025 04 19 06 01 13.9940000  0 13                     
G20  20469269.985   107566759.301        3266.023          36.000                                                                  
G19  19023083.763    99966903.708         986.945          40.000                                                                  
G17  20011021.312   105158459.842         -44.670          39.000    20011034.787    81941641.133         -34.956          37.000  
G11  20089926.536   105573274.118        1092.392          38.000    20089940.717    82264974.772         851.477          41.000  
G04  23372266.629   122822114.088         871.908          29.000    23372303.611    95705684.403         679.370          32.000  
G09  22200985.995   116666942.872        1713.076          32.000    22201012.575    90909384.667        1335.470          35.000  
G03  23272076.149   122295574.129       -3282.207          28.000    23272094.140    95295365.071       -2558.355          31.000  
G12  23011225.522   120924787.404        3755.249          32.000                                                                  
G06  19207199.753   100934503.409        -546.320          40.000    19207214.219    78650347.341        -425.682          40.000  
G30  23466601.954   123317822.314       -1876.979          27.000    23466624.618    96091871.785       -1461.915          30.000  
G14  19430165.990   102106098.685       -2537.407          38.000    19430177.024    79563164.787       -1976.722          41.000  
G22  18819925.291    98899291.398        -981.318          40.000                                                                  
G24                                                                  23342460.616    95583452.416        -502.491          31.000  
> 2025 04 19 06 01 14.9940000  0 13                     
G20  20468648.477   107563493.073        3266.040          36.000                                                                  
G19  19022895.965    99965916.610         987.378          40.000                                                                  
G17  20011029.956   105158504.761         -44.938          39.000    20011043.364    81941676.118         -34.611          37.000  
G11  20089718.624   105572181.611        1092.783          38.000    20089732.867    82264123.469         851.811          41.000  
G04  23372100.612   122821241.994         871.872          30.000    23372137.660    95705004.855         679.955          32.000  
G09  22200659.926   116665229.352        1712.895          32.000    22200686.498    90908049.445        1335.032          35.000  
G03  23272700.673   122298856.120       -3282.268          28.000    23272718.660    95297922.416       -2556.484          31.000  
G12  23010511.207   120921033.166        3754.468          32.000                                                                  
G06  19207303.665   100935049.663        -546.035          40.000    19207318.219    78650773.000        -425.499          40.000  
G30  23466958.678   123319698.969       -1876.101          26.000    23466981.850    96093334.213       -1462.538          29.000  
G14  19430648.822   102108636.023       -2536.984          38.000    19430659.895    79565141.956       -1977.261          41.000  
G22  18820111.883    98900272.742        -981.438          40.000                                                                  
G24                                                                  23342583.557    95583955.821        -502.807          32.000  
> 2025 04 19 06 01 15.9940000  0 13                     
G20  20468026.880   107560227.019        3265.706          36.000                                                                  
G19  19022708.209    99964929.497         987.036          40.000                                                                  
G17  20011038.514   105158549.648         -45.015          39.000    20011051.842    81941711.087         -34.797          37.000  
G11  20089510.734   105571089.233        1092.677          39.000    20089525.029    82263272.297         851.139          41.000  
G04  23371934.539   122820370.022         871.462          30.000    23371971.689    95704325.460         678.390          32.000  
G09  22200333.791   116663515.764        1713.436          32.000    22200360.316    90906714.187        1335.476          35.000  
G03  23273325.059   122302138.037       -3281.994          28.000    23273343.121    95300479.783       -2557.180          31.000  
G12  23009796.975   120917278.868        3753.926          32.000                                                                  
G06  19207407.601   100935595.975        -546.400          40.000    19207422.166    78651198.717        -425.886          40.000  
G30  23467316.610   123321575.259       -1876.410          26.000    23467338.850    96094796.186       -1462.396          30.000  
G14  19431131.755   102111173.637       -2537.782          38.000    19431142.794    79567119.312       -1977.594          41.000  
G22  18820299.049    98901254.472        -982.099          40.000                                                                  
G24                                                                  23342706.587    95584459.298        -503.354          31.000  
> 2025 04 19 06 01 16.9940000  0 13                     
G20  20467405.549   107556961.367        3265.041          36.000                                                                  
G19  19022520.393    99963942.597         986.646          40.000                                                                  
G17  20011047.063   105158594.749         -45.347          39.000    20011060.457    81941746.238         -35.355          37.000  
G11  20089302.907   105569997.302        1091.555          38.000    20089317.238    82262421.421         850.479          41.000  
G04  23371768.657   122819498.455         871.442          30.000    23371805.786    95703646.330         677.957          32.000  
G09  22200007.813   116661802.509        1711.934          32.000    22200034.217    90905379.174        1334.568          35.000  
G03  23273949.613   122305420.275       -3282.559          28.000    23273967.679    95303037.441       -2559.266          31.000  
G12  23009082.863   120913524.736        3754.072          32.000                                                                  
G06  19207511.712   100936142.610        -546.744          40.000    19207526.222    78651624.654        -426.063          40.000  
G30  23467672.412   123323451.262       -1876.341          26.000    23467695.864    96096257.910       -1461.257          30.000  
G14  19431614.641   102113711.752       -2538.490          38.000    19431625.821    79569097.054       -1978.106          41.000  
G22  18820486.040    98902236.828        -982.809          40.000                                                                  
G24                                                                  23342829.612    95584963.103        -503.778          32.000  
> 2025 04 19 06 01 17.9940000  0 13                     
G20  20466784.304   107553696.191        3264.985          36.000                                                                  
G19  19022332.600    99962955.994         986.847          40.000                                                                  
G17  20011055.695   105158640.169         -45.440          39.000    20011069.061    81941781.617         -35.421          37.000  
G11  20089095.223   105568905.809        1091.491          38.000    20089109.438    82261570.914         850.211          41.000  
G04  23371602.857   122818627.393         870.832          30.000    23371640.105    95702967.532         679.022          32.000  
G09  22199682.077   116660089.525        1712.827          32.000    22199708.268    90904044.413        1334.651          35.000  
G03  23274574.388   122308702.784       -3282.657          28.000    23274592.223    95305595.237       -2558.120          31.000  
G12  23008368.517   120909770.940        3753.731          32.000                                                                  
G06  19207615.799   100936689.638        -546.916          40.000    19207630.334    78652050.914        -426.647          40.000  
G30  23468027.067   123325327.010       -1875.219          26.000    23468052.892    96097719.657       -1462.292          30.000  
G14  19432097.757   102116250.441       -2538.442          38.000    19432108.838    79571075.240       -1978.118          41.000  
G22  18820673.151    98903219.883        -983.252          40.000                                                                  
G24                                                                  23342952.600    95585467.273        -504.739          32.000  
> 2025 04 19 06 01 18.9940000  0 13                     
G20  20466162.944   107550431.416        3264.238          36.000                                                                  
G19  19022144.939    99961969.611         986.285          40.000                                                                  
G17  20011064.452   105158685.775         -45.728          39.000    20011077.764    81941817.155         -35.735          37.000  
G11  20088887.625   105567814.706        1090.812          38.000    20088901.752    82260720.678         850.313          41.000  
G04  23371437.086   122817756.720         869.532          30.000    23371474.415    95702289.120         677.939          33.000  
G09  22199356.287   116658376.838        1711.800          31.000    22199382.383    90902709.795        1334.568          35.000  
G03  23275198.901   122311985.589       -3283.289          29.000    23275216.944    95308153.242       -2558.174          31.000  
G12  23007654.194   120906017.348        3753.528          32.000                                                                  
G06  19207719.863   100937236.990        -547.714          40.000    19207734.400    78652477.415        -426.900          40.000  
G30  23468384.514   123327202.607       -1875.300          26.000    23468409.821    96099181.079       -1461.229          30.000  
G14  19432580.924   102118789.636       -2539.465          38.000    19432592.152    79573053.832       -1978.765          41.000  
G22  18820860.425    98904203.567        -983.955          40.000                                                                  
G24                                                                  23343075.853    95585971.732        -505.617          32.000  
> 2025 04 19 06 01 19.9940000  0 13                     
G20  20465541.761   107547166.953        3264.054          36.000                                                                  
G19  19021957.136    99960983.373         986.005          40.000                                                                  
G17  20011073.183   105158731.539         -45.692          39.000    20011086.490    81941852.825         -35.936          37.000  
G11  20088680.017   105566723.906        1090.592          38.000    20088694.280    82259870.724         849.708          41.000  
G04  23371271.481   122816886.378         869.169          30.000    23371308.903    95701610.934         678.047          32.000  
G09  22199030.322   116656664.227        1712.332          32.000    22199056.367    90901375.322        1334.709          35.000  
G03  23275823.673   122315268.515       -3283.297          29.000    23275841.687    95310711.391       -2558.550          31.000  
G12  23006939.801   120902263.894        3753.443          32.000                                                                  
G06  19207824.102   100937784.552        -547.931          40.000    19207838.567    78652904.089        -427.103          40.000  
G30  23468740.766   123329077.911       -1875.600          26.000    23468766.775    96100642.356       -1461.205          30.000  
G14  19433064.200   102121329.253       -2539.787          37.000    19433075.482    79575032.743       -1979.006          41.000  
G22  18821047.853    98905187.808        -984.730          40.000                                                                  
G24                                                                  23343199.006    95586476.428        -505.343          32.000  
> 2025 04 19 06 01 20.9940000  0 13                     
G20  20464920.685   107543902.871        3264.168          36.000                                                                  
G19  19021769.410    99959997.314         985.883          40.000                                                                  
G17  20011081.854   105158777.486         -46.103          39.000    20011095.135    81941888.613         -35.872          37.000  
G11  20088472.615   105565633.475        1089.993          39.000    20088486.819    82259021.028         849.560          41.000  
G04  23371105.722   122816016.351         869.696          30.000    23371143.263    95700933.059         677.707          32.000  
G09  22198704.585   116654951.904        1712.157          31.000    22198730.480    90900041.025        1334.387          35.000  
G03  23276448.167   122318551.682       -3283.109          29.000    23276466.484    95313269.715       -2558.811          31.000  
G12  23006225.623   120898510.649        3753.198          32.000                                                                  
G06  19207928.348   100938332.388        -548.083          40.000    19207942.883    78653330.974        -427.245          40.000  
G30  23469098.952   123330952.883       -1875.156          25.000    23469123.693    96102103.393       -1461.109          30.000  
G14  19433547.617   102123869.321       -2540.210          37.000    19433558.843    79577012.018       -1979.394          41.000  
G22  18821235.433    98906172.630        -985.102          40.000                                                                  
G24                                                                  23343322.375    95586981.414        -506.037          32.000  
> 2025 04 19 06 01 21.9940000  0 13                     
G20  20464299.475   107540638.789        3263.924          36.000                                                                  
G19  19021581.722    99959011.095         986.102          40.000                                                                  
G17  20011090.542   105158823.295         -45.989          39.000    20011103.891    81941924.281         -35.407          37.000  
G11  20088265.094   105564543.025        1090.468          39.000    20088279.372    82258171.336         849.621          41.000  
G04  23370940.083   122815146.377         869.586          29.000    23370977.623    95700255.171         677.451          32.000  
G09  22198378.627   116653239.448        1712.411          32.000    22198404.630    90898706.653        1333.919          35.000  
G03  23277072.857   122321834.736       -3283.255          28.000    23277091.175    95315827.933       -2559.181          31.000  
G12  23005511.579   120894757.224        3753.071          32.000                                                                  
G06  19208032.555   100938880.185        -548.228          40.000    19208047.099    78653757.794        -426.803          40.000  
G30  23469456.622   123332827.222       -1874.158          25.000    23469480.442    96103563.907       -1460.465          30.000  
G14  19434030.961   102126409.502       -2539.684          37.000    19434042.146    79578991.395       -1979.505          41.000  
G22  18821422.716    98907157.691        -985.167          40.000                                                                  
G24                                                                  23343445.703    95587486.375        -504.975          32.000  
> 2025 04 19 06 01 22.9940000  0 13                     
G20  20463678.382   107537374.997        3263.587          36.000                                                                  
G19  19021394.141    99958024.972         986.157          40.000                                                                  
G17  20011099.160   105158869.196         -46.022          39.000    20011112.631    81941960.062         -36.047          37.000  
G11  20088057.710   105563452.883        1089.966          39.000    20088071.792    82257321.856         849.665          41.000  
G04  23370774.654   122814276.669         869.344          29.000    23370812.070    95699577.479         677.588          32.000  
G09  22198052.680   116651527.066        1713.144          31.000    22198078.816    90897372.362        1333.958          35.000  
G03  23277697.550   122325117.901       -3283.375          29.000    23277715.968    95318386.251       -2558.400          31.000  
G12  23004797.563   120891003.896        3753.373          32.000                                                                  
G06  19208136.753   100939428.147        -548.011          40.000    19208151.304    78654184.784        -426.816          40.000  
G30  23469811.780   123334701.211       -1873.262          25.000    23469837.052    96105024.166       -1460.396          30.000  
G14  19434514.406   102128950.115       -2540.867          37.000    19434525.733    79580971.054       -1979.591          41.000  
G22  18821610.226    98908143.274        -985.784          40.000                                                                  
G24                                                                  23343569.173    95587991.577        -505.051          32.000  
> 2025 04 19 06 01 23.9940000  0 13                     
G20  20463057.364   107534111.534        3262.988          35.000                                                                  
G19  19021206.449    99957038.982         985.785          40.000                                                                  
G17  20011107.912   105158915.228         -46.249          39.000    20011121.456    81941995.925         -36.143          37.000  
G11  20087850.295   105562363.022        1089.489          39.000    20087864.505    82256472.629         849.070          41.000  
G04  23370609.142   122813407.257         869.186          29.000    23370646.628    95698900.065         676.589          31.000  
G09  22197726.965   116649814.942        1712.373          32.000    22197753.015    90896038.202        1333.433          35.000  
G03  23278322.385   122328401.263       -3284.032          29.000    23278340.721    95320944.710       -2558.840          31.000  
G12  23004083.282   120887250.718        3752.908          31.000                                                                  
G06  19208241.087   100939976.334        -548.542          40.000    19208255.599    78654611.950        -427.499          40.000  
G30  23470170.084   123336574.994       -1874.029          25.000    23470193.566    96106484.239       -1460.697          30.000  
G14  19434997.985   102131491.113       -2541.507          38.000    19435009.202    79582951.063       -1980.504          41.000  
G22  18821797.952    98909129.389        -986.631          40.000                                                                  
G24                                                                  23343692.748    95588497.036        -505.983          32.000  
> 2025 04 19 06 01 24.9940000  0 13                     
G20  20462436.465   107530848.394        3262.423          35.000                                                                  
G19  19021019.007    99956053.154         985.577          40.000                                                                  
G17  20011116.769   105158961.424         -45.993          39.000    20011130.285    81942031.922         -36.182          37.000  
G11  20087643.039   105561273.495        1089.395          39.000    20087657.098    82255623.635         848.892          41.000  
G04  23370443.712   122812538.212         869.111          29.000    23370481.311    95698222.910         676.770          31.000  
G09  22197401.072   116648102.971        1711.821          31.000    22197427.205    90894704.198        1333.866          35.000  
G03  23278947.194   122331684.755       -3283.632          29.000    23278965.702    95323503.305       -2558.542          31.000  
G12  23003369.072   120883497.696        3752.772          31.000                                                                  
G06  19208345.456   100940524.776        -548.381          40.000    19208359.962    78655039.321        -427.499          40.000  
G30  23470528.541   123338448.355       -1873.019          25.000    23470550.031    96107943.972       -1460.185          30.000  
G14  19435481.590   102134032.532       -2541.677          38.000    19435492.682    79584931.384       -1980.338          41.000  
G22  18821985.742    98910116.049        -986.866          40.000                                                                  
G24                                                                  23343816.367    95589002.736        -506.164          32.000  
> 2025 04 19 06 01 25.9940000  0 13                     
G20  20461815.362   107527585.559        3262.641          35.000                                                                  
G19  19020831.413    99955067.464         985.394          40.000                                                                  
G17  20011125.687   105159007.780         -46.658          39.000    20011139.058    81942068.037         -36.370          37.000  
G11  20087435.810   105560184.281        1088.935          39.000    20087449.779    82254774.899         848.644          41.000  
G04  23370278.135   122811669.470         868.875          30.000    23370316.006    95697545.962         676.906          32.000  
G09  22197075.098   116646391.133        1711.959          31.000    22197101.501    90893370.282        1333.633          34.000  
G03  23279572.262   122334968.418       -3283.583          29.000    23279590.513    95326062.047       -2558.816          31.000  
G12  23002655.000   120879744.831        3751.720          31.000                                                                  
G06  19208449.882   100941073.474        -549.265          40.000    19208464.310    78655466.857        -427.762          40.000  
G30  23470885.682   123340321.480       -1873.619          25.000    23470906.487    96109403.485       -1459.790          30.000  
G14  19435965.295   102136574.389       -2542.383          38.000    19435976.527    79586912.060       -1981.046          41.000  
G22  18822173.511    98911103.285        -987.542          40.000                                                                  
G24                                                                  23343939.867    95589508.665        -506.521          32.000  
> 2025 04 19 06 01 26.9940000  0 13                     
G20  20461194.484   107524323.094        3262.337          36.000                                                                  
G19  19020643.848    99954081.956         985.553          40.000                                                                  
G17  20011134.577   105159054.323         -46.803          39.000    20011147.894    81942104.267         -35.970          37.000  
G11  20087228.583   105559095.427        1088.692          39.000    20087242.485    82253926.447         848.143          41.000  
G04  23370112.823   122810801.154         867.668          29.000    23370150.764    95696869.334         676.031          31.000  
G09  22196749.551   116644679.601        1711.208          31.000    22196775.773    90892036.579        1333.611          34.000  
G03  23280197.234   122338252.366       -3284.359          29.000    23280215.450    95328620.928       -2559.183          32.000  
G12  23001940.812   120875992.065        3752.501          31.000                                                                  
G06  19208554.418   100941622.406        -549.110          40.000    19208568.836    78655894.604        -427.781          40.000  
G30  23471241.464   123342194.221       -1872.611          26.000    23471262.800    96110862.787       -1459.015          30.000  
G14  19436449.084   102139116.706       -2542.418          38.000    19436460.343    79588893.072       -1981.046          41.000  
G22  18822361.488    98912091.103        -988.105          40.000                                                                  
G24                                                                  23344063.516    95590014.863        -506.252          32.000  
> 2025 04 19 06 01 27.9940000  0 13                     
G20  20460573.784   107521060.899        3262.633          36.000                                                                  
G19  19020456.262    99953096.527         985.565          40.000                                                                  
G17  20011143.371   105159100.931         -46.552          39.000    20011156.763    81942140.624         -36.390          37.000  
G11  20087021.510   105558006.820        1088.610          39.000    20087035.321    82253078.185         847.979          41.000  
G04  23369947.646   122809933.030         867.576          30.000    23369985.523    95696192.918         676.386          31.000  
G09  22196424.041   116642968.115        1712.042          31.000    22196450.058    90890702.930        1334.129          35.000  
G03  23280822.095   122341536.333       -3283.698          29.000    23280840.405    95331179.895       -2558.490          32.000  
G12  23001226.604   120872239.423        3753.318          31.000                                                                  
G06  19208658.905   100942171.538        -549.198          40.000    19208673.368    78656322.500        -428.000          40.000  
G30  23471598.216   123344066.653       -1872.413          26.000    23471619.103    96112321.823       -1458.779          31.000  
G14  19436932.994   102141659.408       -2543.291          38.000    19436944.200    79590874.397       -1981.784          41.000  
G22  18822549.549    98913079.407        -988.274          40.000                                                                  
G24                                                                  23344187.227    95590521.259        -506.332          32.000  
> 2025 04 19 06 01 28.9940000  0 13                     
G20  20459952.926   107517798.786        3262.068          36.000                                                                  
G19  19020268.777    99952110.976         985.821          40.000                                                                  
G17  20011152.227   105159147.438         -46.388          39.000    20011165.554    81942176.829         -36.155          38.000  
G11  20086814.388   105556918.249        1088.472          39.000    20086828.075    82252229.936         848.174          41.000  
G04  23369782.422   122809064.985         867.488          30.000    23369820.212    95695516.516         676.881          31.000  
G09  22196098.219   116641256.484        1712.675          31.000    22196124.413    90889369.254        1333.661          35.000  
G03  23281447.294   122344820.322       -3284.063          29.000    23281465.258    95333738.823       -2559.422          32.000  
G12  23000512.383   120868486.697        3752.681          31.000                                                                  
G06  19208763.473   100942720.611        -548.632          40.000    19208777.842    78656750.347        -427.573          40.000  
G30  23471953.442   123345938.547       -1871.885          26.000    23471975.255    96113780.366       -1458.125          31.000  
G14  19437416.935   102144202.211       -2542.755          38.000    19437428.024    79592855.800       -1981.456          41.000  
G22  18822737.594    98914068.001        -988.623          40.000                                                                  
G24                                                                  23344310.933    95591027.730        -506.578          32.000  
> 2025 04 19 06 01 29.9940000  0 13                     
G20  20459332.275   107514536.816        3262.082          36.000                                                                  
G19  19020081.248    99951125.429         985.638          40.000                                                                  
G17  20011161.052   105159193.925         -46.280          39.000    20011174.386    81942213.077         -36.533          38.000  
G11  20086607.203   105555829.837        1088.457          39.000    20086621.067    82251381.823         848.074          41.000  
G04  23369617.424   122808197.097         867.542          30.000    23369655.111    95694840.268         676.465          31.000  
G09  22195772.696   116639545.008        1711.159          31.000    22195798.669    90888035.587        1333.411          35.000  
G03  23282072.181   122348104.255       -3284.382          29.000    23282090.162    95336297.749       -2559.655          32.000  
G12  22999798.481   120864733.929        3752.875          31.000                                                                  
G06  19208867.917   100943269.799        -549.155          40.000    19208882.325    78657178.286        -427.942          40.000  
G30  23472309.361   123347809.927       -1871.969          26.000    23472331.469    96115238.560       -1457.895          31.000  
G14  19437900.892   102146745.308       -2543.002          38.000    19437912.004    79594837.444       -1981.770          41.000  
G22  18822925.945    98915056.990        -989.119          40.000                                                                  
G24                                                                  23344434.534    95591534.341        -506.730          32.000  
> 2025 04 19 06 01 30.9940000  0 13                     
G20  20458711.674   107511275.270        3261.620          36.000                                                                  
G19  19019893.692    99950140.109         985.034          40.000                                                                  
G17  20011169.917   105159240.670         -46.869          39.000    20011183.309    81942249.466         -36.258          38.000  
G11  20086400.192   105554741.840        1087.674          39.000    20086414.072    82250534.036         847.325          41.000  
G04  23369452.293   122807329.622         867.095          29.000    23369490.056    95694164.320         676.461          31.000  
G09  22195446.914   116637833.671        1711.609          31.000    22195473.003    90886702.120        1332.976          35.000  
G03  23282697.100   122351388.431       -3284.323          29.000    23282715.301    95338856.879       -2559.297          32.000  
G12  22999084.412   120860981.439        3751.925          31.000                                                                  
G06  19208972.588   100943819.277        -549.485          40.000    19208986.861    78657606.455        -428.088          40.000  
G30  23472664.670   123349680.979       -1871.120          26.000    23472687.632    96116696.629       -1458.038          31.000  
G14  19438384.925   102149288.938       -2543.827          38.000    19438395.957    79596819.480       -1982.217          40.000  
G22  18823114.345    98916046.624        -989.633          40.000                                                                  
G24                                                                  23344558.138    95592041.221        -506.863          32.000  
> 2025 04 19 06 01 31.9940000  0 13                     
G20  20458091.026   107508014.040        3260.847          35.000                                                                  
G19  19019706.028    99949154.920         985.181          40.000                                                                  
G17  20011178.763   105159287.542         -47.276          39.000    20011192.248    81942286.006         -36.976          38.000  
G11  20086193.187   105553654.148        1087.269          39.000    20086207.092    82249686.477         847.244          41.000  
G04  23369287.184   122806462.446         866.932          29.000    23369325.040    95693488.659         675.389          31.000  
G09  22195121.328   116636122.570        1710.895          31.000    22195147.444    90885368.801        1332.662          35.000  
G03  23283322.165   122354672.820       -3284.951          29.000    23283340.335    95341416.121       -2559.918          32.000  
G12  22998370.329   120857229.006        3752.847          32.000                                                                  
G06  19209077.194   100944369.015        -549.798          40.000    19209091.468    78658034.805        -428.445          40.000  
G30  23473021.086   123351551.823       -1870.788          26.000    23473043.521    96118154.358       -1457.469          31.000  
G14  19438868.906   102151832.976       -2544.471          38.000    19438879.970    79598801.847       -1982.684          40.000  
G22  18823302.913    98917036.784        -990.413          40.000                                                                  
G24                                                                  23344682.059    95592548.366        -507.832          32.000  
> 2025 04 19 06 01 32.9940000  0 13                     
G20  20457470.477   107504753.098        3260.999          35.000                                                                  
G19  19019518.622    99948169.866         984.955          40.000                                                                  
G17  20011187.696   105159334.536         -47.108          39.000    20011201.214    81942322.610         -36.892          38.000  
G11  20085986.219   105552566.724        1087.343          39.000    20086000.233    82248839.147         847.130          41.000  
G04  23369122.101   122805595.584         866.377          30.000    23369160.103    95692813.219         675.578          32.000  
G09  22194796.047   116634411.635        1710.549          31.000    22194821.816    90884035.542        1333.138          35.000  
G03  23283947.033   122357957.333       -3284.853          29.000    23283965.586    95343975.494       -2559.820          32.000  
G12  22997656.434   120853476.760        3752.727          32.000                                                                  
G06  19209181.753   100944918.953        -550.140          40.000    19209196.164    78658463.324        -428.402          40.000  
G30  23473377.861   123353422.306       -1871.074          26.000    23473399.469    96119611.823       -1456.631          31.000  
G14  19439353.071   102154377.412       -2544.578          38.000    19439364.269    79600784.506       -1982.679          41.000  
G22  18823491.624    98918027.494        -990.695          40.000                                                                  
G24                                                                  23344805.911    95593055.710        -507.440          32.000  
> 2025 04 19 06 01 33.9940000  0 13                     
G20  20456849.900   107501492.429        3260.852          36.000                                                                  
G19  19019331.223    99947184.905         984.839          40.000                                                                  
G17  20011196.623   105159381.639         -47.105          39.000    20011210.134    81942359.306         -37.164          38.000  
G11  20085779.316   105551479.596        1086.995          39.000    20085793.359    82247992.022         847.072          41.000  
G04  23368957.293   122804729.010         866.556          30.000    23368995.207    95692137.952         675.762          32.000  
G09  22194470.605   116632700.793        1710.484          32.000    22194496.159    90882702.411        1333.153          35.000  
G03  23284572.047   122361241.926       -3284.639          29.000    23284590.691    95346534.956       -2559.585          32.000  
G12  22996942.359   120849724.581        3752.507          31.000                                                                  
G06  19209286.424   100945469.087        -550.243          40.000    19209300.868    78658891.984        -428.561          40.000  
G30  23473731.620   123355292.397       -1869.663          26.000    23473755.198    96121069.093       -1457.481          31.000  
G14  19439837.361   102156922.230       -2544.885          38.000    19439848.532    79602767.487       -1983.369          41.000  
G22  18823680.255    98919018.699        -991.579          40.000                                                                  
G24                                                                  23344930.042    95593563.266        -507.904          32.000  
> 2025 04 19 06 01 34.9940000  0 13                     
G20  20456229.357   107498232.160        3260.166          36.000                                                                  
G19  19019143.879    99946200.118         984.637          40.000                                                                  
G17  20011205.649   105159428.908         -47.462          39.000    20011219.223    81942396.114         -36.687          38.000  
G11  20085572.554   105550392.814        1086.592          39.000    20085586.585    82247145.186         846.463          41.000  
G04  23368792.668   122803862.785         866.246          29.000    23368830.575    95691463.032         674.844          32.000  
G09  22194144.946   116630990.175        1710.261          32.000    22194170.605    90881369.453        1333.248          35.000  
G03  23285197.268   122364526.785       -3285.012          29.000    23285215.829    95349094.567       -2559.420          32.000  
G12  22996228.253   120845972.606        3751.925          32.000                                                                  
G06  19209391.092   100946019.475        -550.499          40.000    19209405.594    78659320.890        -429.110          40.000  
G30  23474088.831   123357162.206       -1869.495          26.000    23474111.035    96122526.073       -1455.972          31.000  
G14  19440321.710   102159467.512       -2546.045          37.000    19440332.847    79604750.815       -1983.605          41.000  
G22  18823869.065    98920010.476        -992.190          40.000                                                                  
G24                                                                  23345054.232    95594071.087        -507.389          32.000  
> 2025 04 19 06 01 35.9940000  0 13                     
G20  20455609.028   107494972.360        3259.174          36.000                                                                  
G19  19018956.646    99945215.624         984.503          40.000                                                                  
G17  20011214.633   105159476.485         -47.789          39.000    20011228.163    81942433.201         -37.305          38.000  
G11  20085365.767   105549306.501        1085.751          39.000    20085379.821    82246298.686         846.087          41.000  
G04  23368627.789   122802997.090         865.121          29.000    23368665.884    95690788.460         674.881          32.000  
G09  22193819.716   116629279.880        1709.940          32.000    22193845.145    90880036.741        1332.493          35.000  
G03  23285822.370   122367811.943       -3285.229          29.000    23285841.080    95351654.424       -2560.045          32.000  
G12  22995514.197   120842220.933        3751.196          32.000                                                                  
G06  19209495.831   100946570.254        -551.047          41.000    19209510.433    78659750.063        -429.596          40.000  
G30  23474443.884   123359031.903       -1869.491          27.000    23474466.856    96123982.979       -1457.117          31.000  
G14  19440806.096   102162013.328       -2546.007          37.000    19440817.355    79606734.587       -1984.290          41.000  
G22  18824058.068    98921002.957        -992.896          40.000                                                                  
G24                                                                  23345178.545    95594579.321        -508.967          33.000  
> 2025 04 19 06 01 36.9940000  0 13                     
G20  20454988.895   107491713.165        3258.951          36.000                                                                  
G19  19018769.365    99944231.575         983.813          40.000                                                                  
G17  20011223.821   105159524.525         -48.224          39.000    20011237.253    81942470.632         -37.899          38.000  
G11  20085159.214   105548220.779        1085.599          39.000    20085173.210    82245452.662         845.943          41.000  
G04  23368463.249   122802131.965         864.880          29.000    23368501.122    95690114.373         673.535          32.000  
G09  22193494.491   116627570.046        1709.894          32.000    22193519.800    90878704.396        1332.808          35.000  
G03  23286447.545   122371097.599       -3285.892          28.000    23286466.220    95354214.709       -2560.489          32.000  
G12  22994800.307   120838469.674        3750.684          32.000                                                                  
G06  19209600.790   100947121.569        -551.411          40.000    19209615.327    78660179.663        -429.961          40.000  
G30  23474799.523   123360901.558       -1869.486          27.000    23474822.795    96125439.859       -1457.134          31.000  
G14  19441290.684   102164559.922       -2547.119          37.000    19441301.904    79608718.906       -1984.423          40.000  
G22  18824246.893    98921996.292        -993.852          40.000                                                                  
G24                                                                  23345302.819    95595087.973        -508.410          33.000  
> 2025 04 19 06 01 37.9940000  0 13                     
G20  20454368.706   107488454.328        3259.049          36.000                                                                  
G19  19018581.964    99943247.683         984.100          40.000                                                                  
G17  20011232.901   105159572.730         -48.411          39.000    20011246.475    81942508.156         -37.417          37.000  
G11  20084952.683   105547135.406        1085.407          39.000    20084966.636    82244606.934         845.505          41.000  
G04  23368298.573   122801267.208         864.274          29.000    23368336.667    95689440.515         674.392          32.000  
G09  22193169.447   116625860.456        1709.225          32.000    22193194.435    90877372.210        1332.478          35.000  
G03  23287072.716   122374383.453       -3285.767          28.000    23287091.622    95356775.115       -2560.784          31.000  
G12  22994086.506   120834718.571        3751.442          31.000                                                                  
G06  19209705.761   100947673.151        -551.548          40.000    19209720.319    78660609.460        -429.958          40.000  
G30  23475155.966   123362770.850       -1868.369          27.000    23475178.633    96126896.484       -1456.766          32.000  
G14  19441775.353   102167106.960       -2547.548          37.000    19441786.566    79610703.601       -1984.559          40.000  
G22  18824436.337    98922990.213        -994.228          40.000                                                                  
G24                                                                  23345426.986    95595596.929        -508.731          33.000  
> 2025 04 19 06 01 38.9940000  0 13                     
G20  20453748.673   107485195.609        3259.099          36.000                                                                  
G19  19018394.838    99942263.771         984.052          40.000                                                                  
G17  20011242.092   105159620.853         -47.840          39.000    20011255.662    81942545.696         -37.498          37.000  
G11  20084746.197   105546050.156        1085.299          39.000    20084760.070    82243761.277         845.635          41.000  
G04  23368134.141   122800402.596         864.177          29.000    23368172.261    95688766.814         673.951          32.000  
G09  22192844.026   116624150.779        1710.054          32.000    22192868.970    90876040.039        1332.360          35.000  
G03  23287697.925   122377669.304       -3286.130          27.000    23287716.760    95359335.483       -2560.098          31.000  
G12  22993372.831   120830967.458        3751.413          31.000                                                                  
G06  19209810.718   100948224.762        -551.537          40.000    19209825.248    78661039.291        -430.127          40.000  
G30  23475511.487   123364639.814       -1869.142          26.000    23475534.525    96128352.727       -1455.868          32.000  
G14  19442260.137   102169654.188       -2547.319          38.000    19442271.301    79612688.480       -1985.275          40.000  
G22  18824625.602    98923984.483        -994.500          40.000                                                                  
G24                                                                  23345551.425    95596105.950        -509.320          32.000  
> 2025 04 19 06 01 39.9940000  0 13                     
G20  20453128.556   107481937.240        3258.670          36.000                                                                  
G19  19018207.631    99941280.004         983.783          40.000                                                                  
G17  20011251.164   105159669.167         -48.326          39.000    20011264.879    81942583.323         -37.809          37.000  
G11  20084539.721   105544965.217        1084.837          39.000    20084553.687    82242915.865         845.441          41.000  
G04  23367969.488   122799538.233         864.628          29.000    23368007.814    95688093.318         674.110          32.000  
G09  22192518.840   116622441.340        1709.843          32.000    22192543.634    90874707.996        1332.009          35.000  
G03  23288323.210   122380955.222       -3285.784          27.000    23288342.267    95361896.004       -2560.466          30.000  
G12  22992659.052   120827216.477        3751.351          31.000                                                                  
G06  19209915.660   100948776.624        -551.892          40.000    19209930.257    78661469.309        -430.123          40.000  
G30  23475866.843   123366508.382       -1869.025          26.000    23475890.279    96129808.704       -1455.366          32.000  
G14  19442744.895   102172201.874       -2548.017          38.000    19442756.244    79614673.657       -1985.073          40.000  
G22  18824814.856    98924979.311        -995.112          40.000                                                                  
G24                                                                  23345675.993    95596615.276        -509.385          33.000  
> 2025 04 19 06 01 40.9940000  0 13                     
G20  20452508.384   107478679.010        3258.026          36.000                                                                  
G19  19018020.329    99940296.159         983.948          40.000                                                                  
G17  20011260.335   105159717.417         -47.810          39.000    20011274.130    81942620.936         -37.800          37.000  
G11  20084333.246   105543880.407        1084.612          39.000    20084347.244    82242070.565         845.176          41.000  
G04  23367804.876   122798674.091         863.790          29.000    23367843.320    95687419.984         673.356          32.000  
G09  22192193.531   116620731.875        1709.385          32.000    22192218.301    90873375.931        1332.061          35.000  
G03  23288948.422   122384241.186       -3285.605          27.000    23288967.445    95364456.544       -2560.817          30.000  
G12  22991945.216   120823465.431        3751.711          31.000                                                                  
G06  19210020.732   100949328.523        -552.141          40.000    19210035.287    78661899.352        -430.251          40.000  
G30  23476222.185   123368376.375       -1867.306          26.000    23476245.935    96131264.344       -1455.534          32.000  
G14  19443229.888   102174749.776       -2548.026          38.000    19443240.970    79616659.043       -1985.406          40.000  
G22  18825004.468    98925974.484        -995.510          40.000                                                                  
G24                                                                  23345800.358    95597124.620        -508.995          32.000  
> 2025 04 19 06 01 41.9940000  0 13                     
G20  20451888.254   107475421.089        3257.598          36.000                                                                  
G19  19017833.433    99939312.495         983.301          40.000                                                                  
G17  20011269.544   105159765.838         -48.427          39.000    20011283.384    81942658.652         -38.039          37.000  
G11  20084126.811   105542795.894        1084.267          39.000    20084140.739    82241225.494         844.966          41.000  
G04  23367640.292   122797810.170         864.340          29.000    23367678.932    95686746.854         672.985          31.000  
G09  22191868.387   116619022.555        1709.408          31.000    22191893.042    90872043.987        1331.784          35.000  
G03  23289573.798   122387527.402       -3286.091          26.000    23289592.615    95367017.144       -2560.112          30.000  
G12  22991231.409   120819714.585        3750.715          31.000                                                                  
G06  19210125.834   100949880.648        -552.381          41.000    19210140.293    78662329.567        -430.293          40.000  
G30  23476576.721   123370244.089       -1867.399          25.000    23476601.329    96132719.712       -1455.782          32.000  
G14  19443714.914   102177298.092       -2548.574          38.000    19443725.999    79618644.747       -1985.845          40.000  
G22  18825193.850    98926970.206        -995.849          40.000                                                                  
G24                                                                  23345924.667    95597634.252        -509.642          32.000  
> 2025 04 19 06 01 42.9940000  0 13                     
G20  20451268.367   107472163.622        3257.129          36.000                                                                  
G19  19017646.296    99938329.060         983.356          40.000                                                                  
G17  20011278.917   105159814.527         -49.142          39.000    20011292.613    81942696.577         -38.241          37.000  
G11  20083920.517   105541711.848        1083.652          39.000    20083934.483    82240380.765         844.645          41.000  
G04  23367475.989   122796946.826         863.244          29.000    23367514.631    95686074.104         672.823          32.000  
G09  22191542.995   116617313.568        1708.936          32.000    22191567.784    90870712.297        1331.712          35.000  
G03  23290199.050   122390813.838       -3286.242          26.000    23290217.936    95369578.078       -2560.664          31.000  
G12  22990517.761   120815963.941        3750.600          31.000                                                                  
G06  19210230.899   100950433.137        -552.756          40.000    19210245.430    78662760.076        -430.601          40.000  
G30  23476932.291   123372111.707       -1867.758          25.000    23476956.738    96134174.922       -1455.676          32.000  
G14  19444200.039   102179846.996       -2549.479          38.000    19444210.919    79620630.886       -1986.516          40.000  
G22  18825383.698    98927966.622        -996.958          40.000                                                                  
G24                                                                  23346048.916    95598144.250        -510.259          32.000  
> 2025 04 19 06 01 43.9940000  0 13                     
G20  20450648.653   107468906.668        3257.389          36.000                                                                  
G19  19017459.305    99937346.003         983.026          40.000                                                                  
G17  20011288.212   105159863.553         -49.065          39.000    20011301.981    81942734.773         -38.217          37.000  
G11  20083714.351   105540628.315        1082.904          39.000    20083728.310    82239536.462         844.026          41.000  
G04  23367311.817   122796083.967         862.701          29.000    23367350.427    95685401.782         671.779          32.000  
G09  22191217.686   116615604.971        1708.356          31.000    22191242.714    90869380.923        1331.248          35.000  
G03  23290824.318   122394100.715       -3286.986          26.000    23290843.274    95372139.256       -2561.099          31.000  
G12  22989804.007   120812213.712        3749.873          32.000                                                                  
G06  19210336.199   100950986.086        -553.286          40.000    19210350.677    78663190.942        -431.036          41.000  
G30  23477288.428   123373979.081       -1867.286          25.000    23477312.080    96135630.039       -1455.383          32.000  
G14  19444685.171   102182396.484       -2549.419          38.000    19444696.110    79622617.509       -1986.676          40.000  
G22  18825573.185    98928963.790        -997.406          40.000                                                                  
G24                                                                  23346173.410    95598654.609        -510.511          32.000  
> 2025 04 19 06 01 44.9940000  0 13                     
G20  20450028.869   107465650.344        3256.026          36.000                                                                  
G19  19017272.253    99936363.310         982.684          40.000                                                                  
G17  20011297.672   105159912.964         -49.564          39.000    20011311.395    81942773.252         -38.680          38.000  
G11  20083508.247   105539545.314        1082.899          39.000    20083522.220    82238692.569         843.646          41.000  
G04  23367147.681   122795221.649         862.162          29.000    23367186.234    95684729.839         672.031          32.000  
G09  22190892.538   116613896.796        1707.517          31.000    22190917.600    90868049.843        1331.182          35.000  
G03  23291449.758   122397387.919       -3287.209          26.000    23291468.717    95374700.767       -2561.875          31.000  
G12  22989090.425   120808463.802        3749.936          31.000                                                                  
G06  19210441.426   100951539.470        -553.567          40.000    19210455.993    78663622.155        -431.266          41.000  
G30  23477642.888   123375845.3773      -1867.042          25.000    23477667.591    96137085.095       -1454.990          32.000  
G14  19445170.472   102184946.656       -2550.556          38.000    19445181.412    79624604.638       -1987.153          40.000  
G22  18825762.866    98929961.723        -998.187          40.000                                                                  
G24                                                                  23346298.122    95599165.383        -510.737          33.000  
> 2025 04 19 06 01 45.9940000  0 13                     
G20  20449409.315   107462394.416        3255.205          36.000                                                                  
G19  19017085.282    99935380.887         981.848          40.000                                                                  
G17  20011307.055   105159962.647         -50.290          39.000    20011321.007    81942811.976         -39.192          38.000  
G11  20083302.313   105538462.755        1081.909          39.000    20083316.424    82237849.002         843.299          41.000  
G04  23366983.441   122794359.794         861.419          29.000    23367022.261    95684058.311         670.861          32.000  
G09  22190567.452   116612188.867        1707.467          32.000    22190592.507    90866718.994        1330.675          34.000  
G03  23292075.451   122400675.469       -3288.330          26.000    23292094.309    95377262.474       -2562.570          31.000  
G12  22988376.888   120804714.160        3749.829          32.000                                                                  
G06  19210546.808   100952093.216        -554.115          40.000    19210561.291    78664053.651        -431.694          40.000  
G30  23477998.132   123377712.5152      -1867.013          25.000    23478022.820    96138540.001       -1454.711          32.000  
G14  19445655.878   102187497.334       -2550.909          38.000    19445666.847    79626592.205       -1988.026          41.000  
G22  18825953.049    98930960.327        -999.181          40.000                                                                  
G24                                                                  23346423.013    95599676.530        -511.005          33.000  
> 2025 04 19 06 01 46.9940000  0 13                     
G20  20448789.811   107459139.017        3255.636          36.000                                                                  
G19  19016898.508    99934398.819         981.891          40.000                                                                  
G17  20011316.481   105160012.700         -50.307          39.000    20011330.549    81942850.979         -39.441          38.000  
G11  20083096.396   105537380.717        1082.042          39.000    20083110.475    82237005.864         843.125          41.000  
G04  23366819.436   122793498.445         861.604          29.000    23366858.253    95683387.133         671.042          31.000  
G09  22190242.319   116610481.382        1706.772          31.000    22190267.513    90865388.438        1330.896          34.000  
G03  23292701.097   122403963.426       -3288.251          26.000    23292720.002    95379824.475       -2561.824          31.000  
G12  22987663.550   120800964.942        3749.312          32.000                                                                  
G06  19210652.269   100952647.441        -554.490          40.000    19210666.814    78664485.488        -431.571          40.000  
G30  23478353.736   123379579.5882      -1866.478          26.000    23478378.166    96139994.852       -1455.397          32.000  
G14  19446141.373   102190048.704       -2551.525          38.000    19446152.330    79628580.274       -1988.249          41.000  
G22  18826143.003    98931959.713        -999.585          40.000                                                                  
G24                                                                  23346548.021    95600188.083        -511.776          32.000  
> 2025 04 19 06 01 47.9940000  0 13                     
G20  20448170.503   107455883.807        3255.081          36.000                                                                  
G19  19016711.528    99933416.716         982.471          40.000                                                                  
G17  20011325.980   105160062.709         -49.806          39.000    20011340.081    81942889.934         -38.807          38.000  
G11  20082890.574   105536298.827        1081.646          39.000    20082904.594    82236162.823         843.132          41.000  
G04  23366655.487   122792637.303         861.025          29.000    23366694.511    95682716.104         671.023          32.000  
G09  22189917.210   116608773.818        1707.863          31.000    22189942.492    90864057.922        1330.945          34.000  
G03  23293326.913   122407251.342       -3288.259          27.000    23293345.609    95382386.514       -2562.845          32.000  
G12  22986949.911   120797215.664        3749.580          32.000                                                                  
G06  19210757.702   100953201.706        -554.225          40.000    19210772.404    78664917.394        -431.740          40.000  
G30  23478709.417   123381446.1332      -1866.386          26.000    23478733.421    96141449.242       -1453.817          32.000  
G14  19446626.940   102192600.285       -2551.450          38.000    19446637.894    79630568.517       -1988.208          41.000  
G22  18826333.094    98932959.442        -999.699          40.000                                                                  
G24                                                                  23346673.044    95600699.744        -511.722          32.000  
> 2025 04 19 06 01 48.9940000  0 13                     
G20  20447551.190   107452628.699        3255.006          36.000                                                                  
G19  19016524.521    99932434.569         981.946          40.000                                                                  
G17  20011335.578   105160112.678         -49.969          39.000    20011349.625    81942928.870         -39.252          38.000  
G11  20082684.732   105535217.052        1081.559          39.000    20082698.819    82235319.881         842.829          41.000  
G04  23366491.949   122791776.281         860.555          29.000    23366530.881    95682045.189         670.507          32.000  
G09  22189592.180   116607066.358        1706.676          31.000    22189617.555    90862727.391        1330.420          34.000  
G03  23293952.493   122410539.215       -3288.128          27.000    23293971.272    95384948.466       -2562.113          32.000  
G12  22986236.367   120793466.328        3749.529          32.000                                                                  
G06  19210863.200   100953756.011        -554.542          40.000    19210877.909    78665349.319        -432.292          40.000  
G30  23479064.522   123383312.142       -1865.341          26.000    23479088.656    96142903.325       -1454.167          32.000  
G14  19447112.504   102195152.077       -2552.055          38.000    19447123.508    79632556.952       -1988.858          41.000  
G22  18826523.722    98933959.550       -1000.448          40.000                                                                  
G24                                                                  23346798.046    95601211.503        -511.817          32.000  
> 2025 04 19 06 01 49.9940000  0 13                     
G20  20446931.854   107449373.932        3254.203          36.000                                                                  
G19  19016337.631    99931452.550         981.818          40.000                                                                  
G17  20011345.064   105160162.782         -50.144          39.000    20011359.181    81942967.911         -38.969          38.000  
G11  20082478.927   105534135.547        1081.818          39.000    20082493.115    82234477.175         842.744          41.000  
G04  23366327.854   122790915.502         860.601          29.000    23366367.440    95681374.497         670.641          32.000  
G09  22189267.396   116605358.964        1707.127          32.000    22189292.669    90861396.944        1330.627          34.000  
G03  23294578.174   122413827.268       -3288.243          27.000    23294596.917    95387510.573       -2561.585          32.000  
G12  22985522.925   120789717.125        3749.178          32.000                                                                  
G06  19210968.668   100954310.499        -554.228          40.000    19210983.377    78665781.397        -432.013          40.000  
G30  23479419.056   123385177.831       -1865.023          25.000    23479443.590    96144357.096       -1453.768          31.000  
G14  19447598.128   102197704.338       -2552.677          38.000    19447609.214    79634545.669       -1988.582          40.000  
G22  18826714.131    98934960.187       -1000.954          40.000                                                                  
G24                                                                  23346923.108    95601723.532        -512.701          32.000  
> 2025 04 19 06 01 50.9940000  0 13                     
G20  20446312.653   107446119.352        3254.639          36.000                                                                  
G19  19016150.762    99930470.548         982.385          40.000                                                                  
G17  20011354.615   105160212.948         -50.224          39.000    20011368.713    81943006.988         -39.240          38.000  
G11  20082273.234   105533054.329        1080.554          39.000    20082287.289    82233634.619         842.739          41.000  
G04  23366164.275   122790055.033         860.160          29.000    23366204.389    95680703.991         670.674          32.000  
G09  22188942.520   116603651.682        1707.274          31.000    22188967.784    90860066.607        1330.503          35.000  
G03  23295203.876   122417115.377       -3288.185          27.000    23295222.524    95390072.760       -2562.147          33.000  
G12  22984809.368   120785967.942        3749.100          32.000                                                                  
G06  19211074.253   100954865.164        -554.514          40.000    19211088.917    78666213.584        -431.904          40.000  
G30  23479773.518   123387043.203       -1865.358          25.000    23479798.463    96145810.551       -1452.964          32.000  
G14  19448083.962   102200256.879       -2552.568          37.000    19448094.923    79636534.664       -1988.844          41.000  
G22  18826904.620    98935961.266       -1001.031          40.000                                                                  
G24                                                                  23347047.977    95602235.655        -512.278          32.000  
> 2025 04 19 06 01 51.9940000  0 13                     
G20  20445693.487   107442865.014        3254.110          36.000                                                                  
G19  19015963.824    99929488.617         982.043          40.000                                                                  
G17  20011364.090   105160263.125         -50.141          39.000    20011378.187    81943046.087         -39.145          37.000  
G11  20082067.403   105531973.227        1081.006          39.000    20082081.620    82232792.228         842.532          41.000  
G04  23366000.478   122789194.682         860.365          29.000    23366040.742    95680033.651         670.276          32.000  
G09  22188617.587   116601944.462        1706.533          31.000    22188642.979    90858736.309        1329.806          34.000  
G03  23295829.376   122420403.535       -3288.415          28.000    23295848.272    95392634.971       -2562.282          33.000  
G12  22984095.890   120782218.877        3748.799          32.000                                                                  
G06  19211179.833   100955419.950        -555.146          40.000    19211194.480    78666645.881        -432.329          40.000  
G30  23480127.689   123388908.039       -1864.578          25.000    23480153.319    96147263.685       -1453.268          31.000  
G14  19448569.793   102202809.739       -2553.326          37.000    19448580.697    79638523.923       -1989.516          41.000  
G22  18827095.199    98936962.800       -1002.004          40.000                                                                  
G24                                                                  23347172.883    95602747.925        -512.145          32.000  
> 2025 04 19 06 01 52.9940000  0 13                     
G20  20445074.313   107439611.034        3253.674          36.000                                                                  
G19  19015777.033    99928506.830         981.598          40.000                                                                  
G17  20011373.777   105160313.485         -50.439          39.000    20011387.766    81943085.313         -39.329          38.000  
G11  20081861.676   105530892.491        1080.482          39.000    20081875.956    82231950.107         841.855          41.000  
G04  23365836.769   122788334.738         859.729          29.000    23365877.163    95679363.591         669.357          32.000  
G09  22188292.721   116600237.426        1706.474          31.000    22188318.189    90857406.150        1329.600          35.000  
G03  23296455.208   122423691.855       -3288.300          28.000    23296473.895    95395197.347       -2562.100          33.000  
G12  22983382.487   120778469.927        3748.369          32.000                                                                  
G06  19211285.554   100955974.964        -555.312          40.000    19211300.040    78667078.374        -432.842          40.000  
G30  23480481.701   123390772.527       -1863.859          25.000    23480508.066    96148716.566       -1452.561          31.000  
G14  19449055.727   102205363.017       -2553.679          38.000    19449066.504    79640513.490       -1989.879          41.000  
G22  18827285.801    98937964.879       -1002.529          40.000                                                                  
G24                                                                  23347297.940    95603260.521        -513.065          32.000  
> 2025 04 19 06 01 53.9940000  0 13                     
G20  20444455.237   107436357.724        3252.746          36.000                                                                  
G19  19015590.210    99927525.552         981.201          40.000                                                                  
G17  20011383.446   105160364.374         -51.264          39.000    20011397.467    81943124.934         -39.420          38.000  
G11  20081656.203   105529812.434        1079.652          39.000    20081670.477    82231108.490         841.526          41.000  
G04  23365673.248   122787475.472         859.216          29.000    23365713.463    95678694.044         669.265          32.000  
G09  22187967.973   116598530.914        1706.627          31.000    22187993.351    90856076.428        1328.962          35.000  
G03  23297081.031   122426980.781       -3289.068          28.000    23297099.775    95397760.150       -2563.539          33.000  
G12  22982669.176   120774721.450        3748.987          32.000                                                                  
G06  19211391.152   100956530.560        -555.733          41.000    19211405.829    78667511.318        -433.312          40.000  
G30  23480835.978   123392637.237       -1864.528          25.000    23480862.892    96150169.545       -1453.221          31.000  
G14  19449541.745   102207917.112       -2554.281          38.000    19449552.477    79642503.677       -1990.410          41.000  
G22  18827476.613    98938967.882       -1003.518          40.000                                                                  
G24                                                                  23347423.218    95603773.591        -513.392          32.000  
> 2025 04 19 06 01 54.9940000  0 13                     
G20  20443836.213   107433104.784        3252.591          36.000                                                                  
G19  19015403.618    99926544.487         980.963          40.000                                                                  
G17  20011393.255   105160415.430         -51.028          39.000    20011407.258    81943164.752         -40.144          38.000  
G11  20081450.877   105528732.738        1079.734          39.000    20081464.976    82230267.189         841.051          41.000  
G04  23365509.768   122786616.628         858.448          29.000    23365549.832    95678024.831         668.228          32.000  
G09  22187643.226   116596824.670        1706.184          31.000    22187668.629    90854746.852        1329.420          35.000  
G03  23297706.902   122430269.953       -3289.641          28.000    23297725.565    95400323.113       -2563.566          33.000  
G12  22981956.030   120770973.256        3748.048          32.000                                                                  
G06  19211497.025   100957086.511        -556.475          40.000    19211511.558    78667944.511        -433.685          40.000  
G30  23481189.973   123394501.697       -1865.326          25.000    23481217.545    96151622.247       -1452.636          31.000  
G14  19450027.880   102210471.702       -2555.341          38.000    19450038.672    79644494.247       -1990.840          41.000  
G22  18827667.646    98939971.499       -1004.117          40.000                                                                  
G24                                                                  23347548.785    95604286.979        -513.565          32.000  
> 2025 04 19 06 01 55.9940000  0 13                     
G20  20443217.325   107429852.305        3252.304          36.000                                                                  
G19  19015216.875    99925563.670         980.743          40.000                                                                  
G17  20011403.055   105160466.749         -51.494          39.000    20011417.018    81943204.752         -40.588          38.000  
G11  20081245.514   105527653.453        1079.694          39.000    20081259.614    82229426.194         840.866          41.000  
G04  23365346.548   122785758.120         858.631          29.000    23365386.407    95677355.900         668.572          32.000  
G09  22187318.546   116595118.732        1705.436          31.000    22187344.121    90853417.510        1329.542          35.000  
G03  23298332.946   122433559.339       -3289.488          28.000    23298351.490    95402886.289       -2563.964          33.000  
G12  22981242.987   120767225.276        3748.055          32.000                                                                  
G06  19211603.011   100957642.735        -556.467          40.000    19211617.435    78668377.911        -433.102          40.000  
G30  23481544.491   123396365.642       -1863.048          24.000    23481572.229    96153074.849       -1453.377          31.000  
G14  19450514.070   102213026.759       -2555.280          38.000    19450524.929    79646485.218       -1991.155          40.000  
G22  18827859.016    98940975.753       -1004.499          40.000                                                                  
G24                                                                  23347674.200    95604800.670        -513.549          32.000  
> 2025 04 19 06 01 56.9940000  0 13                     
G20  20442598.468   107426599.918        3252.635          36.000                                                                  
G19  19015030.208    99924582.779         980.695          40.000                                                                  
G17  20011412.864   105160518.000         -50.979          39.000    20011426.815    81943244.654         -39.571          38.000  
G11  20081040.175   105526574.313        1078.978          39.000    20081054.223    82228585.269         841.022          41.000  
G04  23365183.275   122784899.810         858.149          29.000    23365222.958    95676687.081         668.273          32.000  
G09  22186993.904   116593412.714        1705.960          31.000    22187019.487    90852088.147        1329.542          35.000  
G03  23298958.800   122436848.652       -3289.014          29.000    23298977.460    95405449.427       -2563.240          33.000  
G12  22980529.599   120763477.214        3747.766          31.000                                                                  
G06  19211708.891   100958198.999        -556.305          40.000    19211723.318    78668811.386        -433.357          40.000  
G30  23481900.530   123398229.341       -1863.403          25.000    23481926.813    96154526.964       -1451.488          31.000  
G14  19451000.321   102215582.049       -2555.345          38.000    19451011.223    79648476.350       -1991.402          40.000  
G22  18828049.929    98941980.328       -1004.652          40.000                                                                  
G24                                                                  23347799.653    95605314.445        -513.672          32.000  
> 2025 04 19 06 01 57.9940000  0 13                     
G20  20441979.670   107423347.770        3251.890          36.000                                                                  
G19  19014843.574    99923601.978         980.273          40.000                                                                  
G17  20011422.634   105160569.340         -51.524          39.000    20011436.728    81943284.655         -40.079          38.000  
G11  20080834.926   105525495.369        1078.505          39.000    20080848.958    82227744.550         840.459          41.000  
G04  23365019.984   122784041.743         857.512          29.000    23365059.456    95676018.448         668.219          32.000  
G09  22186669.214   116591706.743        1706.400          32.000    22186694.922    90850758.855        1329.259          35.000  
G03  23299584.833   122440138.095       -3289.650          29.000    23299603.374    95408012.604       -2562.856          33.000  
G12  22979816.369   120759729.253        3747.469          31.000                                                                  
G06  19211814.770   100958755.420        -556.754          40.000    19211829.213    78669244.972        -434.032          40.000  
G30  23482254.501   123400092.544       -1863.583          25.000    23482281.531    96155978.830       -1451.578          30.000  
G14  19451486.637   102218137.696       -2555.918          38.000    19451497.561    79650467.752       -1991.825          40.000  
G22  18828241.327    98942985.407       -1005.272          40.000                                                                  
G24                                                                  23347925.006    95605828.392        -513.426          32.000  
> 2025 04 19 06 01 58.9940000  0 13                     
G20  20441360.829   107420096.176        3251.741          35.000                                                                  
G19  19014657.020    99922621.546         980.353          40.000                                                                  
G17  20011432.550   105160621.072         -51.988          39.000    20011446.619    81943324.948         -40.303          38.000  
G11  20080629.702   105524416.959        1078.480          39.000    20080643.715    82226904.229         840.306          41.000  
G04  23364856.851   122783184.218         856.813          30.000    23364895.998    95675350.241         668.659          32.000  
G09  22186344.612   116590001.319        1704.979          32.000    22186370.389    90849429.896        1328.961          35.000  
G03  23300210.833   122443427.921       -3289.878          29.000    23300229.406    95410576.147       -2563.827          32.000  
G12  22979103.033   120755981.651        3747.612          31.000                                                                  
G06  19211920.722   100959312.332        -557.402          40.000    19211935.208    78669678.893        -434.028          40.000  
G30  23482610.434   123401955.742       -1863.640          25.000    23482636.133    96157430.675       -1452.224          30.000  
G14  19451972.999   102220693.986       -2556.806          38.000    19451983.951    79652459.678       -1992.184          40.000  
G22  18828432.492    98943991.267       -1005.973          40.000                                                                  
G24                                                                  23348050.448    95606342.821        -514.314          32.000  
> 2025 04 19 06 01 59.9940000  0 13                     
G20  20440742.019   107416845.016        3250.754          36.000                                                                  
G19  19014470.460    99921641.309         980.298          40.000                                                                  
G17  20011442.382   105160672.972         -51.976          39.000    20011456.486    81943365.380         -40.142          37.000  
G11  20080424.607   105523338.959        1077.765          39.000    20080438.539    82226064.219         839.834          41.000  
G04  23364693.647   122782326.999         857.387          30.000    23364732.893    95674682.400         666.960          33.000  
G09  22186020.059   116588296.033        1705.135          32.000    22186045.924    90848101.119        1328.747          35.000  
G03  23300836.874   122446718.021       -3290.143          29.000    23300855.451    95413139.821       -2563.277          32.000  
G12  22978389.788   120752234.204        3748.084          31.000                                                                  
G06  19212026.754   100959869.489        -557.206          40.000    19212041.205    78670113.064        -434.155          40.000  
G30  23482966.309   123403818.504       -1862.562          24.000    23482990.504    96158882.227       -1451.407          30.000  
G14  19452459.554   102223250.748       -2556.932          38.000    19452470.484    79654451.950       -1992.480          40.000  
G22  18828623.890    98944997.713       -1006.729          40.000                                                                  
G24                                                                  23348176.044    95606857.467        -514.650          32.000  
> 2025 04 19 06 02 00.9940000  0 13                     
G20  20440123.449   107413594.088        3250.140          36.000                                                                  
G19  19014284.142    99920661.140         980.054          40.000                                                                  
G17  20011452.228   105160724.931         -51.759          39.000    20011466.396    81943405.874         -40.302          37.000  
G11  20080219.482   105522261.133        1077.690          39.000    20080233.422    82225224.359         839.762          41.000  
G04  23364530.725   122781470.039         857.266          30.000    23364569.655    95674014.621         667.520          33.000  
G09  22185695.446   116586590.834        1705.910          32.000    22185721.410    90846772.407        1328.446          35.000  
G03  23301462.867   122450008.145       -3289.922          29.000    23301481.547    95415703.621       -2564.345          32.000  
G12  22977676.635   120748486.910        3747.116          32.000                                                                  
G06  19212132.718   100960426.797        -557.281          40.000    19212147.300    78670547.331        -434.437          40.000  
G30  23483321.309                       -1862.456          24.000    23483344.900    96160333.455       -1451.022          30.000  
G14  19452946.187   102225807.849       -2557.494          37.000    19452957.083    79656444.468       -1992.579          40.000  
G22  18828815.168    98946004.618       -1007.126          40.000                                                                  
G24                                                                  23348301.746    95607372.333        -515.096          33.000  
> 2025 04 19 06 02 01.9940000  0 13                     
G20  20439504.854   107410343.435        3250.124          36.000                                                                  
G19  19014097.620    99919681.092         979.822          40.000                                                                  
G17  20011462.238   105160777.048         -52.122          39.000    20011476.302    81943446.493         -40.544          37.000  
G11  20080014.422   105521183.653        1077.092          39.000    20080028.405    82224384.755         839.379          41.000  
G04  23364367.967   122780613.422         857.062          30.000    23364406.603    95673347.197         666.513          33.000  
G09  22185370.992   116584885.868        1704.802          32.000    22185396.965    90845443.825        1328.351          35.000  
G03  23302088.915   122453298.514       -3290.941          29.000    23302107.718    95418267.504       -2564.036          32.000  
G12  22976963.547   120744739.692        3747.117          32.000                                                                  
G06  19212238.747   100960984.354        -557.612          40.000    19212253.439    78670981.787        -434.622          40.000  
G30  23483676.220                       -1863.546          22.000    23483699.368    96161784.475       -1450.996          30.000  
G14  19453432.824   102228365.332       -2557.602          38.000    19453443.775    79658437.340       -1992.825          40.000  
G22  18829006.969    98947012.078       -1007.808          40.000                                                                  
G24                                                                  23348427.697    95607887.424        -515.441          33.000  
> 2025 04 19 06 02 02.9940000  0 13                     
G20  20438886.438   107407093.063        3250.111          36.000                                                                  
G19  19013911.060    99918701.134         979.944          40.000                                                                  
G17  20011472.085   105160829.269         -52.443          39.000    20011486.198    81943487.166         -40.823          37.000  
G11  20079809.378   105520106.383        1077.067          39.000    20079823.326    82223545.316         839.561          41.000  
G04  23364205.132   122779757.127         856.622          30.000    23364243.368    95672679.907         666.795          33.000  
G09  22185046.639   116583180.972        1704.802          32.000    22185072.530    90844115.314        1328.420          35.000  
G03  23302715.192   122456588.906       -3290.618          29.000    23302733.860    95420831.458       -2564.125          32.000  
G12  22976250.475   120740992.573        3746.892          32.000                                                                  
G06  19212344.853   100961542.046        -557.615          40.000    19212359.450    78671416.353        -434.721          40.000  
G30  23484029.588                       -1861.577          22.000    23484053.735    96163235.199       -1450.927          30.000  
G14  19453919.641   102230923.201       -2557.919          38.000    19453930.522    79660430.481       -1993.249          40.000  
G22  18829198.870    98948020.002       -1008.248          40.000                                                                  
G24                                                                  23348553.550    95608402.681        -515.345          33.000  
> 2025 04 19 06 02 03.9940000  0 13                     
G20  20438267.979   107403843.165        3249.419          36.000                                                                  
G19  19013724.610    99917721.456         979.651          40.000                                                                  
G17  20011482.204   105160881.727         -52.295          39.000    20011496.148    81943528.035         -40.561          37.000  
G11  20079604.507   105519029.593        1076.589          39.000    20079618.472    82222706.253         839.232          41.000  
G04  23364042.202   122778901.238         855.549          30.000    23364080.379    95672013.005         666.676          33.000  
G09  22184722.065   116581476.381        1704.755          31.000    22184748.151    90842787.083        1327.948          35.000  
G03  23303341.438   122459879.651       -3290.987          29.000    23303360.005    95423395.680       -2564.697          32.000  
G12  22975537.550   120737245.682        3747.499          32.000                                                                  
G06  19212451.181   100962100.140        -558.173          40.000    19212465.679    78671851.210        -434.768          40.000  
G30  23484384.205                       -1859.214          22.000    23484407.954    96164685.779       -1451.030          30.000  
G14  19454406.500   102233481.657       -2559.138          38.000    19454417.430    79662424.061       -1993.830          40.000  
G22  18829390.682    98949028.613       -1008.735          40.000                                                                  
G24                                                                  23348679.555    95608918.321        -515.804          33.000  
> 2025 04 19 06 02 04.9940000  0 13                     
G20  20437649.598   107400593.501        3249.184          36.000                                                                  
G19  19013538.285    99916741.858         979.492          40.000                                                                  
G17  20011492.125   105160934.285         -52.424          39.000    20011506.089    81943568.988         -41.088          37.000  
G11  20079399.621   105517953.030        1075.996          39.000    20079413.651    82221867.380         838.751          41.000  
G04  23363879.562   122778045.620         855.447          30.000    23363917.727    95671346.305         666.007          33.000  
G09  22184397.888   116579771.930        1703.967          31.000    22184423.770    90841458.902        1328.436          35.000  
G03  23303967.691   122463170.407       -3290.471          29.000    23303986.259    95425959.958       -2564.825          32.000  
G12  22974824.676   120733498.972        3745.846          32.000                                                                  
G06  19212557.448   100962658.359        -558.255          41.000    19212571.927    78672286.207        -435.191          40.000  
G30  23484738.343                       -1860.482          22.000    23484762.153    96166136.017       -1449.683          30.000  
G14  19454893.313   102236040.409       -2559.133          38.000    19454904.407    79664417.904       -1994.090          40.000  
G22  18829582.535    98950037.707       -1009.284          40.000                                                                  
G24                                                                  23348805.459    95609434.148        -516.208          33.000  
> 2025 04 19 06 02 05.9940000  0 13                     
G20  20437031.154   107397344.139        3249.367          36.000                                                                  
G19  19013351.930    99915762.377         979.547          40.000                                                                  
G17  20011502.229   105160986.983         -52.841          39.000    20011516.025    81943610.044         -41.088          37.000  
G11  20079194.775   105516876.748        1075.913          39.000    20079208.792    82221028.730         838.420          41.000  
G04  23363716.986   122777190.302         854.994          30.000    23363754.989    95670679.835         666.441          33.000  
G09  22184073.591   116578067.597        1704.767          31.000    22184099.461    90840130.855        1328.198          35.000  
G03  23304594.040   122466461.442       -3291.602          29.000    23304612.555    95428524.340       -2564.003          32.000  
G12  22974111.793   120729752.300        3746.622          31.000                                                                  
G06  19212663.832   100963216.808        -558.366          40.000    19212678.166    78672721.349        -435.073          40.000  
G30  23485092.225                       -1860.373          22.000    23485116.124    96167586.018       -1449.015          30.000  
G14  19455380.353   102238599.559       -2559.030          38.000    19455391.387    79666412.047       -1994.245          40.000  
G22  18829774.749    98951047.348       -1010.022          40.000                                                                  
G24                                                                  23348931.677    95609950.176        -516.191          33.000  
> 2025 04 19 06 02 06.9940000  0 13                     
G20  20436412.885   107394095.073        3249.127          36.000                                                                  
G19  19013165.690    99914783.018         978.998          40.000                                                                  
G17  20011512.199   105161039.771         -52.689          39.000    20011526.181    81943651.180         -41.560          37.000  
G11  20078990.022   105515800.738        1076.023          39.000    20079004.059    82220190.284         838.383          41.000  
G04  23363554.229   122776335.258         854.348          30.000    23363592.205    95670013.576         666.236          33.000  
G09  22183749.546   116576363.414        1704.187          31.000    22183775.150    90838802.917        1327.905          35.000  
G03  23305220.318   122469752.504       -3291.210          29.000    23305238.768    95431088.832       -2564.322          32.000  
G12  22973398.759   120726005.748        3746.702          31.000                                                                  
G06  19212770.138   100963775.464        -558.766          40.000    19212784.523    78673156.657        -435.333          40.000  
G30  23485444.785                       -1861.375          22.000    23485470.346    96169035.769       -1449.767          30.000  
G14  19455867.463   102241159.127       -2559.753          38.000    19455878.375    79668406.509       -1994.825          41.000  
G22  18829966.880    98952057.457       -1010.267          40.000                                                                  
G24                                                                  23349057.696    95610466.422        -515.819          33.000  
> 2025 04 19 06 02 07.9940000  0 13                     
G20  20435794.860   107390846.290        3248.769          36.000                                                                  
G19  19012979.462    99913803.714         979.047          40.000                                                                  
G17  20011522.342   105161092.672         -53.356          39.000    20011536.267    81943692.392         -41.529          37.000  
G11  20078785.490   105514724.988        1075.630          39.000    20078799.320    82219352.044         837.853          41.000  
G04  23363391.498   122775480.487         854.508          30.000    23363429.247    95669347.577         665.455          33.000  
G09  22183425.344   116574659.350        1703.870          31.000    22183450.891    90837475.067        1327.686          35.000  
G03  23305846.582   122473043.665       -3290.810          28.000    23305865.204    95433653.438       -2564.485          32.000  
G12  22972685.729   120722259.303        3746.079          31.000                                                                  
G06  19212876.442   100964334.266        -559.084          40.000    19212890.854    78673592.087        -435.540          40.000  
G30  23485801.097                       -1860.722          22.000    23485824.288    96170485.168       -1448.576          30.000  
G14  19456354.600   102243719.008       -2559.740          38.000    19456365.495    79670401.226       -1995.010          41.000  
G22  18830159.243    98953068.079       -1011.137          40.000                                                                  
G24                                                                  23349183.932    95610982.882        -516.774          32.000  
> 2025 04 19 06 02 08.9940000  0 13                     
G20  20435176.733   107387597.807        3247.742          36.000                                                                  
G19  19012793.153    99912824.521         979.236          40.000                                                                  
G17  20011532.413   105161145.639         -53.113          39.000    20011546.249    81943733.668         -41.310          37.000  
G11  20078580.939   105513649.491        1075.357          39.000    20078594.577    82218513.991         837.832          41.000  
G04  23363228.767   122774625.948         854.412          29.000    23363266.466    95668681.703         666.173          33.000  
G09  22183101.036   116572955.413        1704.242          32.000    22183126.663    90836147.318        1327.533          35.000  
G03  23306472.843   122476335.023       -3291.624          28.000    23306491.509    95436218.116       -2565.286          32.000  
G12  22971972.683   120718512.960        3745.711          31.000                                                                  
G06  19212982.756   100964893.265        -559.403          40.000    19212997.218    78674027.661        -435.622          40.000  
G30  23486156.119                       -1859.494          21.000    23486178.141    96171934.370       -1449.382          29.000  
G14  19456841.823   102246279.320       -2560.846          38.000    19456852.686    79672396.246       -1995.238          41.000  
G22  18830351.847    98954079.210       -1011.666          40.000                                                                  
G24                                                                  23349310.249    95611499.516        -516.754          33.000  
> 2025 04 19 06 02 09.9940000  0 13                     
G20  20434558.675   107384349.807        3247.596          36.000                                                                  
G19  19012606.912    99911845.691         978.760          40.000                                                                  
G17  20011542.574   105161199.003         -53.825          39.000    20011556.510    81943775.217         -41.614          37.000  
G11  20078376.372   105512574.536        1074.436          39.000    20078389.971    82217676.352         837.695          41.000  
G04  23363066.354   122773772.003         853.867          30.000    23363104.003    95668016.306         665.401          33.000  
G09  22182777.009   116571251.915        1703.198          32.000    22182802.488    90834819.876        1327.576          35.000  
G03  23307099.365   122479626.714       -3291.749          28.000    23307117.994    95438783.045       -2564.464          31.000  
G12  22971259.875   120714766.950        3745.884          31.000                                                                  
G06  19213089.105   100965452.701        -559.509          40.000    19213103.623    78674463.601        -436.012          40.000  
G30  23486511.102                       -1858.039          22.000    23486532.000    96173383.433       -1449.773          29.000  
G14  19457329.034   102248840.226       -2561.200          38.000    19457340.022    79674391.749       -1995.583          40.000  
G22  18830544.558    98955091.072       -1012.049          40.000                                                                  
G24                                                                  23349436.664    95612016.599        -517.399          33.000  
> 2025 04 19 06 02 10.9940000  0 13                     
G20  20433940.624   107381101.940        3247.688          36.000                                                                  
G19  19012420.663    99910866.796         978.571          40.000                                                                  
G17  20011552.740   105161252.284         -53.741          39.000    20011566.640    81943816.741         -41.449          37.000  
G11  20078171.830   105511499.694        1074.508          39.000    20078185.446    82216838.797         837.396          41.000  
G04  23362904.008   122772918.205         852.773          29.000    23362941.484    95667351.016         664.859          33.000  
G09  22182452.589   116569548.321        1703.259          32.000    22182478.268    90833492.411        1327.380          35.000  
G03  23307725.860   122482918.405       -3291.795          28.000    23307744.347    95441348.014       -2564.981          31.000  
G12  22970546.951   120711020.931        3745.458          32.000                                                                  
G06  19213195.592   100966012.175        -559.820          40.000    19213210.143    78674899.541        -436.204          40.000  
G30  23486863.849                       -1859.126          22.000    23486885.907    96174832.059       -1448.537          29.000  
G14  19457816.450   102251401.356       -2561.587          38.000    19457827.360    79676387.430       -1995.801          40.000  
G22  18830737.299    98956103.319       -1012.877          40.000                                                                  
G24                                                                  23349563.145    95612533.718        -517.107          33.000  
> 2025 04 19 06 02 11.9940000  0 13                     
G20  20433322.637   107377854.415        3247.051          36.000                                                                  
G19  19012234.509    99909887.991         978.741          40.000                                                                  
G17  20011562.985   105161305.662         -53.347          39.000    20011576.775    81943858.354         -41.858          37.000  
G11  20077967.266   105510425.087        1074.606          39.000    20077981.014    82216001.456         837.345          41.000  
G04  23362741.670   122772064.582         853.889          29.000    23362779.056    95666685.909         665.042          33.000  
G09  22182128.365   116567844.859        1704.169          32.000    22182154.091    90832165.041        1327.600          35.000  
G03  23308352.147   122486210.157       -3291.791          28.000    23308370.802    95443913.048       -2564.933          31.000  
G12  22969834.053   120707274.967        3745.675          31.000                                                                  
G06  19213302.102   100966571.826        -559.872          40.000    19213316.686    78675335.636        -436.113          40.000  
G30  23487216.431                       -1858.825          23.000    23487239.494    96176280.441       -1448.409          29.000  
G14  19458303.885   102253962.855       -2561.791          38.000    19458314.857    79678383.405       -1996.125          40.000  
G22  18830930.068    98957116.042       -1013.119          40.000                                                                  
G24                                                                  23349689.603    95613051.064        -517.032          33.000  
> 2025 04 19 06 02 12.9940000  0 13                     
G20  20432704.793   107374606.906        3247.134          36.000                                                                  
G19  19012048.102    99908909.112         978.784          40.000                                                                  
G17  20011573.106   105161358.991         -53.448          39.000    20011586.886    81943899.874         -41.603          38.000  
G11  20077762.829   105509350.576        1074.580          39.000    20077776.470    82215164.166         837.483          41.000  
G04  23362579.214   122771211.114         853.553          29.000    23362616.602    95666020.924         664.216          33.000  
G09  22181804.284   116566141.426        1703.723          32.000    22181829.897    90830837.667        1327.545          35.000  
G03  23308978.577   122489501.866       -3291.298          28.000    23308997.118    95446478.016       -2564.415          31.000  
G12  22969121.158   120703528.941        3745.340          31.000                                                                  
G06  19213408.447   100967131.484        -559.651          40.000    19213423.089    78675771.732        -436.176          40.000  
G30  23487570.227                       -1857.927          23.000    23487593.226    96177728.373       -1447.801          29.000  
G14  19458791.383   102256524.543       -2561.814          38.000    19458802.280    79680379.539       -1996.227          40.000  
G22  18831122.817    98958129.074       -1013.086          40.000                                                                  
G24                                                                  23349816.027    95613568.473        -516.996          33.000  
> 2025 04 19 06 02 13.9940000  0 13                     
G20  20432086.949   107371359.694        3247.223          36.000                                                                  
G19  19011861.766    99907930.320         978.393          40.000                                                                  
G17  20011583.348   105161412.382         -53.292          39.000    20011597.006    81943941.473         -41.596          38.000  
G11  20077558.348   105508276.329        1073.851          39.000    20077572.079    82214327.084         837.131          41.000  
G04  23362417.018   122770357.936         852.941          30.000    23362454.226    95665356.092         664.750          33.000  
G09  22181480.177   116564438.049        1703.711          32.000    22181505.775    90829510.389        1326.965          35.000  
G03  23309604.981   122492793.701       -3291.956          28.000    23309623.515    95449043.111       -2564.563          30.000  
G12  22968408.404   120699782.947        3746.584          31.000                                                                  
G06  19213514.970   100967691.284        -559.721          40.000    19213529.636    78676207.950        -436.196          40.000  
G30  23487925.398                       -1859.045          23.000    23487946.801    96179176.016       -1447.098          29.000  
G14  19459278.870   102259086.600       -2562.272          38.000    19459289.735    79682375.932       -1996.669          40.000  
G22  18831315.574    98959142.622       -1013.941          40.000                                                                  
G24                                                                  23349942.295    95614086.103        -518.034          32.000  
> 2025 04 19 06 02 14.9940000  0 13                     
G20  20431469.207   107368112.973        3246.365          36.000                                                                  
G19  19011675.569    99906951.828         978.229          40.000                                                                  
G17  20011593.563   105161466.087         -53.850          39.000    20011607.261    81943983.323         -41.882          38.000  
G11  20077353.994   105507202.541        1073.548          39.000    20077367.795    82213490.383         836.320          41.000  
G04  23362254.730   122769505.200         852.466          30.000    23362291.875    95664691.655         663.990          34.000  
G09  22181156.113   116562735.033        1702.026          31.000    22181181.740    90828183.349        1327.130          35.000  
G03  23310231.247   122496085.904       -3292.454          27.000    23310249.985    95451608.500       -2567.109          30.000  
G12  22967695.571   120696037.355        3745.190          32.000                                                                  
G06  19213621.555   100968251.506        -560.310          40.000    19213636.222    78676644.486        -436.783          40.000  
G30  23488280.223                       -1857.704          24.000    23488300.202    96180623.557       -1447.256          29.000  
G14  19459766.523   102261649.216       -2562.695          38.000    19459777.337    79684372.788       -1997.297          40.000  
G22  18831508.490    98960156.844       -1014.540          40.000                                                                  
G24                                                                  23350068.876    95614604.076        -518.545          32.000  
> 2025 04 19 06 02 15.9940000  0 13                     
G20  20430851.437   107364866.523        3246.247          36.000                                                                  
G19  19011489.304    99905973.372         978.790          40.000                                                                  
G17  20011603.750   105161519.847         -53.587          39.000    20011617.429    81944025.217         -41.898          37.000  
G11  20077149.632   105506128.954        1073.781          39.000    20077163.421    82212653.828         836.439          41.000  
G04  23362092.449   122768652.735         852.555          30.000    23362129.631    95664027.384         664.832          34.000  
G09  22180831.811   116561032.049        1704.114          31.000    22180857.686    90826856.369        1327.252          35.000  
G03  23310857.619   122499378.113       -3292.071          27.000    23310876.432    95454173.809       -2565.344          31.000  
G12  22966982.704   120692291.777        3745.430          31.000                                                                  
G06  19213728.236   100968811.846        -559.996          40.000    19213742.876    78677081.097        -436.289          40.000  
G30  23488634.173                       -1854.771          25.000    23488653.721    96182070.775       -1446.724          29.000  
G14  19460254.262   102264212.187       -2562.989          38.000    19460265.076    79686369.866       -1996.758          40.000  
G22  18831701.671    98961171.546       -1014.882          40.000                                                                  
G24                                                                  23350195.376    95615122.218        -518.309          32.000  
> 2025 04 19 06 02 16.9940000  0 13                     
G20  20430233.553   107361619.979        3247.103          36.000                                                                  
G19  19011303.052    99904994.730         978.943          40.000                                                                  
G17  20011613.914   105161573.401         -53.504          39.000    20011627.578    81944066.952         -41.613          37.000  
G11  20076945.423   105505055.328        1074.207          39.000    20076959.120    82211817.252         836.621          41.000  
G04  23361930.141   122767800.244         852.329          30.000    23361967.345    95663363.164         663.928          34.000  
G09  22180507.656   116559328.978        1703.687          31.000    22180533.565    90825529.269        1326.904          35.000  
G03  23311483.951   122502670.167       -3291.935          27.000    23311502.859    95456739.040       -2564.204          30.000  
G12  22966269.880   120688546.000        3745.433          31.000                                                                  
G06  19213834.866   100969372.097        -560.370          40.000    19213849.515    78677517.645        -436.268          40.000  
G30  23488987.608                       -1855.542          24.000    23489006.855    96183517.513       -1446.745          29.000  
G14  19460742.013   102266775.203       -2562.711          38.000    19460752.853    79688367.056       -1997.427          40.000  
G22  18831894.883    98962186.448       -1015.101          40.000                                                                  
G24                                                                  23350321.612    95615640.306        -517.916          32.000  
> 2025 04 19 06 02 17.9940000  0 13                     
G20  20429615.723   107358373.656        3246.479          35.000                                                                  
G19  19011116.712    99904016.071         978.906          40.000                                                                  
G17  20011624.085   105161626.970         -53.509          39.000    20011637.729    81944108.669         -41.542          37.000  
G11  20076741.157   105503981.917        1073.032          39.000    20076754.872    82210980.793         836.263          41.000  
G04  23361767.941   122766947.904         852.079          30.000    23361805.007    95662699.012         664.080          34.000  
G09  22180183.554   116557625.905        1703.137          31.000    22180209.430    90824202.170        1327.161          35.000  
G03  23312110.379   122505962.272       -3292.272          28.000    23312129.306    95459304.274       -2564.644          31.000  
G12  22965557.042   120684800.184        3745.191          31.000                                                                  
G06  19213941.508   100969932.380        -560.130          40.000    19213956.101    78677954.255        -436.786          40.000  
G30  23489340.280                       -1857.416          24.000    23489360.086    96184963.797       -1446.032          29.000  
G14  19461229.749   102269338.482       -2563.217          38.000    19461240.656    79690364.418       -1997.631          40.000  
G22  18832088.003    98963201.719       -1015.441          40.000                                                                  
G24                                                                  23350447.956    95616158.567        -518.641          32.000  
> 2025 04 19 06 02 18.9940000  0 13                     
G20  20428997.995   107355127.769        3245.989          36.000                                                                  
G19  19010930.462    99903037.666         978.241          40.000                                                                  
G17  20011634.490   105161680.792         -54.305          39.000    20011648.029    81944150.583         -41.729          38.000  
G11  20076536.948   105502908.881        1072.627          39.000    20076550.715    82210144.673         835.782          41.000  
G04  23361605.655   122766096.014         851.543          30.000    23361642.786    95662035.233         663.461          34.000  
G09  22179859.569   116555923.107        1702.332          32.000    22179885.458    90822875.305        1326.654          35.000  
G03  23312736.842   122509254.611       -3292.437          29.000    23312755.930    95461869.764       -2565.912          31.000  
G12  22964844.328   120681054.635        3745.699          31.000                                                                  
G06  19214048.227   100970493.071        -561.375          40.000    19214062.766    78678391.133        -437.300          40.000  
G30  23489693.474                       -1854.886          25.000    23489713.358    96186409.960       -1446.334          30.000  
G14  19461717.688   102271902.295       -2563.873          38.000    19461728.688    79692362.191       -1998.287          40.000  
G22  18832281.258    98964217.667       -1016.568          40.000                                                                  
G24                                                                  23350574.649    95616677.108        -518.578          33.000  
> 2025 04 19 06 02 19.9940000  0 13                     
G20  20428380.335   107351882.274        3245.658          36.000                                                                  
G19  19010744.303    99902059.459         978.381          40.000                                                                  
G17  20011644.722   105161734.804         -54.114          39.000    20011658.294    81944192.700         -42.391          37.000  
G11  20076332.778   105501836.210        1072.829          39.000    20076346.631    82209308.823         835.793          41.000  
G04  23361443.520   122765244.511         851.084          31.000    23361480.690    95661371.726         663.431          34.000  
G09  22179535.479   116554220.565        1702.405          32.000    22179561.477    90821548.625        1326.544          35.000  
G03  23313363.263   122512547.193       -3293.628          30.000    23313382.311    95464435.417       -2565.923          31.000  
G12  22964131.484   120677309.320        3744.651          31.000                                                                  
G06  19214154.992   100971053.986        -561.077          40.000    19214169.440    78678828.213        -437.070          40.000  
G30  23490045.255                       -1855.640          25.000    23490066.680    96187855.947       -1445.329          30.000  
G14  19462205.714   102274466.596       -2564.336          38.000    19462216.576    79694360.335       -1998.496          40.000  
G22  18832474.691    98965234.218       -1017.006          40.000                                                                  
G24                                                                  23350701.550    95617195.983        -519.252          33.000  
> 2025 04 19 06 02 20.9940000  0 13                     
G20  20427762.718   107348637.039        3245.355          36.000                                                                  
G19  19010558.102    99901081.388         977.502          40.000                                                                  
G17  20011655.136   105161788.924         -54.341          39.000    20011668.609    81944234.873         -42.496          37.000  
G11  20076128.654   105500763.817        1072.129          39.000    20076142.655    82208473.208         834.909          41.000  
G04  23361281.639   122764393.250         851.367          30.000    23361318.795    95660708.457         662.863          35.000  
G09  22179211.568   116552518.115        1702.826          32.000    22179237.554    90820222.069        1326.080          35.000  
G03  23313989.829   122515839.873       -3293.700          30.000    23314008.965    95467001.137       -2565.600          31.000  
G12  22963418.646   120673564.076        3745.285          31.000                                                                  
G06  19214261.717   100971615.129        -561.604          40.000    19214276.331    78679265.464        -437.431          40.000  
G30  23490397.824                       -1855.293          25.000    23490419.732    96189301.604       -1445.731          30.000  
G14  19462693.675   102277031.285       -2565.039          38.000    19462704.564    79696358.775       -1998.763          40.000  
G22  18832668.222    98966251.267       -1017.643          40.000                                                                  
G24                                                                  23350828.538    95617715.018        -519.247          33.000  
> 2025 04 19 06 02 21.9930000  0 13                     
G20  20427145.870   107345395.594        3244.601          35.000                                                                  
G19  19010372.262    99900104.584         977.605          40.000                                                                  
G17  20011665.530   105161843.352         -54.536          39.000    20011678.903    81944277.259         -42.469          37.000  
G11  20075924.910   105499692.991        1071.853          39.000    20075938.858    82207638.772         835.326          41.000  
G04  23361119.665   122763543.397         850.638          30.000    23361157.191    95660046.237         662.956          35.000  
G09  22178887.903   116550817.785        1701.683          32.000    22178914.013    90818897.096        1326.358          35.000  
G03  23314615.764   122519129.590       -3293.116          30.000    23314635.052    95469564.640       -2566.856          31.000  
G12  22962706.893   120669822.987        3744.215          31.000                                                                  
G06  19214368.462   100972176.095        -561.499          40.000    19214383.110    78679702.598        -437.924          40.000  
G30  23490750.865                       -1855.055          25.000    23490772.411    96190745.731       -1446.098          30.000  
G14  19463181.275   102279594.011       -2565.823          38.000    19463192.225    79698355.675       -1998.943          40.000  
G22  18832861.719    98967268.048       -1018.335          40.000                                                                  
G24                                                                  23350955.486    95618233.949        -519.621          33.000  
> 2025 04 19 06 02 22.9930000  0 13                     
G20  20426528.537   107342151.232        3243.695          36.000                                                                  
G19  19010186.175    99899126.927         977.759          40.000                                                                  
G17  20011675.964   105161897.956         -55.007          39.000    20011689.355    81944319.788         -42.380          37.000  
G11  20075720.888   105498621.406        1071.287          39.000    20075734.895    82206803.770         834.589          41.000  
G04  23360957.859   122762692.997         850.510          30.000    23360995.514    95659383.605         662.737          35.000  
G09  22178564.091   116549115.851        1701.909          32.000    22178590.072    90817570.935        1326.428          35.000  
G03  23315242.212   122522422.793       -3293.115          29.000    23315261.767    95472130.753       -2565.896          31.000  
G12  22961994.320   120666078.211        3745.013          31.000                                                                  
G06  19214475.434   100972737.836        -561.841          40.000    19214490.049    78680140.310        -437.849          40.000  
G30  23491103.453                       -1853.719          25.000    23491125.587    96192191.075       -1446.088          30.000  
G14  19463669.547   102282159.686       -2566.222          38.000    19463680.421    79700354.908       -1999.485          41.000  
G22  18833055.495    98968286.348       -1018.695          40.000                                                                  
G24                                                                  23351082.556    95618753.624        -520.033          33.000  
> 2025 04 19 06 02 23.9930000  0 13                     
G20  20425911.156   107338906.964        3244.112          36.000                                                                  
G19  19010000.058    99898149.282         977.350          40.000                                                                  
G17  20011686.335   105161952.521         -54.603          39.000    20011699.799    81944362.344         -43.106          37.000  
G11  20075517.030   105497549.925        1071.266          39.000    20075530.981    82205968.862         834.802          41.000  
G04  23360796.183   122761842.750         850.196          30.000    23360833.730    95658721.091         662.169          34.000  
G09  22178240.431   116547413.992        1701.827          31.000    22178266.232    90816244.813        1325.498          35.000  
G03  23315868.718   122525715.938       -3293.175          29.000    23315888.476    95474696.921       -2566.674          30.000  
G12  22961281.535   120662333.404        3744.974          31.000                                                                  
G06  19214582.309   100973299.664        -562.148          40.000    19214596.949    78680578.085        -437.914          40.000  
G30  23491456.079                       -1854.178          25.000    23491478.388    96193635.933       -1444.518          30.000  
G14  19464157.841   102284725.577       -2565.863          38.000    19464168.706    79702354.321       -1999.581          41.000  
G22  18833249.459    98969305.022       -1018.542          40.000                                                                  
G24                                                                  23351209.749    95619273.405        -520.205          33.000  
> 2025 04 19 06 02 24.9930000  0 13                     
G20  20425293.730   107335663.089        3243.898          36.000                                                                  
G19  19009813.993    99897171.765         977.436          40.000                                                                  
G17  20011696.789   105162007.275         -54.798          39.000    20011710.204    81944404.981         -42.630          37.000  
G11  20075313.232   105496478.797        1071.078          39.000    20075327.221    82205134.214         834.322          41.000  
G04  23360634.243   122760992.786         850.258          29.000    23360672.097    95658058.844         662.185          34.000  
G09  22177916.383   116545712.317        1701.509          32.000    22177942.348    90814918.812        1325.678          35.000  
G03  23316495.589   122529009.331       -3292.556          29.000    23316515.053    95477263.168       -2565.838          30.000  
G12  22960568.829   120658588.801        3744.807          30.000                                                                  
G06  19214689.324   100973861.722        -561.978          40.000    19214704.005    78681016.059        -437.942          40.000  
G30  23491808.348                       -1854.682          25.000    23491831.106    96195080.673       -1444.963          30.000  
G14  19464646.244   102287291.945       -2566.384          38.000    19464657.103    79704354.085       -1999.987          40.000  
G22  18833443.308    98970324.311       -1019.897          40.000                                                                  
G24                                                                  23351336.757    95619793.437        -520.158          33.000  
> 2025 04 19 06 02 25.9930000  0 13                     
G20  20424676.575   107332419.659        3242.969          36.000                                                                  
G19  19009627.928    99896194.496         977.136          40.000                                                                  
G17  20011707.201   105162062.258         -55.241          39.000    20011720.657    81944447.837         -43.448          37.000  
G11  20075109.483   105495408.075        1070.452          39.000    20075123.458    82204299.887         833.803          41.000  
G04  23360472.423   122760143.352         849.460          30.000    23360510.553    95657396.924         661.867          34.000  
G09  22177592.496   116544010.884        1700.940          32.000    22177618.520    90813593.022        1325.480          35.000  
G03  23317122.291   122532302.948       -3293.118          29.000    23317141.800    95479829.703       -2567.364          30.000  
G12  22959856.412   120654844.470        3743.582          30.000                                                                  
G06  19214796.284   100974424.119        -562.635          40.000    19214811.038    78681454.279        -438.180          41.000  
G30  23492159.000                       -1853.715          26.000    23492183.742    96196525.225       -1445.394          31.000  
G14  19465134.763   102289858.839       -2567.660          38.000    19465145.515    79706354.246       -2000.309          40.000  
G22  18833637.367    98971344.206       -1020.172          40.000                                                                  
G24                                                                  23351464.027    95620313.777        -520.719          33.000  
> 2025 04 19 06 02 26.9930000  0 13                     
G20  20424059.471   107329176.666        3242.861          36.000                                                                  
G19  19009442.028    99895217.541         977.117          40.000                                                                  
G17  20011717.763   105162117.533         -55.088          39.000    20011731.206    81944490.892         -43.138          37.000  
G11  20074905.840   105494337.804        1070.059          39.000    20074919.785    82203465.896         833.984          41.000  
G04  23360310.904   122759294.348         848.498          30.000    23360349.411    95656735.373         661.808          35.000  
G09  22177268.871   116542309.841        1700.446          31.000    22177294.790    90812267.475        1326.173          35.000  
G03  23317749.136   122535596.964       -3294.032          29.000    23317768.516    95482396.389       -2566.927          30.000  
G12  22959143.973   120651100.378        3743.642          31.000                                                                  
G06  19214903.399   100974986.880        -562.854          40.000    19214918.167    78681892.799        -438.624          41.000  
G30  23492511.312                       -1853.111          26.000    23492536.405    96197969.559       -1444.128          30.000  
G14  19465623.336   102292426.274       -2567.843          38.000    19465634.133    79708354.848       -2000.995          41.000  
G22  18833831.419    98972364.813       -1020.904          40.000                                                                  
G24                                                                  23351591.232    95620834.467        -520.458          33.000  
> 2025 04 19 06 02 27.9930000  0 13                     
G20  20423442.281   107325933.978        3241.959          35.000                                                                  
G19  19009256.173    99894240.677         976.654          40.000                                                                  
G17  20011728.310   105162172.926         -55.591          39.000    20011741.738    81944534.035         -43.403          37.000  
G11  20074702.161   105493267.800        1069.666          39.000    20074716.210    82202632.137         833.315          41.000  
G04  23360149.275   122758445.607         848.704          30.000    23360188.132    95656074.057         661.054          34.000  
G09  22176944.883   116540608.835        1700.974          32.000    22176971.060    90810942.082        1325.033          35.000  
G03  23318375.828   122538890.987       -3293.727          29.000    23318395.388    95484963.143       -2566.681          29.000  
G12  22958431.553   120647356.366        3743.641          31.000                                                                  
G06  19215010.557   100975549.833        -563.236          40.000    19215025.296    78682331.448        -438.580          41.000  
G30  23492863.417                       -1852.153          26.000    23492889.090    96199413.687       -1443.708          31.000  
G14  19466111.915   102294994.100       -2568.671          38.000    19466122.783    79710355.718       -2001.077          41.000  
G22  18834025.791    98973385.911       -1021.497          40.000                                                                  
G24                                                                  23351718.258    95621355.365        -520.809          33.000  
> 2025 04 19 06 02 28.9930000  0 13                     
G20  20422825.223   107322691.453        3242.237          36.000                                                                  
G19  19009070.222    99893263.838         976.838          40.000                                                                  
G17  20011738.819   105162228.343         -55.503          39.000    20011752.205    81944577.208         -42.933          37.000  
G11  20074498.587   105492197.995        1069.646          39.000    20074512.611    82201798.493         833.601          41.000  
G04  23359987.901   122757597.089         848.406          29.000    23360026.888    95655412.889         661.107          34.000  
G09  22176621.239   116538907.953        1700.437          32.000    22176647.389    90809616.698        1325.141          35.000  
G03  23319002.774   122542185.081       -3293.740          29.000    23319022.118    95487530.034       -2566.455          29.000  
G12  22957719.087   120643612.408        3744.396          31.000                                                                  
G06  19215117.745   100976112.894        -563.115          40.000    19215132.445    78682770.201        -438.794          40.000  
G30  23493215.750                       -1853.048          26.000    23493241.699    96200857.455       -1444.386          30.000  
G14  19466600.681   102297562.175       -2568.179          38.000    19466611.509    79712356.826       -2001.218          41.000  
G22  18834220.148    98974407.428       -1021.576          40.000                                                                  
G24                                                                  23351845.631    95621876.469        -521.808          33.000  
> 2025 04 19 06 02 29.9930000  0 13                     
G20  20422208.249   107319449.271        3242.134          36.000                                                                  
G19  19008884.319    99892287.124         976.618          40.000                                                                  
G17  20011749.383   105162283.886         -55.640          39.000    20011762.786    81944620.510         -43.533          37.000  
G11  20074295.035   105491128.459        1069.836          39.000    20074309.049    82200965.108         833.421          41.000  
G04  23359826.269   122756748.882         847.944          29.000    23359865.300    95654751.956         661.037          35.000  
G09  22176297.691   116537207.239        1700.341          32.000    22176323.662    90808291.448        1325.216          35.000  
G03  23319629.781   122545479.408       -3294.683          29.000    23319648.971    95490097.030       -2567.068          29.000  
G12  22957006.644   120639868.571        3744.496          32.000                                                                  
G06  19215224.986   100976676.153        -563.146          40.000    19215239.699    78683209.125        -439.192          40.000  
G30  23493567.900                       -1851.577          26.000    23493594.082    96202300.947       -1443.511          30.000  
G14  19467089.439   102300130.672       -2568.606          38.000    19467100.239    79714358.268       -2001.421          41.000  
G22  18834414.612    98975429.483       -1022.089          40.000                                                                  
G24                                                                  23351972.859    95622397.735        -521.879          33.000  
> 2025 04 19 06 02 30.9930000  0 13                     
G20  20421591.422   107316207.345        3241.740          36.000                                                                  
G19  19008698.426    99891310.483         976.458          40.000                                                                  
G17  20011759.908   105162339.511         -55.820          39.000    20011773.377    81944663.827         -43.514          37.000  
G11  20074091.535   105490059.192        1068.775          39.000    20074105.655    82200131.898         832.883          41.000  
G04  23359665.021   122755900.888         847.865          29.000    23359704.022    95654091.237         660.050          34.000  
G09  22175973.932   116535506.576        1700.657          32.000    22176000.075    90806966.274        1325.383          35.000  
G03  23320256.782   122548773.731       -3294.895          29.000    23320275.743    95492664.045       -2567.131          28.000  
G12  22956294.294   120636124.835        3743.549          31.000                                                                  
G06  19215332.154   100977239.582        -563.387          40.000    19215346.870    78683648.148        -439.181          40.000  
G30  23493920.606                       -1852.621          26.000    23493946.449    96203744.171       -1443.564          30.000  
G14  19467578.231   102302699.531       -2569.049          38.000    19467589.091    79716359.959       -2001.786          40.000  
G22  18834609.205    98976451.996       -1022.766          40.000                                                                  
G24                                                                  23352100.287    95622919.177        -522.017          33.000  
> 2025 04 19 06 02 31.9930000  0 13                     
G20  20420974.454   107312965.799        3241.492          36.000                                                                  
G19  19008512.706    99890334.055         976.319          40.000                                                                  
G17  20011770.508   105162395.333         -55.791          39.000    20011784.097    81944707.328         -43.409          37.000  
G11  20073888.168   105488990.264        1069.084          39.000    20073902.247    82199298.985         832.739          41.000  
G04  23359503.739   122755053.316         847.639          29.000    23359542.779    95653430.801         660.533          34.000  
G09  22175650.403   116533806.228        1700.150          32.000    22175676.430    90805641.293        1324.908          35.000  
G03  23320883.677   122552068.282       -3294.537          29.000    23320902.818    95495231.305       -2567.170          28.000  
G12  22955582.019   120632381.323        3743.309          31.000                                                                  
G06  19215439.390   100977803.307        -563.931          40.000    19215454.138    78684087.410        -439.449          41.000  
G30  23494273.441                       -1852.145          26.000    23494298.832    96205187.081       -1442.411          30.000  
G14  19468067.168   102305268.855       -2569.438          38.000    19468078.069    79718362.033       -2002.167          40.000  
G22  18834803.754    98977475.136       -1023.407          40.000                                                                  
G24                                                                  23352227.970    95623440.922        -521.459          33.000  
> 2025 04 19 06 02 32.9930000  0 13                     
G20  20420357.672   107309724.795        3240.528          36.000                                                                  
G19  19008327.052    99889357.923         976.088          40.000                                                                  
G17  20011781.183   105162451.506         -56.378          39.000    20011794.783    81944751.080         -43.583          37.000  
G11  20073684.901   105487921.842        1068.461          39.000    20073698.949    82198466.446         832.319          41.000  
G04  23359342.332   122754206.245         847.009          29.000    23359381.678    95652770.763         659.901          34.000  
G09  22175326.997   116532106.206        1699.768          32.000    22175352.918    90804316.576        1325.132          35.000  
G03  23321510.767   122555363.249       -3295.364          29.000    23321529.862    95497798.783       -2567.551          28.000  
G12  22954869.740   120628638.081        3743.536          31.000                                                                  
G06  19215546.669   100978367.422        -564.178          40.000    19215561.492    78684526.984        -440.046          41.000  
G30  23494626.092                       -1853.010          26.000    23494651.115    96206630.013       -1443.023          30.000  
G14  19468556.324   102307838.783       -2570.020          38.000    19468567.159    79720364.577       -2003.059          40.000  
G22  18834998.696    98978499.001       -1024.298          40.000                                                                  
G24                                                                  23352355.593    95623963.057        -522.354          34.000  
> 2025 04 19 06 02 33.9930000  0 13                     
G20  20419741.112   107306484.158        3240.232          36.000                                                                  
G19  19008141.316    99888382.037         975.787          40.000                                                                  
G17  20011791.918   105162507.871         -56.333          39.000    20011805.483    81944795.012         -43.860          37.000  
G11  20073481.751   105486853.810        1067.520          39.000    20073495.645    82197634.193         832.221          41.000  
G04  23359181.113   122753359.591         846.420          29.000    23359220.543    95652111.008         660.078          34.000  
G09  22175003.711   116530406.424        1699.544          32.000    22175029.598    90802992.075        1324.231          35.000  
G03  23322137.813   122558658.381       -3295.153          28.000    23322156.725    95500366.451       -2567.734          28.000  
G12  22954157.547   120624895.103        3742.856          31.000                                                                  
G06  19215654.041   100978931.835        -564.418          40.000    19215668.916    78684966.780        -439.994          40.000  
G30  23494978.345                       -1851.100          26.000    23495003.384    96208072.654       -1442.282          30.000  
G14  19469045.554   102310409.179       -2570.409          38.000    19469056.236    79722367.473       -2003.109          40.000  
G22  18835193.522    98979523.458       -1024.451          40.000                                                                  
G24                                                                  23352483.085    95624485.480        -522.675          33.000  
> 2025 04 19 06 02 34.9930000  0 13                     
G20  20419124.427   107303243.769        3239.687          36.000                                                                  
G19  19007955.639    99887406.179         975.910          40.000                                                                  
G17  20011802.662   105162564.301         -56.454          39.000    20011816.215    81944838.976         -44.076          37.000  
G11  20073278.548   105485785.967        1067.265          39.000    20073292.469    82196802.118         831.881          41.000  
G04  23359020.020   122752513.157         846.019          29.000    23359059.260    95651451.500         659.307          34.000  
G09  22174680.273   116528706.720        1699.721          32.000    22174706.202    90801667.659        1324.283          35.000  
G03  23322764.856   122561953.595       -3295.122          28.000    23322783.965    95502934.184       -2568.171          29.000  
G12  22953445.232   120621152.174        3742.725          31.000                                                                  
G06  19215761.528   100979496.399        -564.707          40.000    19215776.281    78685406.690        -440.039          41.000  
G30  23495330.594                       -1853.140          26.000    23495355.490    96209515.017       -1441.879          30.000  
G14  19469534.629   102312979.897       -2570.692          38.000    19469545.409    79724370.633       -2003.287          40.000  
G22  18835388.553    98980548.396       -1025.128          40.000                                                                  
G24                                                                  23352610.700    95625008.096        -523.258          33.000  
> 2025 04 19 06 02 35.9930000  0 13                     
G20  20418507.968   107300003.613        3239.838          36.000                                                                  
G19  19007769.951    99886430.402         975.904          40.000                                                                  
G17  20011813.423   105162620.799         -56.658          39.000    20011826.944    81944882.981         -43.907          37.000  
G11  20073075.377   105484718.391        1066.753          39.000    20073089.312    82195970.215         831.789          41.000  
G04  23358858.758   122751666.921         846.424          29.000    23358897.991    95650792.147         658.983          34.000  
G09  22174356.771   116527007.153        1699.224          32.000    22174382.767    90800343.274        1324.862          35.000  
G03  23323391.947   122565248.936       -3295.439          29.000    23323411.128    95505501.914       -2567.092          30.000  
G12  22952733.189   120617409.312        3743.105          31.000                                                                  
G06  19215868.933   100980061.088        -564.716          40.000    19215883.831    78685846.706        -440.198          40.000  
G30  23495682.946                       -1851.900          26.000    23495707.717    96210957.035       -1440.520          29.000  
G14  19470023.954   102315550.982       -2571.128          38.000    19470034.771    79726374.060       -2003.656          40.000  
G22  18835583.769    98981573.784       -1025.629          40.000                                                                  
G24                                                                  23352738.231    95625530.848        -523.065          33.000  
> 2025 04 19 06 02 36.9930000  0 13                     
G20  20417891.528   107296763.633        3240.081          36.000                                                                  
G19  19007584.254    99885454.625         975.488          40.000                                                                  
G17  20011824.217   105162677.299         -56.572          39.000    20011837.702    81944927.030         -44.500          37.000  
G11  20072872.226   105483650.932        1066.840          39.000    20072886.150    82195138.451         831.438          41.000  
G04  23358697.869   122750820.958         845.523          29.000    23358736.886    95650132.945         659.083          34.000  
G09  22174033.544   116525307.574        1699.492          32.000    22174059.403    90799018.945        1324.588          35.000  
G03  23324019.109   122568544.284       -3295.095          29.000    23324038.298    95508069.713       -2567.751          30.000  
G12  22952020.984   120613666.480        3741.852          31.000                                                                  
G06  19215976.388   100980625.903        -565.294          40.000    19215991.302    78686286.811        -440.297          41.000  
G30  23496036.616                       -1848.409          26.000    23496059.917    96212398.788       -1441.635          29.000  
G14  19470513.225   102318122.324       -2571.742          38.000    19470524.037    79728377.698       -2003.644          40.000  
G22  18835778.840    98982599.581       -1026.312          40.000                                                                  
G24                                                                  23352865.922    95626053.749        -523.266          33.000  
> 2025 04 19 06 02 37.9930000  0 13                     
G20  20417275.141   107293523.918        3239.457          36.000                                                                  
G19  19007398.741    99884478.901         976.013          40.000                                                                  
G17  20011834.933   105162733.866         -56.317          39.000    20011848.393    81944971.092         -43.875          37.000  
G11  20072669.118   105482583.707        1067.259          39.000    20072683.038    82194306.869         831.311          41.000  
G04  23358536.905   122749975.214         845.013          29.000    23358575.953    95649473.944         658.781          33.000  
G09  22173710.136   116523608.185        1698.576          32.000    22173736.047    90797694.718        1323.726          35.000  
G03  23324646.171   122571839.701       -3295.687          30.000    23324665.345    95510637.567       -2567.203          30.000  
G12  22951308.709   120609923.692        3742.044          30.000                                                                  
G06  19216083.916   100981190.844        -565.168          40.000    19216098.810    78686727.013        -440.195          41.000  
G30  23496388.234                       -1849.910          25.000    23496411.963    96213840.192       -1441.500          29.000  
G14  19471002.564   102320694.014       -2572.233          38.000    19471013.424    79730381.613       -2004.063          40.000  
G22  18835974.064    98983625.859       -1026.514          40.000                                                                  
G24                                                                  23352993.581    95626576.793        -522.762          33.000  
> 2025 04 19 06 02 38.9930000  0 13                     
G20  20416658.625   107290284.559        3238.922          36.000                                                                  
G19  19007213.037    99883503.359         975.416          40.000                                                                  
G17  20011845.685   105162790.612         -56.937          39.000    20011859.167    81945015.300         -44.560          37.000  
G11  20072466.144   105481516.834        1066.633          39.000    20072479.928    82193475.514         831.229          41.000  
G04  23358376.151   122749129.765         844.817          29.000    23358414.881    95648815.182         658.038          34.000  
G09  22173386.745   116521908.912        1698.604          32.000    22173412.823    90796370.624        1323.445          35.000  
G03  23325273.274   122575135.289       -3296.308          31.000    23325292.515    95513205.611       -2568.146          30.000  
G12  22950596.287   120606181.054        3741.251          31.000                                                                  
G06  19216191.390   100981756.019        -565.741          40.000    19216206.353    78687167.414        -440.693          40.000  
G30  23496740.137                       -1850.375          24.000    23496763.908    96215281.288       -1441.257          29.000  
G14  19471491.985   102323266.112       -2572.654          38.000    19471502.886    79732385.836       -2004.503          40.000  
G22  18836169.482    98984652.690       -1027.271          40.000                                                                  
G24                                                                  23353121.170    95627100.110        -523.061          33.000  
> 2025 04 19 06 02 39.9930000  0 13                     
G20  20416042.238   107287045.591        3239.764          36.000                                                                  
G19  19007027.488    99882528.079         975.257          40.000                                                                  
G17  20011856.440   105162847.599         -56.678          39.000    20011869.930    81945059.700         -44.345          37.000  
G11  20072263.170   105480450.345        1066.883          39.000    20072276.957    82192644.514         830.906          41.000  
G04  23358215.297   122748284.739         845.321          29.000    23358254.045    95648156.762         658.365          34.000  
G09  22173063.428   116520209.924        1699.394          32.000    22173089.619    90795046.725        1323.755          35.000  
G03  23325900.452   122578431.156       -3296.046          31.000    23325919.701    95515773.800       -2567.777          31.000  
G12  22949884.077   120602438.636        3743.048          31.000                                                                  
G06  19216299.003   100982321.536        -565.557          40.000    19216313.917    78687608.072        -440.602          40.000  
G30  23497092.133                       -1849.541          24.000    23497115.703    96216722.295       -1441.041          29.000  
G14  19471981.495   102325838.757       -2573.041          38.000    19471992.461    79734390.485       -2004.583          40.000  
G22  18836364.924    98985680.166       -1027.478          40.000                                                                  
G24                                                                  23353249.144    95627623.790        -523.801          33.000  
> 2025 04 19 06 02 40.9930000  0 13                     
G20  20415426.039   107283806.977        3238.481          36.000                                                                  
G19  19006841.915    99881552.902         974.812          40.000                                                                  
G17  20011867.302   105162904.721         -56.932          39.000    20011880.703    81945104.216         -44.388          37.000  
G11  20072060.350   105479384.203        1065.794          39.000    20072074.155    82191813.730         830.403          41.000  
G04  23358054.599   122747440.061         844.523          29.000    23358093.328    95647498.597         657.346          34.000  
G09  22172740.205   116518511.132        1698.241          31.000    22172766.382    90793722.987        1323.518          35.000  
G03  23326527.865   122581727.197       -3296.360          31.000    23326546.874    95518342.156       -2568.717          31.000  
G12  22949172.144   120598696.434        3741.894          31.000                                                                  
G06  19216406.597   100982887.258        -566.049          40.000    19216421.657    78688048.903        -440.985          40.000  
G30  23497443.712                       -1850.203          23.000    23497467.630    96218162.982       -1440.626          29.000  
G14  19472471.135   102328411.794       -2573.717          38.000    19472482.092    79736395.435       -2005.040          40.000  
G22  18836560.559    98986708.179       -1028.204          40.000                                                                  
G24                                                                  23353377.028    95628147.651        -523.953          33.000  
> 2025 04 19 06 02 41.9930000  0 13                     
G20  20414809.719   107280568.655        3238.264          36.000                                                                  
G19  19006656.366    99880577.840         975.253          40.000                                                                  
G17  20011878.233   105162961.967         -57.056          39.000    20011891.628    81945148.840         -45.065          37.000  
G11  20071857.495   105478318.274        1066.109          39.000    20071871.325    82190983.154         830.543          41.000  
G04  23357893.737   122746595.668         844.270          29.000    23357932.656    95646840.666         657.184          34.000  
G09  22172416.981   116516812.468        1698.827          32.000    22172443.200    90792399.352        1323.313          35.000  
G03  23327155.181   122585023.313       -3296.176          31.000    23327174.115    95520910.547       -2568.011          31.000  
G12  22948460.083   120594954.284        3742.099          31.000                                                                  
G06  19216514.324   100983453.195        -566.127          40.000    19216529.330    78688489.888        -441.123          40.000  
G30  23497794.874                       -1848.749          23.000    23497819.317    96219603.420       -1440.250          29.000  
G14  19472960.819   102330985.191       -2573.843          38.000    19472971.784    79738400.704       -2005.386          40.000  
G22  18836756.199    98987736.716       -1028.961          40.000                                                                  
G24                                                                  23353504.918    95628671.748        -524.028          33.000  
> 2025 04 19 06 02 42.9930000  0 13                     
G20  20414193.485   107277330.482        3237.684          36.000                                                                  
G19  19006470.918    99879602.734         974.967          40.000                                                                  
G17  20011889.120   105163019.191         -57.313          39.000    20011902.554    81945193.436         -45.269          37.000  
G11  20071654.764   105477252.554        1065.374          39.000    20071668.586    82190152.680         830.456          41.000  
G04  23357732.938   122745751.449         843.943          29.000    23357772.076    95646182.817         657.326          34.000  
G09  22172093.757   116515113.849        1697.767          32.000    22172119.846    90791075.712        1323.483          35.000  
G03  23327782.214   122588319.438       -3295.934          31.000    23327801.435    95523479.046       -2569.222          31.000  
G12  22947747.913   120591212.173        3741.404          31.000                                                                  
G06  19216622.073   100984019.151        -565.970          40.000    19216636.917    78688930.892        -441.053          41.000  
G30  23498147.345                       -1848.237          22.000    23498170.915    96221043.452       -1439.859          29.000  
G14  19473450.574   102333558.829       -2573.679          38.000    19473461.480    79740406.150       -2005.917          40.000  
G22  18836952.078    98988765.602       -1029.382          40.000                                                                  
G24                                                                  23353632.867    95629195.920        -523.596          33.000  
> 2025 04 19 06 02 43.9930000  0 13                     
G20  20413577.359   107274092.660        3237.786          35.000                                                                  
G19  19006285.343    99878627.876         974.342          40.000                                                                  
G17  20011900.118   105163076.627         -57.905          39.000    20011913.556    81945238.144         -44.769          37.000  
G11  20071452.085   105476187.131        1065.323          39.000    20071465.882    82189322.499         830.041          41.000  
G04  23357572.439   122744907.581         844.033          29.000    23357611.671    95645525.269         657.493          34.000  
G09  22171770.491   116513415.413        1698.313          32.000    22171796.576    90789752.276        1323.317          35.000  
G03  23328409.505   122591615.840       -3297.223          31.000    23328428.682    95526047.621       -2569.235          31.000  
G12  22947035.737   120587470.189        3741.720          31.000                                                                  
G06  19216729.899   100984585.423        -566.504          40.000    19216744.657    78689372.136        -441.298          41.000  
G30  23498500.333                       -1847.561          22.000    23498522.584    96222483.312       -1439.773          29.000  
G14  19473940.550   102336132.958       -2574.198          38.000    19473951.392    79742411.956       -2006.138          40.000  
G22  18837148.045    98989795.097       -1029.944          40.000                                                                  
G24                                                                  23353760.900    95629720.430        -524.804          33.000  
> 2025 04 19 06 02 44.9930000  0 13                     
G20  20412961.380   107270855.279        3237.382          35.000                                                                  
G19  19006099.739    99877653.209         974.788          40.000                                                                  
G17  20011911.088   105163134.270         -57.287          39.000    20011924.451    81945283.061         -44.733          37.000  
G11  20071249.346   105475122.105        1065.496          39.000    20071263.083    82188492.610         830.169          41.000  
G04  23357411.941   122744064.148         843.633          30.000    23357450.886    95644868.066         656.846          34.000  
G09  22171447.508   116511717.218        1699.025          32.000    22171473.485    90788429.028        1323.227          35.000  
G03  23329036.763   122594912.380       -3296.770          31.000    23329055.895    95528616.403       -2569.839          31.000  
G12  22946323.776   120583728.466        3742.448          31.000                                                                  
G06  19216837.685   100985151.988        -566.536          40.000    19216852.491    78689813.619        -441.619          40.000  
G30  23498852.862                       -1847.952          22.000    23498874.064    96223922.964       -1439.238          28.000  
G14  19474430.415   102338707.565       -2574.264          38.000    19474441.366    79744418.132       -2006.047          40.000  
G22  18837344.141    98990825.185       -1029.871          40.000                                                                  
G24                                                                  23353889.215    95630245.168        -524.234          33.000  
> 2025 04 19 06 02 45.9930000  0 13                     
G20  20412345.272   107267618.167        3236.986          36.000                                                                  
G19  19005914.300    99876678.626         974.787          40.000                                                                  
G17  20011922.109   105163192.028         -58.278          39.000    20011935.466    81945328.065         -45.270          37.000  
G11  20071046.765   105474057.355        1064.788          39.000    20071060.465    82187662.936         829.561          41.000  
G04  23357251.495   122743220.986         842.836          30.000    23357290.509    95644211.057         656.816          34.000  
G09  22171124.440   116510019.229        1697.750          32.000    22171150.325    90787105.869        1323.193          35.000  
G03  23329664.089   122598209.099       -3297.151          31.000    23329683.190    95531185.239       -2569.063          31.000  
G12  22945611.667   120579986.831        3742.148          31.000                                                                  
G06  19216945.484   100985718.708        -566.703          40.000    19216960.293    78690255.227        -441.764          40.000  
G30  23499204.981                       -1850.373          22.000    23499225.577    96225362.391       -1439.610          28.000  
G14  19474920.365   102341282.572       -2575.511          38.000    19474931.295    79746424.609       -2006.646          40.000  
G22  18837540.312    98991855.802       -1030.884          40.000                                                                  
G24                                                                  23354017.732    95630770.169        -525.131          33.000  
> 2025 04 19 06 02 46.9930000  0 13                     
G20  20411729.257   107264381.447        3236.354          36.000                                                                  
G19  19005728.903    99875704.265         974.250          40.000                                                                  
G17  20011933.146   105163249.970         -57.881          39.000    20011946.543    81945373.212         -45.378          37.000  
G11  20070844.166   105472992.952        1064.464          39.000    20070857.940    82186833.519         829.673          41.000  
G04  23357091.095   122742378.110         844.463          30.000    23357130.127    95643554.335         656.467          34.000  
G09  22170801.396   116508321.402        1698.198          32.000    22170827.230    90785782.884        1323.073          35.000  
G03  23330291.361   122601505.967       -3296.852          31.000    23330310.373    95533754.242       -2569.206          31.000  
G12  22944899.780   120576245.434        3740.707          30.000                                                                  
G06  19217053.389   100986285.715        -566.846          40.000    19217068.264    78690697.046        -441.733          41.000  
G30  23499556.570                       -1849.073          22.000    23499576.879    96226801.528       -1439.535          28.000  
G14  19475410.436   102343857.989       -2575.696          38.000    19475421.375    79748431.442       -2007.029          40.000  
G22  18837736.533    98992886.996       -1031.274          40.000                                                                  
G24                                                                  23354146.052    95631295.388        -525.717          33.000  
> 2025 04 19 06 02 47.9930000  0 13                     
G20  20411113.311   107261144.913        3236.694          36.000                                                                  
G19  19005543.593    99874729.944         974.294          40.000                                                                  
G17  20011944.099   105163307.963         -58.265          39.000    20011957.625    81945418.404         -45.214          37.000  
G11  20070641.581   105471928.756        1064.261          39.000    20070655.441    82186004.294         828.919          41.000  
G04  23356930.800   122741535.588         842.515          30.000    23356969.749    95642897.799         656.531          34.000  
G09  22170478.299   116506623.695        1697.829          32.000    22170504.160    90784459.980        1323.290          34.000  
G03  23330918.805   122604802.952       -3296.674          31.000    23330937.698    95536323.304       -2569.202          31.000  
G12  22944187.790   120572504.043        3741.508          31.000                                                                  
G06  19217161.380   100986852.866        -567.308          40.000    19217176.252    78691138.979        -442.081          41.000  
G30  23499906.923                       -1838.788          22.000    23499928.121    96228240.344       -1439.022          28.000  
G14  19475900.655   102346433.754       -2576.252          38.000    19475911.580    79750438.507       -2007.080          41.000  
G22  18837932.746    98993918.657       -1031.830          40.000                                                                  
G24                                                                  23354274.342    95631820.829        -526.388          32.000  
> 2025 04 19 06 02 48.9930000  0 13                     
G20  20410497.473   107257908.557        3236.115          36.000                                                                  
G19  19005358.245    99873755.532         974.333          40.000                                                                  
G17  20011955.174   105163365.898         -57.976          39.000    20011968.666    81945463.526         -44.937          37.000  
G11  20070439.094   105470864.685        1063.934          39.000    20070453.028    82185175.123         828.995          41.000  
G04  23356770.769   122740693.153         842.099          30.000    23356809.296    95642241.392         655.811          33.000  
G09  22170155.555   116504925.958        1697.514          32.000    22170181.063    90783137.042        1323.021          34.000  
G03  23331545.978   122608099.911       -3297.859          31.000    23331565.077    95538892.351       -2569.045          31.000  
G12  22943475.801   120568762.621        3741.006          31.000                                                                  
G06  19217269.270   100987420.037        -567.306          40.000    19217284.136    78691580.899        -441.727          40.000  
G30  23500256.320                       -1842.020          22.000    23500279.330    96229678.704       -1437.704          28.000  
G14  19476390.889   102349009.702       -2576.212          38.000    19476401.743    79752445.757       -2007.590          41.000  
G22  18838129.239    98994950.638       -1032.428          40.000                                                                  
G24                                                                  23354402.553    95632346.292        -526.061          32.000  
> 2025 04 19 06 02 49.9930000  0 13                     
G20  20409881.603   107254672.344        3236.091          36.000                                                                  
G19  19005172.848    99872781.121         974.591          40.000                                                                  
G17  20011966.159   105163423.826         -58.158          39.000    20011979.730    81945508.643         -44.999          37.000  
G11  20070236.675   105469800.702        1063.960          39.000    20070250.583    82184346.080         828.715          41.000  
G04  23356610.416   122739850.859         841.824          30.000    23356648.919    95641585.074         655.745          33.000  
G09  22169832.389   116503228.170        1698.280          32.000    22169857.989    90781814.142        1322.832          35.000  
G03  23332173.324   122611396.765       -3296.273          31.000    23332192.443    95541461.433       -2569.639          31.000  
G12  22942763.784   120565021.134        3741.526          31.000                                                                  
G06  19217377.179   100987987.237        -567.031          40.000    19217392.100    78692022.919        -442.223          40.000  
G30  23500608.777                       -1848.316          21.000    23500630.569    96231116.790       -1437.970          28.000  
G14  19476881.156   102351585.898       -2576.121          38.000    19476891.954    79754453.184       -2007.495          41.000  
G22  18838325.654    98995982.993       -1032.623          40.000                                                                  
G24                                                                  23354530.927    95632871.869        -525.860          32.000  
> 2025 04 19 06 02 50.9930000  0 13                     
G20  20409265.893   107251436.311        3236.343          36.000                                                                  
G19  19004987.409    99871806.741         974.561          40.000                                                                  
G17  20011977.167   105163481.776         -57.815          39.000    20011990.808    81945553.820         -45.346          37.000  
G11  20070034.226   105468736.967        1063.743          39.000    20070048.176    82183517.187         828.584          41.000  
G04  23356450.281   122739008.817         841.152          29.000    23356488.603    95640928.930         655.992          33.000  
G09  22169509.441   116501530.560        1697.240          32.000    22169534.964    90780491.311        1322.614          35.000  
G03  23332800.615   122614693.782       -3297.180          30.000    23332819.835    95544030.474       -2568.897          31.000  
G12  22942051.677   120561279.727        3741.666          31.000                                                                  
G06  19217485.157   100988554.593        -567.407          40.000    19217500.150    78692465.004        -442.396          40.000  
G30  23500959.033                       -1839.316          20.000    23500981.759    96232554.447       -1437.119          28.000  
G14  19477371.426   102354162.414       -2576.423          38.000    19477382.219    79756460.864       -2007.903          41.000  
G22  18838522.248    98997015.818       -1033.270          40.000                                                                  
G24                                                                  23354659.290    95633397.611        -525.443          32.000  
> 2025 04 19 06 02 51.9930000  0 13                     
G20  20408650.133   107248200.646        3235.011          36.000                                                                  
G19  19004801.873    99870832.494         973.744          40.000                                                                  
G17  20011988.178   105163539.834         -58.256          39.000    20012001.828    81945599.045         -45.543          37.000  
G11  20069831.889   105467673.471        1063.195          39.000    20069845.730    82182688.489         828.227          41.000  
G04  23356290.191   122738166.979         841.375          29.000    23356328.342    95640272.974         656.150          33.000  
G09  22169186.528   116499833.011        1697.583          32.000    22169211.953    90779168.532        1322.599          35.000  
G03  23333428.180   122617990.920       -3297.741          30.000    23333447.248    95546599.678       -2569.730          31.000  
G12  22941339.561   120557538.424        3741.089          31.000                                                                  
G06  19217593.182   100989122.109        -567.791          40.000    19217608.128    78692907.212        -442.427          40.000  
G30  23501309.995                       -1849.299          21.000    23501332.922    96233991.905       -1437.251          28.000  
G14  19477861.825   102356739.326       -2577.783          38.000    19477872.646    79758468.804       -2008.063          41.000  
G22  18838718.822    98998049.082       -1033.398          40.000                                                                  
G24                                                                  23354787.735    95633923.547        -526.210          32.000  
> 2025 04 19 06 02 52.9930000  0 13                     
G20  20408034.429   107244965.496        3235.079          36.000                                                                  
G19  19004616.499    99869858.602         973.969          40.000                                                                  
G17  20011999.268   105163598.320         -58.798          39.000    20012012.861    81945644.599         -45.505          37.000  
G11  20069629.600   105466610.569        1062.426          39.000    20069643.465    82181860.228         828.499          41.000  
G04  23356130.027   122737325.781         841.106          29.000    23356168.413    95639617.543         655.043          33.000  
G09  22168863.495   116498135.948        1696.595          32.000    22168888.996    90777846.133        1322.282          35.000  
G03  23334055.593   122621288.377       -3297.275          29.000    23334074.803    95549169.180       -2569.933          30.000  
G12  22940627.780   120553797.519        3741.022          31.000                                                                  
G06  19217701.259   100989690.121        -568.289          40.000    19217716.250    78693349.800        -442.480          41.000  
G30  23501662.688                       -1848.118          21.000    23501684.043    96235429.293       -1437.466          29.000  
G14  19478352.322   102359316.869       -2577.659          38.000    19478363.186    79760477.298       -2008.602          40.000  
G22  18838915.672    98999083.206       -1034.393          40.000                                                                  
G24                                                                  23354916.156    95634449.955        -526.747          32.000  
> 2025 04 19 06 02 53.9930000  0 13                     
G20  20407418.736   107241730.615        3234.834          36.000                                                                  
G19  19004431.279    99868884.778         973.961          40.000                                                                  
G17  20012010.389   105163656.835         -58.679          39.000    20012023.967    81945690.211         -45.604          37.000  
G11  20069427.360   105465547.848        1062.505          39.000    20069441.155    82181032.143         827.989          41.000  
G04  23355970.069   122736484.799         840.844          29.000    23356008.266    95638962.251         654.970          33.000  
G09  22168540.779   116496438.932        1697.103          32.000    22168566.038    90776523.788        1322.335          35.000  
G03  23334682.942   122624585.987       -3297.774          29.000    23334702.308    95551738.737       -2569.620          30.000  
G12  22939915.846   120550056.672        3741.126          31.000                                                                  
G06  19217809.348   100990258.236        -568.016          40.000    19217824.288    78693792.502        -442.747          40.000  
G30  23502013.013                       -1858.006          21.000    23502035.127    96236866.328       -1436.958          29.000  
G14  19478842.833   102361894.742       -2578.068          38.000    19478853.792    79762486.021       -2008.889          40.000  
G22  18839112.501    99000117.761       -1034.833          40.000                                                                  
G24                                                                  23355044.849    95634976.509        -527.097          32.000  
> 2025 04 19 06 02 54.9930000  0 13                     
G20  20406803.300   107238496.021        3234.283          36.000                                                                  
G19  19004245.962    99867911.062         973.816          40.000                                                                  
G17  20012021.525   105163715.444         -58.530          39.000    20012035.167    81945735.894         -45.816          37.000  
G11  20069225.197   105464485.411        1062.096          39.000    20069239.086    82180204.263         827.778          41.000  
G04  23355810.013   122735644.067         840.832          29.000    23355848.151    95638307.146         655.598          33.000  
G09  22168217.611   116494742.063        1697.081          32.000    22168243.114    90775201.527        1322.753          35.000  
G03  23335310.462   122627883.702       -3298.049          29.000    23335329.907    95554308.408       -2570.557          30.000  
G12  22939203.782   120546315.918        3741.709          31.000                                                                  
G06  19217917.527   100990826.570        -568.528          40.000    19217932.466    78694235.361        -443.021          41.000  
G30  23502365.931                       -1842.678          21.000    23502386.019    96238303.049       -1436.304          29.000  
G14  19479333.468   102364472.995       -2578.309          38.000    19479344.387    79764495.037       -2008.920          40.000  
G22  18839309.505    99001152.800       -1035.138          40.000                                                                  
G24                                                                  23355173.448    95635503.229        -526.173          32.000  
> 2025 04 19 06 02 55.9930000  0 13                     
G20  20406187.860   107235261.651        3234.113          35.000                                                                  
G19  19004060.633    99866937.439         973.329          40.000                                                                  
G17  20012032.833   105163774.178         -59.002          39.000    20012046.298    81945781.635         -46.098          37.000  
G11  20069023.005   105463423.207        1061.818          39.000    20069036.942    82179376.577         827.269          41.000  
G04  23355650.186   122734803.651         840.551          29.000    23355688.328    95637652.300         654.557          33.000  
G09  22167894.572   116493045.355        1696.411          32.000    22167920.258    90773879.425        1321.794          35.000  
G03  23335938.037   122631181.518       -3298.260          29.000    23335957.483    95556878.087       -2569.653          30.000  
G12  22938491.874   120542575.282        3740.070          31.000                                                                  
G06  19218025.662   100991395.057        -569.095          40.000    19218040.660    78694678.306        -442.933          41.000  
G30  23502717.454                       -1839.902          21.000    23502736.985    96239739.516       -1436.379          29.000  
G14  19479824.214   102367051.597       -2579.063          38.000    19479835.050    79766504.339       -2009.619          40.000  
G22  18839506.503    99002188.337       -1035.919          40.000                                                                  
G24                                                                  23355302.036    95636030.190        -526.788          32.000  
> 2025 04 19 06 02 56.9930000  0 13                     
G20  20405572.486   107232027.726        3233.206          36.000                                                                  
G19  19003875.444    99865964.012         973.376          40.000                                                                  
G17  20012043.991   105163833.113         -58.999          39.000    20012057.555    81945827.567         -46.343          37.000  
G11  20068820.980   105462361.368        1061.973          39.000    20068834.851    82178549.180         827.187          41.000  
G04  23355490.364   122733963.631         840.077          30.000    23355528.419    95636997.749         654.333          33.000  
G09  22167571.690   116491348.873        1695.981          32.000    22167597.374    90772557.445        1322.262          35.000  
G03  23336565.747   122634479.489       -3297.712          28.000    23336585.113    95559448.071       -2571.601          30.000  
G12  22937780.073   120538834.862        3739.825          31.000                                                                  
G06  19218133.843   100991963.820        -569.122          40.000    19218148.911    78695121.519        -443.420          41.000  
G30  23503067.180                       -1843.144          20.000    23503087.663    96241175.773       -1435.916          29.000  
G14  19480315.078   102369630.669       -2579.185          38.000    19480325.813    79768513.995       -2009.745          40.000  
G22  18839703.746    99003224.498       -1036.456          40.000                                                                  
G24                                                                  23355430.863    95636557.425        -527.245          32.000  
> 2025 04 19 06 02 57.9930000  0 13                     
G20  20404957.121   107228794.101        3233.618          36.000                                                                  
G19  19003690.335    99864990.753         972.926          40.000                                                                  
G17  20012055.241   105163892.210         -58.904          39.000    20012068.749    81945873.607         -46.202          37.000  
G11  20068619.053   105461299.881        1061.173          39.000    20068632.828    82177722.034         826.939          41.000  
G04  23355330.732   122733123.955         839.312          30.000    23355368.716    95636343.473         653.895          33.000  
G09  22167248.998   116489652.540        1696.597          32.000    22167274.546    90771235.682        1321.325          35.000  
G03  23337193.575   122637777.719       -3298.250          28.000    23337212.563    95562018.018       -2569.642          30.000  
G12  22937068.395   120535094.589        3740.492          31.000                                                                  
G06  19218242.156   100992532.843        -569.266          40.000    19218257.114    78695564.903        -443.279          41.000  
G30  23503415.475                       -1839.542          21.000    23503438.469    96242611.792       -1435.669          29.000  
G14  19480805.913   102372210.184       -2579.790          38.000    19480816.716    79770524.016       -2010.226          40.000  
G22  18839901.067    99004261.219       -1037.006          40.000                                                                  
G24                                                                  23355559.582    95637084.929        -527.977          32.000  
> 2025 04 19 06 02 58.9930000  0 13                     
G20  20404341.810   107225560.713        3232.926          36.000                                                                  
G19  19003505.291    99864017.512         973.119          40.000                                                                  
G17  20012066.556   105163951.332         -58.990          39.000    20012079.983    81945919.666         -46.172          37.000  
G11  20068417.129   105460238.566        1061.006          39.000    20068430.878    82176895.016         827.067          41.000  
G04  23355170.973   122732284.391         840.245          30.000    23355208.729    95635689.340         653.924          33.000  
G09  22166926.183   116487956.295        1696.942          32.000    22166951.760    90769913.894        1321.668          34.000  
G03  23337821.191   122641075.990       -3298.665          28.000    23337840.246    95564588.081       -2569.970          30.000  
G12  22936356.661   120531354.323        3740.494          31.000                                                                  
G06  19218350.536   100993101.938        -568.989          40.000    19218365.338    78696008.368        -443.456          41.000  
G30  23503765.474                       -1846.156          20.000    23503789.024    96244047.477       -1435.596          29.000  
G14  19481296.825   102374789.964       -2579.635          38.000    19481307.637    79772534.233       -2010.247          40.000  
G22  18840098.505    99005298.349       -1037.445          40.000                                                                  
G24                                                                  23355688.440    95637612.562        -527.782          32.000  
> 2025 04 19 06 02 59.9930000  0 13                     
G20  20403726.483   107222327.535        3232.568          36.000                                                                  
G19  19003320.150    99863044.302         972.838          40.000                                                                  
G17  20012077.778   105164010.520         -59.861          39.000    20012091.282    81945965.770         -46.264          37.000  
G11  20068215.193   105459177.411        1060.873          39.000    20068228.960    82176068.165         826.625          41.000  
G04  23355011.321   122731445.129         839.577          29.000    23355048.942    95635035.344         653.693          33.000  
G09  22166603.190   116486260.121        1696.110          32.000    22166628.917    90768592.168        1322.048          34.000  
G03  23338448.573   122644374.255       -3298.792          29.000    23338467.971    95567158.189       -2569.873          30.000  
G12  22935645.094   120527614.147        3740.036          31.000                                                                  
G06  19218458.800   100993671.174        -569.320          40.000    19218473.782    78696451.914        -443.368          41.000  
G30  23504115.100                       -1835.485          20.000    23504139.469    96245482.834       -1435.657          30.000  
G14  19481787.829   102377370.053       -2580.190          38.000    19481798.573    79774544.690       -2010.718          40.000  
G22  18840295.793    99006335.905       -1037.573          40.000                                                                  
G24                                                                  23355817.342    95638140.299        -528.353          32.000  
> 2025 04 19 06 03 00.9930000  0 13                     
G20  20403111.433   107219094.587        3232.916          36.000                                                                  
G19  19003134.933    99862071.130         973.261          40.000                                                                  
G17  20012089.108   105164069.711         -59.356          39.000    20012102.544    81946011.897         -46.141          37.000  
G11  20068013.254   105458116.503        1060.649          39.000    20068027.020    82175241.481         826.616          41.000  
G04  23354851.665   122730606.097         839.008          29.000    23354889.198    95634381.591         653.584          33.000  
G09  22166280.554   116484564.044        1695.880          32.000    22166306.157    90767270.578        1321.261          34.000  
G03  23339076.388   122647672.579       -3298.311          29.000    23339095.620    95569728.374       -2570.101          30.000  
G12  22934933.350   120523873.951        3740.496          31.000                                                                  
G06  19218567.196   100994240.535        -569.535          40.000    19218582.047    78696895.575        -443.846          41.000  
G30  23504464.848                       -1844.263          21.000    23504489.980    96246917.818       -1435.255          30.000  
G14  19482278.827   102379950.463       -2580.525          38.000    19482289.656    79776555.401       -2010.925          40.000  
G22  18840493.411    99007373.917       -1038.251          40.000                                                                  
G24                                                                  23355946.431    95638668.195        -527.664          32.000  
> 2025 04 19 06 03 01.9930000  0 13                     
G20  20402496.241   107215861.966        3232.353          36.000                                                                  
G19  19002949.935    99861098.136         972.833          40.000                                                                  
G17  20012100.424   105164129.075         -59.356          39.000    20012113.809    81946058.138         -46.254          37.000  
G11  20067811.331   105457055.902        1060.229          39.000    20067825.236    82174415.038         826.301          41.000  
G04  23354691.869   122729767.432         838.289          29.000    23354729.554    95633728.034         653.609          32.000  
G09  22165957.892   116482868.136        1695.350          32.000    22165983.468    90765949.054        1321.442          35.000  
G03  23339704.037   122650971.097       -3298.598          29.000    23339723.308    95572298.627       -2570.402          30.000  
G12  22934221.612   120520133.987        3739.212          30.000                                                                  
G06  19218675.724   100994810.119        -569.618          40.000    19218690.395    78697339.415        -443.986          41.000  
G30  23504815.147                       -1838.604          22.000    23504840.221    96248352.599       -1434.854          30.000  
G14  19482769.938   102382531.302       -2581.045          38.000    19482780.767    79778566.434       -2011.154          40.000  
G22  18840691.042    99008412.477       -1038.727          40.000                                                                  
G24                                                                  23356075.567    95639196.419        -528.688          32.000  
> 2025 04 19 06 03 02.9930000  0 13                     
G20  20401881.090   107212629.682        3231.941          36.000                                                                  
G19  19002764.956    99860125.234         973.036          40.000                                                                  
G17  20012111.736   105164188.554         -59.550          39.000    20012125.116    81946104.479         -46.261          37.000  
G11  20067609.555   105455995.571        1060.061          39.000    20067623.475    82173588.795         826.255          41.000  
G04  23354532.304   122728929.035         837.650          29.000    23354569.901    95633074.754         653.126          32.000  
G09  22165635.265   116481172.375        1695.564          33.000    22165660.777    90764627.697        1321.159          34.000  
G03  23340331.536   122654269.749       -3298.556          29.000    23340350.898    95574869.019       -2570.609          30.000  
G12  22933509.812   120516394.071        3740.243          30.000                                                                  
G06  19218784.123   100995379.907        -569.830          40.000    19218798.903    78697783.393        -444.048          41.000  
G30  23505164.061                       -1854.467          22.000    23505190.590    96249787.054       -1434.754          30.000  
G14  19483261.136   102385112.511       -2581.356          38.000    19483272.006    79780577.766       -2011.552          40.000  
G22  18840888.892    99009451.557       -1039.209          40.000                                                                  
G24                                                                  23356204.485    95639724.815        -528.817          32.000  
> 2025 04 19 06 03 03.9930000  0 13                     
G20  20401266.092   107209397.522        3232.196          36.000                                                                  
G19  19002579.782    99859152.335         972.774          40.000                                                                  
G17  20012123.106   105164248.028         -59.763          39.000    20012136.437    81946150.828         -46.720          37.000  
G11  20067407.782   105454935.365        1060.111          39.000    20067421.663    82172762.676         826.220          41.000  
G04  23354372.553   122728090.741         837.948          29.000    23354410.264    95632421.609         652.675          32.000  
G09  22165312.544   116479476.630        1695.934          32.000    22165338.098    90763306.325        1321.271          34.000  
G03  23340959.255   122657568.347       -3298.379          29.000    23340978.455    95577439.420       -2571.247          29.000  
G12  22932798.000   120512654.130        3740.883          30.000                                                                  
G06  19218892.557   100995949.762        -570.519          40.000    19218907.348    78698227.418        -444.073          41.000  
G30  23505516.111                       -1842.511          22.000    23505540.907    96251221.173       -1433.914          30.000  
G14  19483752.357   102387693.953       -2581.511          38.000    19483763.206    79782589.280       -2011.847          41.000  
G22  18841086.734    99010491.020       -1039.874          40.000                                                                  
G24                                                                  23356333.316    95640253.296        -528.938          32.000  
> 2025 04 19 06 03 04.9930000  0 13                     
G20  20400651.166   107206165.783        3231.484          36.000                                                                  
G19  19002394.787    99858179.621         972.885          40.000                                                                  
G17  20012134.374   105164307.686         -59.365          39.000    20012147.888    81946197.307         -46.234          37.000  
G11  20067206.078   105453875.577        1059.599          39.000    20067219.945    82171936.849         825.771          41.000  
G04  23354212.857   122727252.893         836.954          30.000    23354250.645    95631768.719         652.208          32.000  
G09  22164989.823   116477781.117        1695.822          33.000    22165015.482    90761985.181        1320.880          35.000  
G03  23341587.044   122660867.257       -3299.086          29.000    23341606.114    95580009.921       -2570.491          29.000  
G12  22932086.425   120508914.523        3739.056          31.000                                                                  
G06  19219001.044   100996519.880        -570.146          40.000    19219015.953    78698671.693        -444.716          41.000  
G30  23505868.153                       -1836.601          23.000    23505891.089    96252655.049       -1433.460          30.000  
G14  19484243.656   102390275.886       -2581.982          38.000    19484254.600    79784601.167       -2012.058          41.000  
G22  18841284.546    99011531.086       -1040.448          40.000                                                                  
G24                                                                  23356462.604    95640782.060        -529.164          32.000  
