     3.04           OBSERVATION DATA    G: GPS              RINEX VERSION / TYPE
RTKCONV demo5 b34i                      20250515 101658 UTC PGM / RUN BY / DATE 
format: u-blox UBX                                          COMMENT             
log: D:\20242\NGUYENDS\GNSS_DOA_Spoofing\hai\ngoc\2025-04-18COMMENT             
                                                            MARKER NAME         
                                                            MARKER NUMBER       
                                                            MARKER TYPE         
                                                            OBSERVER / AGENCY   
                                                            REC # / TYPE / VERS 
                                                            ANT # / TYPE        
 -1626585.6789  5730526.5018  2271871.8186                  APPROX POSITION XYZ 
        0.0000        0.0000        0.0000                  ANTENNA: DELTA H/E/N
G    8 C1C L1C D1C S1C C2X L2X D2X S2X                      SYS / # / OBS TYPES 
  2025    04    17    23    59   59.9890000     GPS         TIME OF FIRST OBS   
  2025    04    18    01    00   16.9880000     GPS         TIME OF LAST OBS    
G L1C                                                       SYS / PHASE SHIFT   
G L2X  0.00000                                              SYS / PHASE SHIFT   
  0                                                         GLONASS SLOT / FRQ #
                                                            GLONASS COD/PHS/BIS 
                                                            END OF HEADER       
> 2025 04 17 23 59 59.9890000  0 10                     
G27  18771554.858    98645219.3141      -3007.239          41.000    18771556.927    76866374.3701      -2343.178          41.000  
G08  16589615.516    87179048.6411      -1131.507          47.000    16589617.180    67931766.5861       -881.544          47.000  
G04  18166877.186    95467604.3061      -2504.036          42.000    18166878.122    74390304.3551      -1951.232          44.000  
G30  21723750.429   114159094.3831       3358.932          35.000                                                                  
G09  17865771.281    93885262.1571       -898.103          45.000    17865771.913    73157358.4611       -699.975          43.000  
G01  19896049.834   104554432.4841       3053.873          38.000    19896052.016    81470984.5971       2379.679          40.000  
G16  20632883.798   108426592.5311      -1920.508          34.000                                                                  
G02  18149298.588    95375193.4551       1977.707          43.000                                                                  
G07  19059531.808   100158509.1971       2964.982          44.000    19059531.206    78045576.7871       2310.642          41.000  
G26                                                                  22289332.893    91271024.8611      -1381.388          32.000  
> 2025 04 18 00 00 42.9890000  0 10                     
G27  18796197.316    98774716.760       -3015.976          42.000    18796199.627    76967281.317       -2350.247          42.000  
G08  16598961.557    87228160.864       -1152.936          48.000    16598963.095    67970035.848        -898.435          47.000  
G04  18187421.660    95575567.327       -2517.567          42.000    18187422.677    74474431.266       -1961.638          43.000  
G30  21696249.868   114014578.631        3363.231          33.000                                                                  
G09  17873213.158    93924371.617        -920.912          45.000    17873214.153    73187833.302        -717.662          43.000  
G01  19871057.985   104423100.777        3054.905          37.000    19871060.618    81368648.304        2380.170          40.000  
G16  20648578.025   108509063.556       -1916.431          34.000                                                                  
G02  18133189.610    95290539.813        1959.445          44.000                                                                  
G07  19035282.249   100031076.111        2962.011          44.000    19035281.391    77946278.276        2308.219          41.000  
G26                                                                  22303820.549    91330350.223       -1379.132          32.000  
> 2025 04 18 00 03 45.9880000  0 10                     
G27  18901886.010    99330112.992       -3052.994          41.000    18901888.715    77400057.168       -2379.355          42.000  
G08  16640707.118    87447535.398       -1244.169          47.000    16640708.918    68140977.028        -969.449          47.000  
G04  18276096.372    96041552.059       -2574.483          43.000    18276097.122    74837535.771       -2006.217          43.000  
G30  21578827.913   113397522.523        3380.470          32.000                                                                  
G09  17906991.534    94101875.074       -1018.412          45.000    17906992.478    73326147.408        -793.462          43.000  
G01  19764701.224   103864190.445        3053.164          38.000    19764703.033    80933133.963        2379.315          40.000  
G16  20715053.629   108858396.554       -1901.699          33.000                                                                  
G02  18066376.142    94939432.255        1877.353          45.000                                                                  
G07  18932432.186    99490596.095        2944.662          44.000    18932431.181    77525125.214        2294.681          41.000  
G26                                                                  22365324.566    91582261.4781      -1374.017          27.000  
> 2025 04 18 00 04 34.9880000  0 10                     
G27  18930400.971    99479958.846       -3063.677          40.000    18930403.583    77516820.032       -2387.139          42.000  
G08  16652420.390    87509089.550       -1269.067          48.000    16652422.171    68188941.282        -988.854          46.000  
G04  18300171.197    96168066.261       -2589.984          42.000    18300172.051    74936118.120       -2018.130          43.000  
G30  21547288.879   113231782.803        3384.055          32.000                                                                  
G09  17916608.654    94152414.712       -1045.223          45.000    17916610.051    73365528.869        -814.457          43.000  
G01  19736236.031   103714604.484        3051.348          38.000    19736237.592    80816573.523        2377.736          40.000  
G16  20732770.089   108951496.647       -1899.152          33.000                                                                  
G02  18048977.249    94848000.547        1853.909          44.000                                                                  
G07  18905000.261    99346440.706        2938.423          45.000    18904999.142    77412796.408        2289.752          41.000  
G26                                                                  22381753.992                       -1369.444          24.000  
> 2025 04 18 00 05 27.9880000  0 10                     
G27  18961350.637    99642597.842       -3073.702          41.000    18961352.857    77643551.561       -2395.090          42.000  
G08  16665349.984    87577033.863       -1295.110          47.000    16665351.563    68241884.896       -1009.297          46.000  
G04  18326372.894    96305756.066       -2605.867          42.000    18326373.875    75043408.763       -2030.889          43.000  
G30  21513140.788   113052332.550        3388.290          32.000                                                                  
G09  17927289.064    94208541.185       -1072.896          45.000    17927290.417    73409263.709        -835.984          43.000  
G01  19705467.905   103552916.797        3050.084          38.000    19705469.294    80690583.216        2376.608          40.000  
G16  20751903.342   109052040.309       -1895.585          34.000                                                                  
G02  18030405.294    94750406.943        1828.816          44.000                                                                  
G07  18875393.503    99190857.583        2932.361          44.000    18875392.514    77291562.887        2284.978          41.000  
G26                                                                  22399521.091    91722287.2991      -1371.858          27.000  
> 2025 04 18 00 06 21.9880000  0 10                     
G27  18992989.989    99808865.970       -3083.958          41.000    18992992.793    77773110.995       -2403.038          42.000  
G08  16678794.080    87647682.776       -1321.328          48.000    16678795.486    68296935.975       -1029.596          46.000  
G04  18353233.392    96446909.379       -2621.659          42.000    18353234.645    75153398.205       -2042.778          43.000  
G30  21478308.476   112869289.203        3391.961          33.000                                                                  
G09  17938461.570    94267252.956       -1101.434          45.000    17938463.173    73455013.051        -858.132          43.000  
G01  19674139.618   103388288.214        3047.375          38.000    19674141.732    80562301.257        2374.861          40.000  
G16  20771360.695   109154292.227       -1891.613          33.000                                                                  
G02  18011746.793    94652355.256        1803.056          45.000                                                                  
G07  18845295.994    99032692.772        2925.696          45.000    18845294.869    77168317.648        2279.800          41.000  
G26                                                                  22417609.447    91796367.256       -1370.971          28.000  
> 2025 04 18 00 07 10.9880000  0 10                     
G27  19021783.680    99960176.975       -3091.671          40.000    19021786.086    77891015.530       -2409.207          42.000  
G08  16691220.296    87712983.185       -1343.821          47.000    16691221.917    68347819.381       -1047.221          46.000  
G04  18377740.748    96575695.777       -2634.710          42.000    18377741.992    75253751.114       -2052.994          43.000  
G30  21446661.413   112702983.311        3396.718          33.000                                                                  
G09  17948844.304    94321813.003       -1125.361          45.000    17948845.657    73497527.304        -877.145          43.000  
G01  19645725.622   103238975.069        3046.768          37.000    19645728.446    80445953.407        2374.456          40.000  
G16  20788979.467   109246874.784       -1887.441          34.000                                                                  
G02  17995041.265    94564565.503        1780.240          45.000                                                                  
G07  18818038.592    98889455.687        2920.663          45.000    18818037.469    77056704.385        2276.107          41.000  
G26                                                                  22434007.431    91863508.2651      -1368.984          29.000  
> 2025 04 18 00 07 58.9880000  0 10                     
G27  19050066.097   100108801.036       -3101.136          40.000    19050068.674    78006826.317       -2416.079          42.000  
G08  16703602.160    87778050.094       -1367.227          48.000    16703603.941    68398520.822       -1065.364          46.000  
G04  18401870.293    96702497.720       -2648.618          41.000    18401871.855    75352557.695       -2064.185          43.000  
G30  21415626.107   112539893.231        3398.887          33.000                                                                  
G09  17959240.503    94376444.040       -1150.814          45.000    17959241.847    73540096.866        -896.791          43.000  
G01  19617908.723   103092797.486        3043.926          36.000    19617911.912    80332048.859        2371.916          41.000  
G16  20806204.145   109337392.322       -1884.280          33.000                                                                  
G02  17978888.054    94479678.988        1756.586          45.000                                                                  
G07  18791391.195    98749422.541        2913.992          45.000    18791389.960    76947587.708        2270.438          42.000  
G26                                                                  22450057.131    91929227.688       -1369.879          31.000  
> 2025 04 18 00 08 33.9880000  0 10                     
G27  19070736.278   100217422.775       -3106.670          40.000    19070738.862    78091466.532       -2420.664          42.000  
G08  16712761.222    87826181.245       -1383.250          48.000    16712763.023    68436025.584       -1077.942          46.000  
G04  18419541.396    96795358.165       -2657.809          41.000    18419542.857    75424916.379       -2070.974          43.000  
G30  21392977.681   112420872.480        3402.213          33.000                                                                  
G09  17966961.631    94417019.226       -1168.096          45.000    17966962.892    73571713.842        -910.046          43.000  
G01  19597638.493   102986278.100        3042.901          36.000    19597641.947    80249046.799        2370.925          41.000  
G16  20818744.971   109403292.510       -1881.429          34.000                                                                  
G02  17967243.654    94418488.512        1739.850          45.000                                                                  
G07  18771996.315    98647502.326        2910.013          45.000    18771995.315    76868169.383        2267.266          41.000  
G26                                                                  22461753.664                       -1367.195          21.000  
> 2025 04 18 00 10 16.9880000  0 10                     
G27  19131800.025   100538313.090       -3123.938          40.000    19131802.536    78341510.592       -2434.229          42.000  
G08  16740356.863    87971196.774       -1431.955          48.000    16740358.544    68549024.554       -1115.781          46.000  
G04  18471917.669    97070595.926       -2685.861          41.000    18471918.550    75639387.066       -2092.734          43.000  
G30  21326246.759   112070199.904        3407.670          34.000                                                                  
G09  17990376.158    94540063.385       -1220.552          45.000    17990377.352    73667592.266        -951.086          43.000  
G01  19538071.597   102673243.456        3035.728          38.000    19538073.172    80005123.839        2365.423          41.000  
G16  20855565.790   109596785.001       -1875.627          34.000                                                                  
G02  17933651.698    94241963.073        1688.044          44.000                                                                  
G07  18715112.535    98348575.880        2894.832          45.000    18715111.416    76635239.765        2255.624          42.000  
G17  21376067.292   112331989.2143       3404.758          32.000                                                                  
> 2025 04 18 00 11 26.9880000  0 10                     
G27  19173481.402   100757348.845       -3134.716          40.000    19173483.994    78512187.606       -2442.574          41.000  
G08  16759640.748    88072533.850       -1463.809          47.000    16759642.645    68627988.406       -1140.603          46.000  
G04  18507812.539    97259221.868       -2703.788          42.000    18507812.886    75786368.103       -2106.703          42.000  
G30  21280825.003   111831502.846        3411.387          35.000    21280827.553    87141438.3391       2658.550          32.000  
G09  18006861.970    94626696.144       -1255.024          44.000    18006863.284    73735098.210        -977.917          43.000  
G01  19497657.541   102460867.474        3031.365          39.000    19497659.213    79839636.195        2362.114          41.000  
G16  20880508.704   109727813.3421      -1870.332          34.000                                                                  
G02  17911395.447    94125005.663        1653.070          44.000                                                                  
G07  18676614.725    98146269.208        2884.928          45.000    18676613.552    76477598.215        2247.960          41.000  
G17  21330811.983   112094170.217        3389.100          31.000                                                                  
> 2025 04 18 00 12 50.9880000  0 10                     
G27  19223686.560   101021180.526       -3147.221          39.000    19223689.454    78717770.487       -2451.875          42.000  
G08  16783342.037    88197084.610       -1501.927          48.000    16783343.423    68725040.866       -1170.182          46.000  
G04  18551197.411    97487211.202       -2724.659          41.000    18551197.808    75964021.855       -2122.984          42.000  
G30  21226253.312   111544725.682        3415.954          36.000    21226255.753    86917975.724        2661.739          33.000  
G09  18027251.913    94733847.256       -1296.262          44.000    18027253.649    73818592.486       -1010.077          43.000  
G01  19449251.018   102206492.878        3024.592          38.000    19449252.868    79641422.304        2357.231          41.000  
G16  20910360.882   109884680.7491      -1864.459          32.000                                                                  
G02  17885314.415    93987947.819        1610.051          45.000                                                                  
G07  18630604.249    97904482.424        2871.687          45.000    18630603.129    76289192.932        2237.814          42.000  
G17  21276773.763   111810203.727        3371.572          29.000                                                                  
> 2025 04 18 00 13 47.9880000  0 10                     
G27  19257860.931   101200766.187       -3154.426          39.000    19257863.727    78857707.228       -2458.167          41.000  
G08  16799762.925    88283376.324       -1526.393          48.000    16799764.602    68792281.117       -1189.313          46.000  
G04  18580818.719    97642874.006       -2737.612          41.000    18580820.052    76085317.377       -2133.310          43.000  
G30  21189180.136   111349904.989        3419.360          36.000    21189188.323    86766167.506        2664.291          34.000  
G09  18041455.516    94808485.712       -1323.057          44.000    18041457.132    73876752.257       -1031.007          43.000  
G01  19416460.707   102034179.911        3020.760          38.000    19416462.880    79507152.527        2353.799          41.000  
G16  20930563.020   109990847.0271      -1861.016          33.000                                                                  
G02  17868004.750    93896985.510        1581.190          45.000                                                                  
G07  18599498.317    97741019.766        2863.161          45.000    18599496.971    76161819.461        2230.984          42.000  
G17  21240273.208   111618383.241        3359.072          30.000                                                                  
> 2025 04 18 00 14 33.9880000  0 10                     
G27  19285501.242   101346016.588       -3160.629          39.000    19285504.030    78970889.236       -2463.107          41.000  
G08  16813212.505    88354055.825       -1546.810          48.000    16813214.288    68847356.004       -1205.466          46.000  
G04  18604829.111    97769050.707       -2748.683          40.000    18604830.987    76183636.725       -2141.828          43.000  
G30  21159239.630   111192568.318        3421.132          36.000    21159247.992    86643567.564        2665.778          34.000  
G09  18053133.137    94869851.854       -1345.225          44.000    18053134.793    73924569.991       -1048.470          43.000  
G01  19390037.353   101895320.645        3016.304          38.000    19390038.753    79398950.580        2350.487          41.000  
G16  20946834.274   110076358.4351      -1857.386          31.000                                                                  
G02  17854268.604    93824801.420        1556.947          45.000                                                                  
G07  18574467.518    97609482.088        2855.456          45.000    18574466.253    76059322.565        2224.936          42.000  
G17  21210915.842   111464112.058        3347.314          30.000                                                                  
> 2025 04 18 00 14 34.9880000  0 10                     
G27  19286102.735   101349177.458       -3161.126          39.000    19286105.596    78973352.233       -2463.047          41.000  
G08  16813506.893    88355602.696       -1547.077          48.000    16813508.616    68848561.359       -1205.560          46.000  
G04  18605352.102    97771799.211       -2749.043          40.000    18605354.025    76185778.402       -2141.825          43.000  
G30  21158588.453   111189147.019        3421.310          36.000    21158597.097    86640901.623        2665.901          34.000  
G09  18053389.138    94871197.161       -1345.586          44.000    18053390.803    73925618.280       -1048.638          43.000  
G01  19389463.316   101892304.171        3016.151          39.000    19389464.754    79396600.083        2350.299          41.000  
G16  20947187.621   110078216.073       -1856.721          31.000                                                                  
G02  17853972.365    93823244.534        1556.537          45.000                                                                  
G07  18573924.215    97606626.533        2855.493          45.000    18573922.931    76057097.460        2225.001          42.000  
G17  21210278.725   111460763.773        3347.608          30.000                                                                  
> 2025 04 18 00 14 35.9880000  0 10                     
G27  19286704.257   101352338.370       -3160.864          39.000    19286707.099    78975815.298       -2463.081          41.000  
G08  16813801.469    88357149.960       -1547.566          47.000    16813803.063    68849767.017       -1205.940          46.000  
G04  18605875.178    97774547.881       -2749.230          40.000    18605877.085    76187920.225       -2142.046          42.000  
G30  21157937.310   111185725.584        3421.770          36.000    21157946.179    86638235.576        2665.975          34.000  
G09  18053645.144    94872542.895       -1345.961          44.000    18053646.872    73926666.894       -1048.908          43.000  
G01  19388889.282   101889287.721        3016.198          39.000    19388890.722    79394249.600        2350.422          41.000  
G16  20947541.114   110080073.549       -1856.501          32.000                                                                  
G02  17853676.132    93821688.104        1556.218          45.000                                                                  
G07  18573380.804    97603771.093        2855.197          45.000    18573379.636    76054872.441        2224.648          42.000  
G17  21209641.414   111457415.658        3347.569          31.000                                                                  
> 2025 04 18 00 14 36.9880000  0 10                     
G27  19287305.797   101355499.525       -3161.213          39.000    19287308.734    78978278.527       -2463.459          41.000  
G08  16814096.002    88358697.751       -1548.141          47.000    16814097.739    68850973.078       -1206.263          46.000  
G04  18606398.277    97777296.858       -2749.307          40.000    18606400.136    76190062.288       -2142.243          42.000  
G30  21157286.245   111182304.281        3420.986          35.000    21157295.303    86635569.615        2665.614          34.000  
G09  18053901.293    94873889.211       -1346.581          44.000    18053903.045    73927715.965       -1049.197          43.000  
G01  19388315.208   101886271.454        3016.441          39.000    19388316.662    79391899.270        2350.368          41.000  
G16  20947894.504   110081931.089       -1857.648          32.000                                                                  
G02  17853380.045    93820132.308        1555.559          45.000                                                                  
G07  18572837.516    97600915.920        2854.942          45.000    18572836.286    76052647.645        2224.255          42.000  
G17  21209004.351   111454067.863        3347.719          31.000                                                                  
> 2025 04 18 00 14 37.9880000  0 10                     
G27  19287907.439   101358660.745       -3161.479          39.000    19287910.345    78980741.802       -2463.308          41.000  
G08  16814390.599    88360245.897       -1548.193          47.000    16814392.420    68852179.432       -1206.445          46.000  
G04  18606921.484    97780045.981       -2748.870          40.000    18606923.276    76192204.463       -2141.986          42.000  
G30  21156635.048   111178882.761        3421.929          36.000    21156644.209    86632903.501        2666.732          34.000  
G09  18054157.580    94875235.915       -1346.751          44.000    18054159.329    73928765.346       -1049.531          43.000  
G01  19387741.196   101883255.217        3016.346          39.000    19387742.748    79389548.951        2350.471          41.000  
G16  20948247.730   110083788.473       -1857.601          32.000                                                                  
G02  17853084.019    93818576.952        1555.292          45.000                                                                  
G07  18572294.202    97598060.823        2855.137          45.000    18572293.129    76050422.876        2224.781          42.000  
G17  21208367.291   111450720.290        3346.753          31.000                                                                  
> 2025 04 18 00 14 38.9880000  0 10                     
G27  19288509.104   101361822.170       -3162.180          39.000    19288511.975    78983205.238       -2463.664          41.000  
G08  16814685.257    88361794.553       -1549.021          47.000    16814687.124    68853386.169       -1206.899          46.000  
G04  18607444.668    97782795.441       -2749.586          40.000    18607446.518    76194346.900       -2142.419          42.000  
G30  21155983.976   111175461.368        3420.836          36.000    21155993.186    86630237.469        2666.071          34.000  
G09  18054413.932    94876583.162       -1347.673          44.000    18054415.738    73929815.147       -1049.979          43.000  
G01  19387167.202   101880239.142        3015.748          39.000    19387168.873    79387198.762        2350.042          41.000  
G16  20948601.249   110085645.845       -1857.234          31.000                                                                  
G02  17852788.090    93817022.198        1554.250          45.000                                                                  
G07  18571750.951    97595205.980        2854.614          45.000    18571749.923    76048198.331        2224.370          42.000  
G17  21207730.376   111447372.906        3347.041          30.000                                                                  
> 2025 04 18 00 14 39.9880000  0 10                     
G27  19289110.765   101364983.731       -3161.656          38.000    19289113.592    78985668.790       -2463.628          41.000  
G08  16814980.064    88363343.676       -1549.441          47.000    16814981.782    68854593.281       -1207.400          46.000  
G04  18607967.956    97785545.169       -2750.192          40.000    18607969.763    76196489.520       -2142.641          42.000  
G30  21155332.989   111172039.864        3421.733          36.000    21155342.221    86627571.397        2666.053          34.000  
G09  18054670.315    94877930.927       -1348.094          44.000    18054672.219    73930865.343       -1050.322          43.000  
G01  19386593.278   101877223.185        3015.797          39.000    19386594.927    79384848.665        2350.019          41.000  
G16  20948954.586   110087503.253       -1857.749          31.000                                                                  
G02  17852492.268    93815467.981        1553.956          45.000                                                                  
G07  18571207.766    97592351.335        2854.469          45.000    18571206.726    76045973.921        2224.204          42.000  
G17  21207093.453   111444025.836        3346.747          30.000                                                                  
> 2025 04 18 00 14 40.9880000  0 10                     
G27  19289712.358   101368145.402       -3161.575          39.000    19289715.237    78988132.435       -2463.359          41.000  
G08  16815274.840    88364893.205       -1549.850          47.000    16815276.578    68855800.705       -1207.613          46.000  
G04  18608491.250    97788295.053       -2749.885          40.000    18608492.986    76198632.300       -2142.867          42.000  
G30  21154681.852   111168618.351        3421.508          36.000    21154691.340    86624905.264        2666.063          34.000  
G09  18054926.954    94879279.128       -1348.333          44.000    18054928.788    73931915.900       -1050.728          43.000  
G01  19386019.345   101874207.287        3015.899          39.000    19386020.910    79382498.624        2350.003          41.000  
G16  20949308.014   110089360.468       -1857.417          32.000                                                                  
G02  17852196.683    93813914.270        1553.536          45.000                                                                  
G07  18570664.528    97589496.827        2854.467          45.000    18570663.574    76043749.628        2224.490          42.000  
G17  21206456.670   111440678.914        3347.444          30.000                                                                  
> 2025 04 18 00 14 41.9880000  0 10                     
G27  19290314.021   101371307.235       -3161.997          39.000    19290316.870    78990596.189       -2463.542          41.000  
G08  16815569.810    88366443.186       -1550.097          47.000    16815571.682    68857008.478       -1207.775          46.000  
G04  18609014.557    97791045.206       -2750.152          40.000    18609016.302    76200775.270       -2143.025          42.000  
G30  21154030.724   111165196.806        3421.331          36.000    21154040.431    86622239.102        2666.687          34.000  
G09  18055183.717    94880627.819       -1348.880          44.000    18055185.515    73932966.820       -1050.975          43.000  
G01  19385445.578   101871191.498        3015.786          39.000    19385447.102    79380148.671        2349.781          41.000  
G16  20949661.525   110091217.642       -1856.591          32.000                                                                  
G02  17851901.274    93812361.096        1552.902          45.000                                                                  
G07  18570121.347    97586642.501        2854.247          45.000    18570120.374    76041525.470        2224.260          42.000  
G17  21205819.849   111437332.382        3345.443          30.000                                                                  
> 2025 04 18 00 14 42.9880000  0 10                     
G27  19290915.688   101374469.175       -3162.040          39.000    19290918.569    78993060.050       -2463.786          41.000  
G08  16815864.844    88367993.598       -1550.661          47.000    16815866.691    68858216.592       -1208.278          46.000  
G04  18609537.934    97793795.573       -2750.463          41.000    18609539.674    76202918.409       -2142.935          42.000  
G30  21153379.721   111161775.198        3421.660          36.000    21153389.413    86619572.935        2666.398          34.000  
G09  18055440.574    94881976.973       -1349.322          44.000    18055442.261    73934018.118       -1051.494          43.000  
G01  19384871.610   101868175.798        3015.766          39.000    19384873.269    79377798.765        2350.066          41.000  
G16  20950014.960   110093074.766       -1855.790          32.000                                                                  
G02  17851605.880    93810808.447        1552.301          45.000                                                                  
G07  18569578.201    97583788.337        2853.992          45.000    18569577.226    76039301.460        2223.899          42.000  
G17  21205182.941   111433985.997        3345.622          30.000                                                                  
> 2025 04 18 00 14 43.9880000  0 11                     
G27  19291517.465   101377631.280       -3161.915          39.000    19291520.289    78995524.037       -2464.117          41.000  
G08  16816159.990    88369544.477       -1551.080          47.000    16816161.811    68859425.067       -1208.649          46.000  
G04  18610061.362    97796546.204       -2750.635          40.000    18610063.136    76205061.767       -2143.298          42.000  
G30  21152728.681   111158353.589        3421.940          36.000    21152738.363    86616906.764        2666.570          34.000  
G09  18055697.383    94883326.649       -1349.878          44.000    18055699.029    73935069.800       -1051.736          43.000  
G01  19384297.703   101865160.234        3015.475          39.000    19384299.338    79375448.975        2349.938          41.000  
G16  20950368.527   110094931.954       -1857.615          32.000                                                                  
G02  17851310.482    93809256.347        1551.877          45.000                                                                  
G07  18569035.096    97580934.361        2853.849          45.000    18569034.126    76037077.585        2223.885          42.000  
G17  21204546.190   111430639.809        3345.685          30.000                                                                  
G14  21778701.884   114447849.5131       1853.477          33.000                                                                  
> 2025 04 18 00 14 44.9880000  0 11                     
G27  19292119.210   101380793.521       -3162.568          39.000    19292122.140    78997988.114       -2464.210          41.000  
G08  16816455.214    88371095.769       -1551.673          47.000    16816457.012    68860633.865       -1209.016          46.000  
G04  18610584.776    97799297.054       -2751.248          40.000    18610586.598    76207205.268       -2143.496          42.000  
G30  21152077.601   111154931.911        3421.416          36.000    21152087.225    86614240.504        2666.925          34.000  
G09  18055954.269    94884676.762       -1350.404          44.000    18055955.951    73936121.846       -1052.213          43.000  
G01  19383723.869   101862144.713        3015.662          39.000    19383725.636    79373099.237        2349.632          41.000  
G16  20950721.989   110096788.974       -1857.363          32.000                                                                  
G02  17851015.188    93807704.745        1551.385          45.000                                                                  
G07  18568491.975    97578080.528        2853.850          45.000    18568491.025    76034853.822        2223.703          42.000  
G17  21203909.306   111427293.880        3345.849          30.000                                                                  
G14  21778349.173   114445996.380        1852.984          33.000                                                                  
> 2025 04 18 00 14 45.9880000  0 11                     
G27  19292720.985   101383955.910       -3162.930          39.000    19292723.918    79000452.307       -2464.358          41.000  
G08  16816750.523    88372647.531       -1552.052          47.000    16816752.290    68861843.037       -1209.480          46.000  
G04  18611108.324    97802048.163       -2751.380          40.000    18611110.107    76209348.989       -2143.866          43.000  
G30  21151426.284   111151510.212        3421.714          36.000    21151436.065    86611574.288        2665.864          34.000  
G09  18056211.341    94886027.386       -1350.760          44.000    18056212.872    73937174.283       -1052.668          43.000  
G01  19383150.157   101859129.363        3015.124          39.000    19383151.830    79370749.600        2349.568          41.000  
G16  20951075.400   110098645.899       -1856.100          31.000                                                                  
G02  17850720.078    93806153.716        1550.598          45.000                                                                  
G07  18567948.998    97575226.928        2853.256          45.000    18567947.968    76032630.229        2223.295          42.000  
G17  21203272.569   111423948.184        3345.051          30.000                                                                  
G14  21777996.604   114444143.253        1852.610          33.000                                                                  
> 2025 04 18 00 14 46.9880000  0 11                     
G27  19293322.784   101387118.474       -3162.649          39.000    19293325.697    79002916.633       -2464.177          41.000  
G08  16817045.866    88374199.767       -1552.425          47.000    16817047.732    68863052.577       -1209.792          46.000  
G04  18611631.885    97804799.538       -2751.446          40.000    18611633.662    76211492.923       -2144.174          43.000  
G30  21150775.168   111148088.572        3421.611          36.000    21150784.977    86608908.046        2666.190          34.000  
G09  18056468.510    94887378.538       -1351.215          44.000    18056470.063    73938227.125       -1053.119          43.000  
G01  19382576.402   101856114.123        3015.207          39.000    19382578.142    79368400.076        2349.577          41.000  
G16  20951428.858   110100501.4283      -1857.236          32.000                                                                  
G02  17850425.006    93804603.237        1550.104          45.000                                                                  
G07  18567405.980    97572373.516        2853.247          45.000    18567405.102    76030406.792        2223.411          42.000  
G17  21202635.984   111420602.800        3345.243          30.000                                                                  
G14  21777643.835   114442290.144        1853.188          32.000                                                                  
> 2025 04 18 00 14 47.9880000  0 11                     
G27  19293924.673   101390281.209       -3163.017          39.000    19293927.565    79005381.116       -2464.702          41.000  
G08  16817341.272    88375752.491       -1553.017          47.000    16817343.145    68864262.482       -1210.041          46.000  
G04  18612155.490    97807551.168       -2751.375          40.000    18612157.294    76213637.052       -2144.233          42.000  
G30  21150124.178   111144666.883        3421.625          36.000    21150134.051    86606241.795        2666.703          34.000  
G09  18056725.705    94888730.212       -1352.092          44.000    18056727.232    73939280.364       -1053.389          43.000  
G01  19382002.581   101853099.022        3015.170          39.000    19382004.346    79366050.648        2349.287          41.000  
G16  20951782.049   110102358.3262      -1856.494          32.000                                                                  
G02  17850130.091    93803053.340        1549.547          45.000                                                                  
G07  18566863.069    97569520.317        2852.998          45.000    18566862.100    76028183.516        2223.208          42.000  
G17  21201999.447   111417257.690        3345.120          30.000                                                                  
G14  21777291.303   114440437.092        1853.229          32.000                                                                  
> 2025 04 18 00 14 48.9880000  0 11                     
G27  19294526.569   101393444.169       -3163.022          39.000    19294529.416    79007845.739       -2464.385          41.000  
G08  16817636.836    88377305.730       -1553.431          47.000    16817638.765    68865472.798       -1210.388          46.000  
G04  18612679.237    97810303.134       -2751.607          40.000    18612681.007    76215781.435       -2144.409          42.000  
G30  21149473.044   111141245.242        3421.706          36.000    21149483.389    86603575.581        2666.354          34.000  
G09  18056982.907    94890082.425       -1352.314          44.000    18056984.503    73940334.050       -1054.008          43.000  
G01  19381428.969   101850084.101        3014.953          39.000    19381430.627    79363701.359        2348.958          41.000  
G16  20952135.369   110104214.8191      -1857.292          31.000                                                                  
G02  17849835.226    93801504.036        1549.012          45.000                                                                  
G07  18566320.163    97566667.348        2853.148          45.000    18566319.088    76025960.443        2222.974          42.000  
G17  21201362.801   111413912.937        3344.229          30.000                                                                  
G14  21776938.746   114438584.129        1852.575          32.000                                                                  
> 2025 04 18 00 14 49.9880000  0 11                     
G27  19295128.528   101396607.262       -3163.080          39.000    19295131.202    79010310.499       -2464.664          41.000  
G08  16817932.527    88378859.411       -1553.809          47.000    16817934.444    68866683.451       -1210.738          46.000  
G04  18613203.006    97813055.344       -2752.293          40.000    18613204.796    76217925.997       -2144.534          42.000  
G30  21148821.952   111137823.587        3421.666          36.000    21148832.175    86600909.384        2665.891          34.000  
G09  18057240.367    94891435.117       -1352.921          44.000    18057241.931    73941388.079       -1054.151          43.000  
G01  19380855.233   101847069.270        3014.758          39.000    19380856.839    79361352.143        2349.125          41.000  
G16  20952488.619   110106071.680       -1855.397          31.000                                                                  
G02  17849540.523    93799955.271        1548.474          45.000                                                                  
G07  18565777.383    97563814.575        2852.598          45.000    18565776.275    76023737.488        2223.046          42.000  
G17  21200726.477   111410568.328        3344.726          30.000                                                                  
G14  21776586.034   114436731.096        1853.556          32.000                                                                  
> 2025 04 18 00 14 50.9880000  0 11                     
G27  19295730.483   101399770.356       -3163.204          39.000    19295733.050    79012775.244       -2464.668          41.000  
G08  16818228.282    88380413.395       -1554.145          47.000    16818230.171    68867894.356       -1211.054          46.000  
G04  18613726.759    97815807.656       -2752.421          40.000    18613728.477    76220070.646       -2144.803          43.000  
G30  21148170.844   111134401.753        3421.833          36.000    21148180.976    86598242.981        2667.012          34.000  
G09  18057497.841    94892788.157       -1353.165          44.000    18057499.398    73942442.401       -1054.257          43.000  
G01  19380281.570   101844054.411        3014.983          39.000    19380283.093    79359002.905        2349.142          41.000  
G16  20952841.899   110107928.412       -1856.422          31.000                                                                  
G02  17849245.830    93798406.906        1548.063          45.000                                                                  
G07  18565234.433    97560961.844        2852.784          45.000    18565233.385    76021514.588        2222.888          42.000  
G17  21200090.070   111407223.883        3344.343          31.000                                                                  
G14  21776233.336   114434877.853        1854.842          26.000                                                                  
> 2025 04 18 00 14 51.9880000  0 11                     
G27  19296332.383   101402933.527       -3163.625          39.000    19296335.001    79015240.040       -2464.862          41.000  
G08  16818524.148    88381967.750       -1554.689          47.000    16818526.029    68869105.540       -1211.545          46.000  
G04  18614250.478    97818560.101       -2752.571          40.000    18614252.221    76222215.414       -2144.932          42.000  
G30  21147519.667   111130979.800        3421.904          37.000    21147529.861    86595576.553        2666.369          34.000  
G09  18057755.296    94894141.615       -1353.819          44.000    18057756.929    73943497.040       -1054.900          43.000  
G01  19379707.901   101841039.580        3014.622          39.000    19379709.350    79356653.677        2349.281          41.000  
G16  20953195.146   110109785.034       -1856.392          32.000                                                                  
G02  17848951.222    93796858.992        1547.429          45.000                                                                  
G07  18564691.658    97558109.208        2852.305          45.000    18564690.559    76019291.746        2222.816          42.000  
G17  21199453.710   111403879.597        3343.712          30.000                                                                  
G14  21775880.695   114433024.796        1853.236          32.000                                                                  
> 2025 04 18 00 14 52.9880000  0 11                     
G27  19296934.313   101406096.893       -3163.397          39.000    19296936.920    79017705.016       -2465.063          41.000  
G08  16818820.028    88383522.626       -1554.973          47.000    16818821.829    68870317.123       -1211.509          46.000  
G04  18614774.363    97821312.848       -2752.875          41.000    18614776.104    76224360.414       -2144.967          43.000  
G30  21146868.490   111127557.901        3422.149          37.000    21146878.790    86592910.150        2666.648          34.000  
G09  18058012.971    94895495.614       -1353.983          44.000    18058014.642    73944552.108       -1055.172          43.000  
G01  19379134.267   101838024.926        3014.682          40.000    19379135.680    79354304.604        2349.228          41.000  
G16  20953548.567   110111641.719       -1858.390          31.000                                                                  
G02  17848656.658    93795311.686        1547.200          45.000                                                                  
G07  18564148.858    97555256.825        2852.439          45.000    18564147.742    76017069.119        2222.562          42.000  
G17  21198817.508   111400535.573        3344.069          30.000                                                                  
G14  21775528.074   114431171.600        1852.833          31.000                                                                  
> 2025 04 18 00 14 53.9880000  0 11                     
G27  19297536.254   101409260.357       -3163.805          39.000    19297538.990    79020170.045       -2465.265          41.000  
G08  16819116.016    88385077.875       -1555.612          48.000    16819117.870    68871529.009       -1212.154          46.000  
G04  18615298.298    97824065.797       -2753.011          41.000    18615299.915    76226505.569       -2145.286          42.000  
G30  21146217.370   111124135.910        3422.038          36.000    21146227.605    86590243.637        2667.415          34.000  
G09  18058270.635    94896850.058       -1354.819          44.000    18058272.469    73945607.509       -1055.664          43.000  
G01  19378560.666   101835010.327        3014.405          39.000    19378562.147    79351955.555        2348.965          41.000  
G16  20953902.016   110113498.145       -1856.262          32.000                                                                  
G02  17848362.331    93793764.864        1546.471          45.000                                                                  
G07  18563606.029    97552404.563        2852.166          45.000    18563604.956    76014846.584        2222.222          42.000  
G17  21198181.213   111397191.813        3343.216          30.000                                                                  
G14  21775175.328   114429318.404        1852.940          32.000                                                                  
> 2025 04 18 00 14 54.9880000  0 11                     
G27  19298138.257   101412423.922       -3163.553          39.000    19298141.055    79022635.161       -2465.191          41.000  
G08  16819412.086    88386633.567       -1556.120          48.000    16819413.899    68872741.235       -1212.496          46.000  
G04  18615822.154    97826818.970       -2753.474          40.000    18615823.803    76228650.898       -2145.592          42.000  
G30  21145566.113   111120713.870        3421.829          36.000    21145576.844    86587577.143        2666.554          34.000  
G09  18058528.508    94898204.951       -1355.158          44.000    18058530.235    73946663.273       -1056.104          43.000  
G01  19377987.019   101831995.797        3014.347          39.000    19377988.449    79349606.589        2348.621          41.000  
G16  20954255.390   110115354.633       -1858.053          32.000                                                                  
G02  17848068.210    93792218.551        1546.025          45.000                                                                  
G07  18563063.360    97549552.454        2851.950          45.000    18563062.298    76012624.150        2222.393          42.000  
G17  21197544.917   111393848.223        3343.355          30.000                                                                  
G14  21774822.782   114427465.165        1852.684          32.000                                                                  
> 2025 04 18 00 14 55.9880000  0 11                     
G27  19298740.271   101415587.689       -3163.882          39.000    19298743.016    79025100.430       -2465.437          41.000  
G08  16819708.155    88388189.729       -1556.195          48.000    16819709.987    68873953.829       -1212.579          46.000  
G04  18616346.192    97829572.411       -2753.465          40.000    18616347.863    76230796.414       -2145.448          43.000  
G30  21144914.890   111117291.822        3422.033          37.000    21144925.631    86584910.616        2667.034          34.000  
G09  18058786.458    94899560.368       -1355.616          44.000    18058788.163    73947719.448       -1056.493          43.000  
G01  19377413.403   101828981.415        3014.382          39.000    19377414.738    79347257.707        2348.803          41.000  
G16  20954608.664   110117211.063       -1857.532          32.000                                                                  
G02  17847774.027    93790672.809        1545.671          45.000                                                                  
G07  18562520.626    97546700.560        2852.039          45.000    18562519.701    76010401.901        2222.198          42.000  
G17  21196908.472   111390504.880        3344.275          30.000                                                                  
G14  21774470.285   114425611.918        1854.060          31.000                                                                  
> 2025 04 18 00 14 56.9880000  0 11                     
G27  19299342.327   101418751.433       -3163.699          39.000    19299344.987    79027565.691       -2465.194          41.000  
G08  16820004.298    88389746.197       -1556.653          47.000    16820006.172    68875166.669       -1213.032          46.000  
G04  18616870.162    97832325.958       -2753.975          40.000    18616871.702    76232942.018       -2145.464          42.000  
G30  21144263.643   111113869.604        3422.457          37.000    21144274.252    86582243.959        2666.763          34.000  
G09  18059044.490    94900916.119       -1356.117          44.000    18059046.162    73948775.869       -1056.561          43.000  
G01  19376839.798   101825966.995        3014.322          39.000    19376841.046    79344908.816        2348.854          41.000  
G16  20954961.723   110119067.167       -1855.972          32.000                                                                  
G02  17847480.014    93789127.470        1545.034          45.000                                                                  
G07  18561977.941    97543848.722        2851.681          45.000    18561976.924    76008179.681        2222.234          42.000  
G17  21196272.225   111387161.674        3343.601          30.000                                                                  
G14  21774117.609   114423758.598        1853.229          32.000                                                                  
> 2025 04 18 00 14 57.9880000  0 11                     
G27  19299944.359   101421915.341       -3163.868          39.000    19299947.034    79030031.084       -2465.642          41.000  
G08  16820300.529    88391303.114       -1557.037          48.000    16820302.402    68876379.843       -1213.307          46.000  
G04  18617394.212    97835079.714       -2753.921          40.000    18617395.710    76235087.827       -2145.948          42.000  
G30  21143612.512   111110447.369        3422.352          37.000    21143623.074    86579577.312        2665.883          34.000  
G09  18059302.584    94902272.359       -1356.370          44.000    18059304.195    73949832.680       -1057.039          43.000  
G01  19376266.148   101822952.678        3014.016          39.000    19376267.385    79342560.000        2348.772          41.000  
G16  20955315.077   110120923.355       -1856.283          32.000                                                                  
G02  17847186.025    93787582.660        1544.563          45.000                                                                  
G07  18561435.289    97540997.058        2851.591          45.000    18561434.232    76005957.601        2222.095          42.000  
G17  21195636.010   111383818.721        3342.621          30.000                                                                  
G14  21773764.998   114421905.249        1853.783          32.000                                                                  
> 2025 04 18 00 14 58.9880000  0 11                     
G27  19300546.472   101425079.455       -3164.568          39.000    19300549.191    79032496.598       -2465.403          41.000  
G08  16820596.849    88392860.544       -1557.789          48.000    16820598.825    68877593.429       -1213.874          46.000  
G04  18617918.260    97837833.810       -2754.678          40.000    18617919.915    76237233.858       -2146.224          42.000  
G30  21142961.451   111107025.180        3422.241          37.000    21142971.896    86576910.616        2666.828          34.000  
G09  18059560.759    94903629.154       -1357.081          44.000    18059562.390    73950889.910       -1057.411          43.000  
G01  19375692.532   101819938.541        3013.959          39.000    19375693.826    79340211.326        2348.446          41.000  
G16  20955668.330   110122779.500       -1855.637          32.000                                                                  
G02  17846892.236    93786038.450        1543.735          45.000                                                                  
G07  18560892.657    97538145.630        2851.214          45.000    18560891.610    76003735.713        2221.835          42.000  
G17  21194999.895   111380476.060        3342.161          30.000                                                                  
G14  21773412.591   114420051.998        1853.030          32.000                                                                  
> 2025 04 18 00 14 59.9880000  0 11                     
G27  19301148.694   101428243.791       -3164.884          39.000    19301151.291    79034962.311       -2465.872          41.000  
G08  16820893.362    88394418.503       -1558.327          48.000    16820895.211    68878807.417       -1214.123          46.000  
G04  18618442.374    97840588.194       -2754.533          40.000    18618444.045    76239380.142       -2146.490          42.000  
G30  21142310.346   111103603.026        3422.208          37.000    21142320.574    86574244.009        2666.757          34.000  
G09  18059819.002    94904986.509       -1357.713          45.000    18059820.682    73951947.601       -1058.025          43.000  
G01  19375119.063   101816924.577        3013.947          39.000    19375120.345    79337862.790        2348.458          41.000  
G16  20956021.640   110124635.694       -1856.628          32.000                                                                  
G02  17846598.506    93784494.858        1543.300          45.000                                                                  
G07  18560350.117    97535294.465        2851.093          45.000    18560349.010    76001514.043        2221.359          42.000  
G17  21194363.758   111377133.740        3341.758          30.000                                                                  
G14  21773060.051   114418198.789        1853.438          32.000                                                                  
> 2025 04 18 00 15 00.9880000  0 11                     
G27  19301750.832   101431408.495       -3165.018          38.000    19301753.510    79037428.306       -2466.007          41.000  
G08  16821189.912    88395977.130       -1558.826          47.000    16821191.924    68880021.938       -1214.766          46.000  
G04  18618966.604    97843343.066       -2755.103          40.000    18618968.213    76241526.790       -2146.678          42.000  
G30  21141659.031   111100181.071        3422.258          37.000    21141669.430    86571577.610        2665.633          34.000  
G09  18060077.442    94906344.581       -1358.363          45.000    18060079.076    73953005.825       -1058.212          43.000  
G01  19374545.516   101813910.959        3013.482          39.000    19374546.956    79335514.514        2348.084          41.000  
G16  20956374.843   110126492.090       -1856.678          32.000                                                                  
G02  17846304.934    93782952.036        1542.664          45.000                                                                  
G07  18559807.620    97532443.722        2850.726          45.000    18559806.437    75999292.664        2221.457          42.000  
G17  21193727.712   111373791.792        3342.082          30.000                                                                  
G14  21772707.350   114416345.836        1852.913          32.000                                                                  
> 2025 04 18 00 15 01.9880000  0 11                     
G27  19302353.137   101434573.462       -3165.157          38.000    19302355.783    79039894.509       -2466.438          41.000  
G08  16821486.611    88397536.302       -1559.295          47.000    16821488.717    68881236.879       -1215.119          46.000  
G04  18619490.966    97846098.282       -2755.567          40.000    18619492.501    76243673.706       -2147.038          42.000  
G30  21141007.929   111096759.195        3422.044          37.000    21141017.960    86568911.175        2666.313          34.000  
G09  18060336.016    94907703.248       -1358.907          44.000    18060337.559    73954064.526       -1058.685          43.000  
G01  19373972.082   101810897.555        3013.380          39.000    19373973.491    79333166.389        2348.320          41.000  
G16  20956728.319   110128348.513       -1855.254          32.000                                                                  
G02  17846011.383    93781409.865        1541.918          45.000                                                                  
G07  18559265.135    97529593.257        2850.415          45.000    18559264.078    75997071.521        2221.077          42.000  
G17  21193091.725   111370450.284        3341.302          30.000                                                                  
G14  21772354.745   114414492.948        1853.579          32.000                                                                  
> 2025 04 18 00 15 02.9880000  0 11                     
G27  19302955.402   101437738.465       -3165.037          38.000    19302958.145    79042360.764       -2466.505          41.000  
G08  16821783.430    88399095.868       -1559.693          47.000    16821785.513    68882452.115       -1215.278          46.000  
G04  18620015.244    97848853.656       -2755.682          40.000    18620016.853    76245820.752       -2147.113          42.000  
G30  21140356.718   111093337.207        3422.616          37.000    21140366.810    86566244.719        2666.232          34.000  
G09  18060594.765    94909062.320       -1359.248          44.000    18060596.205    73955123.544       -1059.097          43.000  
G01  19373398.729   101807884.183        3013.655          39.000    19373400.073    79330818.316        2348.316          41.000  
G16  20957081.846   110130204.849       -1857.061          32.000                                                                  
G02  17845717.943    93779868.144        1541.697          45.000                                                                  
G07  18558722.693    97526742.902        2850.295          45.000    18558721.682    75994850.462        2221.226          42.000  
G17  21192455.743   111367108.978        3340.816          30.000                                                                  
G14  21772002.272   114412640.046        1852.466          32.000                                                                  
> 2025 04 18 00 15 03.9880000  0 11                     
G27  19303557.815   101440903.615       -3165.516          39.000    19303560.373    79044827.091       -2466.535          41.000  
G08  16822080.250    88400655.840       -1560.138          47.000    16822082.290    68883667.682       -1215.606          46.000  
G04  18620539.569    97851609.240       -2755.794          40.000    18620541.270    76247967.948       -2147.153          42.000  
G30  21139705.480   111089915.197        3422.105          37.000    21139715.559    86563578.198        2666.323          34.000  
G09  18060853.468    94910421.845       -1359.703          44.000    18060854.920    73956182.901       -1059.202          43.000  
G01  19372825.197   101804870.896        3013.272          39.000    19372826.640    79328470.289        2348.247          41.000  
G16  20957435.082   110132061.016       -1855.511          32.000                                                                  
G02  17845424.652    93778326.949        1540.824          45.000                                                                  
G07  18558180.377    97523892.693        2850.297          45.000    18558179.331    75992629.528        2220.928          42.000  
G17  21191819.986   111363767.874        3340.788          30.000                                                                  
G14  21771649.806   114410787.037        1853.595          32.000                                                                  
> 2025 04 18 00 15 04.9880000  0 11                     
G27  19304160.124   101444068.782       -3165.348          39.000    19304162.630    79047293.456       -2466.485          41.000  
G08  16822377.210    88402216.163       -1560.572          47.000    16822379.227    68884883.524       -1216.127          46.000  
G04  18621063.933    97854364.966       -2755.911          40.000    18621065.760    76250115.278       -2147.379          42.000  
G30  21139054.284   111086493.053        3422.312          37.000    21139064.170    86560911.542        2667.157          34.000  
G09  18061112.260    94911781.770       -1360.095          45.000    18061113.599    73957242.601       -1059.907          43.000  
G01  19372251.787   101801857.621        3013.131          39.000    19372253.316    79326122.303        2347.937          41.000  
G16  20957788.229   110133917.108       -1855.688          32.000                                                                  
G02  17845131.450    93776786.189        1540.542          45.000                                                                  
G07  18557638.046    97521042.585        2850.098          45.000    18557637.000    75990408.671        2220.834          42.000  
G17  21191184.131   111360426.873        3340.582          30.000                                                                  
G14  21771297.151   114408934.040        1852.505          32.000                                                                  
> 2025 04 18 00 15 05.9880000  0 11                     
G27  19304762.407   101447234.065       -3165.519          39.000    19304764.904    79049759.903       -2466.325          41.000  
G08  16822674.228    88403776.881       -1560.704          47.000    16822676.153    68886099.667       -1216.205          46.000  
G04  18621588.326    97857120.898       -2756.343          40.000    18621590.114    76252262.752       -2147.473          42.000  
G30  21138403.049   111083070.838        3422.017          37.000    21138413.219    86558244.928        2666.719          34.000  
G09  18061371.074    94913142.130       -1360.581          44.000    18061372.523    73958302.605       -1059.912          43.000  
G01  19371678.445   101798844.400        3013.313          39.000    19371679.904    79323774.335        2348.100          41.000  
G16  20958141.342   110135773.065       -1855.627          32.000                                                                  
G02  17844838.323    93775245.925        1540.173          45.000                                                                  
G07  18557095.696    97518192.607        2849.967          45.000    18557094.633    75988187.908        2220.812          42.000  
G17  21190548.210   111357086.089        3341.016          30.000                                                                  
G14  21770944.551   114407080.854        1854.045          31.000                                                                  
> 2025 04 18 00 15 06.9880000  0 11                     
G27  19305364.854   101450399.448       -3165.460          39.000    19305367.350    79052226.447       -2466.811          41.000  
G08  16822971.359    88405338.016       -1561.157          48.000    16822973.296    68887316.131       -1216.541          46.000  
G04  18622112.805    97859877.021       -2756.316          40.000    18622114.558    76254410.377       -2147.748          43.000  
G30  21137751.828   111079648.532        3422.667          37.000    21137761.611    86555578.201        2666.548          34.000  
G09  18061629.968    94914502.939       -1360.909          44.000    18061631.491    73959362.987       -1060.534          43.000  
G01  19371105.049   101795831.264        3013.094          39.000    19371106.481    79321426.438        2347.840          41.000  
G16  20958494.721   110137629.065       -1857.378          32.000                                                                  
G02  17844545.386    93773706.156        1539.645          45.000                                                                  
G07  18556553.371    97515342.767        2850.026          45.000    18556552.308    75985967.249        2220.718          42.000  
G17  21189912.643   111353745.527        3340.825          31.000                                                                  
G14  21770592.261   114405227.744        1853.421          32.000                                                                  
> 2025 04 18 00 15 07.9880000  0 11                     
G27  19305967.152   101453564.904       -3165.519          39.000    19305969.794    79054693.030       -2466.275          41.000  
G08  16823268.423    88406899.537       -1561.695          48.000    16823270.440    68888532.905       -1216.833          46.000  
G04  18622637.247    97862633.318       -2756.278          40.000    18622639.096    76256558.142       -2147.695          42.000  
G30  21137100.550   111076226.167        3422.404          37.000    21137110.184    86552911.430        2666.437          34.000  
G09  18061889.012    94915864.168       -1361.276          44.000    18061890.511    73960423.680       -1060.611          43.000  
G01  19370531.618   101792818.166        3013.065          39.000    19370533.089    79319078.573        2348.013          41.000  
G16  20958848.040   110139484.753       -1855.470          32.000                                                                  
G02  17844252.454    93772166.874        1539.136          45.000                                                                  
G07  18556011.043    97512493.065        2849.439          45.000    18556010.007    75983746.703        2220.515          42.000  
G17  21189276.939   111350405.150        3339.921          30.000                                                                  
G14  21770239.793   114403374.588        1853.080          32.000                                                                  
> 2025 04 18 00 15 08.9880000  0 11                     
G27  19306569.572   101456730.450       -3165.786          39.000    19306572.097    79057159.688       -2466.814          41.000  
G08  16823565.621    88408461.441       -1562.171          48.000    16823567.667    68889749.979       -1217.490          46.000  
G04  18623161.753    97865389.806       -2757.001          40.000    18623163.814    76258706.056       -2148.178          42.000  
G30  21136449.229   111072803.693        3422.309          37.000    21136458.636    86550244.581        2666.235          34.000  
G09  18062148.044    94917225.824       -1361.937          44.000    18062149.585    73961484.708       -1061.266          43.000  
G01  19369958.208   101789805.116        3012.900          39.000    19369959.729    79316730.737        2347.815          41.000  
G16  20959201.348   110141340.380       -1855.527          32.000                                                                  
G02  17843959.746    93770628.063        1538.481          45.000                                                                  
G07  18555468.731    97509643.455        2849.521          45.000    18555467.868    75981526.234        2220.456          42.000  
G17  21188641.284   111347064.935        3339.987          31.000                                                                  
G14  21769887.274   114401521.288        1853.027          32.000                                                                  
> 2025 04 18 00 15 09.9880000  0 11                     
G27  19307171.921   101459896.137       -3165.860          39.000    19307174.566    79059626.461       -2466.894          41.000  
G08  16823862.831    88410023.783       -1562.585          48.000    16823864.981    68890967.376       -1217.628          46.000  
G04  18623686.312    97868146.513       -2756.959          40.000    18623688.444    76260854.127       -2148.182          42.000  
G30  21135798.031   111069381.199        3422.158          36.000    21135807.516    86547577.682        2666.144          34.000  
G09  18062407.274    94918587.961       -1362.626          44.000    18062408.856    73962546.107       -1061.675          43.000  
G01  19369384.889   101786792.168        3012.820          39.000    19369386.392    79314382.996        2347.475          41.000  
G16  20959554.320   110143195.993       -1855.237          33.000                                                                  
G02  17843666.979    93769089.786        1537.972          45.000                                                                  
G07  18554926.533    97506794.048        2849.234          45.000    18554925.657    75979305.900        2220.451          42.000  
G17  21188005.762   111343724.960        3340.299          31.000                                                                  
G14  21769534.709   114399668.015        1853.403          33.000                                                                  
> 2025 04 18 00 15 10.9880000  0 11                     
G27  19307774.373   101463061.910       -3165.816          39.000    19307776.975    79062093.304       -2467.128          41.000  
G08  16824160.168    88411586.531       -1562.810          48.000    16824162.254    68892185.105       -1217.804          46.000  
G04  18624210.900    97870903.425       -2756.419          40.000    18624212.968    76263002.373       -2148.131          42.000  
G30  21135146.889   111065958.625        3422.816          36.000    21135156.279    86544910.726        2667.279          34.000  
G09  18062666.505    94919950.522       -1362.660          44.000    18062668.110    73963607.859       -1061.984          43.000  
G01  19368811.528   101783779.285        3013.104          39.000    19368813.086    79312035.295        2347.625          41.000  
G16  20959907.535   110145051.526       -1855.612          33.000                                                                  
G02  17843374.291    93767552.008        1537.578          45.000                                                                  
G07  18554384.354    97503944.777        2849.207          45.000    18554383.362    75977085.703        2220.207          42.000  
G17  21187370.084   111340385.184        3340.706          30.000                                                                  
G14  21769182.197   114397814.727        1853.406          33.000                                                                  
> 2025 04 18 00 15 11.9880000  0 11                     
G27  19308376.752   101466227.777       -3166.208          39.000    19308379.309    79064560.200       -2467.215          41.000  
G08  16824457.654    88413149.673       -1563.424          48.000    16824459.763    68893403.130       -1218.209          46.000  
G04  18624735.559    97873660.530       -2757.429          40.000    18624737.677    76265150.758       -2148.519          42.000  
G30  21134495.595   111062535.988        3422.294          36.000    21134504.988    86542243.737        2666.777          34.000  
G09  18062925.908    94921313.526       -1363.385          44.000    18062927.561    73964669.936       -1062.474          43.000  
G01  19368238.300   101780766.463        3012.694          39.000    19368239.726    79309687.647        2347.293          41.000  
G16  20960261.248                       -1855.448          32.000                                                                  
G02  17843081.760    93766014.714        1536.760          45.000                                                                  
G07  18553842.290    97501095.643        2848.779          45.000    18553841.282    75974865.596        2219.903          42.000  
G17  21186734.458   111337045.628        3339.849          30.000                                                                  
G14  21768829.599   114395961.342        1853.590          32.000                                                                  
> 2025 04 18 00 15 12.9880000  0 11                     
G27  19308979.135   101469393.808       -3166.178          39.000    19308981.749    79067027.240       -2467.166          41.000  
G08  16824755.274    88414713.270       -1563.789          47.000    16824757.349    68894621.529       -1218.586          46.000  
G04  18625260.385    97876417.884       -2757.635          40.000    18625262.420    76267299.339       -2148.779          42.000  
G30  21133844.195   111059113.310        3422.820          36.000    21133853.917    86539576.757        2666.275          34.000  
G09  18063185.473    94922677.031       -1363.950          44.000    18063187.034    73965732.409       -1062.754          43.000  
G01  19367664.995   101777753.773        3012.538          39.000    19367666.488    79307340.076        2347.703          41.000  
G16  20960612.353   110148760.3613      -1855.721          33.000                                                                  
G02  17842789.316    93764477.966        1536.350          45.000                                                                  
G07  18553300.074    97498246.688        2849.007          45.000    18553299.243    75972645.625        2220.027          42.000  
G17  21186098.906   111333706.323        3339.327          30.000                                                                  
G14  21768476.917   114394108.014        1852.777          33.000                                                                  
> 2025 04 18 00 15 13.9880000  0 11                     
G27  19309581.660   101472559.798       -3166.110          39.000    19309584.225    79069494.236       -2466.823          41.000  
G08  16825052.844    88416277.151       -1564.015          47.000    16825054.866    68895840.129       -1218.554          46.000  
G04  18625785.108    97879175.314       -2757.627          40.000    18625787.182    76269447.987       -2148.726          42.000  
G30  21133192.647   111055690.452        3423.279          36.000    21133202.405    86536909.570        2667.451          34.000  
G09  18063444.984    94924040.846       -1363.898          44.000    18063446.590    73966795.104       -1062.587          43.000  
G01  19367091.723   101774741.002        3012.948          39.000    19367093.262    79304992.484        2347.574          41.000  
G16  20960968.746   110150615.4722      -1853.983          32.000                                                                  
G02  17842496.942    93762941.589        1536.249          45.000                                                                  
G07  18552757.911    97495397.756        2849.156          45.000    18552757.150    75970425.685        2220.184          42.000  
G17  21185463.523   111330367.113        3338.881          30.000                                                                  
G14  21768124.208   114392254.506        1853.774          33.000                                                                  
> 2025 04 18 00 15 14.9880000  0 11                     
G27  19310184.094   101475725.765       -3165.721          39.000    19310186.672    79071961.222       -2466.725          41.000  
G08  16825350.521    88417841.318       -1564.300          47.000    16825352.498    68897058.960       -1218.902          46.000  
G04  18626309.908    97881932.806       -2757.462          40.000    18626311.852    76271596.685       -2148.889          42.000  
G30  21132541.235   111052267.410        3422.989          36.000    21132550.971    86534242.279        2667.024          34.000  
G09  18063704.510    94925404.988       -1364.214          44.000    18063706.218    73967858.081       -1063.048          43.000  
G01  19366518.463   101771728.211        3012.487          39.000    19366519.950    79302644.835        2347.802          41.000  
G16  20961318.910   110152473.4213      -1854.958          32.000                                                                  
G02  17842204.654    93761405.598        1535.782          45.000                                                                  
G07  18552215.821    97492548.855        2849.080          45.000    18552214.953    75968205.776        2219.667          42.000  
G17  21184827.999   111327027.976        3338.588          30.000                                                                  
G14  21767771.575   114390400.788        1854.153          33.000                                                                  
> 2025 04 18 00 15 15.9880000  0 11                     
G27  19310786.653   101478891.866       -3166.131          39.000    19310789.207    79074428.314       -2467.233          41.000  
G08  16825648.269    88419405.882       -1564.888          47.000    16825650.231    68898278.111       -1219.466          46.000  
G04  18626834.651    97884690.501       -2758.033          40.000    18626836.539    76273745.539       -2149.078          42.000  
G30  21131889.847   111048844.292        3423.370          36.000    21131899.463    86531574.908        2667.563          34.000  
G09  18063964.277    94926769.599       -1365.066          44.000    18063965.972    73968921.399       -1063.382          43.000  
G01  19365945.160   101768715.459        3012.785          39.000    19365946.566    79300297.253        2347.541          41.000  
G16  20961672.504   110154328.3002      -1854.006          33.000                                                                  
G02  17841912.444    93759870.111        1535.061          45.000                                                                  
G07  18551673.711    97489700.118        2848.515          45.000    18551672.870    75965985.957        2219.648          42.000  
G17  21184192.555   111323689.036        3338.074          30.000                                                                  
G14  21767418.975   114388547.075        1854.176          33.000                                                                  
> 2025 04 18 00 15 16.9880000  0 11                     
G27  19311389.163   101482058.002       -3166.155          39.000    19311391.654    79076895.440       -2467.113          41.000  
G08  16825946.069    88420970.828       -1565.095          48.000    16825947.945    68899497.542       -1219.569          46.000  
G04  18627359.482    97887448.362       -2757.762          40.000    18627361.341    76275894.516       -2149.050          42.000  
G30  21131238.414   111045421.113        3423.044          36.000    21131247.892    86528907.463        2668.040          34.000  
G09  18064224.009    94928134.601       -1365.202          44.000    18064225.674    73969985.046       -1063.762          43.000  
G01  19365371.919   101765702.754        3012.944          39.000    19365373.349    79297949.708        2347.471          41.000  
G16  20962026.212   110156183.0842      -1855.037          33.000                                                                  
G02  17841620.299    93758335.084        1534.833          45.000                                                                  
G07  18551131.621    97486851.471        2848.592          45.000    18551130.827    75963766.249        2219.531          42.000  
G17  21183557.110   111320350.246        3338.845          30.000                                                                  
G14  21767066.233   114386693.267        1854.574          32.000                                                                  
> 2025 04 18 00 15 17.9880000  0 11                     
G27  19311991.678   101485224.222       -3166.075          39.000    19311994.201    79079362.608       -2467.007          41.000  
G08  16826243.953    88422536.139       -1565.381          47.000    16826245.907    68900717.262       -1219.812          46.000  
G04  18627884.345    97890206.401       -2758.027          40.000    18627886.185    76278043.618       -2149.015          42.000  
G30  21130586.949   111041997.789        3423.272          36.000    21130596.397    86526239.992        2667.351          34.000  
G09  18064483.814    94929500.009       -1365.568          44.000    18064485.508    73971049.002       -1064.193          43.000  
G01  19364798.612   101762690.109        3012.249          39.000    19364800.137    79295602.175        2347.326          41.000  
G16  20962379.677   110158037.6952      -1855.287          33.000                                                                  
G02  17841328.267    93756800.528        1534.391          45.000                                                                  
G07  18550589.650    97484002.941        2848.286          45.000    18550588.711    75961546.589        2219.819          42.000  
G17  21182921.841   111317011.626        3339.365          30.000                                                                  
G14  21766713.477   114384839.441        1854.286          32.000                                                                  
> 2025 04 18 00 15 18.9880000  0 11                     
G27  19312594.188   101488390.583       -3166.534          39.000    19312596.696    79081829.902       -2467.228          41.000  
G08  16826541.897    88424101.886       -1565.869          47.000    16826543.824    68901937.333       -1220.333          46.000  
G04  18628409.267    97892964.656       -2758.188          40.000    18628411.090    76280192.917       -2149.473          42.000  
G30  21129935.386   111038574.450        3423.068          36.000    21129945.010    86523572.427        2667.875          34.000  
G09  18064743.789    94930865.895       -1366.082          44.000    18064745.304    73972113.325       -1064.234          43.000  
G01  19364225.321   101759677.518        3012.762          39.000    19364226.875    79293254.721        2347.356          41.000  
G16  20962732.430   110159892.243       -1855.270          33.000                                                                  
G02  17841036.306    93755266.497        1533.812          45.000                                                                  
G07  18550047.542    97481154.565        2848.334          45.000    18550046.723    75959327.114        2219.123          42.000  
G17  21182286.394   111313673.295        3338.131          30.000                                                                  
G14  21766360.857   114382985.553        1854.802          32.000                                                                  
> 2025 04 18 00 15 19.9880000  0 11                     
G27  19313196.735   101491557.048       -3166.810          39.000    19313199.222    79084297.274       -2467.479          41.000  
G08  16826839.959    88425668.062       -1566.536          47.000    16826841.866    68903157.719       -1220.779          46.000  
G04  18628934.277    97895723.113       -2758.512          41.000    18628935.971    76282342.353       -2149.493          42.000  
G30  21129283.821   111035151.045        3422.948          36.000    21129293.532    86520904.864        2667.344          34.000  
G09  18065003.811    94932232.244       -1366.764          44.000    18065005.206    73973178.017       -1065.056          43.000  
G01  19363652.079   101756665.040        3012.383          39.000    19363653.621    79290907.322        2347.319          41.000  
G16  20963085.485   110161746.746       -1855.172          33.000                                                                  
G02  17840744.456    93753732.981        1533.186          45.000                                                                  
G07  18549505.502    97478306.348        2848.126          45.000    18549504.808    75957107.719        2219.044          42.000  
G17  21181650.941   111310335.165        3338.044          30.000                                                                  
G14  21766008.004   114381131.632        1854.657          32.000                                                                  
> 2025 04 18 00 15 20.9880000  0 11                     
G27  19313799.298   101494723.677       -3167.073          38.000    19313801.837    79086764.793       -2468.097          41.000  
G08  16827138.151    88427234.691       -1567.192          47.000    16827139.964    68904378.460       -1221.036          46.000  
G04  18629459.312    97898481.843       -2759.206          41.000    18629460.970    76284492.011       -2149.854          42.000  
G30  21128632.323   111031727.627        3423.242          36.000    21128641.825    86518237.227        2668.384          34.000  
G09  18065263.952    94933599.087       -1367.195          44.000    18065265.352    73974243.081       -1065.400          43.000  
G01  19363078.847   101753652.690        3012.169          39.000    19363080.426    79288560.029        2347.319          41.000  
G16  20963438.349   110163601.157       -1853.450          33.000                                                                  
G02  17840452.676    93752200.025        1532.561          45.000                                                                  
G07  18548963.533    97475458.352        2847.669          45.000    18548962.757    75954888.478        2219.287          42.000  
G17  21181015.675   111306997.259        3338.358          31.000                                                                  
G14  21765655.145   114379277.770        1853.881          32.000                                                                  
> 2025 04 18 00 15 21.9880000  0 11                     
G27  19314401.962   101497890.411       -3166.984          38.000    19314404.402    79089232.364       -2467.671          41.000  
G08  16827436.301    88428801.729       -1567.286          47.000    16827438.183    68905599.543       -1221.394          46.000  
G04  18629984.407    97901240.754       -2758.872          40.000    18629985.995    76286641.819       -2149.999          42.000  
G30  21127980.902   111028304.158        3423.087          36.000    21127990.296    86515569.642        2666.953          34.000  
G09  18065524.163    94934966.376       -1367.701          44.000    18065525.564    73975308.503       -1065.843          43.000  
G01  19362505.665   101750640.424        3011.946          39.000    19362507.260    79286212.816        2347.011          41.000  
G16  20963791.138                       -1846.338          33.000                                                                  
G02  17840161.139    93750667.576        1532.004          45.000                                                                  
G07  18548421.626    97472610.495        2847.551          45.000    18548420.775    75952669.378        2219.058          42.000  
G17  21180380.692   111303659.659        3336.827          30.000                                                                  
G14  21765302.270   114377423.855        1853.873          33.000                                                                  
> 2025 04 18 00 15 22.9880000  0 11                     
G27  19315004.588   101501057.308       -3166.877          38.000    19315007.121    79091700.075       -2467.737          41.000  
G08  16827734.633    88430369.244       -1567.713          47.000    16827736.497    68906820.971       -1221.490          46.000  
G04  18630509.472    97903999.945       -2759.301          40.000    18630511.143    76288791.832       -2149.979          42.000  
G30  21127329.447   111024880.666        3423.889          36.000    21127338.901    86512901.999        2667.695          34.000  
G09  18065784.489    94936334.184       -1368.058          44.000    18065785.811    73976374.329       -1065.921          43.000  
G01  19361932.590   101747628.268        3012.067          40.000    19361934.002    79283865.689        2347.064          41.000  
G16  20964144.216   110167321.4113      -1854.053          32.000                                                                  
G02  17839869.675    93749135.680        1531.647          45.000                                                                  
G07  18547879.740    97469762.860        2847.495          45.000    18547878.893    75950450.444        2218.748          42.000  
G17  21179745.670   111300322.240        3337.365          30.000                                                                  
G14  21764949.554   114375569.928        1854.168          33.000                                                                  
> 2025 04 18 00 15 23.9880000  0 11                     
G27  19315607.224   101504224.275       -3166.895          39.000    19315609.792    79094167.840       -2468.028          41.000  
G08  16828033.021    88431937.130       -1568.086          47.000    16828034.832    68908042.705       -1221.839          46.000  
G04  18631034.619    97906759.314       -2759.667          40.000    18631036.171    76290941.987       -2150.465          42.000  
G30  21126678.030   111021457.120        3423.591          36.000    21126687.462    86510234.265        2667.914          34.000  
G09  18066044.772    94937702.395       -1368.436          44.000    18066046.228    73977440.469       -1066.376          43.000  
G01  19361359.363   101744616.164        3012.065          39.000    19361360.797    79281518.590        2347.055          41.000  
G16  20964494.148   110169159.6652      -1853.982          32.000                                                                  
G02  17839578.371    93747604.264        1531.177          45.000                                                                  
G07  18547337.896    97466915.323        2847.390          45.000    18547336.988    75948231.579        2218.879          42.000  
G17  21179110.557   111296985.025        3337.277          30.000                                                                  
G14  21764596.783   114373715.993        1853.962          33.000                                                                  
> 2025 04 18 00 15 24.9880000  0 11                     
G27  19316209.871   101507391.198       -3166.701          38.000    19316212.491    79096635.587       -2467.860          41.000  
G08  16828331.432    88433505.285       -1568.144          47.000    16828333.189    68909264.653       -1222.089          46.000  
G04  18631559.656    97909518.739       -2759.833          40.000    18631561.350    76293092.175       -2150.389          42.000  
G30  21126026.393   111018033.364        3423.835          36.000    21126036.092    86507566.422        2668.161          34.000  
G09  18066305.222    94939070.915       -1368.598          44.000    18066306.755    73978506.842       -1066.424          43.000  
G01  19360786.185   101741604.000        3012.269          39.000    19360787.619    79279171.453        2347.093          41.000  
G16  20964847.783   110171013.1741      -1854.292          32.000                                                                  
G02  17839287.035    93746073.213        1530.798          45.000                                                                  
G07  18546796.043    97464067.800        2847.522          45.000    18546795.138    75946012.738        2218.730          42.000  
G17  21178475.543   111293647.806        3338.869          29.000                                                                  
G14  21764244.080   114371861.854        1854.288          33.000                                                                  
> 2025 04 18 00 15 25.9880000  0 11                     
G27  19316812.542   101510558.374       -3167.091          39.000    19316815.186    79099103.496       -2468.161          41.000  
G08  16828629.850    88435073.969       -1568.798          47.000    16828631.696    68910486.992       -1222.455          46.000  
G04  18632084.848    97912278.469       -2759.785          40.000    18632086.503    76295242.618       -2150.662          42.000  
G30  21125374.868   111014609.685        3423.309          36.000    21125384.435    86504898.583        2667.848          34.000  
G09  18066565.778    94940440.020       -1369.416          44.000    18066567.326    73979573.666       -1066.800          43.000  
G01  19360213.059   101738592.024        3012.017          39.000    19360214.508    79276824.462        2347.164          41.000  
G16  20965202.054   110172867.209       -1854.200          31.000                                                                  
G02  17838995.756    93744542.781        1530.327          45.000                                                                  
G07  18546254.177    97461220.549        2847.218          45.000    18546253.339    75943794.101        2218.479          42.000  
G17  21177840.464   111290311.094        3336.953          29.000                                                                  
G14  21763891.477   114370007.810        1853.747          33.000                                                                  
> 2025 04 18 00 15 26.9880000  0 11                     
G27  19317415.287   101513725.697       -3167.241          39.000    19317417.932    79101571.524       -2467.970          41.000  
G08  16828928.526    88436643.137       -1569.299          47.000    16828930.300    68911709.717       -1222.927          46.000  
G04  18632610.068    97915038.466       -2759.856          40.000    18632611.686    76297393.263       -2150.835          42.000  
G30  21124723.268   111011185.948        3423.697          36.000    21124732.774    86502230.798        2667.348          34.000  
G09  18066826.435    94941809.614       -1369.767          44.000    18066827.913    73980640.886       -1067.212          43.000  
G01  19359639.837   101735580.183        3011.994          39.000    19359641.414    79274477.580        2346.917          41.000  
G16  20965552.760   110174722.7343      -1853.140          32.000                                                                  
G02  17838704.587    93743012.921        1529.669          45.000                                                                  
G07  18545712.454    97458373.517        2846.982          45.000    18545711.567    75941575.635        2218.335          42.000  
G17  21177205.434   111286974.566        3336.093          29.000                                                                  
G14  21763538.823   114368153.803        1853.544          33.000                                                                  
> 2025 04 18 00 15 27.9880000  0 11                     
G27  19318018.082   101516893.175       -3167.849          39.000    19318020.590    79104039.696       -2468.426          41.000  
G08  16829227.240    88438212.733       -1569.714          47.000    16829229.017    68912932.787       -1223.329          46.000  
G04  18633135.286    97917798.705       -2760.259          40.000    18633136.877    76299544.090       -2150.843          42.000  
G30  21124071.706   111007762.194        3423.820          36.000    21124081.338    86499562.926        2667.887          34.000  
G09  18067087.096    94943179.696       -1370.285          44.000    18067088.608    73981708.501       -1067.932          43.000  
G01  19359066.731   101732568.467        3011.479          39.000    19359068.225    79272130.773        2346.948          41.000  
G16  20965904.945   110176576.6962      -1854.319          32.000                                                                  
G02  17838413.539    93741483.589        1529.137          45.000                                                                  
G07  18545170.807    97455526.655        2846.747          45.000    18545169.820    75939357.307        2218.013          42.000  
G17  21176570.469   111283638.226        3336.005          29.000                                                                  
G14  21763186.118   114366299.759        1853.544          33.000                                                                  
> 2025 04 18 00 15 28.9880000  0 11                     
G27  19318620.867   101520060.797       -3167.273          39.000    19318623.347    79106507.978       -2468.431          41.000  
G08  16829526.009    88439782.805       -1570.246          47.000    16829527.809    68914156.225       -1223.689          46.000  
G04  18633660.565    97920559.203       -2760.489          40.000    18633662.201    76301695.123       -2150.974          42.000  
G30  21123420.090   111004338.473        3423.917          36.000    21123429.792    86496895.097        2667.829          34.000  
G09  18067347.904    94944550.298       -1370.796          44.000    18067349.480    73982776.484       -1068.053          43.000  
G01  19358493.662   101729556.883        3011.469          39.000    19358495.183    79269784.102        2346.475          41.000  
G16  20966257.374   110178430.6142      -1853.850          32.000                                                                  
G02  17838122.674    93739954.846        1528.540          45.000                                                                  
G07  18544629.142    97452680.023        2846.435          45.000    18544628.208    75937139.139        2218.083          42.000  
G17  21175935.546   111280302.185        3335.483          30.000                                                                  
G14  21762833.245   114364445.744        1854.191          33.000                                                                  
> 2025 04 18 00 15 29.9880000  0 11                     
G27  19319223.735   101523228.498       -3167.706          39.000    19319226.185    79108976.314       -2468.511          41.000  
G08  16829824.826    88441353.245       -1570.607          47.000    16829826.651    68915379.942       -1223.915          46.000  
G04  18634185.784    97923319.865       -2760.575          40.000    18634187.606    76303846.293       -2151.158          42.000  
G30  21122768.539   111000914.614        3424.645          36.000    21122778.159    86494227.184        2667.662          34.000  
G09  18067608.849    94945921.299       -1371.254          44.000    18067610.401    73983844.796       -1068.225          43.000  
G01  19357920.544   101726545.327        3011.549          40.000    19357922.189    79267437.437        2346.568          41.000  
G16  20966610.850   110180284.4782      -1854.249          32.000                                                                  
G02  17837831.744    93738426.549        1528.031          45.000                                                                  
G07  18544087.522    97449833.490        2846.495          45.000    18544086.542    75934921.065        2218.018          42.000  
G17  21175300.677   111276966.310        3335.630          30.000                                                                  
G14  21762480.352   114362591.650        1854.487          33.000                                                                  
> 2025 04 18 00 15 30.9880000  0 11                     
G27  19319826.537   101526396.325       -3168.298          39.000    19319829.068    79111444.721       -2468.336          41.000  
G08  16830123.725    88442924.103       -1571.229          47.000    16830125.536    68916603.973       -1224.133          46.000  
G04  18634711.143    97926080.739       -2761.138          40.000    18634712.939    76305997.603       -2151.245          42.000  
G30  21122117.038   110997490.758        3423.873          37.000    21122126.566    86491559.216        2667.969          34.000  
G09  18067869.823    94947292.756       -1371.778          44.000    18067871.310    73984913.472       -1069.080          43.000  
G01  19357347.457   101723533.843        3011.484          39.000    19357349.234    79265090.836        2346.569          41.000  
G16  20966963.590   110182137.6711      -1853.425          32.000                                                                  
G02  17837541.008    93736898.764        1527.411          45.000                                                                  
G07  18543545.894    97446987.102        2846.314          45.000    18543544.863    75932703.122        2217.565          42.000  
G17  21174665.921   111273630.636        3335.241          30.000                                                                  
G14  21762127.617   114360737.531        1854.514          33.000                                                                  
> 2025 04 18 00 15 31.9880000  0 11                     
G27  19320429.375   101529564.220       -3167.994          39.000    19320431.860    79113913.216       -2468.319          41.000  
G08  16830422.719    88444495.357       -1571.462          47.000    16830424.641    68917828.339       -1224.655          46.000  
G04  18635236.578    97928841.813       -2761.328          40.000    18635238.371    76308149.096       -2151.733          42.000  
G30  21121465.570   110994066.831        3423.823          37.000    21121475.067    86488891.217        2667.855          34.000  
G09  18068130.903    94948664.653       -1372.126          44.000    18068132.381    73985982.477       -1069.197          43.000  
G01  19356774.451   101720522.442        3011.327          39.000    19356776.085    79262744.282        2346.657          41.000  
G16  20967316.484   110183991.293       -1853.417          32.000                                                                  
G02  17837250.422    93735371.487        1527.008          45.000                                                                  
G07  18543004.198    97444140.877        2846.104          45.000    18543003.193    75930485.271        2217.671          42.000  
G17  21174031.239   111270295.170        3335.603          30.000                                                                  
G14  21761774.800   114358883.440        1853.300          34.000                                                                  
> 2025 04 18 00 15 32.9880000  0 11                     
G27  19321032.346   101532732.348       -3168.058          39.000    19321034.823    79116381.900       -2468.798          41.000  
G08  16830721.839    88446067.160       -1572.219          47.000    16830723.652    68919053.109       -1225.088          46.000  
G04  18635762.034    97931603.204       -2761.446          40.000    18635763.833    76310300.820       -2151.938          42.000  
G30  21120813.975   110990642.928        3424.029          37.000    21120823.680    86486223.283        2667.200          34.000  
G09  18068392.088    94950037.135       -1372.890          44.000    18068393.541    73987051.937       -1069.774          43.000  
G01  19356201.442   101717511.258        3011.026          39.000    19356203.008    79260397.906        2346.151          41.000  
G16  20967669.353   110185844.958       -1853.280          32.000                                                                  
G02  17836959.826    93733844.851        1526.180          45.000                                                                  
G07  18542462.646    97441294.937        2845.617          45.000    18542461.540    75928267.639        2217.389          42.000  
G17  21173396.584   111266960.101        3334.912          30.000                                                                  
G14  21761422.264   114357029.330        1854.188          34.000                                                                  
> 2025 04 18 00 15 33.9880000  0 11                     
G27  19321635.328   101535900.743       -3168.492          39.000    19321637.764    79118850.773       -2469.118          41.000  
G08  16831020.995    88447639.484       -1572.497          48.000    16831022.989    68920278.309       -1225.421          46.000  
G04  18636287.574    97934364.936       -2762.060          40.000    18636289.316    76312452.816       -2152.133          42.000  
G30  21120162.308   110987219.134        3423.610          37.000    21120172.054    86483555.342        2667.784          34.000  
G09  18068653.336    94951410.193       -1373.454          44.000    18068654.712    73988121.846       -1070.193          43.000  
G01  19355628.468   101714500.271        3010.971          39.000    19355630.036    79258051.678        2346.098          41.000  
G16  20968022.309   110187698.705       -1853.412          32.000                                                                  
G02  17836669.443    93732318.835        1525.781          45.000                                                                  
G07  18541921.054    97438449.266        2845.470          45.000    18541920.100    75926050.238        2217.257          42.000  
G17  21172762.245   111263625.317        3334.839          30.000                                                                  
G14  21761069.646   114355175.365        1854.047          34.000                                                                  
> 2025 04 18 00 15 34.9880000  0 11                     
G27  19322238.341   101539069.280       -3168.634          38.000    19322240.647    79121319.754       -2468.640          41.000  
G08  16831320.375    88449212.302       -1573.251          48.000    16831322.236    68921503.875       -1225.831          46.000  
G04  18636813.093    97937126.904       -2761.875          40.000    18636814.904    76314605.028       -2152.493          42.000  
G30  21119510.759   110983795.321        3423.894          37.000    21119520.525    86480887.447        2667.730          34.000  
G09  18068914.714    94952783.760       -1374.074          44.000    18068916.031    73989192.161       -1070.645          43.000  
G01  19355055.625   101711489.435        3010.542          39.000    19355057.109    79255705.572        2345.855          41.000  
G16  20968375.411   110189552.401       -1853.302          32.000                                                                  
G02  17836379.212    93730793.404        1525.051          45.000                                                                  
G07  18541379.584    97435603.806        2845.266          45.000    18541378.733    75923833.002        2217.125          42.000  
G17  21172127.884   111260290.842        3334.294          31.000                                                                  
G14  21760716.924   114353321.455        1853.851          34.000                                                                  
> 2025 04 18 00 15 35.9880000  0 11                     
G27  19322841.295   101542238.009       -3169.014          38.000    19322843.676    79123788.889       -2469.156          41.000  
G08  16831619.770    88450785.580       -1573.414          47.000    16831621.685    68922729.801       -1226.020          46.000  
G04  18637338.690    97939889.184       -2762.471          40.000    18637340.628    76316757.423       -2152.425          42.000  
G30  21118859.404   110980371.522        3423.267          37.000    21118869.003    86478219.553        2667.635          34.000  
G09  18069176.183    94954157.822       -1374.370          44.000    18069177.593    73990262.857       -1070.786          43.000  
G01  19354482.729   101708478.731        3010.587          39.000    19354484.205    79253359.565        2345.821          41.000  
G16  20968728.234   110191406.064       -1853.878          33.000                                                                  
G02  17836089.023    93729268.543        1524.709          45.000                                                                  
G07  18540838.186    97432758.575        2844.992          45.000    18540837.307    75921615.923        2217.045          42.000  
G17  21171493.576   111256956.666        3333.312          30.000                                                                  
G14  21760364.363   114351467.517        1853.924          34.000                                                                  
> 2025 04 18 00 15 36.9880000  0 11                     
G27  19323444.292   101545406.853       -3168.874          39.000    19323446.757    79126258.128       -2469.216          41.000  
G08  16831919.286    88452359.303       -1573.920          48.000    16831921.229    68923956.086       -1226.546          46.000  
G04  18637864.455    97942651.677       -2762.558          40.000    18637866.300    76318910.005       -2152.418          42.000  
G30  21118207.838   110976947.658        3424.113          37.000    21118217.424    86475551.613        2668.004          34.000  
G09  18069437.678    94955532.373       -1374.659          45.000    18069439.192    73991333.931       -1071.001          43.000  
G01  19353909.948   101705468.113        3010.834          39.000    19353911.269    79251013.640        2346.189          41.000  
G16  20969081.067   110193259.764       -1854.377          32.000                                                                  
G02  17835798.948    93727744.215        1524.186          45.000                                                                  
G07  18540296.802    97429913.514        2844.979          45.000    18540295.856    75919399.004        2216.938          42.000  
G17  21170859.138   111253622.671        3333.826          31.000                                                                  
G14  21760011.769   114349613.636        1853.629          34.000                                                                  
> 2025 04 18 00 15 37.9880000  0 11                     
G27  19324047.312   101548575.839       -3169.038          39.000    19324049.926    79128727.468       -2469.557          41.000  
G08  16832218.886    88453933.447       -1574.330          47.000    16832220.741    68925182.691       -1226.796          46.000  
G04  18638390.164    97945414.383       -2762.835          40.000    18638392.048    76321062.779       -2153.119          42.000  
G30  21117556.216   110973523.764        3424.571          36.000    21117565.922    86472883.641        2668.616          34.000  
G09  18069699.372    94956907.391       -1375.409          45.000    18069700.940    73992405.387       -1071.742          43.000  
G01  19353337.050   101702457.624        3010.353          40.000    19353338.390    79248667.795        2345.994          41.000  
G16  20969433.922   110195113.236       -1853.254          32.000                                                                  
G02  17835508.982    93726220.416        1523.518          45.000                                                                  
G07  18539755.449    97427068.617        2844.987          45.000    18539754.464    75917182.200        2217.023          42.000  
G17  21170224.918   111250288.922        3334.314          31.000                                                                  
G14  21759659.127   114347759.726        1853.120          34.000                                                                  
> 2025 04 18 00 15 38.9880000  0 11                     
G27  19324650.355   101551744.959       -3169.231          39.000    19324652.879    79131196.893       -2469.253          41.000  
G08  16832518.492    88455508.056       -1574.868          47.000    16832520.427    68926409.645       -1227.089          46.000  
G04  18638915.866    97948177.333       -2762.886          41.000    18638917.846    76323215.724       -2153.170          42.000  
G30  21116904.770   110970099.912        3424.022          36.000    21116914.522    86470215.687        2668.186          34.000  
G09  18069961.202    94958282.896       -1375.725          45.000    18069962.646    73993477.206       -1071.954          43.000  
G01  19352764.133   101699447.244        3010.235          40.000    19352765.631    79246322.050        2345.812          41.000  
G16  20969786.685   110196966.773       -1853.661          33.000                                                                  
G02  17835219.047    93724697.168        1523.025          45.000                                                                  
G07  18539214.053    97424223.935        2844.708          45.000    18539213.209    75914965.561        2216.794          42.000  
G17  21169590.627   111246955.478        3333.314          31.000                                                                  
G14  21759306.430   114345905.789        1853.828          34.000                                                                  
> 2025 04 18 00 15 39.9880000  0 11                     
G27  19325253.438   101554914.202       -3168.909          39.000    19325255.885    79133666.453       -2469.479          41.000  
G08  16832818.220    88457083.089       -1575.177          47.000    16832820.121    68927636.947       -1227.319          46.000  
G04  18639441.782    97950940.510       -2763.176          41.000    18639443.724    76325368.839       -2153.227          42.000  
G30  21116253.198   110966675.951        3424.584          36.000    21116263.400    86467547.695        2668.350          34.000  
G09  18070222.982    94959658.892       -1376.183          44.000    18070224.460    73994549.403       -1072.328          43.000  
G01  19352191.311   101696436.976        3010.286          40.000    19352192.878    79243976.381        2345.775          41.000  
G16  20970139.416   110198820.224       -1853.025          32.000                                                                  
G02  17834929.324    93723174.446        1522.538          45.000                                                                  
G07  18538672.787    97421379.422        2844.638          45.000    18538671.839    75912749.071        2216.396          42.000  
G17  21168956.225   111243622.239        3332.961          31.000                                                                  
G14  21758953.743   114344051.850        1854.146          34.000                                                                  
> 2025 04 18 00 15 40.9880000  0 11                     
G27  19325856.530   101558083.657       -3169.562          39.000    19325859.027    79136136.143       -2469.892          41.000  
G08  16833118.044    88458658.609       -1575.877          48.000    16833119.963    68928864.634       -1227.951          46.000  
G04  18639967.733    97953703.954       -2763.305          41.000    18639969.587    76327522.175       -2153.451          43.000  
G30  21115601.592   110963252.055        3423.976          36.000    21115611.948    86464879.736        2667.673          34.000  
G09  18070484.871    94961035.402       -1376.953          44.000    18070486.380    73995621.998       -1072.719          43.000  
G01  19351618.570   101693426.850        3009.831          40.000    19351620.096    79241630.825        2345.765          41.000  
G16  20970492.106   110200673.697       -1853.644          32.000                                                                  
G02  17834639.803    93721652.307        1521.759          45.000                                                                  
G07  18538131.531    97418535.146        2844.096          45.000    18538130.494    75910532.741        2216.231          42.000  
G17  21168322.107   111240289.273        3333.224          31.000                                                                  
G14  21758600.964   114342197.972        1853.666          34.000                                                                  
> 2025 04 18 00 15 41.9880000  0 11                     
G27  19326459.671   101561253.155       -3169.849          39.000    19326462.216    79138605.879       -2470.115          41.000  
G08  16833417.899    88460234.480       -1576.019          47.000    16833419.698    68930092.584       -1228.151          46.000  
G04  18640493.660    97956467.574       -2763.898          40.000    18640495.453    76329675.621       -2153.461          43.000  
G30  21114950.071   110959828.048        3423.853          37.000    21114960.337    86462211.662        2668.429          34.000  
G09  18070746.920    94962412.307       -1377.220          44.000    18070748.505    73996694.928       -1073.405          43.000  
G01  19351045.712   101690416.747        3009.990          40.000    19351047.236    79239285.298        2345.376          41.000  
G16  20970844.870   110202527.025       -1853.983          31.000                                                                  
G02  17834350.290    93720130.623        1521.206          45.000                                                                  
G07  18537590.332    97415690.965        2843.976          45.000    18537589.248    75908316.502        2216.005          42.000  
G17  21167688.036   111236956.531        3332.343          30.000                                                                  
G14  21758248.301   114340344.010        1853.635          34.000                                                                  
> 2025 04 18 00 15 42.9880000  0 11                     
G27  19327062.759   101564422.710       -3169.521          39.000    19327065.313    79141075.646       -2469.643          41.000  
G08  16833717.750    88461810.742       -1576.330          47.000    16833719.591    68931320.840       -1228.338          46.000  
G04  18641019.464    97959231.339       -2763.587          40.000    18641021.369    76331829.214       -2153.521          43.000  
G30  21114298.499   110956403.943        3424.385          36.000    21114308.841    86459543.548        2668.066          34.000  
G09  18071008.933    94963789.634       -1377.654          44.000    18071010.561    73997768.157       -1073.308          43.000  
G01  19350472.861   101687406.698        3010.104          40.000    19350474.439    79236939.810        2345.411          41.000  
G16  20971197.479   110204380.184       -1852.970          31.000                                                                  
G02  17834060.770    93718609.410        1520.919          45.000                                                                  
G07  18537049.096    97412846.904        2843.998          45.000    18537048.193    75906100.358        2215.994          42.000  
G17  21167053.842   111233623.917        3332.094          30.000                                                                  
G14  21757895.382   114338489.934        1854.497          33.000                                                                  
> 2025 04 18 00 15 43.9880000  0 11                     
G27  19327665.948   101567592.495       -3169.869          38.000    19327668.458    79143545.612       -2469.870          41.000  
G08  16834017.665    88463387.533       -1576.971          47.000    16834019.679    68932549.497       -1228.828          46.000  
G04  18641545.512    97961995.448       -2764.003          40.000    18641547.400    76333983.048       -2153.708          43.000  
G30  21113646.908   110952979.894        3423.843          36.000    21113657.311    86456875.458        2667.961          34.000  
G09  18071271.154    94965167.513       -1378.129          44.000    18071272.661    73998841.836       -1074.099          43.000  
G01  19349900.057   101684396.859        3009.831          39.000    19349901.662    79234594.482        2345.142          41.000  
G16  20971550.132   110206233.454       -1853.290          32.000                                                                  
G02  17833771.403    93717088.833        1520.243          45.000                                                                  
G07  18536507.876    97410003.103        2843.654          45.000    18536506.954    75903884.399        2215.945          42.000  
G17  21166419.865   111230291.659        3332.157          30.000                                                                  
G14  21757542.741   114336635.988        1854.348          34.000                                                                  
> 2025 04 18 00 15 44.9880000  0 11                     
G27  19328269.151   101570762.447       -3170.016          39.000    19328271.727    79146015.719       -2470.396          41.000  
G08  16834317.789    88464964.795       -1577.626          47.000    16834319.739    68933778.529       -1229.267          46.000  
G04  18642071.551    97964759.813       -2764.552          40.000    18642073.364    76336137.094       -2154.278          43.000  
G30  21112995.294   110949555.851        3424.031          37.000    21113005.309    86454207.343        2668.573          34.000  
G09  18071533.440    94966545.905       -1378.595          44.000    18071534.950    73999915.896       -1074.174          43.000  
G01  19349327.368   101681387.141        3009.773          39.000    19349328.994    79232249.231        2345.614          41.000  
G16  20971902.831   110208086.651       -1853.352          32.000                                                                  
G02  17833482.144    93715568.814        1519.751          45.000                                                                  
G07  18535966.809    97407159.534        2843.442          45.000    18535965.901    75901668.632        2215.673          42.000  
G17  21165785.664   111226959.657        3331.850          30.000                                                                  
G14  21757189.961   114334782.052        1853.863          33.000                                                                  
> 2025 04 18 00 15 45.9880000  0 11                     
G27  19328872.387   101573932.630       -3170.048          39.000    19328875.069    79148485.972       -2470.098          41.000  
G08  16834618.141    88466542.561       -1578.053          47.000    16834619.975    68935007.957       -1229.460          46.000  
G04  18642597.634    97967524.481       -2764.555          40.000    18642599.516    76338291.380       -2154.396          42.000  
G30  21112343.747   110946131.855        3424.464          37.000    21112353.823    86451539.321        2667.774          34.000  
G09  18071795.870    94967924.866       -1379.168          44.000    18071797.381    74000990.404       -1074.556          43.000  
G01  19348754.697   101678377.622        3009.405          39.000    19348756.340    79229904.172        2344.874          41.000  
G16  20972255.433   110209939.918       -1854.420          32.000                                                                  
G02  17833192.977    93714049.423        1519.111          45.000                                                                  
G07  18535425.714    97404316.227        2842.988          45.000    18535424.803    75899453.056        2215.592          42.000  
G17  21165151.478   111223627.999        3331.287          29.000                                                                  
G14  21756837.124   114332928.209        1853.913          33.000                                                                  
> 2025 04 18 00 15 46.9880000  0 11                     
G27  19329475.697   101577102.830       -3170.537          39.000    19329478.410    79150956.271       -2470.595          41.000  
G08  16834918.545    88468120.675       -1578.473          47.000    16834920.330    68936237.658       -1229.969          46.000  
G04  18643123.740    97970289.274       -2764.837          40.000    18643125.771    76340445.759       -2154.545          42.000  
G30  21111692.109   110942707.695        3424.351          37.000    21111702.151    86448871.166        2668.072          33.000  
G09  18072058.397    94969304.188       -1379.590          44.000    18072059.838    74002065.206       -1075.076          43.000  
G01  19348181.919   101675368.097        3009.291          39.000    19348183.564    79227559.085        2345.087          41.000  
G16  20972609.982   110211808.4493      -1853.777          32.000                                                                  
G02  17832903.925    93712530.449        1518.563          45.000                                                                  
G07  18534884.668    97401472.963        2843.132          45.000    18534883.726    75897237.555        2215.241          42.000  
G17  21164517.331   111220296.398        3331.617          29.000                                                                  
G14  21756484.184   114331074.231        1854.206          34.000                                                                  
> 2025 04 18 00 15 47.9880000  0 11                     
G27  19330079.005   101580273.144       -3170.405          39.000    19330081.729    79153426.643       -2470.715          41.000  
G08  16835218.783    88469699.181       -1578.650          47.000    16835220.671    68937467.671       -1230.213          46.000  
G04  18643649.949    97973054.280       -2765.175          40.000    18643651.890    76342600.300       -2154.548          42.000  
G30  21111040.576   110939283.552        3424.074          36.000    21111050.835    86446203.028        2667.490          33.000  
G09  18072320.974    94970683.978       -1380.114          44.000    18072322.408    74003140.376       -1075.668          43.000  
G01  19347609.254   101672358.665        3009.210          39.000    19347610.856    79225214.085        2344.910          41.000  
G16  20972960.117   110213661.4782      -1853.690          32.000                                                                  
G02  17832614.950    93711012.006        1518.146          45.000                                                                  
G07  18534343.638    97398629.886        2843.072          45.000    18534342.787    75895022.163        2215.151          42.000  
G17  21163883.451   111216965.120        3331.018          29.000                                                                  
G14  21756131.435   114329220.252        1853.657          34.000                                                                  
> 2025 04 18 00 15 48.9880000  0 11                     
G27  19330682.383   101583443.690       -3170.871          39.000    19330685.133    79155897.190       -2470.840          41.000  
G08  16835519.320    88471278.257       -1579.593          47.000    16835521.168    68938698.111       -1230.869          46.000  
G04  18644176.110    97975819.611       -2765.617          40.000    18644177.987    76344755.117       -2155.161          42.000  
G30  21110388.985   110935859.434        3424.117          36.000    21110399.213    86443534.845        2668.054          33.000  
G09  18072583.686    94972064.332       -1380.733          44.000    18072585.076    74004215.959       -1075.839          43.000  
G01  19347036.693   101669349.443        3009.023          40.000    19347038.154    79222869.221        2344.738          41.000  
G16  20973312.753   110215514.0021      -1854.265          32.000                                                                  
G02  17832326.134    93709494.193        1517.422          45.000                                                                  
G07  18533802.646    97395787.078        2842.724          45.000    18533801.817    75892806.986        2215.104          42.000  
G17  21163249.388   111213634.119        3330.723          29.000                                                                  
G14  21755778.691   114327366.323        1854.346          34.000                                                                  
> 2025 04 18 00 15 49.9880000  0 11                     
G27  19331285.811   101586614.483       -3171.199          39.000    19331288.396    79158367.930       -2470.937          41.000  
G08  16835819.846    88472857.860       -1579.946          47.000    16835821.856    68939928.968       -1231.087          46.000  
G04  18644702.477    97978585.285       -2765.903          40.000    18644704.352    76346910.182       -2155.271          42.000  
G30  21109737.265   110932435.417        3423.660          36.000    21109747.456    86440866.790        2667.812          33.000  
G09  18072846.482    94973445.280       -1381.299          44.000    18072847.875    74005292.032       -1076.434          43.000  
G01  19346463.995   101666340.452        3008.487          40.000    19346465.575    79220524.556        2344.692          41.000  
G16  20973665.500   110217367.049       -1852.543          32.000                                                                  
G02  17832037.470    93707977.036        1516.729          45.000                                                                  
G07  18533261.824    97392944.580        2842.341          45.000    18533260.927    75890592.048        2214.826          42.000  
G17  21162615.280   111210303.472        3330.800          29.000                                                                  
G14  21755425.937   114325512.542        1853.901          34.000                                                                  
> 2025 04 18 00 15 50.9880000  0 11                     
G27  19331889.260   101589785.327       -3171.302          38.000    19331891.752    79160838.707       -2470.839          41.000  
G08  16836120.606    88474437.815       -1580.061          47.000    16836122.500    68941160.099       -1231.147          46.000  
G04  18645228.773    97981351.095       -2765.788          40.000    18645230.590    76349065.348       -2155.079          42.000  
G30  21109085.586   110929011.240        3424.884          36.000    21109095.689    86438198.599        2668.275          33.000  
G09  18073109.346    94974826.611       -1381.459          44.000    18073110.737    74006368.375       -1076.143          43.000  
G01  19345891.465   101663331.458        3009.153          40.000    19345892.981    79218179.889        2344.838          41.000  
G16  20974018.487   110219220.055       -1853.754          32.000                                                                  
G02  17831748.747    93706460.326        1516.641          45.000                                                                  
G07  18532720.954    97390102.161        2842.641          45.000    18532719.982    75888377.184        2214.981          42.000  
G17  21161981.460   111206973.021        3330.631          28.000                                                                  
G14  21755073.222   114323658.681        1853.512          33.000                                                                  
> 2025 04 18 00 15 51.9880000  0 11                     
G27  19332492.656   101592956.186       -3171.007          39.000    19332495.094    79163309.513       -2470.862          41.000  
G08  16836421.341    88476018.124       -1580.456          47.000    16836423.142    68942391.516       -1231.605          46.000  
G04  18645755.114    97984117.035       -2765.742          41.000    18645756.954    76351220.642       -2155.495          42.000  
G30  21108434.047   110925587.006        3424.069          36.000    21108443.671    86435530.304        2669.049          33.000  
G09  18073372.324    94976208.334       -1382.069          44.000    18073373.651    74007445.042       -1076.749          43.000  
G01  19345318.884   101660322.493        3009.045          40.000    19345320.376    79215835.247        2344.628          41.000  
G16  20974370.998   110221072.822       -1852.444          32.000                                                                  
G02  17831460.207    93704944.068        1515.886          45.000                                                                  
G07  18532179.932    97387259.849        2842.214          45.000    18532179.138    75886162.390        2214.595          42.000  
G17  21161347.577   111203642.681        3330.485          29.000                                                                  
G14  21754720.565   114321804.687        1853.754          34.000                                                                  
> 2025 04 18 00 15 52.9880000  0 11                     
G27  19333096.093   101596127.188       -3170.810          39.000    19333098.472    79165780.449       -2471.131          41.000  
G08  16836722.097    88477598.869       -1581.001          47.000    16836723.861    68943623.258       -1232.003          46.000  
G04  18646281.601    97986883.215       -2765.954          41.000    18646283.337    76353376.094       -2155.454          42.000  
G30  21107782.420   110922162.700        3423.998          36.000    21107792.003    86432862.051        2668.323          33.000  
G09  18073635.306    94977590.522       -1382.418          44.000    18073636.583    74008522.083       -1077.174          43.000  
G01  19344746.306   101657313.650        3008.711          40.000    19344747.731    79213490.679        2344.666          41.000  
G16  20974722.758   110222925.599       -1852.860          32.000                                                                  
G02  17831171.762    93703428.344        1515.486          45.000                                                                  
G07  18531639.133    97384417.711        2842.047          45.000    18531638.311    75883947.742        2214.475          42.000  
G17  21160713.860   111200312.621        3329.991          29.000                                                                  
G14  21754367.678   114319950.689        1853.560          33.000                                                                  
> 2025 04 18 00 15 53.9880000  0 11                     
G27  19333699.549   101599298.386       -3171.646          38.000    19333701.879    79168251.469       -2470.730          40.000  
G08  16837022.948    88479180.057       -1581.484          47.000    16837024.790    68944855.358       -1232.344          46.000  
G04  18646808.044    97989649.630       -2765.866          40.000    18646809.734    76355531.753       -2155.702          42.000  
G30  21107130.686   110918738.399        3424.061          36.000    21107140.193    86430193.786        2668.279          33.000  
G09  18073898.327    94978973.205       -1382.904          44.000    18073899.686    74009599.496       -1077.686          43.000  
G01  19344173.748   101654304.919        3008.638          40.000    19344175.144    79211146.216        2344.494          41.000  
G16  20975075.348   110224778.269       -1852.016          32.000                                                                  
G02  17830883.409    93701913.171        1514.983          45.000                                                                  
G07  18531098.424    97381575.769        2841.898          45.000    18531097.548    75881733.233        2214.357          42.000  
G17  21160080.121   111196982.838        3329.365          30.000                                                                  
G14  21754015.110   114318096.697        1854.152          33.000                                                                  
> 2025 04 18 00 15 54.9880000  0 11                     
G27  19334303.082   101602469.677       -3171.367          38.000    19334305.369    79170722.629       -2471.261          41.000  
G08  16837323.988    88480761.704       -1581.959          47.000    16837325.741    68946087.812       -1232.752          46.000  
G04  18647334.608    97992416.330       -2766.914          40.000    18647336.257    76357687.617       -2156.437          42.000  
G30  21106479.093   110915314.097        3423.854          36.000    21106488.546    86427525.462        2668.312          33.000  
G09  18074161.542    94980356.383       -1383.557          44.000    18074162.941    74010677.295       -1078.101          43.000  
G01  19343601.182   101651296.313        3008.254          39.000    19343602.578    79208801.853        2344.148          41.000  
G16  20975427.888   110226630.946       -1853.231          32.000                                                                  
G02  17830595.218    93700398.559        1514.119          45.000                                                                  
G07  18530557.666    97378734.029        2841.577          45.000    18530556.723    75879518.882        2214.246          42.000  
G17  21159446.503   111193653.254        3329.745          31.000                                                                  
G14  21753662.413   114316242.732        1854.149          33.000                                                                  
> 2025 04 18 00 15 55.9880000  0 11                     
G27  19334906.551   101605641.053       -3171.235          38.000    19334908.818    79173193.826       -2471.091          41.000  
G08  16837624.964    88482343.734       -1582.276          47.000    16837626.925    68947320.566       -1233.064          46.000  
G04  18647861.223    97995183.181       -2767.087          40.000    18647862.768    76359843.571       -2155.840          42.000  
G30  21105827.494   110911889.673        3424.471          36.000    21105836.719    86424857.107        2668.314          33.000  
G09  18074424.750    94981739.973       -1383.735          44.000    18074426.231    74011755.416       -1078.218          43.000  
G01  19343028.739   101648287.751        3008.653          39.000    19343030.071    79206457.530        2344.382          41.000  
G16  20975780.611   110228483.559       -1852.518          32.000                                                                  
G02  17830307.070    93698884.407        1513.973          45.000                                                                  
G07  18530016.868    97375892.407        2841.499          45.000    18530015.937    75877304.630        2214.311          42.000  
G17  21158812.880   111190323.880        3330.003          31.000                                                                  
G14  21753309.627   114314388.700        1853.858          33.000                                                                  
> 2025 04 18 00 15 56.9880000  0 11                     
G27  19335510.063   101608812.611       -3171.450          39.000    19335512.407    79175665.176       -2471.546          41.000  
G08  16837926.077    88483926.229       -1582.611          47.000    16837928.059    68948553.673       -1233.302          46.000  
G04  18648387.840    97997950.261       -2766.869          40.000    18648389.372    76361999.771       -2156.241          42.000  
G30  21105175.900   110908465.266        3424.843          36.000    21105184.990    86422188.769        2668.336          33.000  
G09  18074688.200    94983124.088       -1384.250          44.000    18074689.730    74012833.954       -1078.879          43.000  
G01  19342456.193   101645279.345        3008.455          40.000    19342457.546    79204113.322        2344.063          41.000  
G16  20976133.016   110230336.016       -1851.656          32.000                                                                  
G02  17830019.053    93697370.837        1513.514          45.000                                                                  
G07  18529476.165    97373051.006        2841.392          45.000    18529475.276    75875090.558        2214.076          42.000  
G17  21158179.288   111186994.819        3329.422          31.000                                                                  
G14  21752956.858   114312534.705        1854.294          33.000                                                                  
> 2025 04 18 00 15 57.9880000  0 11                     
G27  19336113.683   101611984.283       -3171.891          38.000    19336115.912    79178136.590       -2471.602          41.000  
G08  16838227.361    88485509.148       -1583.223          47.000    16838229.329    68949787.109       -1233.601          46.000  
G04  18648914.432    98000717.575       -2767.329          40.000    18648915.979    76364156.110       -2156.682          42.000  
G30  21104524.251   110905040.816        3424.571          36.000    21104533.225    86419520.337        2668.198          33.000  
G09  18074951.756    94984508.638       -1384.837          44.000    18074953.141    74013912.814       -1079.124          43.000  
G01  19341883.746   101642271.025        3008.214          39.000    19341885.151    79201769.172        2343.920          41.000  
G16  20976485.582   110232188.560       -1852.899          32.000                                                                  
G02  17829731.246    93695857.789        1512.834          45.000                                                                  
G07  18528935.504    97370209.768        2841.115          45.000    18528934.632    75872876.611        2213.745          42.000  
G17  21157545.964   111183665.930        3328.934          31.000                                                                  
G14  21752604.159   114310680.661        1854.467          33.000                                                                  
> 2025 04 18 00 15 58.9880000  0 11                     
G27  19336717.240   101615156.094       -3172.126          39.000    19336719.335    79180608.140       -2471.819          41.000  
G08  16838528.618    88487092.510       -1583.625          47.000    16838530.692    68951020.909       -1234.200          46.000  
G04  18649441.093    98003485.144       -2767.577          40.000    18649442.643    76366312.655       -2156.771          42.000  
G30  21103872.518   110901616.359        3424.386          36.000    21103881.552    86416851.951        2668.251          33.000  
G09  18075215.351    94985893.709       -1385.717          44.000    18075216.663    74014992.086       -1079.626          43.000  
G01  19341311.324   101639262.817        3008.159          39.000    19341312.711    79199425.129        2343.900          41.000  
G16  20976838.155   110234040.921       -1851.923          32.000                                                                  
G02  17829443.358    93694345.302        1512.002          45.000                                                                  
G07  18528394.872    97367368.744        2840.709          45.000    18528393.948    75870662.810        2213.689          42.000  
G17  21156912.807   111180337.368        3327.926          31.000                                                                  
G14  21752251.416   114308826.639        1854.268          33.000                                                                  
> 2025 04 18 00 15 59.9880000  0 11                     
G27  19337320.841   101618328.032       -3172.270          39.000    19337322.916    79183079.766       -2471.684          41.000  
G08  16838830.034    88488676.303       -1584.065          47.000    16838832.078    68952255.027       -1234.395          46.000  
G04  18649967.825    98006252.907       -2767.751          40.000    18649969.393    76368469.351       -2156.974          42.000  
G30  21103220.745   110898191.865        3423.922          36.000    21103229.679    86414183.493        2668.306          33.000  
G09  18075478.942    94987279.207       -1385.874          44.000    18075480.375    74016071.708       -1079.978          43.000  
G01  19340738.982   101636254.724        3007.936          39.000    19340740.174    79197081.170        2343.657          42.000  
G16  20977190.586   110235893.334       -1853.259          32.000                                                                  
G02  17829155.634    93692833.323        1511.605          45.000                                                                  
G07  18527854.288    97364527.871        2840.709          45.000    18527853.495    75868449.158        2213.310          42.000  
G17  21156279.324   111177008.968        3327.834          31.000                                                                  
G14  21751898.426   114306972.593        1854.448          32.000                                                                  
> 2025 04 18 00 16 00.9880000  0 11                     
G27  19337924.411   101621500.133       -3172.265          39.000    19337926.721    79185551.550       -2472.058          41.000  
G08  16839131.515    88490260.590       -1584.786          47.000    16839133.577    68953489.531       -1234.970          46.000  
G04  18650494.562    98009020.972       -2768.205          41.000    18650496.224    76370626.264       -2157.185          42.000  
G30  21102569.027   110894767.373        3424.797          36.000    21102577.958    86411515.098        2667.886          33.000  
G09  18075742.698    94988665.243       -1386.410          44.000    18075744.156    74017151.723       -1080.069          43.000  
G01  19340166.615   101633246.788        3007.681          39.000    19340167.766    79194737.314        2343.600          41.000  
G16  20977543.184   110237745.608       -1851.462          32.000                                                                  
G02  17828868.034    93691321.945        1511.010          45.000                                                                  
G07  18527313.663    97361687.245        2840.486          45.000    18527312.921    75866235.670        2213.491          42.000  
G17  21155646.078   111173680.885        3327.676          31.000                                                                  
G14  21751545.524   114305118.601        1854.410          32.000                                                                  
> 2025 04 18 00 16 01.9880000  0 11                     
G27  19338528.050   101624672.374       -3172.320          39.000    19338530.377    79188023.426       -2471.854          41.000  
G08  16839433.206    88491845.308       -1585.043          47.000    16839435.087    68954724.373       -1235.010          46.000  
G04  18651021.383    98011789.262       -2768.468          41.000    18651023.071    76372783.368       -2157.214          43.000  
G30  21101917.417   110891342.879        3424.381          36.000    21101926.164    86408846.631        2668.683          33.000  
G09  18076006.450    94990051.765       -1386.784          44.000    18076008.090    74018232.140       -1080.646          43.000  
G01  19339594.227   101630238.960        3007.870          39.000    19339595.369    79192393.556        2343.673          41.000  
G16  20977895.576   110239597.957       -1852.793          32.000                                                                  
G02  17828580.528    93689811.111        1510.585          45.000                                                                  
G07  18526773.098    97358846.795        2840.305          45.000    18526772.332    75864022.343        2213.313          42.000  
G17  21155012.944   111170353.042        3328.027          31.000                                                                  
G14  21751192.779   114303264.594        1854.068          32.000                                                                  
> 2025 04 18 00 16 02.9880000  0 11                     
G27  19339131.766   101627844.833       -3172.890          39.000    19339133.998    79190495.450       -2471.912          41.000  
G08  16839734.870    88493430.512       -1585.339          47.000    16839736.845    68955959.593       -1235.377          46.000  
G04  18651548.275    98014557.808       -2768.568          41.000    18651549.961    76374940.678       -2157.108          43.000  
G30  21101265.726   110887918.400        3424.568          36.000    21101274.601    86406178.256        2667.888          33.000  
G09  18076270.512    94991438.808       -1387.334          44.000    18076271.845    74019312.944       -1081.100          43.000  
G01  19339021.886   101627231.297        3007.626          39.000    19339023.141    79190049.925        2343.545          41.000  
G16  20978248.056   110241450.230       -1850.931          32.000                                                                  
G02  17828293.081    93688300.864        1509.944          45.000                                                                  
G07  18526232.578    97356006.579        2840.210          45.000    18526231.839    75861809.195        2213.062          42.000  
G17  21154380.021   111167025.503        3327.274          31.000                                                                  
G14  21750839.976   114301410.623        1854.419          32.000                                                                  
> 2025 04 18 00 16 03.9880000  0 11                     
G27  19339735.357   101631017.343       -3172.479          39.000    19339737.731    79192967.559       -2472.292          41.000  
G08  16840036.595    88495016.119       -1585.854          47.000    16840038.581    68957195.139       -1235.781          46.000  
G04  18652075.194    98017326.576       -2769.059          41.000    18652076.843    76377098.142       -2157.419          43.000  
G30  21100614.011   110884493.870        3424.381          36.000    21100622.804    86403509.749        2668.673          33.000  
G09  18076534.532    94992826.296       -1387.717          44.000    18076535.827    74020394.111       -1081.374          43.000  
G01  19338449.610   101624223.713        3007.602          40.000    19338450.944    79187706.353        2343.434          41.000  
G16  20978600.532   110243302.468       -1851.639          31.000                                                                  
G02  17828005.771    93686791.115        1509.402          45.000                                                                  
G07  18525692.151    97353166.516        2839.977          45.000    18525691.467    75859596.159        2212.988          42.000  
G17  21153746.985   111163698.196        3326.986          31.000                                                                  
G14  21750487.098   114299556.687        1853.296          32.000                                                                  
> 2025 04 18 00 16 04.9880000  0 11                     
G27  19340339.089   101634190.043       -3172.785          39.000    19340341.534    79195439.770       -2472.217          41.000  
G08  16840338.379    88496602.196       -1586.385          47.000    16840340.338    68958431.044       -1236.350          46.000  
G04  18652602.212    98020095.585       -2769.155          41.000    18652603.840    76379255.819       -2157.992          43.000  
G30  21099962.323   110881069.311        3424.547          36.000    21099970.942    86400841.311        2667.712          33.000  
G09  18076798.716    94994214.299       -1388.504          44.000    18076799.977    74021475.661       -1082.036          43.000  
G01  19337877.285   101621216.256        3007.427          40.000    19337878.684    79185362.886        2343.224          41.000  
G16  20978952.961   110245154.677       -1852.354          32.000                                                                  
G02  17827718.672    93685281.949        1508.644          45.000                                                                  
G07  18525151.733    97350326.671        2839.594          45.000    18525151.136    75857383.297        2212.746          42.000  
G17  21153113.782   111160371.087        3327.310          31.000                                                                  
G14  21750134.234   114297702.646        1854.262          32.000                                                                  
> 2025 04 18 00 16 05.9880000  0 11                     
G27  19340942.843   101637362.817       -3172.814          39.000    19340945.188    79197912.071       -2472.409          41.000  
G08  16840640.281    88498188.655       -1586.825          47.000    16840642.299    68959667.231       -1236.342          46.000  
G04  18653129.201    98022864.761       -2769.278          41.000    18653130.669    76381413.625       -2157.902          43.000  
G30  21099310.569   110877644.680        3424.682          36.000    21099319.259    86398172.758        2668.148          33.000  
G09  18077062.860    94995602.703       -1388.698          44.000    18077064.206    74022557.535       -1082.116          43.000  
G01  19337305.065   101618208.868        3007.518          40.000    19337306.407    79183019.461        2343.422          42.000  
G16  20979305.545   110247006.756       -1852.197          32.000                                                                  
G02  17827431.580    93683773.253        1508.446          45.000                                                                  
G07  18524611.364    97347486.948        2839.756          45.000    18524610.804    75855170.518        2212.906          42.000  
G17  21152480.715   111157044.239        3327.033          31.000                                                                  
G14  21749781.301   114295848.659        1853.945          32.000                                                                  
> 2025 04 18 00 16 06.9880000  0 11                     
G27  19341546.658   101640535.748       -3173.160          39.000    19341548.993    79200384.470       -2472.513          41.000  
G08  16840942.320    88499775.562       -1587.271          47.000    16840944.281    68960903.791       -1236.800          46.000  
G04  18653656.141    98025634.210       -2769.974          41.000    18653657.688    76383571.612       -2158.123          42.000  
G30  21098658.897   110874220.066        3425.081          36.000    21098667.445    86395504.211        2668.025          33.000  
G09  18077327.122    94996991.603       -1389.132          44.000    18077328.451    74023639.795       -1082.618          43.000  
G01  19336732.763   101615201.613        3006.985          40.000    19336734.148    79180676.138        2343.327          42.000  
G16  20979658.045   110248858.808       -1852.197          32.000                                                                  
G02  17827144.665    93682265.121        1507.706          45.000                                                                  
G07  18524071.064    97344647.434        2839.420          45.000    18524070.485    75852957.914        2212.438          42.000  
G17  21151847.683   111153717.673        3325.697          31.000                                                                  
G14  21749428.673   114293994.625        1853.812          32.000                                                                  
> 2025 04 18 00 16 07.9880000  0 11                     
G27  19342150.435   101643708.844       -3173.417          39.000    19342152.834    79202857.014       -2472.601          41.000  
G08  16841244.329    88501362.960       -1587.684          47.000    16841246.244    68962140.727       -1237.189          46.000  
G04  18654183.186    98028403.890       -2769.790          41.000    18654184.811    76385729.832       -2158.359          42.000  
G30  21098007.164   110870795.433        3424.751          36.000    21098015.726    86392835.657        2668.891          33.000  
G09  18077591.472    94998381.023       -1389.658          44.000    18077592.817    74024722.459       -1082.785          43.000  
G01  19336160.528   101612194.507        3006.843          40.000    19336161.842    79178332.940        2343.329          42.000  
G16  20980010.400   110250710.814       -1851.915          32.000                                                                  
G02  17826857.728    93680757.577        1507.156          45.000                                                                  
G07  18523530.826    97341808.156        2839.092          45.000    18523530.174    75850745.476        2212.360          42.000  
G17  21151214.666   111150391.294        3326.581          31.000                                                                  
G14  21749075.699   114292140.618        1854.282          32.000                                                                  
> 2025 04 18 00 16 08.9880000  0 11                     
G27  19342754.245   101646882.069       -3173.517          39.000    19342756.681    79205329.643       -2472.400          41.000  
G08  16841546.458    88502950.792       -1588.001          47.000    16841548.442    68963377.995       -1237.422          46.000  
G04  18654710.313    98031173.854       -2770.168          41.000    18654711.911    76387888.215       -2158.555          42.000  
G30  21097355.380   110867370.788        3424.844          36.000    21097363.751    86390167.102        2669.104          33.000  
G09  18077855.899    94999770.922       -1390.054          44.000    18077857.291    74025805.482       -1082.927          43.000  
G01  19335588.333   101609187.512        3006.790          40.000    19335589.645    79175989.832        2343.105          41.000  
G16  20980363.016   110252562.825       -1851.812          32.000                                                                  
G02  17826571.019    93679250.567        1506.725          45.000                                                                  
G07  18522990.559    97338969.052        2838.926          45.000    18522989.855    75848533.191        2212.358          42.000  
G17  21150581.667   111147065.306        3325.228          30.000                                                                  
G14  21748722.814   114290286.681        1853.362          33.000                                                                  
> 2025 04 18 00 16 09.9880000  0 11                     
G27  19343358.184   101650055.505       -3173.864          38.000    19343360.640    79207802.441       -2472.922          41.000  
G08  16841848.699    88504539.103       -1588.667          47.000    16841850.622    68964615.638       -1237.848          46.000  
G04  18655237.551    98033944.061       -2770.653          40.000    18655238.978    76390046.821       -2159.011          42.000  
G30  21096703.767   110863946.192        3424.380          36.000    21096712.043    86387498.564        2669.107          33.000  
G09  18078120.429    95001161.349       -1390.621          44.000    18078121.865    74026888.956       -1084.026          43.000  
G01  19335016.192   101606180.695        3006.283          40.000    19335017.543    79173646.861        2342.601          41.000  
G16  20980715.457   110254414.803       -1852.026          32.000                                                                  
G02  17826284.359    93677744.155        1505.964          45.000                                                                  
G07  18522450.345    97336130.184        2838.728          45.000    18522449.729    75846321.087        2211.959          42.000  
G17  21149948.678   111143739.462        3325.498          30.000                                                                  
G14  21748370.143   114288432.714        1853.856          32.000                                                                  
> 2025 04 18 00 16 10.9880000  0 11                     
G27  19343962.041   101653229.043       -3173.492          38.000    19343964.511    79210275.352       -2473.050          41.000  
G08  16842151.015    88506127.870       -1589.133          47.000    16842152.989    68965853.642       -1238.290          46.000  
G04  18655764.714    98036714.514       -2770.724          41.000    18655766.202    76392205.590       -2158.579          42.000  
G30  21096052.038   110860521.554        3424.758          35.000    21096060.222    86384830.033        2669.040          33.000  
G09  18078385.172    95002552.260       -1391.257          44.000    18078386.537    74027972.766       -1084.059          43.000  
G01  19334444.060   101603173.965        3006.757          40.000    19334445.415    79171303.952        2342.970          41.000  
G16  20981067.866   110256266.707       -1851.556          32.000                                                                  
G02  17825997.845    93676238.295        1505.480          45.000                                                                  
G07  18521910.179    97333291.513        2838.622          45.000    18521909.483    75844109.148        2211.686          42.000  
G17  21149315.787   111140413.957        3324.633          31.000                                                                  
G14  21748017.203   114286578.785        1853.812          32.000                                                                  
> 2025 04 18 00 16 11.9880000  0 11                     
G27  19344565.986   101656402.688       -3173.746          38.000    19344568.448    79212748.302       -2472.860          41.000  
G08  16842453.437    88507717.007       -1589.227          47.000    16842455.313    68967091.929       -1238.472          46.000  
G04  18656291.922    98039485.135       -2770.525          41.000    18656293.478    76394364.535       -2159.053          42.000  
G30  21095400.386   110857096.799        3425.102          36.000    21095408.431    86382161.441        2668.233          33.000  
G09  18078649.961    95003943.597       -1391.490          44.000    18078651.262    74029056.912       -1084.202          43.000  
G01  19333871.901   101600167.311        3006.792          40.000    19333873.234    79168961.106        2342.814          41.000  
G16  20981420.185   110258118.529       -1851.412          32.000                                                                  
G02  17825711.304    93674732.905        1505.305          45.000                                                                  
G07  18521370.004    97330452.978        2838.526          45.000    18521369.343    75841897.287        2211.967          42.000  
G17  21148683.115   111137088.609        3325.504          31.000                                                                  
G14  21747664.403   114284724.737        1854.832          32.000                                                                  
> 2025 04 18 00 16 12.9880000  0 11                     
G27  19345169.932   101659576.412       -3173.976          38.000    19345172.363    79215221.331       -2473.307          41.000  
G08  16842755.916    88509306.553       -1589.987          47.000    16842757.726    68968330.530       -1238.925          46.000  
G04  18656819.218    98042255.948       -2771.226          41.000    18656820.759    76396523.597       -2159.145          42.000  
G30  21094748.727   110853672.048        3424.495          36.000    21094756.630    86379492.775        2668.127          33.000  
G09  18078914.816    95005335.354       -1392.153          44.000    18078916.121    74030141.402       -1084.614          43.000  
G01  19333299.750   101597160.737        3006.201          40.000    19333301.065    79166618.320        2342.456          41.000  
G16  20981772.649   110259970.312       -1852.683          33.000                                                                  
G02  17825424.951    93673228.042        1504.349          45.000                                                                  
G07  18520829.893    97327614.576        2838.390          45.000    18520829.205    75839685.553        2211.399          42.000  
G17  21148050.511   111133763.495        3324.850          31.000                                                                  
G14  21747311.625   114282870.726        1853.887          32.000                                                                  
> 2025 04 18 00 16 13.9880000  0 11                     
G27  19345773.960   101662750.259       -3173.849          38.000    19345776.284    79217694.462       -2473.370          41.000  
G08  16843058.475    88510896.507       -1590.248          47.000    16843060.270    68969569.458       -1239.236          46.000  
G04  18657346.501    98045026.950       -2771.140          41.000    18657348.055    76398682.824       -2159.297          43.000  
G30  21094097.008   110850247.214        3424.895          36.000    21094104.791    86376824.069        2668.475          33.000  
G09  18079179.746    95006727.584       -1392.510          44.000    18079181.087    74031226.247       -1084.977          43.000  
G01  19332727.640   101594154.248        3006.176          40.000    19332728.938    79164275.615        2342.363          42.000  
G16  20982124.884   110261821.918       -1850.801          33.000                                                                  
G02  17825138.658    93671723.689        1504.006          45.000                                                                  
G07  18520289.902    97324776.358        2837.991          45.000    18520289.086    75837473.948        2211.323          42.000  
G17  21147417.852   111130438.606        3324.613          31.000                                                                  
G14  21746958.844   114281016.626        1854.846          32.000                                                                  
> 2025 04 18 00 16 14.9880000  0 11                     
G27  19346377.977   101665924.311       -3174.085          38.000    19346380.193    79220167.741       -2473.254          41.000  
G08  16843361.103    88512486.980       -1590.638          48.000    16843362.985    68970808.786       -1239.429          46.000  
G04  18657873.831    98047798.272       -2771.288          41.000    18657875.406    76400842.298       -2159.581          43.000  
G30  21093445.375   110846822.426        3424.804          36.000    21093453.050    86374155.430        2668.515          33.000  
G09  18079444.815    95008120.351       -1393.047          44.000    18079446.141    74032311.531       -1085.332          43.000  
G01  19332155.555   101591147.942        3006.439          40.000    19332156.832    79161933.027        2342.550          42.000  
G16  20982477.389   110263673.651       -1852.648          32.000                                                                  
G02  17824852.504    93670219.959        1503.417          45.000                                                                  
G07  18519749.797    97321938.387        2837.950          45.000    18519748.974    75835262.531        2211.574          42.000  
G17  21146785.370   111127114.020        3324.696          31.000                                                                  
G14  21746606.116   114279162.657        1854.413          32.000                                                                  
> 2025 04 18 00 16 15.9880000  0 11                     
G27  19346981.941   101669098.450       -3174.642          38.000    19346984.122    79222641.087       -2473.710          41.000  
G08  16843663.827    88514077.832       -1591.299          47.000    16843665.719    68972048.408       -1239.925          46.000  
G04  18658401.238    98050569.790       -2772.094          41.000    18658402.952    76403001.898       -2159.874          42.000  
G30  21092793.745   110843397.587        3424.288          36.000    21092801.484    86371486.707        2668.053          33.000  
G09  18079709.953    95009513.554       -1393.749          44.000    18079711.292    74033397.135       -1085.981          42.000  
G01  19331583.465   101588141.687        3006.167          40.000    19331584.750    79159590.494        2342.542          42.000  
G16  20982829.822   110265525.165       -1851.006          32.000                                                                  
G02  17824566.487    93668716.706        1502.892          45.000                                                                  
G07  18519209.777    97319100.543        2837.583          45.000    18519208.777    75833051.223        2211.383          42.000  
G17  21146152.937   111123789.649        3324.107          31.000                                                                  
G14  21746253.235   114277308.574        1854.376          32.000                                                                  
> 2025 04 18 00 16 16.9880000  0 11                     
G27  19347585.994   101672272.718       -3174.180          38.000    19347588.284    79225114.548       -2473.378          40.000  
G08  16843966.727    88515669.139       -1591.565          47.000    16843968.564    68973288.381       -1240.131          45.000  
G04  18658928.713    98053341.510       -2771.836          41.000    18658930.432    76405161.687       -2159.915          42.000  
G30  21092142.019   110839972.700        3424.992          36.000    21092149.484    86368817.974        2668.438          33.000  
G09  18079975.217    95010907.230       -1393.796          44.000    18079976.535    74034483.117       -1085.958          43.000  
G01  19331011.417   101585135.559        3006.430          40.000    19331012.762    79157248.063        2342.557          42.000  
G16  20983182.330   110267376.765       -1852.361          32.000                                                                  
G02  17824280.508    93667214.011        1502.551          45.000                                                                  
G07  18518669.729    97316262.909        2837.427          45.000    18518668.793    75830840.086        2211.040          42.000  
G17  21145520.341   111120465.530        3323.755          31.000                                                                  
G14  21745900.466   114275454.541        1853.644          32.000                                                                  
> 2025 04 18 00 16 17.9880000  0 11                     
G27  19348190.073   101675447.184       -3174.696          38.000    19348192.335    79227588.160       -2473.764          40.000  
G08  16844269.694    88517260.940       -1592.060          47.000    16844271.498    68974528.759       -1240.713          45.000  
G04  18659456.208    98056113.514       -2772.080          41.000    18659457.984    76407321.699       -2160.054          42.000  
G30  21091490.365   110836547.856        3425.139          36.000    21091497.683    86366149.242        2669.225          33.000  
G09  18080240.550    95012301.455       -1394.578          44.000    18080241.834    74035569.529       -1086.705          43.000  
G01  19330439.474   101582129.645        3005.932          39.000    19330440.866    79154905.786        2342.102          42.000  
G16  20983534.731   110269228.275       -1851.938          32.000                                                                  
G02  17823994.601    93665711.919        1501.805          45.000                                                                  
G07  18518129.807    97313425.496        2837.551          45.000    18518128.873    75828629.131        2210.875          42.000  
G17  21144887.686   111117141.681        3324.240          31.000                                                                  
G14  21745547.667   114273600.543        1854.345          33.000                                                                  
> 2025 04 18 00 16 18.9880000  0 11                     
G27  19348794.213   101678621.785       -3174.862          38.000    19348796.473    79230061.868       -2473.982          40.000  
G08  16844572.669    88518853.173       -1592.604          47.000    16844574.540    68975769.459       -1241.023          46.000  
G04  18659983.828    98058885.776       -2772.361          41.000    18659985.488    76409481.891       -2160.354          42.000  
G30  21090838.704   110833122.982        3424.913          36.000    21090845.867    86363480.531        2669.166          33.000  
G09  18080505.902    95013696.146       -1395.197          44.000    18080507.251    74036656.291       -1086.937          43.000  
G01  19329867.440   101579123.788        3005.955          39.000    19329869.007    79152563.583        2342.008          42.000  
G16  20983887.064   110271079.741       -1851.216          32.000                                                                  
G02  17823708.909    93664210.367        1501.118          44.000                                                                  
G07  18517589.904    97310588.283        2836.947          45.000    18517589.011    75826418.310        2210.712          42.000  
G17  21144255.313   111113818.149        3323.512          31.000                                                                  
G14  21745194.980   114271746.539        1853.632          33.000                                                                  
> 2025 04 18 00 16 19.9880000  0 11                     
G27  19349398.340   101681796.450       -3174.530          38.000    19349400.628    79232535.638       -2473.787          40.000  
G08  16844875.868    88520445.783       -1592.812          47.000    16844877.506    68977010.452       -1241.114          46.000  
G04  18660511.410    98061658.198       -2772.394          41.000    18660513.022    76411642.224       -2160.365          42.000  
G30  21090187.061   110829698.064        3424.644          36.000    21090194.086    86360811.753        2668.517          33.000  
G09  18080771.340    95015091.257       -1395.377          44.000    18080772.748    74037743.404       -1087.372          43.000  
G01  19329295.459   101576118.038        3005.652          39.000    19329297.006    79150221.422        2342.222          42.000  
G16  20984239.414   110272931.050       -1850.317          32.000                                                                  
G02  17823423.284    93662709.312        1500.836          45.000                                                                  
G07  18517049.953    97307751.204        2836.936          45.000    18517049.092    75824207.601        2210.481          42.000  
G17  21143622.964   111110494.833        3322.214          31.000                                                                  
G14  21744842.170   114269892.501        1854.320          32.000                                                                  
> 2025 04 18 00 16 20.9880000  0 11                     
G27  19350002.547   101684971.343       -3174.997          39.000    19350004.780    79235009.576       -2473.904          40.000  
G08  16845178.968    88522038.914       -1593.354          47.000    16845180.614    68978251.850       -1241.560          46.000  
G04  18661039.058    98064430.928       -2772.843          41.000    18661040.661    76413802.778       -2160.615          43.000  
G30  21089535.410   110826273.163        3425.093          36.000    21089542.174    86358142.996        2669.064          33.000  
G09  18081036.987    95016486.918       -1395.857          44.000    18081038.319    74038830.929       -1087.861          43.000  
G01  19328723.508   101573112.451        3005.293          39.000    19328725.161    79147879.404        2342.073          42.000  
G16  20984591.907   110274782.498       -1851.681          32.000                                                                  
G02  17823137.816    93661208.864        1500.135          45.000                                                                  
G07  18516510.134    97304914.387        2836.592          45.000    18516509.241    75821997.077        2210.616          42.000  
G17  21142990.729   111107171.765        3322.461          31.000                                                                  
G14  21744489.241   114268038.483        1854.256          32.000                                                                  
> 2025 04 18 00 16 21.9880000  0 11                     
G27  19350606.746   101688146.287       -3175.302          39.000    19350608.981    79237483.535       -2473.656          40.000  
G08  16845482.251    88523632.389       -1593.599          47.000    16845483.830    68979493.521       -1241.810          46.000  
G04  18661566.717    98067203.799       -2772.702          41.000    18661568.344    76415963.453       -2160.780          42.000  
G30  21088883.627   110822848.179        3424.838          36.000    21088890.333    86355474.164        2669.380          33.000  
G09  18081302.641    95017882.966       -1396.278          44.000    18081304.025    74039918.762       -1088.071          43.000  
G01  19328151.598   101570106.885        3005.697          39.000    19328153.176    79145537.424        2341.971          41.000  
G16  20984944.243   110276633.753       -1851.018          32.000                                                                  
G02  17822852.404    93659708.872        1499.877          45.000                                                                  
G07  18515970.274    97302077.670        2836.584          45.000    18515969.504    75819786.664        2210.421          42.000  
G17  21142358.369   111103848.863        3322.479          31.000                                                                  
G14  21744136.282   114266184.446        1853.468          32.000                                                                  
> 2025 04 18 00 16 22.9880000  0 11                     
G27  19351210.961   101691321.245       -3174.740          39.000    19351213.159    79239957.567       -2474.327          40.000  
G08  16845785.559    88525226.224       -1594.062          47.000    16845787.063    68980735.462       -1242.091          46.000  
G04  18662094.343    98069976.819       -2773.241          40.000    18662096.044    76418124.243       -2161.055          42.000  
G30  21088231.902   110819423.042        3425.369          36.000    21088238.565    86352805.267        2668.536          33.000  
G09  18081568.401    95019279.415       -1396.894          44.000    18081569.631    74041006.882       -1088.264          43.000  
G01  19327579.694   101567101.364        3005.430          39.000    19327581.240    79143195.456        2341.760          41.000  
G16  20985296.515   110278484.916       -1851.365          32.000                                                                  
G02  17822567.019    93658209.347        1499.199          45.000                                                                  
G07  18515430.621    97299241.060        2836.483          45.000    18515429.595    75817576.309        2210.282          42.000  
G17  21141726.070   111100526.148        3322.985          31.000                                                                  
G14  21743783.460   114264330.247        1854.041          32.000                                                                  
> 2025 04 18 00 16 23.9880000  0 11                     
G27  19351815.131   101694496.413       -3175.054          39.000    19351817.481    79242431.716       -2474.385          40.000  
G08  16846088.952    88526820.553       -1594.636          47.000    16846090.455    68981977.802       -1242.579          46.000  
G04  18662622.106    98072750.102       -2772.998          41.000    18662623.879    76420285.254       -2161.170          42.000  
G30  21087580.100   110815997.984        3424.910          36.000    21087586.729    86350136.380        2668.698          33.000  
G09  18081834.318    95020676.373       -1396.974          44.000    18081835.486    74042095.429       -1088.629          43.000  
G01  19327007.822   101564096.006        3005.519          39.000    19327009.317    79140853.621        2341.823          42.000  
G16  20985647.947   110280323.4643      -1850.188          31.000                                                                  
G02  17822281.781    93656710.403        1498.712          45.000                                                                  
G07  18514890.924    97296404.684        2836.186          45.000    18514889.853    75815366.153        2210.030          42.000  
G17  21141093.897   111097203.721        3322.849          31.000                                                                  
G14  21743430.605   114262476.112        1854.176          33.000                                                                  
> 2025 04 18 00 16 24.9880000  0 11                     
G27  19352419.409   101697671.811       -3175.644          38.000    19352421.764    79244906.045       -2474.499          41.000  
G08  16846392.455    88528415.387       -1595.002          47.000    16846393.995    68983220.526       -1242.952          46.000  
G04  18663149.963    98075523.718       -2773.688          41.000    18663151.604    76422446.477       -2161.135          42.000  
G30  21086928.346   110812572.964        3424.682          36.000    21086934.933    86347467.519        2668.720          33.000  
G09  18082100.223    95022073.900       -1397.766          44.000    18082101.482    74043184.409       -1089.090          43.000  
G01  19326435.935   101561090.835        3005.512          40.000    19326437.545    79138511.931        2341.708          42.000  
G16  20985999.741                       -1850.504          32.000                                                                  
G02  17821996.521    93655212.091        1498.138          45.000                                                                  
G07  18514351.218    97293568.568        2836.310          45.000    18514350.151    75813156.205        2209.951          42.000  
G17  21140461.905   111093881.637        3321.851          31.000                                                                  
G14  21743077.750   114260622.060        1854.230          33.000                                                                  
> 2025 04 18 00 16 25.9880000  0 11                     
G27  19353023.664   101700847.205       -3175.442          39.000    19353026.067    79247380.362       -2474.126          41.000  
G08  16846696.073    88530010.535       -1595.277          47.000    16846697.544    68984463.500       -1243.117          46.000  
G04  18663677.863    98078297.435       -2773.681          41.000    18663679.468    76424607.828       -2161.482          43.000  
G30  21086276.715   110809147.786        3425.415          36.000    21086283.293    86344798.550        2669.396          33.000  
G09  18082366.237    95023471.792       -1397.910          44.000    18082367.504    74044273.668       -1089.242          43.000  
G01  19325864.105   101558085.681        3005.461          39.000    19325865.692    79136170.248        2341.871          42.000  
G16  20986352.551   110284026.1653      -1851.323          32.000                                                                  
G02  17821711.511    93653714.200        1497.916          45.000                                                                  
G07  18513811.501    97290732.543        2836.184          45.000    18513810.479    75810946.296        2210.285          42.000  
G17  21139829.772   111090559.664        3322.362          31.000                                                                  
G14  21742724.925   114258767.899        1854.489          33.000                                                                  
> 2025 04 18 00 16 26.9880000  0 11                     
G27  19353627.957   101704022.694       -3175.371          39.000    19353630.347    79249854.784       -2474.636          41.000  
G08  16846999.676    88531606.130       -1596.010          47.000    16847001.141    68985706.816       -1243.703          46.000  
G04  18664205.766    98081071.353       -2774.052          41.000    18664207.287    76426769.311       -2161.488          43.000  
G30  21085624.972   110805722.584        3424.890          36.000    21085631.737    86342129.560        2668.970          33.000  
G09  18082632.338    95024870.148       -1398.728          44.000    18082633.597    74045363.293       -1089.921          43.000  
G01  19325292.344   101555080.627        3005.052          40.000    19325293.832    79133828.653        2341.358          42.000  
G16  20986704.680   110285877.0932      -1851.250          36.000                                                                  
G02  17821426.604    93652216.851        1496.868          45.000                                                                  
G07  18513271.900    97287896.699        2835.536          45.000    18513270.745    75808736.552        2209.618          42.000  
G17  21139197.684   111087237.979        3321.090          31.000                                                                  
G14  21742371.951   114256913.715        1854.239          33.000                                                                  
> 2025 04 18 00 16 27.9880000  0 11                     
G27  19354232.226   101707198.322       -3175.812          39.000    19354234.718    79252329.279       -2474.466          41.000  
G08  16847303.356    88533202.113       -1596.255          47.000    16847304.959    68986950.434       -1243.752          46.000  
G04  18664733.656    98083845.479       -2774.444          41.000    18664735.209    76428930.973       -2161.918          43.000  
G30  21084973.210   110802297.326        3424.904          36.000    21084980.009    86339460.556        2668.980          33.000  
G09  18082898.554    95026268.943       -1399.175          44.000    18082899.749    74046453.263       -1090.140          43.000  
G01  19324720.489   101552075.666        3004.791          39.000    19324721.961    79131487.107        2341.500          42.000  
G16  20987056.498   110287727.8512      -1850.310          33.000                                                                  
G02  17821141.719    93650719.999        1496.515          45.000                                                                  
G07  18512732.310    97285061.001        2835.448          45.000    18512731.180    75806526.902        2209.778          42.000  
G17  21138565.785   111083916.486        3320.438          31.000                                                                  
G14  21742019.120   114255059.503        1854.160          33.000                                                                  
> 2025 04 18 00 16 28.9880000  0 11                     
G27  19354836.560   101710374.000       -3175.974          39.000    19354838.937    79254803.834       -2474.509          41.000  
G08  16847607.016    88534798.469       -1596.700          47.000    16847608.801    68988194.350       -1244.099          46.000  
G04  18665261.595    98086619.769       -2774.758          41.000    18665263.167    76431092.736       -2161.771          43.000  
G30  21084321.377   110798871.970        3425.345          36.000    21084328.266    86336791.442        2669.276          33.000  
G09  18083164.802    95027668.143       -1399.572          44.000    18083165.885    74047543.554       -1090.564          43.000  
G01  19324148.715   101549070.715        3005.063          39.000    19324150.017    79129145.601        2341.464          42.000  
G16  20987408.397   110289578.5742      -1850.417          32.000                                                                  
G02  17820856.956    93649223.626        1495.992          45.000                                                                  
G07  18512192.620    97282225.413        2835.311          45.000    18512191.575    75804317.372        2209.275          42.000  
G17  21137933.837   111080595.117        3321.189          31.000                                                                  
G14  21741666.284   114253205.176        1854.549          33.000                                                                  
> 2025 04 18 00 16 29.9880000  0 11                     
G27  19355440.877   101713549.770       -3175.605          39.000    19355443.281    79257278.474       -2474.829          41.000  
G08  16847910.869    88536395.219       -1596.820          47.000    16847912.475    68989438.575       -1244.263          46.000  
G04  18665789.531    98089394.223       -2774.355          41.000    18665791.139    76433254.661       -2161.961          43.000  
G30  21083669.480   110795446.519        3425.908          36.000    21083676.308    86334122.278        2669.716          33.000  
G09  18083431.145    95029067.772       -1399.751          44.000    18083432.270    74048634.179       -1090.813          43.000  
G01  19323576.931   101546065.858        3004.975          39.000    19323578.235    79126804.168        2341.463          42.000  
G16  20987760.226   110291429.2432      -1850.939          32.000                                                                  
G02  17820572.295    93647727.757        1495.708          45.000                                                                  
G07  18511653.093    97279389.987        2835.493          45.000    18511651.965    75802107.937        2209.426          42.000  
G17  21137301.954   111077273.993        3320.645          31.000                                                                  
G14  21741313.469   114251350.873        1854.557          33.000                                                                  
> 2025 04 18 00 16 30.9880000  0 11                     
G27  19356045.226   101716725.628       -3176.049          39.000    19356047.578    79259753.153       -2474.554          41.000  
G08  16848214.831    88537992.374       -1597.535          47.000    16848216.389    68990683.107       -1244.727          46.000  
G04  18666317.488    98092168.904       -2775.012          41.000    18666319.087    76435416.731       -2162.209          42.000  
G30  21083017.584   110792021.056        3425.378          36.000    21083024.481    86331453.066        2669.611          33.000  
G09  18083697.574    95030467.837       -1400.362          44.000    18083698.740    74049725.136       -1091.185          43.000  
G01  19323005.153   101543061.092        3004.471          39.000    19323006.426    79124462.771        2341.483          41.000  
G16  20988112.913   110293279.655       -1849.130          32.000                                                                  
G02  17820287.797    93646232.390        1495.088          45.000                                                                  
G07  18511113.539    97276554.707        2835.156          45.000    18511112.447    75799898.630        2209.309          42.000  
G17  21136670.125   111073953.088        3320.296          32.000                                                                  
G14  21740960.498   114249496.484        1854.431          33.000                                                                  
> 2025 04 18 00 16 31.9880000  0 11                     
G27  19356649.543   101719901.695       -3175.874          39.000    19356651.912    79262228.041       -2474.911          41.000  
G08  16848518.795    88539590.057       -1598.011          47.000    16848520.363    68991928.053       -1245.099          46.000  
G04  18666845.597    98094943.864       -2775.085          41.000    18666847.143    76437579.048       -2162.351          42.000  
G30  21082365.649   110788595.653        3425.455          36.000    21082372.952    86328783.923        2669.088          33.000  
G09  18083964.000    95031868.482       -1400.802          44.000    18083965.415    74050816.547       -1091.713          43.000  
G01  19322433.400   101540056.527        3004.532          39.000    19322434.616    79122121.570        2341.012          41.000  
G16  20988465.293   110295130.347       -1851.177          32.000                                                                  
G02  17820003.353    93644737.671        1494.386          45.000                                                                  
G07  18510573.996    97273719.709        2834.755          45.000    18510573.021    75797689.543        2208.941          42.000  
G17  21136038.209   111070632.485        3320.760          32.000                                                                  
G14  21740607.468   114247642.212        1854.140          32.000                                                                  
> 2025 04 18 00 16 32.9880000  0 11                     
G27  19357253.995   101723077.909       -3176.178          39.000    19357256.381    79264702.999       -2475.112          41.000  
G08  16848822.879    88541188.136       -1598.371          47.000    16848824.453    68993173.322       -1245.472          46.000  
G04  18667373.688    98097719.033       -2775.243          41.000    18667375.238    76439741.521       -2162.534          42.000  
G30  21081713.728   110785170.211        3425.167          35.000    21081721.199    86326114.771        2668.662          33.000  
G09  18084230.609    95033269.563       -1401.308          44.000    18084232.016    74051908.284       -1091.815          43.000  
G01  19321861.756   101537052.037        3004.642          39.000    19321862.835    79119780.400        2341.148          41.000  
G16  20988817.594   110296980.773       -1849.690          32.000                                                                  
G02  17819719.011    93643243.451        1493.845          45.000                                                                  
G07  18510034.532    97270884.864        2834.641          45.000    18510033.731    75795480.564        2208.912          42.000  
G17  21135406.363   111067312.153        3319.619          32.000                                                                  
G14  21740254.640   114245787.914        1853.786          32.000                                                                  
> 2025 04 18 00 16 33.9880000  0 11                     
G27  19357858.423   101726254.298       -3176.241          39.000    19357860.827    79267178.113       -2475.104          41.000  
G08  16849127.154    88542786.736       -1598.842          47.000    16849128.687    68994418.974       -1245.853          46.000  
G04  18667901.788    98100494.511       -2775.652          41.000    18667903.437    76441904.231       -2162.553          42.000  
G30  21081061.860   110781744.799        3425.328          35.000    21081069.724    86323445.600        2669.258          33.000  
G09  18084497.324    95034671.200       -1401.761          44.000    18084498.643    74053000.474       -1092.223          43.000  
G01  19321290.079   101534047.749        3004.262          40.000    19321291.176    79117439.404        2340.905          41.000  
G16  20989169.717   110298831.329       -1850.389          32.000                                                                  
G02  17819434.700    93641749.857        1493.420          45.000                                                                  
G07  18509495.136    97268050.284        2834.530          45.000    18509494.389    75793271.804        2208.975          42.000  
G17  21134774.712   111063992.088        3320.410          32.000                                                                  
G14  21739901.830   114243933.659        1853.464          32.000                                                                  
> 2025 04 18 00 16 34.9880000  0 11                     
G27  19358462.846   101729430.807       -3176.327          38.000    19358465.266    79269653.299       -2475.004          41.000  
G08  16849431.434    88544385.752       -1599.108          47.000    16849432.966    68995664.964       -1246.118          45.000  
G04  18668430.009    98103270.199       -2775.494          41.000    18668431.617    76444067.100       -2162.846          42.000  
G30  21080409.952   110778319.335        3425.327          35.000    21080417.714    86320776.442        2668.702          33.000  
G09  18084764.049    95036073.289       -1402.136          44.000    18084765.438    74054093.003       -1092.443          43.000  
G01  19320718.353   101531043.565        3004.293          40.000    19320719.466    79115098.474        2340.863          41.000  
G16  20989522.170   110300681.771       -1850.124          33.000                                                                  
G02  17819150.588    93640256.793        1492.769          45.000                                                                  
G07  18508955.739    97265215.887        2834.225          45.000    18508954.944    75791063.178        2208.706          42.000  
G17  21134142.817   111060672.330        3319.739          32.000                                                                  
G14  21739548.975   114242079.323        1855.082          32.000                                                                  
> 2025 04 18 00 16 35.9880000  0 11                     
G27  19359067.391   101732607.445       -3176.390          38.000    19359069.735    79272128.604       -2475.210          41.000  
G08  16849735.758    88545985.204       -1599.720          47.000    16849737.372    68996911.291       -1246.695          46.000  
G04  18668958.352    98106046.130       -2776.039          41.000    18668959.941    76446230.138       -2162.832          42.000  
G30  21079758.000   110774893.849        3425.880          35.000    21079765.967    86318107.237        2668.649          33.000  
G09  18085031.039    95037475.857       -1402.917          44.000    18085032.367    74055185.920       -1093.153          43.000  
G01  19320146.710   101528039.480        3004.252          39.000    19320147.878    79112757.634        2340.960          41.000  
G16  20989874.376   110302532.178       -1850.596          33.000                                                                  
G02  17818866.555    93638764.260        1492.329          45.000                                                                  
G07  18508416.465    97262381.663        2834.161          45.000    18508415.546    75788854.696        2208.452          42.000  
G17  21133511.161   111057352.755        3319.656          32.000                                                                  
G14  21739196.036   114240225.073        1853.941          32.000                                                                  
> 2025 04 18 00 16 36.9880000  0 11                     
G27  19359671.931   101735784.255       -3176.514          38.000    19359674.314    79274604.030       -2475.525          41.000  
G08  16850040.221    88547585.097       -1600.093          47.000    16850041.818    68998157.954       -1246.649          46.000  
G04  18669486.649    98108822.253       -2775.892          41.000    18669488.191    76448393.383       -2163.418          42.000  
G30  21079106.113   110771468.361        3425.737          35.000    21079114.085    86315438.012        2669.301          33.000  
G09  18085298.017    95038878.899       -1403.181          44.000    18085299.440    74056279.203       -1093.475          43.000  
G01  19319575.061   101525035.551        3003.595          39.000    19319576.164    79110416.909        2340.496          42.000  
G16  20990226.706   110304382.512       -1850.392          33.000                                                                  
G02  17818582.638    93637272.290        1491.719          45.000                                                                  
G07  18507877.141    97259547.637        2834.024          45.000    18507876.317    75786646.377        2208.216          42.000  
G17  21132879.657   111054033.480        3318.979          32.000                                                                  
G14  21738843.138   114238370.834        1853.709          32.000                                                                  
> 2025 04 18 00 16 37.9880000  0 11                     
G27  19360276.405   101738961.137       -3176.498          38.000    19360278.841    79277079.504       -2475.397          41.000  
G08  16850344.797    88549185.395       -1600.594          48.000    16850346.343    68999404.939       -1247.132          46.000  
G04  18670015.012    98111598.600       -2776.218          41.000    18670016.436    76450556.758       -2163.439          42.000  
G30  21078454.193   110768042.838        3425.107          35.000    21078461.903    86312768.778        2668.955          33.000  
G09  18085565.132    95040282.394       -1403.672          44.000    18085566.488    74057372.818       -1093.565          43.000  
G01  19319003.376   101522031.671        3003.816          39.000    19319004.577    79108076.224        2340.667          42.000  
G16  20990579.000   110306232.721       -1849.570          33.000                                                                  
G02  17818298.821    93635780.831        1491.202          45.000                                                                  
G07  18507337.944    97256713.774        2833.880          45.000    18507336.984    75784438.172        2208.004          42.000  
G17  21132248.219   111050714.402        3319.333          32.000                                                                  
G14  21738490.204   114236516.481        1854.077          32.000                                                                  
> 2025 04 18 00 16 38.9880000  0 11                     
G27  19360880.950   101742138.157       -3176.889          38.000    19360883.414    79279555.117       -2475.751          41.000  
G08  16850649.360    88550786.133       -1600.861          48.000    16850650.903    69000652.265       -1247.351          46.000  
G04  18670543.385    98114375.190       -2776.683          41.000    18670544.809    76452720.311       -2163.477          43.000  
G30  21077802.215   110764617.241        3425.953          35.000    21077809.798    86310099.493        2669.026          32.000  
G09  18085832.349    95041686.351       -1403.931          44.000    18085833.678    74058466.820       -1094.074          43.000  
G01  19318431.726   101519027.927        3003.805          39.000    19318432.925    79105735.652        2340.537          42.000  
G16  20990931.369   110308082.963       -1850.469          34.000                                                                  
G02  17818015.139    93634289.923        1490.687          45.000                                                                  
G07  18506798.682    97253880.105        2833.572          45.000    18506797.571    75782230.114        2208.154          42.000  
G17  21131616.876   111047395.587        3318.522          32.000                                                                  
G14  21738137.400   114234662.136        1854.710          32.000                                                                  
> 2025 04 18 00 16 39.9880000  0 11                     
G27  19361485.515   101745315.185       -3176.906          38.000    19361487.955    79282030.705       -2475.549          41.000  
G08  16850954.073    88552387.169       -1601.296          48.000    16850955.682    69001899.838       -1247.842          46.000  
G04  18671071.754    98117151.850       -2777.149          41.000    18671073.149    76454883.950       -2163.739          43.000  
G30  21077150.240   110761191.543        3425.451          36.000    21077157.787    86307430.103        2669.778          33.000  
G09  18086099.607    95043090.667       -1404.590          44.000    18086100.984    74059561.090       -1094.391          43.000  
G01  19317860.082   101516024.162        3003.756          39.000    19317861.326    79103395.050        2340.774          41.000  
G16  20991283.639   110309932.975       -1850.172          34.000                                                                  
G02  17817731.558    93632799.433        1490.182          45.000                                                                  
G07  18506259.434    97251046.492        2833.510          45.000    18506258.458    75780022.106        2207.870          42.000  
G17  21130985.270   111044076.900        3318.317          32.000                                                                  
G14  21737784.583   114232807.662        1855.396          32.000                                                                  
> 2025 04 18 00 16 40.9880000  0 11                     
G27  19362090.124   101748492.376       -3177.109          38.000    19362092.552    79284506.438       -2475.791          41.000  
G08  16851258.782    88553988.689       -1601.697          48.000    16851260.472    69003147.768       -1248.016          46.000  
G04  18671600.198    98119928.774       -2776.881          41.000    18671601.572    76457047.787       -2163.863          43.000  
G30  21076498.305   110757765.821        3426.106          36.000    21076506.052    86304760.749        2668.965          32.000  
G09  18086366.866    95044495.502       -1405.018          44.000    18086368.223    74060655.760       -1094.808          43.000  
G01  19317288.490   101513020.566        3003.384          39.000    19317289.814    79101054.594        2340.489          41.000  
G16  20991635.823   110311783.001       -1849.766          33.000                                                                  
G02  17817448.098    93631309.526        1489.668          45.000                                                                  
G07  18505720.254    97248213.108        2833.327          45.000    18505719.149    75777814.271        2207.893          42.000  
G17  21130354.079   111040758.487        3318.352          32.000                                                                  
G14  21737431.691   114230953.259        1854.975          32.000                                                                  
> 2025 04 18 00 16 41.9880000  0 11                     
G27  19362694.649   101751669.593       -3177.398          38.000    19362697.221    79286982.184       -2475.650          41.000  
G08  16851563.689    88555590.528       -1602.200          48.000    16851565.287    69004395.953       -1248.532          46.000  
G04  18672128.655    98122705.854       -2777.563          41.000    18672129.975    76459211.725       -2164.078          43.000  
G30  21075846.409   110754340.032        3425.515          36.000    21075854.360    86302091.235        2669.137          33.000  
G09  18086634.285    95045900.693       -1405.445          44.000    18086635.552    74061750.714       -1095.219          43.000  
G01  19316716.941   101510016.972        3003.615          39.000    19316718.265    79098714.127        2340.394          41.000  
G16  20991988.050   110313632.890       -1850.949          33.000                                                                  
G02  17817164.622    93629820.053        1489.263          45.000                                                                  
G07  18505181.168    97245379.808        2833.325          45.000    18505179.988    75775606.507        2207.622          42.000  
G17  21129722.894   111037440.202        3318.417          32.000                                                                  
G14  21737078.880   114229098.767        1853.940          33.000                                                                  
> 2025 04 18 00 16 42.9880000  0 11                     
G27  19363299.267   101754847.003       -3177.791          38.000    19363301.889    79289458.081       -2476.008          41.000  
G08  16851868.519    88557192.858       -1602.718          48.000    16851870.198    69005644.525       -1248.952          46.000  
G04  18672657.148    98125483.170       -2777.527          41.000    18672658.604    76461375.875       -2164.544          43.000  
G30  21075194.480   110750914.211        3425.731          36.000    21075202.463    86299421.778        2669.857          33.000  
G09  18086901.773    95047306.415       -1406.269          44.000    18086903.151    74062846.079       -1095.859          43.000  
G01  19316145.386   101507013.549        3003.293          39.000    19316146.680    79096373.802        2339.930          41.000  
G16  20992340.080   110315482.727       -1849.785          33.000                                                                  
G02  17816881.295    93628331.180        1488.367          45.000                                                                  
G07  18504642.104    97242546.744        2832.966          45.000    18504640.923    75773398.927        2207.290          42.000  
G17  21129091.436   111034122.213        3318.395          32.000                                                                  
G14  21736726.106   114227244.273        1854.125          32.000                                                                  
> 2025 04 18 00 16 43.9880000  0 11                     
G27  19363903.968   101758024.548       -3177.839          38.000    19363906.549    79291934.086       -2476.032          41.000  
G08  16852173.433    88558795.636       -1602.862          47.000    16852175.073    69006893.437       -1248.975          46.000  
G04  18673185.695    98128260.734       -2777.513          41.000    18673187.099    76463540.212       -2164.385          43.000  
G30  21074542.483   110747488.381        3426.113          35.000    21074550.517    86296752.346        2669.495          33.000  
G09  18087169.363    95048712.604       -1406.318          44.000    18087170.798    74063941.821       -1096.052          43.000  
G01  19315573.849   101504010.251        3003.311          39.000    19315575.154    79094033.573        2340.294          42.000  
G16  20992692.134   110317332.491       -1848.732          33.000                                                                  
G02  17816598.063    93626842.863        1488.158          45.000                                                                  
G07  18504102.986    97239713.890        2832.937          45.000    18504101.854    75771191.513        2207.376          42.000  
G17  21128460.048   111030804.498        3318.427          31.000                                                                  
G14  21736373.276   114225389.795        1854.667          32.000                                                                  
> 2025 04 18 00 16 44.9880000  0 11                     
G27  19364508.555   101761202.107       -3177.629          38.000    19364511.194    79294410.105       -2475.991          41.000  
G08  16852478.372    88560398.736       -1603.008          47.000    16852480.185    69008142.606       -1249.054          46.000  
G04  18673714.322    98131038.416       -2777.357          41.000    18673715.763    76465704.629       -2164.401          43.000  
G30  21073890.526   110744062.438        3426.172          36.000    21073898.610    86294082.817        2669.332          33.000  
G09  18087436.952    95050119.179       -1406.635          44.000    18087438.374    74065037.833       -1095.935          43.000  
G01  19315002.383   101501006.975        3003.332          39.000    19315003.689    79091693.343        2340.428          42.000  
G16  20993044.212   110319182.166       -1848.836          33.000                                                                  
G02  17816314.888    93625354.973        1487.852          45.000                                                                  
G07  18503563.911    97236881.129        2832.819          45.000    18503562.779    75768984.169        2207.312          42.000  
G17  21127828.759   111027486.939        3317.659          32.000                                                                  
G14  21736020.312   114223535.181        1855.092          32.000                                                                  
> 2025 04 18 00 16 45.9880000  0 11                     
G27  19365113.287   101764379.679       -3177.360          39.000    19365115.823    79296886.149       -2476.062          41.000  
G08  16852783.487    88562002.189       -1603.767          47.000    16852785.337    69009392.051       -1249.807          46.000  
G04  18674242.991    98133816.245       -2777.915          41.000    18674244.353    76467869.167       -2164.819          43.000  
G30  21073238.566   110740636.408        3425.709          36.000    21073246.509    86291413.126        2669.570          32.000  
G09  18087704.702    95051526.138       -1407.484          44.000    18087706.082    74066134.164       -1096.570          42.000  
G01  19314430.893   101498003.727        3002.855          39.000    19314432.209    79089353.156        2339.976          42.000  
G16  20993396.348   110321031.750       -1849.704          33.000                                                                  
G02  17816031.843    93623867.548        1487.104          45.000                                                                  
G07  18503024.851    97234048.456        2832.473          45.000    18503023.699    75766776.886        2206.966          42.000  
G17  21127197.577   111024169.519        3317.143          32.000                                                                  
G14  21735667.295   114221680.555        1853.394          32.000                                                                  
> 2025 04 18 00 16 46.9880000  0 11                     
G27  19365717.992   101767557.301       -3177.283          39.000    19365720.510    79299362.219       -2476.121          41.000  
G08  16853088.660    88563605.951       -1603.944          47.000    16853090.539    69010641.729       -1249.707          46.000  
G04  18674771.676    98136594.174       -2778.180          41.000    18674772.849    76470033.772       -2164.694          42.000  
G30  21072586.674   110737210.218        3426.226          36.000    21072594.271    86288743.332        2670.524          32.000  
G09  18087972.530    95052933.431       -1407.645          44.000    18087974.003    74067230.760       -1096.888          43.000  
G01  19313859.363   101495000.452        3003.255          39.000    19313860.761    79087012.952        2340.109          42.000  
G16  20993748.218   110322881.079       -1849.471          33.000                                                                  
G02  17815748.879    93622380.534        1486.808          45.000                                                                  
G07  18502485.801    97231215.859        2832.445          45.000    18502484.735    75764569.668        2206.953          42.000  
G17  21126566.247   111020852.243        3317.080          32.000                                                                  
G14  21735314.151   114219825.686        1855.125          33.000                                                                  
> 2025 04 18 00 16 47.9880000  0 11                     
G27  19366322.666   101770735.059       -3177.496          39.000    19366325.212    79301838.391       -2476.111          40.000  
G08  16853393.996    88565210.164       -1604.334          48.000    16853395.864    69011891.770       -1250.066          45.000  
G04  18675300.272    98139372.323       -2777.941          41.000    18675301.588    76472198.572       -2164.735          42.000  
G30  21071934.630   110733784.015        3425.939          36.000    21071942.221    86286073.588        2669.803          32.000  
G09  18088240.453    95054341.220       -1407.975          44.000    18088241.891    74068327.747       -1097.179          42.000  
G01  19313287.954   101491997.318        3002.979          39.000    19313289.223    79084672.837        2340.168          42.000  
G16  20994100.071   110324730.417       -1849.450          33.000                                                                  
G02  17815466.067    93620894.091        1486.306          45.000                                                                  
G07  18501946.747    97228383.455        2832.359          45.000    18501945.679    75762362.596        2207.130          42.000  
G17  21125935.025   111017535.210        3317.039          31.000                                                                  
G14  21734960.983   114217970.904        1854.471          32.000                                                                  
> 2025 04 18 00 16 48.9880000  0 11                     
G27  19366927.274   101773913.007       -3177.810          39.000    19366929.972    79304314.705       -2476.385          40.000  
G08  16853699.396    88566814.855       -1604.945          48.000    16853701.095    69013142.177       -1250.581          45.000  
G04  18675829.033    98142150.775       -2778.523          41.000    18675830.320    76474363.596       -2165.135          42.000  
G30  21071282.750   110730357.818        3425.864          36.000    21071290.391    86283403.825        2669.774          33.000  
G09  18088508.394    95055749.539       -1408.619          44.000    18088509.865    74069425.123       -1097.640          43.000  
G01  19312716.418   101488994.368        3002.642          40.000    19312717.828    79082332.870        2340.111          41.000  
G16  20994451.738   110326579.723       -1849.110          32.000                                                                  
G02  17815183.248    93619408.235        1485.580          45.000                                                                  
G07  18501407.859    97225551.296        2832.108          45.000    18501406.724    75760155.711        2206.969          42.000  
G17  21125304.153   111014218.493        3316.155          31.000                                                                  
G14  21734607.881   114216116.165        1854.382          32.000                                                                  
> 2025 04 18 00 16 49.9880000  0 11                     
G27  19367531.990   101777090.978       -3177.870          39.000    19367534.770    79306791.032       -2476.050          40.000  
G08  16854004.887    88568419.890       -1605.010          47.000    16854006.474    69014392.846       -1250.573          45.000  
G04  18676357.759    98144929.345       -2778.734          41.000    18676359.110    76476528.698       -2164.926          42.000  
G30  21070630.759   110726931.501        3426.474          36.000    21070638.452    86280733.984        2669.703          33.000  
G09  18088776.397    95057158.226       -1408.864          44.000    18088777.867    74070522.809       -1097.882          43.000  
G01  19312144.931   101485991.418        3003.078          40.000    19312146.345    79079992.918        2339.957          41.000  
G16  20994803.636   110328428.937       -1849.478          32.000                                                                  
G02  17814900.550    93617922.830        1485.342          45.000                                                                  
G07  18500868.992    97222719.221        2832.211          45.000    18500867.853    75757948.905        2206.898          42.000  
G17  21124672.990   111010901.887        3317.100          32.000                                                                  
G14  21734254.832   114214261.317        1854.154          32.000                                                                  
> 2025 04 18 00 16 50.9880000  0 11                     
G27  19368136.779   101780268.948       -3177.770          38.000    19368139.495    79309267.400       -2476.391          41.000  
G08  16854310.368    88570025.236       -1605.506          47.000    16854311.975    69015643.768       -1250.939          45.000  
G04  18676886.556    98147708.004       -2778.758          41.000    18676887.943    76478693.897       -2165.333          42.000  
G30  21069978.674   110723505.065        3426.479          36.000    21069986.605    86278064.050        2670.011          33.000  
G09  18089044.581    95058567.275       -1409.252          44.000    18089045.949    74071620.760       -1097.990          43.000  
G01  19311573.500   101482988.476        3002.816          40.000    19311574.840    79077652.952        2340.118          42.000  
G16  20995155.285   110330277.913       -1849.456          32.000                                                                  
G02  17814618.086    93616437.844        1484.752          45.000                                                                  
G07  18500330.074    97219887.217        2832.253          45.000    18500328.931    75755742.151        2206.732          42.000  
G17  21124041.913   111007585.448        3316.870          32.000                                                                  
G14  21733901.711   114212406.312        1855.069          32.000                                                                  
> 2025 04 18 00 16 51.9880000  0 11                     
G27  19368741.583   101783447.019       -3177.898          39.000    19368744.161    79311743.803       -2476.326          41.000  
G08  16854615.996    88571630.971       -1605.928          47.000    16854617.559    69016894.986       -1251.246          45.000  
G04  18677415.272    98150486.860       -2778.915          41.000    18677416.756    76480859.243       -2165.644          42.000  
G30  21069326.717   110720078.570        3426.167          36.000    21069334.744    86275394.040        2670.045          33.000  
G09  18089312.790    95059976.736       -1409.554          44.000    18089314.169    74072719.048       -1098.474          43.000  
G01  19311001.998   101479985.613        3002.705          40.000    19311003.452    79075313.067        2339.594          41.000  
G16  20995506.907   110332126.769       -1848.326          32.000                                                                  
G02  17814335.535    93614953.360        1484.274          45.000                                                                  
G07  18499791.220    97217055.369        2831.891          45.000    18499790.135    75753535.518        2206.677          42.000  
G17  21123410.953   111004269.249        3315.740          32.000                                                                  
G14  21733548.704   114210551.271        1855.414          32.000                                                                  
> 2025 04 18 00 16 52.9880000  0 11                     
G27  19369346.412   101786625.120       -3178.290          39.000    19369348.990    79314220.250       -2476.872          40.000  
G08  16854921.672    88573237.045       -1606.533          47.000    16854923.182    69018146.476       -1251.907          45.000  
G04  18677944.121    98153265.825       -2779.176          41.000    18677945.435    76483024.664       -2165.624          42.000  
G30  21068674.758   110716651.919        3426.606          36.000    21068682.590    86272723.953        2669.455          33.000  
G09  18089581.122    95061386.587       -1410.312          44.000    18089582.516    74073817.629       -1098.898          43.000  
G01  19310430.573   101476982.755        3002.604          39.000    19310432.069    79072973.168        2339.765          42.000  
G16  20995858.855   110333975.616       -1850.192          33.000                                                                  
G02  17814053.111    93613469.328        1483.562          45.000                                                                  
G07  18499252.355    97214223.622        2831.313          45.000    18499251.254    75751328.957        2206.300          42.000  
G17  21122780.050   111000953.153        3315.788          32.000                                                                  
G14  21733195.752   114208696.145        1854.584          32.000                                                                  
> 2025 04 18 00 16 53.9880000  0 11                     
G27  19369951.257   101789803.353       -3178.431          39.000    19369953.824    79316696.808       -2477.121          40.000  
G08  16855227.342    88574843.551       -1606.827          47.000    16855229.051    69019398.301       -1252.159          45.000  
G04  18678472.975    98156045.033       -2779.353          41.000    18678474.298    76485190.276       -2165.883          43.000  
G30  21068022.684   110713225.289        3426.228          36.000    21068030.347    86270053.838        2669.639          33.000  
G09  18089849.548    95062796.916       -1410.632          44.000    18089850.893    74074916.587       -1099.207          43.000  
G01  19309859.175   101473980.017        3002.731          39.000    19309860.699    79070633.384        2339.615          42.000  
G16  20996210.792   110335824.248       -1849.195          33.000                                                                  
G02  17813770.787    93611985.842        1483.146          45.000                                                                  
G07  18498713.470    97211392.051        2831.330          45.000    18498712.404    75749122.529        2206.262          42.000  
G17  21122148.847   110997637.338        3315.540          32.000                                                                  
G14  21732842.737   114206840.987        1854.930          32.000                                                                  
> 2025 04 18 00 16 54.9880000  0 11                     
G27  19370555.978   101792981.726       -3178.163          39.000    19370558.654    79319173.451       -2476.656          40.000  
G08  16855533.194    88576450.513       -1607.031          47.000    16855534.892    69020650.477       -1252.345          45.000  
G04  18679001.871    98158824.483       -2779.375          41.000    18679003.291    76487356.068       -2165.628          43.000  
G30  21067370.678   110709798.620        3426.810          36.000    21067378.150    86267383.683        2670.560          33.000  
G09  18090117.938    95064207.724       -1410.891          44.000    18090119.322    74076015.924       -1099.652          42.000  
G01  19309287.769   101470977.433        3002.585          39.000    19309289.375    79068293.708        2339.761          42.000  
G16  20996562.523   110337672.879       -1847.396          33.000                                                                  
G02  17813488.541    93610502.930        1482.732          45.000                                                                  
G07  18498174.649    97208560.692        2831.534          45.000    18498173.688    75746916.280        2206.349          42.000  
G17  21121517.989   110994321.778        3315.199          32.000                                                                  
G14  21732489.741   114204985.817        1855.610          32.000                                                                  
> 2025 04 18 00 16 55.9880000  0 11                     
G27  19371160.740   101796160.251       -3178.689          39.000    19371163.433    79321650.230       -2477.120          40.000  
G08  16855839.010    88578057.906       -1607.743          47.000    16855840.787    69021902.990       -1252.631          45.000  
G04  18679530.873    98161604.168       -2779.668          41.000    18679532.241    76489522.046       -2165.930          43.000  
G30  21066718.640   110706371.958        3426.404          36.000    21066725.993    86264713.567        2670.410          33.000  
G09  18090386.533    95065619.009       -1411.416          44.000    18090387.841    74077115.622       -1099.804          43.000  
G01  19308716.448   101467974.955        3002.454          39.000    19308718.043    79065954.117        2339.626          42.000  
G16  20996914.316   110339528.5113      -1847.612          33.000                                                                  
G02  17813206.422    93609020.563        1481.842          45.000                                                                  
G07  18497635.901    97205729.532        2830.881          45.000    18497634.876    75744710.181        2205.919          42.000  
G17  21120887.215   110991006.471        3314.751          32.000                                                                  
G14  21732136.750   114203130.723        1855.237          32.000                                                                  
> 2025 04 18 00 16 56.9880000  0 11                     
G27  19371765.545   101799338.937       -3179.083          38.000    19371768.237    79324127.104       -2476.759          40.000  
G08  16856145.025    88579665.787       -1607.909          47.000    16856146.707    69023155.877       -1252.922          45.000  
G04  18680059.809    98164384.102       -2779.864          41.000    18680061.138    76491688.230       -2166.245          43.000  
G30  21066066.618   110702945.307        3426.902          36.000    21066073.850    86262043.423        2670.990          33.000  
G09  18090655.125    95067030.808       -1411.755          44.000    18090656.463    74078215.728       -1100.234          43.000  
G01  19308145.119   101464972.635        3002.542          39.000    19308146.676    79063614.657        2339.489          42.000  
G16  20997266.150   110341377.2292      -1849.564          32.000                                                                  
G02  17812924.539    93607538.766        1481.639          45.000                                                                  
G07  18497097.153    97202898.593        2830.915          45.000    18497096.201    75742504.247        2206.120          42.000  
G17  21120256.444   110987691.448        3314.576          32.000                                                                  
G14  21731783.701   114201275.638        1855.231          32.000                                                                  
> 2025 04 18 00 16 57.9880000  0 11                     
G27  19372370.394   101802517.628       -3179.099          38.000    19372373.239    79326604.000       -2476.766          41.000  
G08  16856451.069    88581273.963       -1608.375          47.000    16856452.726    69024408.995       -1252.988          45.000  
G04  18680588.867    98167164.143       -2780.130          41.000    18680590.153    76493854.491       -2166.425          43.000  
G30  21065414.514   110699518.491        3426.961          36.000    21065421.905    86259373.235        2669.941          33.000  
G09  18090923.909    95068442.952       -1412.289          44.000    18090925.186    74079316.085       -1100.217          43.000  
G01  19307573.866   101461970.314        3002.565          40.000    19307575.280    79061275.190        2339.566          42.000  
G16  20997617.813   110343225.6092      -1849.087          33.000                                                                  
G02  17812642.689    93606057.399        1480.985          45.000                                                                  
G07  18496558.436    97200067.731        2830.858          45.000    18496557.572    75740298.397        2205.666          42.000  
G17  21119625.694   110984376.550        3314.481          32.000                                                                  
G14  21731430.800   114199420.409        1855.250          32.000                                                                  
> 2025 04 18 00 16 58.9880000  0 11                     
G27  19372975.268   101805696.492       -3178.939          38.000    19372978.180    79329081.067       -2477.247          41.000  
G08  16856757.250    88582882.653       -1609.052          47.000    16856758.807    69025662.535       -1254.026          45.000  
G04  18681117.990    98169944.487       -2780.951          41.000    18681119.173    76496020.970       -2166.457          42.000  
G30  21064762.393   110696091.748        3426.443          36.000    21064769.691    86256703.048        2669.806          33.000  
G09  18091192.699    95069855.650       -1413.209          44.000    18091194.086    74080416.898       -1101.353          43.000  
G01  19307002.611   101458968.202        3001.704          40.000    19307003.967    79058935.865        2339.283          42.000  
G16  20997969.587   110345074.0733      -1848.757          33.000                                                                  
G02  17812360.818    93604576.647        1480.228          45.000                                                                  
G07  18496019.779    97197237.134        2830.289          45.000    18496018.858    75738092.744        2205.287          42.000  
G17  21118994.866   110981061.941        3314.088          32.000                                                                  
G14  21731077.533   114197565.260        1854.800          32.000                                                                  
> 2025 04 18 00 16 59.9880000  0 11                     
G27  19373580.334   101808875.534       -3179.419          38.000    19373583.085    79331558.206       -2477.099          41.000  
G08  16857063.404    88584491.754       -1609.144          48.000    16857064.932    69026916.373       -1253.876          45.000  
G04  18681647.182    98172725.007       -2780.399          41.000    18681648.410    76498187.626       -2166.581          42.000  
G30  21064110.291   110692664.952        3427.101          36.000    21064117.319    86254032.778        2670.792          33.000  
G09  18091461.559    95071268.793       -1413.244          44.000    18091463.035    74081518.043       -1101.073          42.000  
G01  19306431.385   101455966.173        3002.185          39.000    19306432.732    79056596.643        2339.170          42.000  
G16  20998321.279   110346922.4502      -1848.816          33.000                                                                  
G02  17812079.128    93603096.419        1480.133          45.000                                                                  
G07  18495481.184    97194406.710        2830.525          45.000    18495480.337    75735887.217        2205.440          42.000  
G17  21118364.200   110977747.615        3313.974          32.000                                                                  
G14  21730724.437   114195710.050        1855.513          32.000                                                                  
> 2025 04 18 00 17 00.9880000  0 11                     
G27  19374185.293   101812054.613       -3179.050          38.000    19374187.991    79334035.424       -2477.302          41.000  
G08  16857369.699    88586101.272       -1609.754          48.000    16857371.133    69028170.539       -1254.341          45.000  
G04  18682176.368    98175505.758       -2780.818          41.000    18682177.671    76500354.432       -2166.840          42.000  
G30  21063458.223   110689238.111        3427.058          36.000    21063465.044    86251362.547        2670.409          33.000  
G09  18091730.618    95072682.396       -1413.730          44.000    18091732.139    74082619.552       -1101.609          43.000  
G01  19305860.203   101452964.246        3002.020          39.000    19305861.494    79054257.471        2339.232          42.000  
G16  20998673.082   110348770.761       -1848.435          33.000                                                                  
G02  17811797.599    93601616.729        1479.412          45.000                                                                  
G07  18494942.618    97191576.465        2830.129          45.000    18494941.716    75733681.819        2205.386          42.000  
G17  21117733.708   110974433.510        3313.516          32.000                                                                  
G14  21730371.375   114193854.861        1855.483          32.000                                                                  
> 2025 04 18 00 17 01.9880000  0 11                     
G27  19374790.327   101815233.865       -3179.097          38.000    19374793.042    79336512.770       -2477.339          41.000  
G08  16857676.023    88587711.243       -1610.213          47.000    16857677.506    69029425.061       -1254.658          45.000  
G04  18682705.643    98178286.732       -2781.000          41.000    18682706.932    76502521.434       -2166.912          42.000  
G30  21062806.143   110685811.293        3427.058          36.000    21062813.002    86248692.316        2669.877          33.000  
G09  18091999.783    95074096.486       -1414.271          44.000    18092001.212    74083721.443       -1102.016          42.000  
G01  19305288.938   101449962.453        3001.810          39.000    19305290.208    79051918.409        2339.168          42.000  
G16  20999024.834   110350619.051       -1848.619          33.000                                                                  
G02  17811516.139    93600137.595        1478.890          45.000                                                                  
G07  18494404.102    97188746.423        2829.930          45.000    18494403.216    75731476.604        2205.231          42.000  
G17  21117103.100   110971119.592        3314.735          32.000                                                                  
G14  21730018.428   114191999.637        1855.472          32.000                                                                  
> 2025 04 18 00 17 02.9880000  0 11                     
G27  19375395.368   101818413.281       -3179.574          38.000    19375398.118    79338990.213       -2477.687          41.000  
G08  16857982.563    88589321.655       -1610.873          47.000    16857983.973    69030679.933       -1255.368          45.000  
G04  18683234.845    98181067.974       -2781.589          41.000    18683236.172    76504688.623       -2167.526          42.000  
G30  21062154.028   110682384.430        3427.042          36.000    21062160.916    86246022.058        2669.212          33.000  
G09  18092268.950    95075511.069       -1415.115          44.000    18092270.468    74084823.713       -1102.802          43.000  
G01  19304717.706   101446960.794        3001.492          39.000    19304719.078    79049579.475        2338.668          42.000  
G16  20999376.773   110352467.282       -1848.022          33.000                                                                  
G02  17811234.865    93598659.034        1478.038          45.000                                                                  
G07  18493865.588    97185916.599        2829.377          45.000    18493864.663    75729271.547        2204.744          42.000  
G17  21116472.640   110967806.031        3313.453          32.000                                                                  
G14  21729665.349   114190144.477        1855.234          32.000                                                                  
> 2025 04 18 00 17 03.9880000  0 11                     
G27  19376000.392   101821592.915       -3179.945          38.000    19376003.219    79341467.852       -2477.626          41.000  
G08  16858289.032    88590932.618       -1611.250          48.000    16858290.570    69031935.222       -1255.525          45.000  
G04  18683764.122    98183849.526       -2781.828          41.000    18683765.490    76506856.048       -2167.257          42.000  
G30  21061501.970   110678957.690        3427.043          36.000    21061508.645    86243351.827        2670.356          33.000  
G09  18092538.297    95076926.222       -1415.356          44.000    18092539.609    74085926.412       -1102.707          42.000  
G01  19304146.486   101443959.365        3001.565          39.000    19304147.940    79047240.693        2338.718          42.000  
G16  20999728.632   110354315.599       -1848.700          33.000                                                                  
G02  17810953.641    93597181.114        1477.638          45.000                                                                  
G07  18493327.118    97183087.056        2829.434          45.000    18493326.210    75727066.707        2204.694          42.000  
G17  21115842.264   110964492.809        3313.083          32.000                                                                  
G14  21729312.416   114188289.372        1855.335          32.000                                                                  
> 2025 04 18 00 17 04.9880000  0 11                     
G27  19376605.421   101824772.735       -3179.813          38.000    19376608.248    79343945.621       -2477.678          41.000  
G08  16858595.627    88592544.055       -1611.641          48.000    16858597.243    69033190.888       -1255.862          45.000  
G04  18684293.353    98186631.360       -2782.063          41.000    18684294.879    76509023.717       -2167.673          42.000  
G30  21060849.801   110675530.985        3426.531          35.000    21060856.298    86240681.664        2670.844          33.000  
G09  18092807.727    95078341.911       -1415.968          44.000    18092808.995    74087029.548       -1103.203          43.000  
G01  19303575.482   101440958.123        3001.258          39.000    19303576.758    79044902.059        2338.618          42.000  
G16  21000080.346   110356163.860       -1849.184          33.000                                                                  
G02  17810672.636    93595703.798        1477.174          45.000                                                                  
G07  18492788.788    97180257.774        2829.159          45.000    18492787.817    75724862.062        2204.590          42.000  
G17  21115211.864   110961179.891        3313.041          32.000                                                                  
G14  21728959.426   114186434.350        1854.832          32.000                                                                  
> 2025 04 18 00 17 05.9880000  0 11                     
G27  19377210.559   101827952.660       -3179.682          38.000    19377213.371    79346423.511       -2478.188          41.000  
G08  16858902.379    88594155.941       -1612.122          47.000    16858903.998    69034446.898       -1256.084          45.000  
G04  18684822.706    98189413.412       -2782.227          41.000    18684824.407    76511191.552       -2167.848          42.000  
G30  21060197.699   110672104.223        3427.051          35.000    21060204.120    86238011.487        2670.305          33.000  
G09  18093077.205    95079758.062       -1416.431          44.000    18093078.433    74088133.036       -1103.585          43.000  
G01  19303004.414   101437956.986        3000.948          39.000    19303005.751    79042563.500        2338.723          42.000  
G16  21000432.197   110358012.148       -1848.810          33.000                                                                  
G02  17810391.525    93594227.030        1476.572          45.000                                                                  
G07  18492250.447    97177428.677        2828.954          45.000    18492249.494    75722657.568        2204.506          42.000  
G17  21114581.372   110957867.219        3312.850          32.000                                                                  
G14  21728606.513   114184579.295        1854.990          32.000                                                                  
> 2025 04 18 00 17 06.9880000  0 11                     
G27  19377815.798   101831132.804       -3180.243          38.000    19377818.613    79348901.508       -2478.068          41.000  
G08  16859209.242    88595768.290       -1612.616          48.000    16859210.814    69035703.276       -1256.617          45.000  
G04  18685352.143    98192195.722       -2782.562          41.000    18685353.755    76513359.599       -2168.157          42.000  
G30  21059545.646   110668677.533        3425.980          35.000    21059551.715    86235341.310        2670.328          33.000  
G09  18093346.694    95081174.717       -1416.794          44.000    18093348.113    74089236.944       -1104.034          42.000  
G01  19302433.411   101434956.021        3001.006          39.000    19302434.731    79040225.102        2337.945          42.000  
G16  21000783.953   110359860.370       -1847.677          34.000                                                                  
G02  17810110.616    93592750.854        1475.922          45.000                                                                  
G07  18491712.090    97174599.809        2828.694          45.000    18491711.114    75720453.264        2204.144          42.000  
G17  21113950.929   110954554.830        3312.706          32.000                                                                  
G14  21728253.649   114182724.291        1855.084          32.000                                                                  
> 2025 04 18 00 17 07.9880000  0 11                     
G27  19378421.048   101834313.121       -3179.904          38.000    19378423.846    79351379.697       -2478.436          41.000  
G08  16859516.143    88597381.165       -1613.136          48.000    16859517.785    69036960.055       -1256.904          45.000  
G04  18685881.645    98194978.351       -2782.639          41.000    18685883.216    76515527.868       -2168.266          42.000  
G30  21058893.527   110665250.826        3426.998          35.000    21058899.318    86232671.183        2670.167          33.000  
G09  18093616.342    95082591.955       -1417.566          44.000    18093617.718    74090341.268       -1104.506          42.000  
G01  19301862.410   101431955.270        3000.518          39.000    19301863.761    79037886.823        2338.411          42.000  
G16  21001135.648   110361708.608       -1847.781          33.000                                                                  
G02  17809829.695    93591275.317        1475.442          45.000                                                                  
G07  18491173.938    97171771.221        2828.461          45.000    18491172.838    75718249.171        2203.986          42.000  
G17  21113320.641   110951242.833        3311.734          32.000                                                                  
G14  21727900.566   114180869.382        1855.530          32.000                                                                  
> 2025 04 18 00 17 08.9880000  0 11                     
G27  19379026.316   101837493.475       -3180.124          38.000    19379029.031    79353857.887       -2478.170          41.000  
G08  16859823.088    88598994.361       -1613.355          48.000    16859824.799    69038217.096       -1257.215          45.000  
G04  18686411.162    98197761.105       -2782.781          41.000    18686412.728    76517696.238       -2168.364          42.000  
G30  21058241.377   110661824.045        3427.263          35.000    21058246.989    86230000.947        2670.504          33.000  
G09  18093886.131    95084009.546       -1417.797          44.000    18093887.505    74091445.893       -1104.942          43.000  
G01  19301291.319   101428954.506        3000.775          39.000    19301292.756    79035548.583        2338.252          42.000  
G16  21001487.379   110363556.736       -1847.502          33.000                                                                  
G02  17809548.981    93589800.227        1474.790          45.000                                                                  
G07  18490635.679    97168942.724        2828.301          45.000    18490634.611    75716045.137        2204.010          42.000  
G17  21112690.487   110947930.927        3311.926          33.000                                                                  
G14  21727547.468   114179014.346        1855.272          32.000                                                                  
> 2025 04 18 00 17 09.9880000  0 11                     
G27  19379631.528   101840673.955       -3180.694          38.000    19379634.289    79356336.166       -2478.201          41.000  
G08  16860130.180    88600607.952       -1613.801          48.000    16860131.862    69039474.448       -1257.644          45.000  
G04  18686940.780    98200544.042       -2783.125          41.000    18686942.236    76519864.757       -2168.689          42.000  
G30  21057589.223   110658397.212        3427.117          35.000    21057594.785    86227330.762        2669.111          33.000  
G09  18094155.889    95085427.571       -1418.271          44.000    18094157.362    74092550.844       -1105.182          43.000  
G01  19300720.154   101425953.838        3000.625          39.000    19300721.845    79033210.406        2338.056          42.000  
G16  21001839.154   110365404.799       -1848.357          33.000                                                                  
G02  17809268.417    93588325.632        1474.314          45.000                                                                  
G07  18490097.435    97166114.380        2828.321          45.000    18490096.368    75713841.233        2203.764          42.000  
G17  21112060.355   110944619.295        3311.199          33.000                                                                  
G14  21727194.591   114177159.293        1854.682          31.000                                                                  
> 2025 04 18 00 17 10.9880000  0 11                     
G27  19380236.769   101843854.440       -3180.775          38.000    19380239.526    79358814.461       -2477.831          41.000  
G08  16860437.297    88602221.895       -1613.910          48.000    16860438.896    69040732.054       -1257.470          45.000  
G04  18687470.446    98203327.114       -2782.752          41.000    18687471.848    76522033.384       -2168.459          43.000  
G30  21056936.986   110654970.272        3427.479          35.000    21056942.512    86224660.388        2670.161          33.000  
G09  18094425.832    95086845.982       -1418.254          44.000    18094427.323    74093656.103       -1105.107          43.000  
G01  19300149.083   101422953.207        3000.858          39.000    19300150.738    79030872.257        2338.207          41.000  
G16  21002190.890   110367252.702       -1849.048          33.000                                                                  
G02  17808987.949    93586851.507        1474.230          45.000                                                                  
G07  18489559.204    97163286.146        2828.408          45.000    18489558.162    75711637.430        2203.836          42.000  
G17  21111430.195   110941307.766        3311.694          32.000                                                                  
G14  21726841.515   114175304.077        1855.624          31.000                                                                  
> 2025 04 18 00 17 11.9880000  0 11                     
G27  19380842.027   101847034.948       -3180.952          38.000    19380844.745    79361292.786       -2478.203          41.000  
G08  16860744.570    88603836.160       -1614.560          48.000    16860746.064    69041989.930       -1258.040          45.000  
G04  18688000.061    98206110.301       -2783.334          41.000    18688001.496    76524202.093       -2168.743          43.000  
G30  21056284.846   110651543.221        3426.849          35.000    21056290.076    86221989.918        2670.769          33.000  
G09  18094695.787    95088264.757       -1419.007          44.000    18094697.209    74094761.629       -1105.645          43.000  
G01  19299578.062   101419952.580        3000.629          39.000    19299579.745    79028534.111        2337.984          41.000  
G16  21002542.497   110369100.389       -1847.019          33.000                                                                  
G02  17808707.540    93585377.815        1473.516          45.000                                                                  
G07  18489021.023    97160457.997        2828.085          45.000    18489019.931    75709433.668        2203.487          42.000  
G17  21110800.154   110937996.399        3311.165          33.000                                                                  
G14  21726488.370   114173448.835        1855.129          31.000                                                                  
> 2025 04 18 00 17 12.9880000  0 11                     
G27  19381447.415   101850215.583       -3180.593          38.000    19381449.981    79363771.201       -2478.456          40.000  
G08  16861051.753    88605450.844       -1614.789          48.000    16861053.287    69043248.121       -1258.301          45.000  
G04  18688529.666    98208893.686       -2783.421          41.000    18688531.186    76526370.956       -2168.717          43.000  
G30  21055632.730   110648116.088        3427.397          35.000    21055637.986    86219319.450        2670.346          33.000  
G09  18094965.776    95089683.994       -1419.418          44.000    18094967.262    74095867.536       -1106.125          43.000  
G01  19299006.988   101416952.054        3000.573          39.000    19299008.667    79026196.033        2338.023          41.000  
G16  21002894.158   110370948.137       -1848.846          32.000                                                                  
G02  17808427.137    93583904.663        1472.987          45.000                                                                  
G07  18488482.893    97157630.022        2827.926          45.000    18488481.867    75707230.048        2203.587          42.000  
G17  21110170.043   110934685.214        3312.088          32.000                                                                  
G14  21726135.380   114171593.533        1855.123          31.000                                                                  
> 2025 04 18 00 17 13.9880000  0 11                     
G27  19382052.778   101853396.339       -3181.043          38.000    19382055.367    79366249.690       -2478.453          40.000  
G08  16861359.065    88607065.958       -1615.628          48.000    16861360.680    69044506.646       -1258.809          45.000  
G04  18689059.331    98211677.315       -2784.127          41.000    18689061.020    76528540.000       -2169.187          43.000  
G30  21054980.526   110644688.939        3427.450          35.000    21054985.637    86216648.957        2670.668          33.000  
G09  18095235.923    95091103.692       -1420.107          44.000    18095237.552    74096973.789       -1106.612          43.000  
G01  19298435.951   101413951.656        3000.358          39.000    19298437.699    79023858.059        2337.869          42.000  
G16  21003245.757   110372795.715       -1847.528          33.000                                                                  
G02  17808146.827    93582432.060        1472.124          45.000                                                                  
G07  18487944.702    97154802.243        2827.613          45.000    18487943.750    75705026.596        2203.017          42.000  
G17  21109540.069   110931374.378        3310.720          32.000                                                                  
G14  21725782.308   114169738.260        1854.274          32.000                                                                  
> 2025 04 18 00 17 14.9880000  0 11                     
G27  19382658.035   101856577.179       -3180.679          38.000    19382660.594    79368728.287       -2478.711          40.000  
G08  16861666.514    88608681.487       -1615.804          48.000    16861668.079    69045765.495       -1258.936          45.000  
G04  18689589.025    98214461.108       -2783.892          41.000    18689590.687    76530709.182       -2168.980          43.000  
G30  21054328.181   110641261.771        3427.515          35.000    21054333.219    86213978.421        2670.755          32.000  
G09  18095506.126    95092523.843       -1420.509          44.000    18095507.752    74098080.392       -1106.700          43.000  
G01  19297865.033   101410951.368        3000.219          39.000    19297866.650    79021520.166        2337.876          42.000  
G16  21003597.317   110374643.278       -1847.388          33.000                                                                  
G02  17807866.682    93580959.972        1471.851          45.000                                                                  
G07  18487406.709    97151974.632        2827.426          45.000    18487405.710    75702823.253        2203.177          42.000  
G17  21108910.047   110928063.700        3311.582          32.000                                                                  
G14  21725429.206   114167882.870        1855.227          32.000                                                                  
> 2025 04 18 00 17 15.9880000  0 11                     
G27  19383263.305   101859758.211       -3181.016          38.000    19383265.911    79371207.021       -2478.969          40.000  
G08  16861973.955    88610297.474       -1616.139          47.000    16861975.628    69047024.716       -1259.315          45.000  
G04  18690118.836    98217245.177       -2783.952          41.000    18690120.438    76532878.611       -2169.496          42.000  
G30  21053675.990   110637834.639        3426.868          35.000    21053680.779    86211307.956        2669.773          32.000  
G09  18095776.453    95093944.501       -1420.925          44.000    18095778.036    74099187.390       -1106.985          43.000  
G01  19297294.133   101407951.238        3000.096          39.000    19297295.793    79019182.404        2337.819          42.000  
G16  21003948.951   110376490.814       -1847.693          33.000                                                                  
G02  17807586.611    93579488.478        1471.216          45.000                                                                  
G07  18486868.705    97149147.269        2827.207          45.000    18486867.709    75700620.109        2203.097          42.000  
G17  21108279.971   110924753.362        3310.039          32.000                                                                  
G14  21725076.263   114166027.609        1855.024          32.000                                                                  
> 2025 04 18 00 17 16.9880000  0 11                     
G27  19383868.675   101862939.365       -3181.571          38.000    19383871.293    79373685.823       -2479.246          40.000  
G08  16862281.527    88611913.889       -1616.767          48.000    16862283.235    69048284.257       -1259.797          45.000  
G04  18690648.683    98220029.465       -2784.514          41.000    18690650.215    76535048.168       -2169.749          43.000  
G30  21053023.883   110634407.435        3426.999          35.000    21053028.389    86208637.354        2670.967          32.000  
G09  18096046.896    95095365.603       -1421.383          44.000    18096048.552    74100294.755       -1107.765          43.000  
G01  19296723.245   101404951.191        3000.098          39.000    19296724.834    79016844.711        2337.565          42.000  
G16  21004300.377   110378338.196       -1846.714          33.000                                                                  
G02  17807306.816    93578017.507        1470.597          45.000                                                                  
G07  18486330.733    97146320.051        2827.078          45.000    18486329.723    75698417.077        2203.099          42.000  
G17  21107650.107   110921443.232        3309.668          32.000                                                                  
G14  21724723.113   114164172.254        1855.554          32.000                                                                  
> 2025 04 18 00 17 17.9880000  0 11                     
G27  19384474.073   101866120.547       -3181.001          38.000    19384476.670    79376164.678       -2478.944          41.000  
G08  16862589.192    88613530.675       -1617.121          48.000    16862590.812    69049544.091       -1260.152          45.000  
G04  18691178.472    98222813.897       -2784.306          41.000    18691180.122    76537217.854       -2169.720          43.000  
G30  21052371.640   110630980.148        3427.778          35.000    21052376.285    86205966.802        2670.530          32.000  
G09  18096317.419    95096787.125       -1421.776          44.000    18096319.155    74101402.434       -1107.890          43.000  
G01  19296152.369   101401951.224        2999.923          39.000    19296153.910    79014507.088        2337.372          42.000  
G16  21004651.830   110380185.586       -1846.242          33.000                                                                  
G02  17807027.046    93576547.042        1469.977          45.000                                                                  
G07  18485792.786    97143492.989        2826.992          45.000    18485791.724    75696214.187        2202.892          42.000  
G17  21107020.314   110918133.315        3309.602          32.000                                                                  
G14  21724370.035   114162316.858        1855.721          32.000                                                                  
> 2025 04 18 00 17 18.9880000  0 11                     
G27  19385079.517   101869301.967       -3181.362          38.000    19385082.137    79378643.699       -2479.038          41.000  
G08  16862896.966    88615147.970       -1617.363          48.000    16862898.491    69050804.315       -1260.246          45.000  
G04  18691708.327    98225598.644       -2784.770          41.000    18691710.031    76539387.786       -2169.888          42.000  
G30  21051719.536   110627552.938        3428.171          36.000    21051724.355    86203296.193        2671.645          32.000  
G09  18096588.109    95098209.205       -1422.204          44.000    18096589.686    74102510.552       -1108.357          43.000  
G01  19295581.474   101398951.443        2999.874          39.000    19295583.102    79012169.595        2337.603          42.000  
G16  21005003.373   110382033.020       -1847.713          32.000                                                                  
G02  17806747.318    93575077.189        1469.559          45.000                                                                  
G07  18485254.824    97140666.196        2826.682          45.000    18485253.796    75694011.474        2202.964          42.000  
G17  21106390.616   110914823.672        3309.695          32.000                                                                  
G14  21724017.135   114160461.551        1855.630          32.000                                                                  
> 2025 04 18 00 17 19.9880000  0 11                     
G27  19385684.929   101872483.427       -3181.797          38.000    19385687.580    79381122.747       -2479.315          41.000  
G08  16863204.842    88616765.608       -1618.038          48.000    16863206.356    69052064.812       -1260.843          45.000  
G04  18692238.222    98228383.518       -2785.037          41.000    18692240.031    76541557.827       -2170.356          43.000  
G30  21051067.318   110624125.638        3427.285          35.000    21051072.267    86200625.595        2670.868          32.000  
G09  18096858.787    95099631.670       -1423.032          44.000    18096860.299    74103618.953       -1108.769          43.000  
G01  19295010.558   101395951.719        2999.425          39.000    19295012.363    79009832.145        2337.168          41.000  
G16  21005354.905   110383880.259       -1847.396          32.000                                                                  
G02  17806467.587    93573607.796        1468.890          45.000                                                                  
G07  18484716.860    97137839.513        2826.464          45.000    18484715.902    75691808.888        2202.239          42.000  
G17  21105760.920   110911514.241        3309.566          32.000                                                                  
G14  21723664.144   114158606.162        1855.248          33.000                                                                  
> 2025 04 18 00 17 20.9880000  0 11                     
G27  19386290.402   101875665.063       -3181.715          38.000    19386293.032    79383601.953       -2479.253          41.000  
G08  16863512.835    88618383.744       -1618.206          47.000    16863514.257    69053325.690       -1260.864          45.000  
G04  18692768.267    98231168.683       -2784.922          41.000    18692770.047    76543728.075       -2170.358          42.000  
G30  21050415.018   110620698.360        3427.513          35.000    21050420.264    86197954.996        2670.578          32.000  
G09  18097129.581    95101054.652       -1423.083          44.000    18097131.121    74104727.771       -1108.819          43.000  
G01  19294439.779   101392952.167        2999.545          39.000    19294441.456    79007494.826        2337.398          41.000  
G16  21005706.371                       -1846.962          33.000                                                                  
G02  17806188.038    93572139.011        1468.610          44.000                                                                  
G07  18484179.006    97135013.075        2826.497          45.000    18484178.107    75689606.463        2202.393          42.000  
G17  21105131.361   110908205.130        3308.518          32.000                                                                  
G14  21723311.082   114156750.817        1855.250          32.000                                                                  
> 2025 04 18 00 17 21.9880000  0 11                     
G27  19386895.794   101878846.823       -3181.584          38.000    19386898.512    79386081.246       -2479.336          41.000  
G08  16863820.823    88620002.312       -1618.720          47.000    16863822.267    69054586.931       -1261.438          45.000  
G04  18693298.365    98233954.076       -2785.422          41.000    18693300.149    76545898.498       -2170.510          42.000  
G30  21049762.851   110617271.058        3427.393          35.000    21049768.038    86195284.363        2670.699          32.000  
G09  18097400.476    95102478.126       -1423.704          44.000    18097402.066    74105836.977       -1109.273          43.000  
G01  19293869.052   101389952.755        2999.092          39.000    19293870.617    79005157.614        2337.172          41.000  
G16  21006057.942   110387579.2683      -1847.923          32.000                                                                  
G02  17805908.620    93570670.775        1468.083          45.000                                                                  
G07  18483641.189    97132186.846        2826.106          46.000    18483640.328    75687404.196        2202.352          42.000  
G17  21104501.796   110904896.273        3308.794          32.000                                                                  
G14  21722957.902   114154895.463        1855.543          33.000                                                                  
> 2025 04 18 00 17 22.9880000  0 11                     
G27  19387501.356   101882028.666       -3181.844          38.000    19387504.060    79388560.585       -2479.292          41.000  
G08  16864128.834    88621621.247       -1619.110          47.000    16864130.291    69055848.425       -1261.627          45.000  
G04  18693828.468    98236739.604       -2785.445          41.000    18693830.263    76548069.046       -2170.753          42.000  
G30  21049110.690   110613843.687        3427.498          35.000    21049115.784    86192613.678        2671.247          33.000  
G09  18097671.391    95103901.995       -1424.065          44.000    18097673.017    74106946.476       -1109.545          43.000  
G01  19293298.258   101386953.371        2999.258          39.000    19293299.831    79002820.435        2336.987          41.000  
G16  21006409.306   110389426.3302      -1847.266          32.000                                                                  
G02  17805629.415    93569203.026        1467.472          45.000                                                                  
G07  18483103.364    97129360.725        2825.893          45.000    18483102.534    75685202.036        2201.943          42.000  
G17  21103872.267   110901587.582        3308.636          32.000                                                                  
G14  21722604.844   114153040.043        1855.192          33.000                                                                  
> 2025 04 18 00 17 23.9880000  0 11                     
G27  19388106.796   101885210.672       -3182.003          38.000    19388109.669    79391040.089       -2479.817          41.000  
G08  16864437.059    88623240.654       -1619.846          48.000    16864438.540    69057110.300       -1262.172          45.000  
G04  18694358.652    98239525.413       -2785.968          41.000    18694360.394    76550239.808       -2171.073          42.000  
G30  21048458.495   110610416.323        3427.150          35.000    21048463.654    86189943.015        2670.669          32.000  
G09  18097942.414    95105326.386       -1424.885          44.000    18097944.057    74108056.394       -1110.259          43.000  
G01  19292727.488   101383954.156        2999.375          39.000    19292728.980    79000483.391        2336.888          41.000  
G16  21006760.650   110391273.4322      -1848.066          32.000                                                                  
G02  17805350.233    93567735.865        1466.774          45.000                                                                  
G07  18482565.662    97126534.840        2825.664          45.000    18482564.817    75683000.038        2201.694          42.000  
G17  21103242.766   110898279.214        3307.701          33.000                                                                  
G14  21722251.972   114151184.588        1856.222          33.000                                                                  
> 2025 04 18 00 17 24.9880000  0 11                     
G27  19388712.292   101888392.761       -3182.369          38.000    19388715.162    79393519.618       -2479.697          41.000  
G08  16864745.352    88624860.442       -1619.915          48.000    16864746.813    69058372.479       -1262.391          45.000  
G04  18694888.793    98242311.391       -2786.000          41.000    18694890.503    76552410.687       -2171.052          42.000  
G30  21047806.304   110606988.889        3427.508          36.000    21047811.562    86187272.296        2670.897          32.000  
G09  18098213.567    95106751.183       -1425.023          44.000    18098215.103    74109166.618       -1110.287          43.000  
G01  19292156.746   101380955.029        2999.149          39.000    19292158.321    78998146.408        2336.856          41.000  
G16  21007111.972   110393119.8821      -1847.165          32.000                                                                  
G02  17805071.126    93566269.207        1466.214          45.000                                                                  
G07  18482027.909    97123709.111        2825.599          45.000    18482027.125    75680798.167        2201.895          42.000  
G17  21102613.281   110894971.034        3307.472          33.000                                                                  
G14  21721899.034   114149329.187        1855.114          33.000                                                                  
> 2025 04 18 00 17 25.9880000  0 11                     
G27  19389317.844   101891574.945       -3181.957          38.000    19389320.615    79395999.262       -2479.952          40.000  
G08  16865053.590    88626480.658       -1620.466          48.000    16865055.092    69059634.980       -1262.671          45.000  
G04  18695419.059    98245097.588       -2786.277          41.000    18695420.765    76554581.738       -2171.268          42.000  
G30  21047153.936   110603561.424        3427.536          36.000    21047159.402    86184601.530        2671.518          32.000  
G09  18098484.839    95108176.453       -1425.515          44.000    18098486.313    74110277.236       -1111.050          43.000  
G01  19291586.065   101377956.011        2999.020          38.000    19291587.646    78995809.504        2337.003          41.000  
G16  21007463.390   110394966.828       -1847.121          32.000                                                                  
G02  17804792.230    93564803.091        1465.841          45.000                                                                  
G07  18481490.108    97120883.566        2825.401          45.000    18481489.349    75678596.464        2201.354          42.000  
G17  21101983.737   110891663.081        3308.076          33.000                                                                  
G14  21721545.932   114147473.737        1855.648          33.000                                                                  
> 2025 04 18 00 17 26.9880000  0 11                     
G27  19389923.330   101894757.294       -3182.508          38.000    19389926.184    79398478.981       -2479.601          40.000  
G08  16865362.070    88628101.294       -1620.673          48.000    16865363.582    69060897.809       -1262.922          45.000  
G04  18695949.340    98247883.998       -2786.313          41.000    18695950.941    76556752.962       -2171.266          42.000  
G30  21046501.621   110600133.956        3427.863          36.000    21046507.041    86181930.811        2670.417          32.000  
G09  18098756.149    95109602.188       -1425.864          44.000    18098757.686    74111388.182       -1111.053          43.000  
G01  19291015.349   101374957.108        2998.909          39.000    19291017.008    78993472.693        2337.021          41.000  
G16  21007814.815   110396813.668       -1845.233          32.000                                                                  
G02  17804513.268    93563337.498        1465.645          45.000                                                                  
G07  18480952.466    97118058.206        2825.410          45.000    18480951.629    75676394.850        2201.896          42.000  
G17  21101354.341   110888355.389        3307.565          33.000                                                                  
G14  21721192.725   114145618.270        1856.066          33.000                                                                  
> 2025 04 18 00 17 27.9880000  0 11                     
G27  19390528.961   101897939.644       -3182.309          38.000    19390531.749    79400958.748       -2479.822          41.000  
G08  16865670.553    88629722.265       -1621.007          48.000    16865672.063    69062160.907       -1263.271          45.000  
G04  18696479.608    98250670.515       -2786.411          41.000    18696481.268    76558924.276       -2171.382          42.000  
G30  21045849.332   110596706.357        3427.727          35.000    21045854.821    86179259.980        2669.818          33.000  
G09  18099027.486    95111028.286       -1426.342          44.000    18099029.048    74112499.422       -1111.434          43.000  
G01  19290444.615   101371958.211        2999.065          39.000    19290446.340    78991135.918        2336.838          42.000  
G16  21008166.293   110398660.474       -1847.405          32.000                                                                  
G02  17804234.509    93561872.384        1464.960          45.000                                                                  
G07  18480414.933    97115232.943        2825.181          45.000    18480413.889    75674193.360        2201.696          42.000  
G17  21100724.934   110885047.843        3307.260          33.000                                                                  
G14  21720839.609   114143762.726        1855.219          33.000                                                                  
> 2025 04 18 00 17 28.9880000  0 11                     
G27  19391134.479   101901122.035       -3182.347          38.000    19391137.392    79403438.530       -2479.911          41.000  
G08  16865979.057    88631343.593       -1621.392          48.000    16865980.615    69063424.274       -1263.514          45.000  
G04  18697009.864    98253457.194       -2786.932          41.000    18697011.585    76561095.707       -2171.431          42.000  
G30  21045197.142   110593278.678        3427.643          36.000    21045202.616    86176589.034        2670.829          32.000  
G09  18099298.867    95112454.776       -1426.799          44.000    18099300.512    74113610.973       -1111.903          43.000  
G01  19289873.850   101368959.384        2998.685          39.000    19289875.634    78988799.167        2336.771          42.000  
G16  21008517.684   110400507.013       -1846.322          32.000                                                                  
G02  17803955.867    93560407.727        1464.244          45.000                                                                  
G07  18479877.403    97112407.802        2825.002          45.000    18479876.334    75671991.964        2201.250          42.000  
G17  21100095.587   110881740.487        3307.015          33.000                                                                  
G14  21720486.689   114141907.033        1855.947          33.000                                                                  
> 2025 04 18 00 17 29.9880000  0 11                     
G27  19391740.065   101904304.596       -3182.657          38.000    19391743.033    79405918.451       -2480.216          41.000  
G08  16866287.714    88632965.369       -1621.912          48.000    16866289.223    69064687.996       -1263.980          45.000  
G04  18697540.153    98256244.099       -2786.961          41.000    18697541.906    76563267.321       -2171.727          42.000  
G30  21044544.893   110589850.984        3427.384          36.000    21044550.013    86173918.044        2671.797          32.000  
G09  18099570.370    95113881.758       -1427.105          44.000    18099572.148    74114722.912       -1112.138          43.000  
G01  19289303.203   101365960.709        2998.527          39.000    19289304.930    78986462.526        2336.569          42.000  
G16  21008869.152   110402353.617       -1846.615          32.000                                                                  
G02  17803677.180    93558943.625        1463.973          45.000                                                                  
G07  18479339.846    97109582.865        2824.911          45.000    18479338.754    75669790.698        2201.385          42.000  
G17  21099466.245   110878433.345        3307.473          33.000                                                                  
G14  21720133.497   114140051.382        1856.240          33.000                                                                  
> 2025 04 18 00 17 30.9880000  0 11                     
G27  19392345.706   101907487.206       -3183.017          38.000    19392348.621    79408398.382       -2480.037          41.000  
G08  16866596.386    88634587.512       -1622.586          48.000    16866597.877    69065952.008       -1264.363          45.000  
G04  18698070.567    98259031.181       -2787.459          41.000    18698072.359    76565439.064       -2172.014          42.000  
G30  21043892.677   110586423.203        3427.340          36.000    21043897.340    86171247.088        2670.556          32.000  
G09  18099841.936    95115309.150       -1427.909          44.000    18099843.799    74115835.149       -1112.462          43.000  
G01  19288732.601   101362962.079        2998.393          39.000    19288734.344    78984125.930        2336.365          42.000  
G16  21009220.502   110404198.5673      -1846.852          32.000                                                                  
G02  17803398.659    93557480.022        1463.132          45.000                                                                  
G07  18478802.290    97106758.067        2824.603          45.000    18478801.230    75667589.569        2200.971          42.000  
G17  21098837.040   110875126.476        3306.299          33.000                                                                  
G14  21719780.408   114138195.681        1856.150          33.000                                                                  
> 2025 04 18 00 17 31.9880000  0 11                     
G27  19392951.452   101910670.035       -3182.930          38.000    19392954.302    79410878.525       -2480.433          41.000  
G08  16866905.164    88636210.189       -1622.956          48.000    16866906.667    69067216.429       -1264.742          45.000  
G04  18698600.926    98261818.576       -2787.680          41.000    18698602.761    76567611.048       -2172.031          42.000  
G30  21043240.264   110582995.531        3427.192          36.000    21043245.305    86168576.192        2670.910          32.000  
G09  18100113.809    95116737.112       -1428.325          44.000    18100115.586    74116947.858       -1112.908          43.000  
G01  19288162.079   101359963.670        2998.276          39.000    19288163.756    78981789.508        2336.416          41.000  
G16  21009571.935   110406045.0562      -1846.772          33.000                                                                  
G02  17803120.327    93556017.067        1462.643          45.000                                                                  
G07  18478264.832    97103933.563        2824.450          45.000    18478263.683    75665388.646        2200.912          42.000  
G17  21098207.886   110871819.914        3305.968          33.000                                                                  
G14  21719427.317   114136340.104        1855.292          33.000                                                                  
> 2025 04 18 00 17 32.9880000  0 11                     
G27  19393557.114   101913853.144       -3183.310          38.000    19393560.026    79413358.850       -2480.554          41.000  
G08  16867214.021    88637833.426       -1623.647          48.000    16867215.499    69068481.281       -1265.151          45.000  
G04  18699131.435    98264606.305       -2787.879          41.000    18699133.226    76569783.313       -2172.453          42.000  
G30  21042588.049   110579567.954        3427.243          36.000    21042593.228    86165905.357        2670.265          32.000  
G09  18100385.650    95118165.663       -1428.865          44.000    18100387.348    74118061.020       -1113.476          43.000  
G01  19287591.501   101356965.513        2997.931          39.000    19287593.083    78979453.281        2336.067          41.000  
G16  21009923.441   110407891.6402      -1847.479          33.000                                                                  
G02  17802842.075    93554554.786        1461.781          45.000                                                                  
G07  18477727.421    97101109.379        2823.979          45.000    18477726.285    75663188.000        2200.310          42.000  
G17  21097578.680   110868513.751        3305.892          33.000                                                                  
G14  21719074.080   114134484.638        1854.635          33.000                                                                  
> 2025 04 18 00 17 33.9880000  0 11                     
G27  19394162.864   101917036.406       -3183.233          38.000    19394165.735    79415839.309       -2480.791          40.000  
G08  16867522.949    88639457.122       -1623.976          48.000    16867524.482    69069746.505       -1265.504          45.000  
G04  18699661.981    98267394.294       -2788.090          41.000    18699663.705    76571955.768       -2172.595          42.000  
G30  21041935.815   110576140.345        3427.907          36.000    21041941.040    86163234.507        2671.312          33.000  
G09  18100657.636    95119594.726       -1429.384          44.000    18100659.284    74119174.560       -1113.555          43.000  
G01  19287021.029   101353967.512        2998.072          39.000    19287022.598    78977117.173        2335.994          42.000  
G16  21010274.847   110409738.1782      -1846.570          33.000                                                                  
G02  17802563.957    93553093.090        1461.367          45.000                                                                  
G07  18477189.981    97098285.427        2823.754          46.000    18477188.890    75660987.506        2200.457          42.000  
G17  21096949.682   110865207.838        3305.878          33.000                                                                  
G14  21718721.073   114132629.134        1855.649          33.000                                                                  
> 2025 04 18 00 17 34.9880000  0 11                     
G27  19394768.727   101920219.838       -3183.227          38.000    19394771.410    79418319.901       -2480.804          40.000  
G08  16867832.060    88641081.311       -1624.488          48.000    16867833.483    69071012.098       -1265.809          45.000  
G04  18700192.707    98270182.564       -2788.265          41.000    18700194.338    76574128.427       -2172.453          42.000  
G30  21041283.638   110572712.822        3427.627          36.000    21041288.812    86160563.698        2670.996          33.000  
G09  18100929.650    95121024.315       -1429.960          44.000    18100931.388    74120288.535       -1114.398          43.000  
G01  19286450.458   101350969.694        2997.640          39.000    19286452.243    78974781.213        2335.875          42.000  
G16  21010626.288   110411584.6622      -1846.130          33.000                                                                  
G02  17802285.902    93551632.000        1460.741          45.000                                                                  
G07  18476652.606    97095461.726        2823.544          46.000    18476651.626    75658787.223        2200.120          42.000  
G17  21096320.532   110861902.292        3305.351          33.000                                                                  
G14  21718367.996   114130773.723        1855.148          33.000                                                                  
> 2025 04 18 00 17 35.9880000  0 11                     
G27  19395374.551   101923403.505       -3183.934          38.000    19395377.259    79420800.672       -2480.739          40.000  
G08  16868141.196    88642706.019       -1624.947          48.000    16868142.630    69072278.110       -1266.249          45.000  
G04  18700723.386    98272971.155       -2788.703          41.000    18700725.017    76576301.353       -2172.923          42.000  
G30  21040631.485   110569285.359        3427.755          36.000    21040636.276    86157892.949        2670.789          32.000  
G09  18101201.757    95122454.460       -1430.375          44.000    18101203.535    74121402.929       -1114.603          43.000  
G01  19285879.996   101347972.106        2996.957          39.000    19285881.726    78972445.425        2335.689          42.000  
G16  21010977.744   110413431.3782      -1847.184          33.000                                                                  
G02  17802008.013    93550171.551        1460.038          45.000                                                                  
G07  18476115.358    97092638.305        2823.308          45.000    18476114.390    75656587.158        2199.978          42.000  
G17  21095691.617   110858597.070        3304.625          33.000                                                                  
G14  21718014.950   114128918.389        1855.012          33.000                                                                  
> 2025 04 18 00 17 36.9880000  0 11                     
G27  19395980.376   101926587.352       -3183.921          38.000    19395983.216    79423281.595       -2481.024          40.000  
G08  16868450.491    88644331.225       -1625.453          48.000    16868451.823    69073544.495       -1266.578          45.000  
G04  18701254.041    98275760.038       -2789.210          41.000    18701255.864    76578474.513       -2173.516          42.000  
G30  21039979.256   110565857.955        3427.347          36.000    21039983.682    86155222.257        2670.221          32.000  
G09  18101474.014    95123885.162       -1431.203          44.000    18101475.750    74122517.747       -1115.002          43.000  
G01  19285309.711   101344974.686        2997.130          39.000    19285311.370    78970109.784        2335.397          42.000  
G16  21011329.134   110415277.3971      -1844.492          33.000                                                                  
G02  17801730.201    93548711.713        1459.572          45.000                                                                  
G07  18475578.236    97089815.164        2822.908          46.000    18475577.050    75654387.310        2199.708          42.000  
G17  21095062.819   110855292.162        3304.688          33.000                                                                  
G14  21717661.994   114127063.135        1855.045          33.000                                                                  
> 2025 04 18 00 17 37.9880000  0 11                     
G27  19396586.261   101929771.361       -3184.306          38.000    19396589.206    79425762.643       -2480.914          40.000  
G08  16868759.813    88645956.879       -1625.751          48.000    16868761.140    69074811.252       -1267.063          45.000  
G04  18701784.749    98278549.134       -2789.117          41.000    18701786.621    76580647.837       -2173.479          42.000  
G30  21039327.101   110562430.560        3427.323          36.000    21039331.200    86152551.548        2670.675          32.000  
G09  18101746.424    95125316.334       -1431.509          44.000    18101748.110    74123632.964       -1115.459          43.000  
G01  19284739.284   101341977.403        2997.504          39.000    19284741.068    78967774.256        2335.413          42.000  
G16  21011680.465   110417124.116       -1847.287          32.000                                                                  
G02  17801452.600    93547252.452        1459.097          45.000                                                                  
G07  18475041.055    97086992.226        2822.959          46.000    18475039.796    75652187.607        2199.709          42.000  
G17  21094433.922   110851987.512        3304.629          33.000                                                                  
G14  21717308.942   114125207.827        1856.109          33.000                                                                  
> 2025 04 18 00 17 38.9880000  0 11                     
G27  19397192.261   101932955.451       -3184.529          38.000    19397195.021    79428243.757       -2481.195          40.000  
G08  16869069.191    88647582.946       -1626.357          48.000    16869070.538    69076078.308       -1267.224          45.000  
G04  18702315.558    98281338.437       -2789.485          41.000    18702317.290    76582821.307       -2173.563          42.000  
G30  21038674.922   110559003.106        3427.712          36.000    21038678.876    86149880.767        2671.645          33.000  
G09  18102018.787    95126747.947       -1431.944          44.000    18102020.539    74124748.492       -1115.628          43.000  
G01  19284168.877   101338980.227        2997.040          39.000    19284170.698    78965438.792        2335.445          42.000  
G16  21012031.886   110418970.581       -1845.647          32.000                                                                  
G02  17801174.938    93545793.709        1458.429          45.000                                                                  
G07  18474503.942    97084169.464        2822.426          46.000    18474502.638    75649988.061        2199.376          42.000  
G17  21093804.926   110848683.094        3304.171          33.000                                                                  
G14  21716955.739   114123352.581        1854.419          33.000                                                                  
