     3.04           OBSERVATION DATA    G: GPS              RINEX VERSION / TYPE
RTKCONV demo5 b34i                      20250515 101702 UTC PGM / RUN BY / DATE 
format: u-blox UBX                                          COMMENT             
log: D:\20242\NGUYENDS\GNSS_DOA_Spoofing\hai\ngoc\2025-04-18COMMENT             
                                                            MARKER NAME         
                                                            MARKER NUMBER       
                                                            MARKER TYPE         
                                                            OBSERVER / AGENCY   
                                                            REC # / TYPE / VERS 
                                                            ANT # / TYPE        
 -1626585.2029  5730526.7279  2271870.7255                  APPROX POSITION XYZ 
        0.0000        0.0000        0.0000                  ANTENNA: DELTA H/E/N
G    8 C1C L1C D1C S1C C2X L2X D2X S2X                      SYS / # / OBS TYPES 
  2025    04    17    23    59   58.9900000     GPS         TIME OF FIRST OBS   
  2025    04    18    01    00   16.9890000     GPS         TIME OF LAST OBS    
G L1C                                                       SYS / PHASE SHIFT   
G L2X  0.00000                                              SYS / PHASE SHIFT   
  0                                                         GLONASS SLOT / FRQ #
                                                            GLONASS COD/PHS/BIS 
                                                            END OF HEADER       
> 2025 04 17 23 59 58.9900000  0  9                     
G07  19392433.394   101907939.3271       3080.490          38.000    19392433.400    79408795.4331       2400.440          38.000  
G04  18498737.750    97211515.1021      -2388.309          36.000    18498737.456    75749292.7311      -1861.288          40.000  
G26  22621323.702   118875877.4021      -1656.176          26.000    22621335.325    92630575.5671      -1291.066          34.000  
G27  19103322.287   100388608.6101      -2891.693          37.000    19103324.275    78224967.4931      -2252.810          37.000  
G08  16921738.770    88924372.5701      -1015.604          42.000    16921740.356    69291759.4411       -791.194          42.000  
G02  18482013.812    97123630.6641       2093.409          39.000                                                                  
G09  18197937.308    95630800.1391       -781.880          39.000    18197937.244    74517541.4321       -609.473          39.000  
G01  20228967.226   106303938.0301       3169.272          32.000    20228970.399    82834225.0061       2469.643          37.000  
G16  20964857.271   110171021.5761      -1804.785          33.000                                                                  
> 2025 04 18 00 00 41.9900000  0  9                     
G07  19367238.078   101775535.442        3077.504          38.000    19367237.575    79305623.599        2398.026          37.000  
G04  18518334.613    97314497.040       -2401.515          36.000    18518334.570    75829538.265       -1871.377          40.000  
G26  22634866.902   118947046.465       -1653.972          27.000    22634878.189    92686031.693       -1288.788          33.000  
G27  19127017.900   100513129.646       -2900.167          37.000    19127019.691    78321996.785       -2260.024          37.000  
G08  16930134.751    88968495.818       -1036.550          41.000    16930136.901    69326141.193        -807.958          42.000  
G02  18464955.526    97033991.059        2075.648          39.000                                                                  
G09  18204430.146    95664919.149        -804.872          38.000    18204430.104    74544127.607        -626.950          38.000  
G01  20203031.244   106167639.454        3170.268          33.000    20203033.527    82728018.395        2470.262          39.000  
G16  20979605.661   110248528.876       -1800.091          33.000                                                                  
> 2025 04 18 00 03 49.9900000  0  9                     
G07  19257466.752   101198685.199        3057.892          37.000    19257466.293    78856130.131        2382.182          38.000  
G04  18605333.542    97771674.420       -2462.007          37.000    18605333.620    76185779.900       -1918.659          40.000  
G26  22693933.899                       -1648.664          24.000    22693946.059    92927901.813       -1285.268          28.000  
G27  19231489.681   101062131.915       -2940.334          36.000    19231491.555    78749790.349       -2291.350          38.000  
G08  16968932.316    89172377.173       -1132.246          41.000    16968933.927    69485009.750        -882.395          41.000  
G02  18392224.743    96651788.822        1988.756          39.000                                                                  
G09  18235044.324    95825794.617        -907.098          38.000    18235044.829    74669484.820        -706.430          39.000  
G01  20089652.076   105571830.732        3166.694          34.000    20089655.704    82263752.116        2467.945          39.000  
G16  21043778.697   110585758.764       -1787.349          31.000                                                                  
> 2025 04 18 00 06 16.9900000  0  9                     
G07  19172156.191   100750376.012        3040.268          38.000    19172155.680    78506798.455        2369.544          37.000  
G04  18674817.122    98136812.495       -2506.917          36.000    18674817.563    76470302.646       -1952.840          40.000  
G26  22740001.486   119499529.1381      -1646.635          28.000    22740015.340    93116542.876       -1282.524          31.000  
G27  19314134.776   101496438.970       -2969.248          35.000    19314137.810    79088211.017       -2313.480          40.000  
G08  17001616.103    89344129.981       -1205.261          41.000    17001618.146    69618843.033        -938.937          42.000  
G02  18337541.032    96364424.409        1918.909          39.000                                                                  
G09  18261491.321    95964780.803        -984.918          38.000    18261493.213    74777785.510        -767.272          39.000  
G01  20001115.795   105106567.141        3161.055          34.000    20001118.470    81901209.177        2463.783          39.000  
G16  21093639.271   110847775.197       -1778.230          29.000                                                                  
> 2025 04 18 00 07 17.9900000  0  9                     
G07  19136908.782   100565149.948        3033.790          38.000    19136908.574    78362466.527        2363.979          38.000  
G04  18704012.273    98290236.984       -2522.762          36.000    18704013.204    76589854.064       -1965.808          40.000  
G26  22759096.571   119599854.6021      -1643.270          28.000    22759111.853    93194736.922       -1280.063          30.000  
G27  19348665.359   101677898.011       -2978.937          34.000    19348668.685    79229607.494       -2321.364          40.000  
G08  17015774.937    89418532.964       -1233.350          41.000    17015775.923    69676819.341        -961.230          41.000  
G02  18315432.857    96248246.432        1890.688          40.000                                                                  
G09  18273106.645    96025815.338       -1015.876          38.000    18273107.558    74825344.789        -791.141          39.000  
G01  19964427.129   104913771.941        3160.528          35.000    19964430.835    81750979.279        2462.309          39.000  
G16  21114253.329   110956147.3081      -1772.895          30.000                                                                  
> 2025 04 18 00 07 58.9900000  0  9                     
G07  19113258.590   100440866.842        3027.827          38.000    19113258.638    78265622.600        2358.843          37.000  
G04  18723738.549    98393897.337       -2534.764          36.000    18723739.654    76670628.271       -1975.073          41.000  
G26  22771918.663   119667221.0241      -1643.076          26.000    22771927.294    93247215.190       -1279.769          33.000  
G27  19371935.903   101800183.251       -2987.338          34.000    19371939.071    79324894.536       -2327.506          40.000  
G08  17025471.373    89469489.546       -1253.383          41.000    17025472.988    69716525.739        -976.628          41.000  
G02  18300756.221    96171119.025        1870.515          39.000                                                                  
G09  18281108.267    96067863.069       -1036.647          38.000    18281109.364    74858109.225        -807.841          39.000  
G01  19939776.932   104784228.680        3157.837          34.000    19939778.733    81650036.506        2460.509          38.000  
G16  21128072.703   111028764.653       -1770.507          30.000                                                                  
> 2025 04 18 00 08 45.9900000  0  9                     
G07  19086208.886   100298722.142        3021.820          39.000    19086208.924    78154860.541        2354.167          37.000  
G04  18746470.682    98513354.819       -2547.953          36.000    18746472.283    76763711.873       -1985.195          41.000  
G26  22786611.290                       -1642.339          26.000    22786619.420    93307403.4211      -1280.011          30.000  
G27  19398690.250   101940776.805       -2995.062          35.000    19398693.176    79434447.794       -2333.691          40.000  
G08  17036784.320    89528937.751       -1275.942          41.000    17036785.725    69762848.943        -994.004          41.000  
G02  18284133.539    96083769.215        1847.539          39.000                                                                  
G09  18290491.688    96117175.097       -1061.177          37.000    18290492.983    74896534.091        -826.949          39.000  
G01  19911548.173   104635885.074        3154.641          34.000    19911549.665    81534444.138        2458.827          38.000  
G16  21143897.711   111111921.827       -1767.229          31.000                                                                  
> 2025 04 18 00 10 49.9900000  0  9                     
G07  19015122.624    99925153.595        3003.586          38.000    19015121.454    77863768.219        2340.244          38.000  
G04  18806985.683    98831358.664       -2580.654          36.000    18806986.869    77011506.720       -2011.059          41.000  
G26  22825330.309                       -1640.498          25.000    22825346.145    93465962.188       -1277.793          31.000  
G27  19469608.827   102313456.278       -3015.436          36.000    19469612.236    79724847.001       -2349.736          40.000  
G08  17067571.686    89690726.227       -1333.475          41.000    17067573.484    69888917.717       -1038.966          42.000  
G02  18241276.984    95858554.612        1784.780          39.000                                                                  
G09  18316265.616    96252617.002       -1123.419          38.000    18316266.830    75002073.075        -875.322          39.000  
G01  19837185.388   104245109.285        3146.320          33.000    19837188.020    81229943.697        2452.707          38.000  
G16  21185509.477   111330587.421       -1759.191          32.000                                                                  
> 2025 04 18 00 11 55.9890000  0  9                     
G07  18977453.671    99727202.491        2995.230          38.000    18977452.652    77709520.610        2333.822          38.000  
G04  18839498.580    99002214.163       -2596.465          35.000    18839499.197    77144640.665       -2023.154          41.000  
G26  22845915.713                       -1638.100          22.000    22845930.218    93550248.817       -1275.922          27.000  
G27  19507538.366   102512777.227       -3024.015          36.000    19507542.058    79880161.822       -2356.620          40.000  
G08  17084501.584    89779694.663       -1362.144          42.000    17084503.174    69958243.682       -1061.320          41.000  
G02  18219060.040    95741805.468        1752.859          39.000                                                                  
G09  18330572.145    96327798.939       -1154.747          38.000    18330573.597    75060656.318        -899.432          39.000  
G01  19797678.779   104037503.972        3144.221          34.000    19797682.255    81068173.441        2449.894          39.000  
G16  21207571.639   111446524.828       -1753.044          33.000                                                                  
> 2025 04 18 00 13 01.9890000  0 10                     
G07  18939912.233    99529923.993        2983.542          38.000    18939911.636    77555797.107        2324.818          39.000  
G04  18872218.612    99174167.969       -2613.330          35.000    18872220.684    77278630.454       -2036.792          41.000  
G27  19545594.537   102712761.342       -3035.247          36.000    19545598.106    80035993.435       -2365.278          39.000  
G30  21534417.463   113164115.5121       3529.736          30.000                                                                  
G08  17101808.288    89870643.680       -1393.250          42.000    17101810.120    70029112.992       -1085.522          40.000  
G02  18197267.636    95627285.272        1717.772          39.000                                                                  
G09  18345287.276    96405127.001       -1187.696          38.000    18345288.677    75120911.884        -925.863          39.000  
G01  19758236.672   103830233.063        3136.933          34.000    19758239.312    80906663.708        2444.802          39.000  
G16  21229580.697   111562187.668       -1750.869          30.000                                                                  
G26                                                                  22866503.936    93634511.4101      -1276.098          32.000  
> 2025 04 18 00 13 53.9890000  0 10                     
G07  18910423.654    99374956.537        2976.232          38.000    18910422.632    77435043.292        2319.071          39.000  
G04  18898136.381    99310367.285       -2624.692          34.000    18898138.762    77384759.600       -2045.456          41.000  
G27  19575657.231   102870741.490       -3041.460          35.000    19575660.638    80159094.715       -2370.070          38.000  
G30  21499467.713   112980449.115        3533.835          31.000                                                                  
G08  17115700.526    89943647.648       -1415.152          41.000    17115702.389    70085999.157       -1102.662          40.000  
G02  18180394.345    95538616.132        1692.214          39.000                                                                  
G09  18357159.581    96467516.807       -1211.838          38.000    18357161.290    75169527.260        -944.499          39.000  
G01  19727204.601   103667158.015        3134.174          35.000    19727206.874    80779592.311        2442.080          39.000  
G16  21246879.598   111653095.121       -1746.068          31.000                                                                  
G26                                                                  22882701.614    93700834.3911      -1275.074          32.000  
> 2025 04 18 00 14 33.9890000  0 10                     
G07  18887794.912    99256044.678        2968.755          38.000    18887794.357    77342384.698        2313.563          39.000  
G04  18918155.023    99415563.228       -2635.456          35.000    18918157.118    77466730.319       -2053.256          41.000  
G27  19598829.124   102992511.538       -3047.447          35.000    19598832.802    80253980.356       -2374.560          38.000  
G30  21472565.995   112839078.370        3534.664          31.000                                                                  
G08  17126540.087    90000609.877       -1433.191          41.000    17126542.010    70130385.271       -1117.002          40.000  
G02  18167596.067    95471358.957        1670.551          39.000                                                                  
G09  18366459.472    96516385.045       -1231.881          38.000    18366460.762    75207606.321        -959.677          39.000  
G01  19703364.068   103541870.562        3129.237          35.000    19703365.301    80681965.788        2438.878          38.000  
G16  21260163.750   111722898.471       -1744.498          30.000                                                                  
G26                                                                  22895154.999    93751828.182       -1274.873          29.000  
> 2025 04 18 00 14 34.9890000  0 10                     
G07  18887229.923    99253075.661        2969.230          38.000    18887229.356    77340071.204        2313.496          39.000  
G04  18918656.496    99418198.263       -2635.237          34.000    18918658.530    77468783.591       -2053.135          41.000  
G27  19599409.029   102995558.931       -3046.956          35.000    19599412.655    80256354.962       -2374.906          38.000  
G30  21471893.304   112835543.607        3534.751          31.000                                                                  
G08  17126812.959    90002043.294       -1433.323          41.000    17126814.713    70131502.226       -1117.139          40.000  
G02  18167278.204    95469688.627        1670.227          39.000                                                                  
G09  18366693.892    96517616.885       -1231.868          38.000    18366695.171    75208566.205        -959.953          39.000  
G01  19702768.454   103538740.616        3129.991          35.000    19702769.660    80679526.889        2439.011          38.000  
G16  21260495.749   111724642.621       -1744.127          30.000                                                                  
G26                                                                  22895466.338    93753103.118       -1274.485          29.000  
> 2025 04 18 00 14 35.9890000  0 10                     
G07  18886664.927    99250106.859        2968.201          39.000    18886664.475    77337757.808        2313.376          39.000  
G04  18919157.831    99420833.515       -2635.429          34.000    18919159.981    77470837.054       -2053.771          41.000  
G27  19599988.871   102998606.473       -3047.843          35.000    19599992.672    80258729.644       -2374.933          38.000  
G30  21471220.625   112832008.810        3534.350          30.000                                                                  
G08  17127085.807    90003477.167       -1434.095          41.000    17127087.618    70132619.521       -1117.333          40.000  
G02  18166960.499    95468018.819        1669.353          39.000                                                                  
G09  18366928.446    96518849.223       -1232.251          38.000    18366929.753    75209526.448        -959.918          39.000  
G01  19702172.894   103535610.764        3129.933          36.000    19702174.037    80677088.056        2438.514          38.000  
G16  21260827.544   111726386.687       -1743.872          30.000                                                                  
G26                                                                  22895777.678    93754378.072       -1274.483          29.000  
> 2025 04 18 00 14 36.9890000  0 10                     
G07  18886099.915    99247138.157        2969.134          39.000    18886099.557    77335444.561        2313.336          39.000  
G04  18919659.433    99423469.037       -2635.440          34.000    18919661.556    77472890.683       -2053.789          40.000  
G27  19600568.805   103001654.184       -3048.704          35.000    19600572.577    80261104.427       -2374.492          38.000  
G30  21470547.935   112828473.973        3534.846          30.000                                                                  
G08  17127358.786    90004911.468       -1434.491          41.000    17127360.437    70133737.147       -1117.552          40.000  
G02  18166642.812    95466349.528        1668.938          39.000                                                                  
G09  18367162.952    96520082.058       -1233.160          38.000    18367164.351    75210487.124        -960.999          39.000  
G01  19701577.392   103532481.021        3129.665          36.000    19701578.465    80674649.298        2438.520          38.000  
G16  21261159.278   111728130.730       -1743.682          30.000                                                                  
G26                                                                  22896089.104    93755653.063       -1275.313          30.000  
> 2025 04 18 00 14 37.9890000  0 10                     
G07  18885535.285    99244169.738        2968.288          38.000    18885534.649    77333131.485        2313.358          39.000  
G04  18920160.948    99426104.827       -2636.099          34.000    18920163.142    77474944.535       -2053.987          40.000  
G27  19601148.659   103004702.012       -3048.106          35.000    19601152.535    80263479.387       -2374.949          38.000  
G30  21469875.548   112824939.128        3535.013          30.000                                                                  
G08  17127631.837    90006346.273       -1435.262          41.000    17127633.538    70134855.184       -1118.355          40.000  
G02  18166325.254    95464680.831        1668.003          39.000                                                                  
G09  18367397.721    96521315.407       -1233.681          38.000    18367399.132    75211448.174        -961.591          39.000  
G01  19700981.766   103529351.433        3129.569          36.000    19700982.924    80672210.651        2438.435          38.000  
G16  21261491.236   111729890.2903      -1744.163          31.000                                                                  
G26                                                                  22896400.550    93756928.006       -1275.015          30.000  
> 2025 04 18 00 14 38.9890000  0 10                     
G07  18884970.458    99241201.453        2968.048          38.000    18884969.686    77330818.530        2313.103          39.000  
G04  18920662.559    99428740.802       -2635.558          34.000    18920664.662    77476998.578       -2054.366          41.000  
G27  19601728.768   103007749.971       -3048.373          35.000    19601732.578    80265854.427       -2375.231          38.000  
G30  21469202.901   112821404.243        3535.249          31.000                                                                  
G08  17127904.966    90007781.468       -1435.328          41.000    17127906.663    70135973.531       -1118.519          40.000  
G02  18166007.850    95463012.613        1667.989          39.000                                                                  
G09  18367632.465    96522549.187       -1233.773          38.000    18367633.979    75212409.580        -962.031          39.000  
G01  19700386.189   103526221.902        3129.458          36.000    19700387.257    80669772.058        2438.560          38.000  
G16  21261822.835   111731634.2602      -1745.186          31.000                                                                  
G26                                                                  22896711.990    93758202.973       -1274.663          29.000  
> 2025 04 18 00 14 39.9890000  0 10                     
G07  18884405.646    99238233.276        2968.060          38.000    18884404.872    77328505.688        2312.944          39.000  
G04  18921164.213    99431376.987       -2635.984          34.000    18921166.311    77479052.738       -2054.474          41.000  
G27  19602308.725   103010798.037       -3048.279          35.000    19602312.635    80268229.541       -2375.354          38.000  
G30  21468530.242   112817869.263        3535.028          31.000                                                                  
G08  17128178.086    90009217.095       -1436.050          41.000    17128179.926    70137092.184       -1118.824          40.000  
G02  18165690.565    95461344.878        1667.482          39.000                                                                  
G09  18367867.336    96523783.484       -1235.108          38.000    18367868.830    75213371.340        -962.442          39.000  
G01  19699790.800   103523092.456        3129.099          36.000    19699791.663    80667333.501        2438.612          38.000  
G16  21262154.580   111733378.0432      -1744.238          31.000                                                                  
G26                                                                  22897023.110    93759477.913       -1275.299          29.000  
> 2025 04 18 00 14 40.9890000  0 10                     
G07  18883840.602    99235265.314        2968.000          38.000    18883840.176    77326192.977        2312.777          39.000  
G04  18921665.749    99434013.477       -2636.953          34.000    18921668.025    77481107.125       -2054.701          41.000  
G27  19602888.724   103013846.246       -3048.244          35.000    19602892.719    80270604.779       -2375.440          38.000  
G30  21467857.596   112814334.343        3533.973          31.000                                                                  
G08  17128451.347    90010653.152       -1436.318          41.000    17128453.200    70138211.201       -1119.220          40.000  
G02  18165373.377    95459677.715        1666.986          39.000                                                                  
G09  18368102.237    96525018.180       -1234.668          38.000    18368103.837    75214333.456        -962.286          39.000  
G01  19699195.400   103519963.080        3129.342          36.000    19699196.203    80664895.041        2438.471          38.000  
G16  21262486.534   111735121.8292      -1743.796          31.000                                                                  
G26                                                                  22897334.525    93760752.799       -1275.036          29.000  
> 2025 04 18 00 14 41.9890000  0 10                     
G07  18883275.758    99232297.554        2967.405          38.000    18883275.490    77323880.443        2312.311          39.000  
G04  18922167.479    99436650.190       -2637.524          34.000    18922169.745    77483161.670       -2054.538          41.000  
G27  19603468.952   103016894.643       -3048.802          35.000    19603472.763    80272980.133       -2375.776          38.000  
G30  21467184.751   112810799.258        3535.238          31.000                                                                  
G08  17128724.632    90012089.700       -1436.829          41.000    17128726.597    70139330.588       -1119.666          40.000  
G02  18165056.353    95458011.099        1666.329          39.000                                                                  
G09  18368337.340    96526253.439       -1235.541          38.000    18368338.841    75215295.991        -962.865          39.000  
G01  19698599.967   103516833.863        3129.273          36.000    19698600.672    80662456.681        2438.535          38.000  
G16  21262818.323   111736865.6042      -1743.695          30.000                                                                  
G26                                                                  22897645.918    93762027.764       -1275.061          29.000  
> 2025 04 18 00 14 42.9890000  0 10                     
G07  18882710.991    99229330.001        2967.788          38.000    18882710.766    77321568.073        2312.607          39.000  
G04  18922669.184    99439287.137       -2636.413          34.000    18922671.549    77485216.491       -2055.003          41.000  
G27  19604049.038   103019943.222       -3048.967          35.000    19604052.951    80275355.654       -2375.927          37.000  
G30  21466512.257   112807264.342        3534.954          31.000                                                                  
G08  17128998.050    90013526.741       -1437.343          41.000    17129000.005    70140450.337       -1119.739          40.000  
G02  18164739.316    95456345.093        1665.468          39.000                                                                  
G09  18368572.545    96527489.227       -1235.987          38.000    18368573.965    75216258.913        -962.567          39.000  
G01  19698004.491   103513704.798        3128.927          36.000    19698005.332    80660018.456        2438.311          38.000  
G16  21263150.231   111738608.8721      -1743.594          31.000                                                                  
G26                                                                  22897957.351    93763302.729       -1274.969          29.000  
> 2025 04 18 00 14 43.9890000  0 10                     
G07  18882146.350    99226362.569        2967.657          38.000    18882146.037    77319255.804        2312.153          39.000  
G04  18923171.043    99441924.376       -2637.478          34.000    18923173.406    77487271.435       -2054.952          41.000  
G27  19604629.254   103022991.902       -3049.154          35.000    19604633.019    80277731.226       -2375.580          38.000  
G30  21465839.692   112803729.333        3534.011          31.000                                                                  
G08  17129271.515    90014964.177       -1437.753          41.000    17129273.547    70141570.442       -1120.276          40.000  
G02  18164422.331    95454679.536        1665.264          39.000                                                                  
G09  18368807.776    96528725.453       -1236.408          38.000    18368809.309    75217222.230        -963.518          39.000  
G01  19697409.204   103510575.786        3129.027          35.000    19697409.879    80657580.262        2438.303          38.000  
G16  21263482.193   111740352.513       -1743.705          31.000                                                                  
G26                                                                  22898268.953    93764577.642       -1274.916          29.000  
> 2025 04 18 00 14 44.9890000  0 10                     
G07  18881581.573    99223395.348        2966.667          38.000    18881581.304    77316943.660        2311.982          39.000  
G04  18923672.886    99444561.781       -2637.676          34.000    18923675.257    77489326.569       -2055.622          41.000  
G27  19605209.318   103026040.670       -3048.943          35.000    19605213.122    80280106.927       -2375.938          37.000  
G30  21465167.010   112800194.149        3535.423          31.000                                                                  
G08  17129545.126    90016402.042       -1438.252          41.000    17129547.219    70142690.861       -1120.969          40.000  
G02  18164105.420    95453014.508        1664.694          39.000                                                                  
G09  18369043.161    96529962.154       -1237.120          38.000    18369044.708    75218185.888        -964.186          39.000  
G01  19696813.846   103507446.854        3128.501          35.000    19696814.356    80655142.146        2437.715          39.000  
G16  21263814.118   111742096.157       -1743.990          31.000                                                                  
G26                                                                  22898580.400    93765852.533       -1275.083          29.000  
> 2025 04 18 00 14 45.9890000  0 10                     
G07  18881017.046    99220428.217        2967.577          38.000    18881016.738    77314631.618        2311.982          39.000  
G04  18924174.856    99447199.391       -2637.772          34.000    18924177.158    77491381.831       -2055.160          40.000  
G27  19605789.542   103029089.563       -3048.491          35.000    19605793.245    80282482.665       -2375.525          37.000  
G30  21464494.300   112796658.958        3536.024          30.000                                                                  
G08  17129818.848    90017840.300       -1438.239          41.000    17129820.941    70143811.572       -1120.697          40.000  
G02  18163788.626    95451349.977        1664.574          39.000                                                                  
G09  18369278.514    96531199.259       -1236.985          38.000    18369280.162    75219149.865        -963.937          39.000  
G01  19696218.512   103504317.975        3128.986          35.000    19696218.871    80652704.064        2438.238          39.000  
G16  21264145.885   111743839.649       -1743.936          31.000                                                                  
G26                                                                  22898891.928    93767127.379       -1274.586          29.000  
> 2025 04 18 00 14 46.9890000  0 10                     
G07  18880452.467    99217461.178        2967.121          39.000    18880452.166    77312319.646        2311.882          39.000  
G04  18924676.772    99449837.139       -2638.077          34.000    18924679.134    77493437.228       -2055.630          40.000  
G27  19606369.645   103032138.487       -3048.489          35.000    19606373.439    80284858.487       -2375.910          38.000  
G30  21463821.602   112793123.677        3535.532          31.000                                                                  
G08  17130092.633    90019278.913       -1438.862          41.000    17130094.678    70144932.577       -1121.359          40.000  
G02  18163471.920    95449685.876        1663.759          39.000                                                                  
G09  18369513.959    96532436.797       -1237.847          38.000    18369515.662    75220114.171        -964.578          39.000  
G01  19695623.175   103501189.120        3128.832          35.000    19695623.520    80650266.000        2438.004          39.000  
G16  21264477.639   111745582.991       -1743.942          31.000                                                                  
G26                                                                  22899203.221    93768402.164       -1274.413          29.000  
> 2025 04 18 00 14 47.9890000  0 10                     
G07  18879887.859    99214494.283        2966.739          39.000    18879887.571    77310007.771        2311.913          39.000  
G04  18925178.781    99452475.074       -2637.612          34.000    18925181.176    77495492.761       -2055.623          40.000  
G27  19606949.804   103035187.535       -3049.179          35.000    19606953.722    80287234.339       -2375.859          38.000  
G30  21463148.775   112789588.308        3535.638          31.000                                                                  
G08  17130366.452    90020717.931       -1439.068          41.000    17130368.401    70146053.882       -1121.504          40.000  
G02  18163155.315    95448022.251        1663.606          39.000                                                                  
G09  18369749.471    96533674.732       -1237.837          38.000    18369751.272    75221078.799        -964.576          39.000  
G01  19695027.592   103498060.316        3129.230          35.000    19695028.109    80647827.948        2438.365          39.000  
G16  21264809.351   111747326.236       -1743.608          31.000                                                                  
G26                                                                  22899514.473    93769677.020       -1275.139          28.000  
> 2025 04 18 00 14 48.9890000  0 10                     
G07  18879323.205    99211527.441        2966.553          38.000    18879322.968    77307695.946        2311.610          39.000  
G04  18925680.986    99455113.151       -2638.331          34.000    18925683.234    77497548.414       -2056.095          41.000  
G27  19607529.979   103038236.614       -3049.458          35.000    19607534.062    80289610.225       -2375.421          38.000  
G30  21462476.104   112786052.769        3535.969          31.000                                                                  
G08  17130640.416    90022157.300       -1439.915          41.000    17130642.262    70147175.446       -1121.637          40.000  
G02  18162838.769    95446359.096        1662.471          39.000                                                                  
G09  18369985.090    96534913.087       -1239.013          38.000    18369986.912    75222043.755        -965.358          39.000  
G01  19694432.112   103494931.493        3128.796          35.000    19694432.799    80645389.929        2438.096          39.000  
G16  21265141.040   111749069.204       -1741.461          31.000                                                                  
G26                                                                  22899825.840    93770951.649       -1274.632          29.000  
> 2025 04 18 00 14 49.9890000  0 10                     
G07  18878758.695    99208560.728        2966.331          38.000    18878758.441    77305384.214        2311.580          39.000  
G04  18926182.940    99457751.425       -2638.457          34.000    18926185.277    77499604.188       -2056.008          41.000  
G27  19608110.184   103041285.785       -3049.347          35.000    19608114.277    80291986.225       -2376.428          38.000  
G30  21461803.430   112782517.258        3534.401          31.000                                                                  
G08  17130914.427    90023597.040       -1440.159          41.000    17130916.213    70148297.328       -1121.955          40.000  
G02  18162522.394    95444696.374        1662.482          39.000                                                                  
G09  18370220.848    96536151.842       -1239.182          38.000    18370222.562    75223009.011        -965.608          39.000  
G01  19693836.761   103491802.731        3128.410          34.000    19693837.447    80642951.937        2437.921          39.000  
G16  21265472.703   111750812.6143      -1741.048          30.000                                                                  
G26                                                                  22900137.127    93772226.347       -1275.528          30.000  
> 2025 04 18 00 14 50.9890000  0 10                     
G07  18878194.247    99205594.201        2966.444          38.000    18878193.917    77303072.647        2311.521          39.000  
G04  18926685.021    99460389.952       -2638.847          34.000    18926687.346    77501660.174       -2056.210          41.000  
G27  19608690.390   103044335.090       -3049.435          35.000    19608694.575    80294362.268       -2375.820          38.000  
G30  21461130.568   112778981.555        3536.381          31.000                                                                  
G08  17131188.452    90025037.243       -1440.480          41.000    17131190.281    70149419.583       -1122.628          40.000  
G02  18162206.062    95443034.226        1662.159          39.000                                                                  
G09  18370456.684    96537391.096       -1239.460          38.000    18370458.446    75223974.670        -965.762          39.000  
G01  19693241.225   103488674.072        3129.157          34.000    19693242.105    80640514.029        2438.257          39.000  
G16  21265804.355   111752555.7202      -1743.154          30.000                                                                  
G26                                                                  22900448.536    93773500.923       -1274.215          31.000  
> 2025 04 18 00 14 51.9890000  0 10                     
G07  18877629.744    99202627.915        2966.425          38.000    18877629.395    77300761.252        2311.700          39.000  
G04  18927187.107    99463028.759       -2639.114          35.000    18927189.477    77503716.390       -2056.279          41.000  
G27  19609270.689   103047384.625       -3049.607          35.000    19609274.839    80296738.547       -2376.446          38.000  
G30  21460457.798   112775446.029        3534.900          31.000                                                                  
G08  17131462.593    90026477.957       -1441.104          41.000    17131464.397    70150542.210       -1122.828          40.000  
G02  18161889.858    95441372.683        1661.362          39.000                                                                  
G09  18370692.578    96538630.917       -1240.385          38.000    18370694.293    75224940.765        -966.466          40.000  
G01  19692645.800   103485545.649        3127.865          35.000    19692646.842    80638076.290        2437.612          39.000  
G16  21266136.173   111754298.6762      -1743.701          30.000                                                                  
G26                                                                  22900759.825    93774775.620       -1274.094          30.000  
> 2025 04 18 00 14 52.9890000  0 10                     
G07  18877065.430    99199661.802        2966.396          38.000    18877065.063    77298449.994        2311.059          39.000  
G04  18927689.427    99465667.778       -2639.301          35.000    18927691.743    77505772.746       -2056.284          41.000  
G27  19609850.908   103050434.266       -3049.700          35.000    19609855.146    80299114.874       -2376.417          38.000  
G30  21459784.824   112771910.359        3535.841          31.000                                                                  
G08  17131736.794    90027919.085       -1441.167          41.000    17131738.605    70151665.176       -1123.344          40.000  
G02  18161573.762    95439711.658        1660.568          39.000                                                                  
G09  18370928.615    96539871.187       -1240.686          38.000    18370930.305    75225907.185        -966.426          40.000  
G01  19692050.407   103482417.210        3128.581          35.000    19692051.462    80635638.561        2438.250          39.000  
G16  21266467.806   111756042.5403      -1743.093          30.000                                                                  
G26                                                                  22901071.097    93776050.364       -1274.396          29.000  
> 2025 04 18 00 14 53.9890000  0 10                     
G07  18876500.861    99196695.798        2965.691          38.000    18876500.582    77296138.821        2311.009          39.000  
G04  18928191.571    99468306.969       -2639.419          34.000    18928193.965    77507829.274       -2056.721          41.000  
G27  19610431.337   103053483.957       -3049.508          35.000    19610435.501    80301491.271       -2376.739          38.000  
G30  21459111.885   112768374.569        3536.803          31.000                                                                  
G08  17132011.128    90029360.592       -1441.966          41.000    17132013.003    70152788.400       -1123.056          40.000  
G02  18161257.745    95438051.065        1660.299          39.000                                                                  
G09  18371164.708    96541111.857       -1240.918          38.000    18371166.388    75226873.964        -967.032          40.000  
G01  19691454.954   103479288.854        3128.273          35.000    19691456.240    80633200.888        2437.750          39.000  
G16  21266799.407   111757785.2132      -1741.392          30.000                                                                  
G26                                                                  22901382.177    93777325.062       -1274.905          28.000  
> 2025 04 18 00 14 54.9890000  0 10                     
G07  18875936.460    99193729.906        2965.583          38.000    18875936.201    77293827.740        2310.740          39.000  
G04  18928693.851    99470946.350       -2640.219          35.000    18928696.240    77509885.917       -2056.600          41.000  
G27  19611011.719   103056533.762       -3049.877          35.000    19611015.864    80303867.726       -2376.609          37.000  
G30  21458439.043   112764838.791        3535.458          31.000                                                                  
G08  17132285.463    90030802.499       -1442.336          41.000    17132287.467    70153911.972       -1123.948          40.000  
G02  18160941.855    95436390.981        1659.624          39.000                                                                  
G09  18371400.983    96542352.966       -1241.327          38.000    18371402.526    75227841.070        -967.566          40.000  
G01  19690859.562   103476160.544        3128.252          35.000    19690860.973    80630763.245        2437.714          39.000  
G16  21267131.009   111759527.3891      -1742.155          30.000                                                                  
G26                                                                  22901693.663    93778599.673       -1274.371          28.000  
> 2025 04 18 00 14 55.9890000  0 10                     
G07  18875372.212    99190764.108        2965.772          38.000    18875371.881    77291516.737        2310.942          39.000  
G04  18929196.043    99473585.884       -2639.496          34.000    18929198.553    77511942.692       -2056.628          41.000  
G27  19611592.130   103059583.617       -3050.092          35.000    19611596.179    80306244.232       -2376.470          37.000  
G30  21457766.113   112761302.876        3534.883          31.000                                                                  
G08  17132560.019    90032244.771       -1442.603          41.000    17132561.931    70155035.815       -1123.963          40.000  
G02  18160626.062    95434731.328        1659.314          39.000                                                                  
G09  18371637.278    96543594.462       -1241.423          38.000    18371638.738    75228808.476        -967.750          40.000  
G01  19690264.301   103473032.253        3127.952          35.000    19690265.716    80628325.625        2437.628          39.000  
G16  21267462.651   111761269.869       -1742.150          30.000                                                                  
G26                                                                  22902004.949    93779874.305       -1276.040          29.000  
> 2025 04 18 00 14 56.9890000  0 10                     
G07  18874807.793    99187798.479        2965.632          39.000    18874807.532    77289205.854        2310.715          39.000  
G04  18929698.430    99476225.646       -2640.283          34.000    18929700.843    77513999.637       -2057.019          41.000  
G27  19612172.598   103062633.604       -3050.430          35.000    19612176.610    80308620.847       -2376.806          37.000  
G30  21457093.136   112757766.853        3535.396          31.000                                                                  
G08  17132834.528    90033687.453       -1443.044          41.000    17132836.496    70156159.994       -1124.396          40.000  
G02  18160310.295    95433072.210        1658.644          39.000                                                                  
G09  18371873.629    96544836.457       -1242.240          38.000    18371874.995    75229776.240        -968.346          40.000  
G01  19689668.908   103469904.078        3127.672          36.000    19689670.473    80625888.070        2437.310          38.000  
G16  21267794.343   111763012.314       -1742.583          30.000                                                                  
G26                                                                  22902316.283    93781148.754       -1274.500          31.000  
> 2025 04 18 00 14 57.9890000  0 10                     
G07  18874243.606    99184833.040        2965.316          38.000    18874243.225    77286895.114        2310.733          39.000  
G04  18930200.758    99478865.616       -2639.771          34.000    18930203.261    77516056.786       -2057.254          40.000  
G27  19612752.919   103065683.695       -3049.928          35.000    19612757.074    80310997.562       -2376.957          38.000  
G30  21456420.196   112754230.812        3536.659          31.000                                                                  
G08  17133109.194    90035130.594       -1443.460          41.000    17133111.070    70157284.519       -1124.751          40.000  
G02  18159994.647    95431413.617        1658.333          39.000                                                                  
G09  18372110.034    96546078.919       -1242.844          38.000    18372111.397    75230744.394        -968.407          40.000  
G01  19689073.654   103466775.973        3127.837          36.000    19689075.125    80623450.599        2437.278          38.000  
G16  21268125.930   111764754.711       -1742.600          30.000                                                                  
G26                                                                  22902627.435    93782423.284       -1274.920          31.000  
> 2025 04 18 00 14 58.9890000  0 10                     
G07  18873679.276    99181867.618        2965.341          38.000    18873678.826    77284584.389        2310.872          39.000  
G04  18930703.161    99481505.725       -2640.496          34.000    18930705.608    77518113.987       -2057.213          40.000  
G27  19613333.409   103068733.824       -3050.323          35.000    19613337.492    80313374.279       -2376.886          38.000  
G30  21455747.263   112750694.589        3537.480          31.000                                                                  
G08  17133383.958    90036574.026       -1443.642          41.000    17133385.820    70158409.270       -1124.903          40.000  
G02  18159679.125    95429755.425        1657.776          39.000                                                                  
G09  18372346.465    96547321.718       -1243.073          38.000    18372347.900    75231712.800        -968.619          39.000  
G01  19688478.407   103463647.865        3127.668          36.000    19688479.800    80621013.076        2437.778          38.000  
G16  21268457.426   111766496.820       -1741.779          30.000                                                                  
G26                                                                  22902938.787    93783697.635       -1274.404          31.000  
> 2025 04 18 00 14 59.9890000  0 10                     
G07  18873114.929    99178902.420        2965.354          38.000    18873114.656    77282273.866        2310.260          39.000  
G04  18931205.667    99484146.100       -2640.699          34.000    18931208.094    77520171.426       -2057.548          40.000  
G27  19613913.808   103071784.129       -3050.260          35.000    19613918.062    80315751.105       -2376.406          38.000  
G30  21455074.326   112747158.458        3535.674          31.000                                                                  
G08  17133658.803    90038017.949       -1444.105          41.000    17133660.558    70159534.415       -1125.467          40.000  
G02  18159363.716    95428097.803        1657.213          39.000                                                                  
G09  18372583.038    96548565.070       -1244.222          38.000    18372584.519    75232681.641        -969.453          39.000  
G01  19687883.199   103460519.872        3127.690          36.000    19687884.572    80618575.695        2437.319          38.000  
G16  21268788.756   111768239.040       -1742.038          30.000                                                                  
G26                                                                  22903250.413    93784972.062       -1274.049          31.000  
> 2025 04 18 00 15 00.9890000  0 10                     
G07  18872550.704    99175937.288        2965.263          39.000    18872550.420    77279963.377        2310.159          39.000  
G04  18931708.128    99486786.581       -2640.605          34.000    18931710.660    77522228.959       -2057.859          40.000  
G27  19614494.329   103074834.445       -3050.320          35.000    19614498.446    80318128.000       -2376.753          38.000  
G30  21454401.541   112743622.185        3535.226          31.000                                                                  
G08  17133933.689    90039462.200       -1444.515          41.000    17133935.389    70160659.804       -1125.680          40.000  
G02  18159048.284    95426440.601        1656.676          39.000                                                                  
G09  18372819.664    96549808.728       -1244.116          38.000    18372821.303    75233650.740        -969.434          39.000  
G01  19687288.095   103457391.888        3127.488          36.000    19687289.371    80616138.285        2437.386          38.000  
G16  21269120.220   111769981.006       -1741.567          30.000                                                                  
G26                                                                  22903561.516    93786246.419       -1274.292          32.000  
> 2025 04 18 00 15 01.9890000  0 10                     
G07  18871986.394    99172972.349        2964.854          39.000    18871986.167    77277653.041        2309.643          39.000  
G04  18932210.755    99489427.310       -2641.063          35.000    18932213.190    77524286.665       -2058.065          40.000  
G27  19615074.849   103077884.948       -3050.880          35.000    19615078.953    80320505.004       -2377.257          38.000  
G30  21453728.460   112740085.755        3536.504          31.000                                                                  
G08  17134208.516    90040906.912       -1445.250          41.000    17134210.357    70161785.556       -1126.268          40.000  
G02  18158733.021    95424783.943        1656.300          39.000                                                                  
G09  18373056.408    96551052.913       -1244.271          38.000    18373058.039    75234620.226        -970.000          39.000  
G01  19686692.956   103454263.989        3127.625          36.000    19686694.109    80613700.993        2436.717          38.000  
G16  21269451.949   111771722.984       -1742.125          30.000                                                                  
G26                                                                  22903872.648    93787520.752       -1274.872          32.000  
> 2025 04 18 00 15 02.9890000  0 10                     
G07  18871422.154    99170007.735        2964.627          39.000    18871422.028    77275342.943        2309.767          39.000  
G04  18932713.386    99492068.438       -2641.625          35.000    18932715.807    77526344.662       -2058.101          41.000  
G27  19615655.396   103080935.689       -3051.070          35.000    19615659.474    80322882.208       -2377.313          38.000  
G30  21453055.701   112736549.545        3535.511          31.000                                                                  
G08  17134483.536    90042352.220       -1445.730          41.000    17134485.447    70162911.751       -1126.460          40.000  
G02  18158417.952    95423127.987        1655.282          39.000                                                                  
G09  18373293.283    96552297.745       -1245.296          38.000    18373294.975    75235590.201        -970.171          39.000  
G01  19686097.897   103451136.380        3127.318          36.000    19686098.917    80611263.863        2437.026          38.000  
G16  21269783.416   111773465.029       -1742.478          30.000                                                                  
G26                                                                  22904183.716    93788795.212       -1273.868          33.000  
> 2025 04 18 00 15 03.9890000  0 10                     
G07  18870858.136    99167043.363        2964.369          39.000    18870857.925    77273033.036        2309.646          39.000  
G04  18933216.058    99494709.860       -2641.812          34.000    18933218.525    77528402.909       -2058.373          41.000  
G27  19616235.937   103083986.646       -3051.203          35.000    19616240.070    80325259.572       -2377.132          38.000  
G30  21452382.823   112733013.322        3536.679          31.000                                                                  
G08  17134758.716    90043798.029       -1446.284          41.000    17134760.552    70164038.352       -1126.739          40.000  
G02  18158102.874    95421472.604        1654.636          39.000                                                                  
G09  18373530.225    96553543.099       -1245.851          38.000    18373532.013    75236560.617        -970.696          40.000  
G01  19685502.782   103448008.890        3127.493          36.000    19685503.729    80608826.893        2436.818          39.000  
G16  21270114.883   111775207.078       -1742.834          30.000                                                                  
G26                                                                  22904495.213    93790069.699       -1274.501          34.000  
> 2025 04 18 00 15 04.9890000  0 10                     
G07  18870293.902    99164079.218        2963.905          39.000    18870293.876    77270723.304        2309.505          39.000  
G04  18933718.693    99497351.549       -2642.395          34.000    18933721.199    77530461.368       -2058.524          41.000  
G27  19616816.510   103087037.758       -3050.961          35.000    19616820.633    80327637.100       -2377.577          38.000  
G30  21451710.117   112729477.127        3537.028          31.000                                                                  
G08  17135033.962    90045244.296       -1446.665          41.000    17135035.748    70165165.328       -1127.181          40.000  
G02  18157787.935    95419817.798        1654.541          39.000                                                                  
G09  18373767.324    96554788.968       -1246.262          38.000    18373769.065    75237531.427        -970.971          40.000  
G01  19684907.779   103444881.589        3127.046          36.000    19684908.643    80606390.016        2436.723          39.000  
G16  21270446.412   111776949.092       -1742.010          30.000                                                                  
G26                                                                  22904806.675    93791344.218       -1273.755          34.000  
> 2025 04 18 00 15 05.9890000  0 10                     
G07  18869729.803    99161115.079        2964.210          39.000    18869729.908    77268413.593        2309.559          39.000  
G04  18934221.435    99499993.300       -2641.877          34.000    18934223.888    77532519.873       -2058.254          40.000  
G27  19617397.090   103090088.916       -3051.269          35.000    19617401.211    80330014.575       -2377.441          38.000  
G30  21451037.174   112725940.770        3535.973          31.000                                                                  
G08  17135309.337    90046690.863       -1446.512          41.000    17135311.062    70166292.523       -1127.296          40.000  
G02  18157473.039    95418163.376        1654.199          39.000                                                                  
G09  18374004.459    96556035.156       -1246.214          38.000    18374006.145    75238502.504        -971.341          39.000  
G01  19684312.563   103441754.218        3127.010          36.000    19684313.580    80603953.106        2436.951          39.000  
G16  21270777.853   111778690.935       -1741.890          30.000                                                                  
G26                                                                  22905117.913    93792618.649       -1274.330          34.000  
> 2025 04 18 00 15 06.9890000  0 10                     
G07  18869165.925    99158151.001        2964.281          39.000    18869165.894    77266103.921        2309.524          39.000  
G04  18934724.117    99502635.193       -2642.097          34.000    18934726.529    77534578.495       -2058.690          40.000  
G27  19617977.730   103093140.065       -3051.205          35.000    19617981.873    80332392.088       -2377.260          38.000  
G30  21450364.315   112722404.251        3536.579          31.000                                                                  
G08  17135584.697    90048137.760       -1447.095          41.000    17135586.348    70167419.982       -1127.562          40.000  
G02  18157158.190    95416509.379        1653.595          39.000                                                                  
G09  18374241.713    96557281.762       -1247.118          38.000    18374243.296    75239473.838        -971.284          39.000  
G01  19683717.492   103438626.830        3127.469          36.000    19683718.403    80601516.180        2436.971          39.000  
G16  21271109.048   111780432.551       -1740.950          30.000                                                                  
G26                                                                  22905428.994    93793892.978       -1274.056          33.000  
> 2025 04 18 00 15 07.9890000  0 10                     
G07  18868602.078    99155187.122        2963.880          39.000    18868601.754    77263794.402        2309.135          39.000  
G04  18935226.987    99505277.317       -2641.747          34.000    18935229.267    77536637.305       -2059.071          40.000  
G27  19618558.193   103096191.365       -3051.489          35.000    19618562.536    80334769.732       -2377.793          38.000  
G30  21449691.148   112718867.704        3536.556          30.000                                                                  
G08  17135860.054    90049585.106       -1447.523          41.000    17135861.797    70168547.782       -1128.083          40.000  
G02  18156843.584    95414855.917        1653.336          39.000                                                                  
G09  18374478.931    96558528.796       -1247.151          38.000    18374480.492    75240445.586        -971.836          40.000  
G01  19683122.377   103435499.555        3127.429          35.000    19683123.295    80599079.350        2436.898          38.000  
G16  21271440.007                       -1742.365          30.000                                                                  
G26                                                                  22905740.038    93795167.340       -1274.504          32.000  
> 2025 04 18 00 15 08.9890000  0 10                     
G07  18868038.122    99152223.389        2963.528          39.000    18868037.802    77261484.999        2308.969          39.000  
G04  18935729.817    99507919.670       -2642.685          34.000    18935732.180    77538696.259       -2058.855          40.000  
G27  19619138.886   103099242.764       -3051.797          35.000    19619143.242    80337147.451       -2377.967          38.000  
G30  21449018.143   112715331.063        3536.467          30.000                                                                  
G08  17136135.469    90051032.863       -1447.802          41.000    17136137.428    70169675.903       -1128.371          40.000  
G02  18156529.112    95413202.988        1652.242          39.000                                                                  
G09  18374716.337    96559776.309       -1247.777          38.000    18374717.866    75241417.679        -972.489          39.000  
G01  19682527.233   103432372.358        3126.961          35.000    19682528.332    80596642.586        2436.725          39.000  
G16  21271768.282   111783912.2243      -1741.826          29.000                                                                  
G26                                                                  22906051.099    93796441.636       -1273.910          32.000  
> 2025 04 18 00 15 09.9890000  0 10                     
G07  18867474.052    99149259.798        2963.532          39.000    18867473.882    77259175.694        2309.345          39.000  
G04  18936232.569    99510562.238       -2643.015          34.000    18936235.075    77540755.393       -2059.269          40.000  
G27  19619719.574   103102294.284       -3051.954          35.000    19619723.915    80339525.257       -2378.312          38.000  
G30  21448345.226   112711794.440        3536.165          30.000                                                                  
G08  17136411.041    90052481.048       -1448.413          41.000    17136412.961    70170804.350       -1128.545          40.000  
G02  18156214.595    95411550.529        1652.079          39.000                                                                  
G09  18374953.826    96561024.269       -1248.458          38.000    18374955.370    75242390.108        -972.828          39.000  
G01  19681932.196   103429245.254        3126.791          35.000    19681933.294    80594205.871        2436.657          39.000  
G16  21272099.960   111785653.6802      -1742.041          29.000                                                                  
G26                                                                  22906362.448    93797715.924       -1274.620          33.000  
> 2025 04 18 00 15 10.9890000  0 10                     
G07  18866910.248    99146296.458        2963.043          39.000    18866909.996    77256866.585        2309.250          39.000  
G04  18936735.558    99513205.053       -2642.959          34.000    18936738.028    77542814.732       -2059.266          41.000  
G27  19620300.368   103105345.974       -3051.672          35.000    19620304.612    80341903.168       -2377.590          38.000  
G30  21447672.364   112708257.783        3536.447          30.000                                                                  
G08  17136686.650    90053929.715       -1448.902          41.000    17136688.594    70171933.178       -1129.159          40.000  
G02  18155900.235    95409898.671        1651.251          39.000                                                                  
G09  18375191.373    96562272.736       -1248.446          38.000    18375192.965    75243362.961        -973.433          39.000  
G01  19681337.171   103426118.288        3126.850          35.000    19681338.362    80591769.283        2436.626          39.000  
G16  21272430.967   111787395.0522      -1741.384          29.000                                                                  
G26                                                                  22906673.886    93798990.251       -1274.152          33.000  
> 2025 04 18 00 15 11.9890000  0 10                     
G07  18866346.489    99143333.210        2962.989          39.000    18866346.122    77254557.585        2308.525          39.000  
G04  18937238.514    99515848.057       -2643.700          35.000    18937240.929    77544874.200       -2059.256          41.000  
G27  19620881.005   103108397.740       -3052.179          35.000    19620885.397    80344281.181       -2378.041          38.000  
G30  21446999.248   112704721.000        3536.855          30.000                                                                  
G08  17136962.280    90055378.754       -1449.480          41.000    17136964.331    70173062.308       -1129.558          41.000  
G02  18155586.033    95408247.280        1650.730          39.000                                                                  
G09  18375428.992    96563521.662       -1249.273          38.000    18375430.578    75244336.124        -973.574          39.000  
G01  19680742.170   103422991.363        3126.907          35.000    19680743.459    80589332.724        2436.246          39.000  
G16  21272762.069   111789136.4232      -1741.492          29.000                                                                  
G26                                                                  22906985.357    93800264.506       -1274.745          33.000  
> 2025 04 18 00 15 12.9890000  0 10                     
G07  18865782.611    99140370.172        2962.874          39.000    18865782.263    77252248.724        2308.619          40.000  
G04  18937741.404    99518491.288       -2642.800          34.000    18937744.048    77546933.892       -2059.743          41.000  
G27  19621461.785   103111449.659       -3051.715          35.000    19621466.149    80346659.328       -2378.202          38.000  
G30  21446326.229   112701184.269        3536.814          30.000                                                                  
G08  17137238.083    90056828.264       -1449.474          41.000    17137240.084    70174191.795       -1129.622          41.000  
G02  18155271.850    95406596.450        1650.477          39.000                                                                  
G09  18375666.736    96564771.084       -1249.733          38.000    18375668.337    75245309.700        -973.795          39.000  
G01  19680147.154   103419864.569        3126.773          35.000    19680148.475    80586896.251        2436.704          39.000  
G16  21273092.190   111790877.1851      -1740.596          29.000                                                                  
G26                                                                  22907296.497    93801538.767       -1274.009          33.000  
> 2025 04 18 00 15 13.9890000  0 10                     
G07  18865218.813    99137407.189        2962.816          39.000    18865218.428    77249939.896        2308.768          40.000  
G04  18938244.411    99521134.683       -2643.794          34.000    18938247.077    77548993.657       -2060.225          41.000  
G27  19622042.446   103114501.618       -3052.521          35.000    19622046.890    80349037.446       -2378.247          37.000  
G30  21445653.247   112697647.341        3536.790          30.000                                                                  
G08  17137513.940    90058278.082       -1449.963          41.000    17137516.055    70175321.507       -1129.884          40.000  
G02  18154957.774    95404945.999        1649.983          39.000                                                                  
G09  18375904.547    96566020.828       -1250.015          38.000    18375906.133    75246283.529        -974.115          39.000  
G01  19679552.159   103416737.747        3127.068          35.000    19679553.441    80584459.786        2436.217          39.000  
G16  21273426.783   111792618.333       -1741.401          29.000                                                                  
G26                                                                  22907607.437    93802812.976       -1274.352          33.000  
> 2025 04 18 00 15 14.9890000  0 10                     
G07  18864655.011    99134444.335        2962.675          39.000    18864654.632    77247631.194        2308.638          40.000  
G04  18938747.449    99523778.216       -2643.553          34.000    18938750.147    77551053.569       -2060.041          41.000  
G27  19622623.232   103117553.641       -3052.011          35.000    19622627.636    80351415.654       -2378.082          38.000  
G30  21444980.166   112694110.336        3537.379          31.000                                                                  
G08  17137789.915    90059728.317       -1450.551          41.000    17137791.975    70176451.562       -1129.948          41.000  
G02  18154643.832    95403296.054        1650.117          39.000                                                                  
G09  18376142.389    96567271.034       -1250.236          38.000    18376144.014    75247257.708        -974.240          39.000  
G01  19678957.171   103413611.008        3126.491          35.000    19678958.435    80582023.355        2436.562          39.000  
G16  21273758.700   111794359.336       -1740.827          29.000                                                                  
G26                                                                  22907918.239    93804087.127       -1274.309          32.000  
> 2025 04 18 00 15 15.9890000  0 10                     
G07  18864091.267    99131481.647        2962.753          39.000    18864090.830    77245322.606        2308.620          40.000  
G04  18939250.630    99526422.000       -2643.829          34.000    18939253.168    77553113.652       -2060.239          41.000  
G27  19623204.129   103120605.816       -3052.634          35.000    19623208.523    80353793.953       -2378.149          38.000  
G30  21444307.182   112690573.266        3538.179          31.000                                                                  
G08  17138065.914    90061178.947       -1450.646          41.000    17138068.051    70177581.943       -1130.778          40.000  
G02  18154329.885    95401646.653        1649.162          39.000                                                                  
G09  18376380.358    96568521.721       -1251.104          38.000    18376381.983    75248232.252        -974.660          39.000  
G01  19678362.127   103410484.334        3126.608          35.000    19678363.492    80579586.991        2436.485          39.000  
G16  21274092.476   111796100.275       -1740.810          29.000                                                                  
G26                                                                  22908229.410    93805361.315       -1274.944          33.000  
> 2025 04 18 00 15 16.9890000  0 10                     
G07  18863527.597    99128519.107        2962.337          39.000    18863527.175    77243014.124        2308.576          40.000  
G04  18939753.685    99529065.983       -2644.513          34.000    18939756.269    77555173.879       -2060.583          41.000  
G27  19623784.991   103123658.043       -3052.115          35.000    19623789.330    80356172.332       -2378.419          38.000  
G30  21443634.083   112687036.217        3536.829          31.000                                                                  
G08  17138342.015    90062629.986       -1451.106          41.000    17138344.061    70178712.624       -1130.929          40.000  
G02  18154016.082    95399997.731        1648.431          39.000                                                                  
G09  18376618.430    96569772.812       -1251.503          38.000    18376620.062    75249207.124        -974.838          39.000  
G01  19677767.093   103407357.718        3126.794          35.000    19677768.521    80577150.685        2436.162          39.000  
G16  21274421.617   111797841.138       -1740.964          30.000                                                                  
G26                                                                  22908540.580    93806635.351       -1274.157          33.000  
> 2025 04 18 00 15 17.9890000  0 10                     
G07  18862963.759    99125556.709        2962.231          39.000    18862963.400    77240705.781        2308.052          39.000  
G04  18940257.054    99531710.145       -2644.811          35.000    18940259.417    77557234.254       -2060.436          41.000  
G27  19624365.844   103126710.415       -3052.332          35.000    19624370.167    80358550.794       -2378.621          38.000  
G30  21442961.118   112683499.037        3537.259          31.000                                                                  
G08  17138618.203    90064081.438       -1451.573          41.000    17138620.220    70179843.615       -1131.091          40.000  
G02  18153702.403    95398349.298        1648.180          39.000                                                                  
G09  18376856.536    96571024.350       -1251.962          38.000    18376858.217    75250182.369        -975.614          39.000  
G01  19677172.060   103404231.185        3126.829          35.000    19677173.503    80574714.447        2435.861          39.000  
G16  21274750.392   111799581.828       -1740.576          30.000                                                                  
G26                                                                  22908851.866    93807909.435       -1274.815          34.000  
> 2025 04 18 00 15 18.9890000  0 10                     
G07  18862399.969    99122594.505        2962.023          39.000    18862399.724    77238397.546        2308.284          39.000  
G04  18940760.333    99534354.543       -2644.946          35.000    18940762.698    77559294.820       -2060.810          41.000  
G27  19624946.709   103129762.911       -3052.715          35.000    19624950.880    80360929.345       -2378.334          38.000  
G30  21442288.092   112679961.864        3536.658          31.000                                                                  
G08  17138894.500    90065533.354       -1452.383          41.000    17138896.574    70180974.972       -1131.611          40.000  
G02  18153388.765    95396701.410        1647.867          39.000                                                                  
G09  18377094.732    96572276.382       -1252.100          38.000    18377096.421    75251157.969        -975.663          39.000  
G01  19676576.987   103401104.783        3126.001          36.000    19676578.543    80572278.268        2436.054          39.000  
G16  21275080.272   111801322.577       -1740.726          30.000                                                                  
G26                                                                  22909163.159    93809183.474       -1273.941          33.000  
> 2025 04 18 00 15 19.9890000  0 10                     
G07  18861836.371    99119632.457        2961.638          39.000    18861836.091    77236089.461        2308.055          39.000  
G04  18941263.506    99536999.159       -2644.394          35.000    18941266.002    77561355.576       -2060.876          41.000  
G27  19625527.579   103132815.540       -3052.760          35.000    19625531.841    80363308.043       -2378.752          38.000  
G30  21441614.943   112676424.599        3537.058          31.000                                                                  
G08  17139170.948    90066985.681       -1452.559          41.000    17139172.880    70182106.662       -1131.730          40.000  
G02  18153075.195    95395054.069        1647.126          39.000                                                                  
G09  18377333.076    96573528.896       -1252.736          38.000    18377334.825    75252133.969        -976.421          39.000  
G01  19675982.106   103397978.486        3125.728          36.000    19675983.735    80569842.191        2435.671          39.000  
G16  21275412.348   111803063.297       -1741.593          30.000                                                                  
G26                                                                  22909474.421    93810457.540       -1274.328          32.000  
> 2025 04 18 00 15 20.9890000  0 10                     
G07  18861272.776    99116670.640        2961.649          39.000    18861272.554    77233781.549        2307.893          39.000  
G04  18941766.789    99539644.092       -2645.127          35.000    18941769.212    77563416.529       -2060.720          41.000  
G27  19626108.448   103135868.376       -3052.935          35.000    19626112.700    80365686.848       -2378.936          37.000  
G30  21440941.727   112672887.369        3537.291          31.000                                                                  
G08  17139447.319    90068438.504       -1453.244          41.000    17139449.224    70183238.718       -1132.253          41.000  
G02  18152761.800    95393407.294        1646.772          39.000                                                                  
G09  18377571.439    96574781.931       -1253.281          38.000    18377573.239    75253110.338        -976.502          40.000  
G01  19675387.082   103394852.285        3126.646          36.000    19675388.786    80567406.196        2436.198          39.000  
G16  21275743.521   111804803.878       -1740.250          31.000                                                                  
G26                                                                  22909785.411    93811731.684       -1273.873          32.000  
> 2025 04 18 00 15 21.9890000  0 10                     
G07  18860709.155    99113708.952        2961.526          39.000    18860708.947    77231473.745        2307.656          39.000  
G04  18942270.070    99542289.167       -2645.097          35.000    18942272.585    77565477.650       -2061.301          41.000  
G27  19626689.427   103138921.285       -3053.151          35.000    19626693.621    80368065.733       -2378.939          37.000  
G30  21440268.491   112669350.066        3537.700          31.000                                                                  
G08  17139723.778    90069891.712       -1453.344          41.000    17139725.886    70184371.087       -1132.224          41.000  
G02  18152448.541    95391761.014        1646.376          39.000                                                                  
G09  18377809.956    96576035.393       -1253.711          38.000    18377811.823    75254087.065        -977.045          40.000  
G01  19674792.278   103391726.181        3126.128          36.000    19674793.855    80564970.265        2436.157          39.000  
G16  21276074.858   111806544.439       -1740.107          31.000                                                                  
G26                                                                  22910096.285    93813005.726       -1273.931          32.000  
> 2025 04 18 00 15 22.9890000  0 10                     
G07  18860145.578    99110747.470        2961.117          39.000    18860145.299    77229166.095        2307.581          39.000  
G04  18942773.467    99544934.508       -2644.669          35.000    18942776.011    77567538.957       -2061.253          41.000  
G27  19627270.300   103141974.328       -3052.825          35.000    19627274.545    80370444.754       -2378.984          37.000  
G30  21439595.423   112665812.755        3537.486          31.000                                                                  
G08  17140000.375    90071345.387       -1453.821          41.000    17140002.601    70185503.831       -1133.004          41.000  
G02  18152135.505    95390115.295        1645.814          39.000                                                                  
G09  18378048.618    96577289.368       -1254.252          38.000    18378050.490    75255064.191        -977.379          40.000  
G01  19674197.430   103388600.228        3125.685          36.000    19674198.997    80562534.461        2435.581          39.000  
G16  21276406.190   111808284.982       -1740.920          31.000                                                                  
G26                                                                  22910407.233    93814279.785       -1274.009          32.000  
> 2025 04 18 00 15 23.9890000  0 10                     
G07  18859582.125    99107786.056        2961.435          39.000    18859581.726    77226858.506        2307.452          39.000  
G04  18943276.874    99547580.038       -2646.508          35.000    18943279.453    77569600.372       -2061.795          41.000  
G27  19627851.253   103145027.404       -3053.069          35.000    19627855.543    80372823.801       -2379.642          37.000  
G30  21438922.156   112662275.378        3536.824          30.000                                                                  
G08  17140277.169    90072799.404       -1454.297          41.000    17140279.339    70186636.853       -1133.714          40.000  
G02  18151822.424    95388470.009        1644.861          39.000                                                                  
G09  18378287.287    96578543.692       -1254.776          38.000    18378289.174    75256041.594        -977.652          40.000  
G01  19673602.622   103385474.244        3125.814          36.000    19673604.186    80560098.630        2435.591          39.000  
G16  21276737.508   111810025.350       -1741.238          31.000                                                                  
G26                                                                  22910718.591    93815553.796       -1274.013          33.000  
> 2025 04 18 00 15 24.9890000  0 10                     
G07  18859018.375    99104824.835        2961.056          39.000    18859018.321    77224551.043        2307.462          39.000  
G04  18943780.394    99550225.705       -2645.615          35.000    18943782.816    77571661.942       -2061.586          41.000  
G27  19628432.377   103148080.627       -3052.920          35.000    19628436.619    80375202.910       -2379.206          37.000  
G30  21438249.073   112658737.852        3537.451          31.000                                                                  
G08  17140553.876    90074253.847       -1454.583          41.000    17140556.175    70187770.168       -1133.694          40.000  
G02  18151509.480    95386825.251        1644.342          39.000                                                                  
G09  18378526.089    96579798.508       -1255.116          38.000    18378527.999    75257019.372        -978.356          40.000  
G01  19673007.770   103382348.362        3125.917          36.000    19673009.418    80557662.862        2435.909          39.000  
G16  21277068.692   111811765.635       -1740.499          31.000                                                                  
G26                                                                  22911030.145    93816827.792       -1273.766          33.000  
> 2025 04 18 00 15 25.9890000  0 10                     
G07  18858455.048    99101863.778        2960.275          39.000    18858454.800    77222243.730        2307.061          39.000  
G04  18944284.032    99552871.637       -2646.325          35.000    18944286.188    77573723.721       -2062.006          41.000  
G27  19629013.477   103151134.012       -3054.045          35.000    19629017.635    80377582.161       -2379.781          38.000  
G30  21437576.373   112655200.371        3537.402          31.000                                                                  
G08  17140830.619    90075708.721       -1455.325          41.000    17140833.044    70188903.832       -1134.011          40.000  
G02  18151196.646    95385181.007        1643.851          39.000                                                                  
G09  18378765.027    96581053.790       -1255.549          38.000    18378766.833    75257997.498        -978.416          40.000  
G01  19672412.946   103379222.586        3125.730          36.000    19672414.632    80555227.223        2435.194          39.000  
G16  21277399.879   111813505.865       -1740.607          31.000                                                                  
G26                                                                  22911341.400    93818101.804       -1274.349          33.000  
> 2025 04 18 00 15 26.9890000  0 10                     
G07  18857891.629    99098902.818        2960.769          39.000    18857891.340    77219936.495        2307.115          39.000  
G04  18944787.424    99555517.740       -2646.486          35.000    18944789.785    77575785.595       -2061.839          41.000  
G27  19629594.569   103154187.419       -3053.412          35.000    19629598.676    80379961.444       -2379.326          38.000  
G30  21436903.250   112651662.763        3537.500          31.000                                                                  
G08  17141107.597    90077163.976       -1455.377          41.000    17141109.942    70190037.803       -1134.329          41.000  
G02  18150883.901    95383537.251        1643.384          39.000                                                                  
G09  18379003.988    96582309.479       -1255.855          38.000    18379005.793    75258975.967        -978.672          39.000  
G01  19671818.226   103376096.832        3125.966          36.000    19671819.814    80552791.567        2435.440          39.000  
G16  21277730.959   111815245.936       -1739.910          30.000                                                                  
G26                                                                  22911652.512    93819375.705       -1273.652          32.000  
> 2025 04 18 00 15 27.9890000  0 10                     
G07  18857328.320    99095941.983        2960.967          39.000    18857327.997    77217629.359        2307.204          39.000  
G04  18945290.814    99558164.009       -2646.528          35.000    18945293.321    77577847.617       -2062.190          41.000  
G27  19630175.599   103157240.926       -3053.630          35.000    19630179.751    80382340.769       -2379.361          38.000  
G30  21436229.903   112648125.066        3536.534          31.000                                                                  
G08  17141384.563    90078619.607       -1455.806          41.000    17141386.915    70191172.049       -1134.512          40.000  
G02  18150571.171    95381893.930        1643.248          39.000                                                                  
G09  18379243.086    96583565.605       -1256.571          38.000    18379244.834    75259954.762        -979.075          39.000  
G01  19671223.492   103372971.128        3126.053          35.000    19671225.047    80550355.954        2435.650          39.000  
G16  21278062.150   111816985.941       -1740.177          30.000                                                                  
G26                                                                  22911963.694    93820649.611       -1273.950          32.000  
> 2025 04 18 00 15 28.9890000  0 10                     
G07  18856764.748    99092981.186        2960.613          39.000    18856764.585    77215322.236        2307.289          39.000  
G04  18945794.522    99560810.341       -2646.522          35.000    18945796.851    77579909.700       -2062.203          40.000  
G27  19630756.634   103160294.388       -3053.676          35.000    19630760.748    80384720.096       -2379.367          38.000  
G30  21435556.618   112644587.156        3537.241          31.000                                                                  
G08  17141661.632    90080075.515       -1456.084          41.000    17141664.028    70192306.525       -1134.786          40.000  
G02  18150258.595    95380251.022        1642.627          39.000                                                                  
G09  18379482.191    96584822.036       -1256.916          38.000    18379483.922    75260933.797        -979.472          39.000  
G01  19670628.673   103369845.396        3125.666          35.000    19670630.264    80547920.303        2435.440          39.000  
G16  21278393.381   111818725.721       -1740.413          30.000                                                                  
G26                                                                  22912274.718    93821923.377       -1274.448          32.000  
> 2025 04 18 00 15 29.9890000  0 10                     
G07  18856201.303    99090020.586        2960.503          39.000    18856201.278    77213015.267        2307.138          39.000  
G04  18946298.256    99563456.915       -2646.671          35.000    18946300.477    77581971.962       -2061.888          40.000  
G27  19631337.610   103163348.019       -3053.900          35.000    19631341.831    80387099.552       -2379.494          38.000  
G30  21434883.380   112641049.262        3537.701          31.000                                                                  
G08  17141938.803    90081531.893       -1456.489          41.000    17141941.082    70193441.346       -1134.685          40.000  
G02  18149946.050    95378608.653        1642.194          39.000                                                                  
G09  18379721.426    96586078.951       -1256.859          38.000    18379723.120    75261913.214        -979.458          39.000  
G01  19670033.880   103366719.759        3126.041          35.000    19670035.464    80545484.752        2435.535          39.000  
G16  21278724.494   111820465.465       -1739.844          31.000                                                                  
G26                                                                  22912585.945    93823197.143       -1273.569          33.000  
> 2025 04 18 00 15 30.9890000  0 10                     
G07  18855637.953    99087060.207        2960.352          39.000    18855637.884    77210708.503        2306.772          39.000  
G04  18946801.828    99566103.810       -2647.107          34.000    18946804.110    77584034.479       -2062.732          40.000  
G27  19631918.658   103166401.827       -3054.271          35.000    19631922.951    80389479.141       -2380.049          38.000  
G30  21434210.279   112637511.369        3537.486          31.000                                                                  
G08  17142216.161    90082988.759       -1457.202          41.000    17142218.381    70194576.580       -1135.591          40.000  
G02  18149633.653    95376966.901        1641.127          39.000                                                                  
G09  18379960.713    96587336.439       -1257.831          38.000    18379962.426    75262893.065        -980.057          39.000  
G01  19669439.107   103363594.303        3125.573          35.000    19669440.713    80543049.346        2435.201          39.000  
G16  21279055.697   111822205.189       -1740.044          31.000                                                                  
G26                                                                  22912897.045    93824470.928       -1273.961          33.000  
> 2025 04 18 00 15 31.9890000  0 10                     
G07  18855074.653    99084100.060        2960.018          39.000    18855074.549    77208401.884        2306.310          39.000  
G04  18947305.620    99568750.984       -2647.740          34.000    18947307.874    77586097.206       -2063.161          40.000  
G27  19632499.737   103169455.831       -3054.108          35.000    19632504.161    80391858.865       -2379.567          38.000  
G30  21433537.097   112633973.519        3537.050          31.000                                                                  
G08  17142493.496    90084446.097       -1457.612          41.000    17142495.696    70195712.167       -1135.877          40.000  
G02  18149321.289    95375325.703        1640.638          39.000                                                                  
G09  18380200.144    96588594.412       -1258.272          38.000    18380201.852    75263873.309        -980.609          39.000  
G01  19668844.241   103360468.996        3125.056          35.000    19668845.837    80540614.020        2435.041          39.000  
G16  21279386.814   111823944.872       -1739.352          31.000                                                                  
G26                                                                  22913208.297    93825744.763       -1273.989          33.000  
> 2025 04 18 00 15 32.9890000  0 10                     
G07  18854511.465    99081140.153        2959.802          39.000    18854511.321    77206095.464        2306.415          39.000  
G04  18947809.380    99571398.393       -2647.183          34.000    18947811.769    77588160.116       -2062.892          40.000  
G27  19633080.909   103172509.994       -3054.063          35.000    19633085.379    80394238.750       -2379.968          38.000  
G30  21432863.891   112630435.643        3538.188          31.000                                                                  
G08  17142770.919    90085903.934       -1457.860          41.000    17142773.070    70196848.130       -1135.795          40.000  
G02  18149009.051    95373685.086        1640.358          39.000                                                                  
G09  18380439.702    96589852.925       -1258.904          38.000    18380441.420    75264853.969        -980.929          39.000  
G01  19668249.398   103357343.842        3124.722          35.000    19668251.224    80538178.838        2434.875          39.000  
G16  21279718.000   111825684.577       -1738.254          31.000                                                                  
G26                                                                  22913519.224    93827018.626       -1274.546          33.000  
> 2025 04 18 00 15 33.9890000  0 10                     
G07  18853948.228    99078180.406        2959.466          39.000    18853948.060    77203789.153        2306.179          39.000  
G04  18948313.368    99574046.043       -2647.585          34.000    18948315.609    77590223.218       -2063.333          40.000  
G27  19633662.063   103175564.288       -3053.912          35.000    19633666.705    80396618.734       -2380.415          37.000  
G30  21432190.634   112626897.711        3538.828          31.000                                                                  
G08  17143048.406    90087362.177       -1458.584          41.000    17143050.520    70197984.431       -1136.370          40.000  
G02  18148697.051    95372044.986        1639.847          39.000                                                                  
G09  18380679.179    96591111.884       -1259.097          38.000    18380681.051    75265834.975        -981.220          39.000  
G01  19667654.673   103354218.734        3125.203          35.000    19667656.558    80535743.716        2435.070          39.000  
G16  21280049.215   111827424.285       -1740.629          31.000                                                                  
G26                                                                  22913830.227    93828292.463       -1274.531          33.000  
> 2025 04 18 00 15 34.9890000  0 10                     
G07  18853385.172    99075220.957        2959.089          39.000    18853384.825    77201483.075        2306.024          39.000  
G04  18948817.393    99576694.027       -2648.434          34.000    18948819.531    77592286.578       -2063.454          40.000  
G27  19634243.501   103178618.829       -3054.949          35.000    19634247.977    80398998.874       -2380.320          38.000  
G30  21431517.457   112623359.954        3537.784          31.000                                                                  
G08  17143326.089    90088820.984       -1459.398          41.000    17143327.991    70199121.180       -1137.191          40.000  
G02  18148385.113    95370405.533        1639.151          39.000                                                                  
G09  18380918.800    96592371.426       -1259.564          38.000    18380920.805    75266816.447        -981.641          39.000  
G01  19667059.999   103351093.884        3124.784          35.000    19667061.806    80533308.761        2434.701          38.000  
G16  21280380.566   111829163.962       -1740.636          31.000                                                                  
G26                                                                  22914141.298    93829566.370       -1274.233          33.000  
> 2025 04 18 00 15 35.9890000  0 10                     
G07  18852821.965    99072261.615        2959.083          39.000    18852821.618    77199177.130        2305.780          39.000  
G04  18949321.403    99579342.219       -2648.696          35.000    18949323.430    77594350.085       -2063.600          41.000  
G27  19634824.844   103181673.469       -3054.731          35.000    19634829.269    80401379.098       -2380.187          38.000  
G30  21430844.363   112619822.050        3537.872          31.000                                                                  
G08  17143603.774    90090280.180       -1459.530          41.000    17143605.710    70200258.208       -1137.135          40.000  
G02  18148073.186    95368766.603        1638.592          39.000                                                                  
G09  18381158.584    96593631.439       -1260.400          38.000    18381160.619    75267798.242        -981.760          39.000  
G01  19666465.225   103347969.117        3124.612          35.000    19666467.094    80530873.869        2434.693          38.000  
G16  21280711.765   111830903.523       -1739.387          31.000                                                                  
G26                                                                  22914452.293    93830840.283       -1274.113          34.000  
> 2025 04 18 00 15 36.9890000  0 10                     
G07  18852259.006    99069302.397        2959.123          39.000    18852258.513    77196871.244        2305.529          39.000  
G04  18949825.433    99581990.539       -2648.640          35.000    18949827.427    77596413.716       -2063.700          41.000  
G27  19635406.134   103184728.161       -3054.585          35.000    19635410.610    80403759.391       -2380.335          37.000  
G30  21430171.025   112616284.048        3537.950          31.000                                                                  
G08  17143881.617    90091739.758       -1460.119          41.000    17143883.480    70201395.532       -1137.520          41.000  
G02  18147761.361    95367128.116        1638.302          39.000                                                                  
G09  18381398.339    96594891.820       -1260.482          38.000    18381400.396    75268780.370        -982.123          39.000  
G01  19665870.536   103344844.355        3124.526          35.000    19665872.429    80528438.972        2434.903          38.000  
G16  21281042.860   111832642.937       -1738.307          31.000                                                                  
G26                                                                  22914763.265    93832114.111       -1274.081          34.000  
> 2025 04 18 00 15 37.9890000  0 10                     
G07  18851695.713    99066343.291        2959.064          39.000    18851695.369    77194565.447        2305.770          39.000  
G04  18950329.297    99584639.008       -2648.418          35.000    18950331.499    77598477.475       -2063.787          41.000  
G27  19635987.418   103187782.942       -3055.006          35.000    19635991.869    80406139.727       -2380.231          37.000  
G30  21429497.542   112612745.977        3538.401          31.000                                                                  
G08  17144159.461    90093199.689       -1460.338          41.000    17144161.296    70202533.131       -1137.431          41.000  
G02  18147449.705    95365490.110        1638.005          39.000                                                                  
G09  18381638.276    96596152.639       -1261.256          38.000    18381640.238    75269762.838        -982.873          39.000  
G01  19665275.970   103341719.652        3124.374          35.000    19665277.807    80526004.134        2434.865          39.000  
G16  21281373.990   111834382.363       -1739.247          31.000                                                                  
G26                                                                  22915074.139    93833387.877       -1273.425          35.000  
> 2025 04 18 00 15 38.9890000  0 10                     
G07  18851132.549    99063384.357        2958.984          39.000    18851132.357    77192259.783        2305.686          39.000  
G04  18950833.479    99587287.752       -2649.269          35.000    18950835.526    77600541.414       -2064.015          41.000  
G27  19636568.649   103190837.810       -3054.867          35.000    19636573.244    80408520.163       -2380.378          37.000  
G30  21428824.348   112609207.855        3537.898          31.000                                                                  
G08  17144437.341    90094660.057       -1460.850          41.000    17144439.105    70203671.086       -1138.062          41.000  
G02  18147138.068    95363852.629        1637.242          39.000                                                                  
G09  18381878.277    96597413.906       -1261.731          38.000    18381880.270    75270745.630        -983.187          39.000  
G01  19664681.384   103338595.012        3124.738          35.000    19664683.204    80523569.376        2434.498          39.000  
G16  21281705.098   111836121.618       -1738.813          32.000                                                                  
G26                                                                  22915385.511    93834661.626       -1273.319          35.000  
> 2025 04 18 00 15 39.9890000  0 10                     
G07  18850569.496    99060425.625        2958.506          39.000    18850569.367    77189954.264        2305.597          39.000  
G04  18951337.477    99589936.670       -2648.764          35.000    18951339.656    77602605.523       -2064.328          41.000  
G27  19637150.043   103193892.819       -3054.564          35.000    19637154.568    80410900.676       -2380.171          37.000  
G30  21428151.052   112605669.629        3539.498          31.000                                                                  
G08  17144715.319    90096120.833       -1460.871          41.000    17144717.081    70204809.367       -1138.373          41.000  
G02  18146826.575    95362215.661        1636.707          39.000                                                                  
G09  18382118.421    96598675.634       -1261.664          38.000    18382120.374    75271728.809        -983.403          40.000  
G01  19664086.809   103335470.495        3124.666          35.000    19664088.642    80521134.681        2434.716          39.000  
G16  21282036.269   111837860.832       -1738.884          31.000                                                                  
G26                                                                  22915696.711    93835935.393       -1273.780          35.000  
> 2025 04 18 00 15 40.9890000  0 10                     
G07  18850006.620    99057467.104        2958.389          39.000    18850006.392    77187648.921        2305.492          39.000  
G04  18951841.569    99592585.882       -2649.205          35.000    18951843.817    77604669.826       -2064.434          41.000  
G27  19637731.370   103196948.051       -3055.461          35.000    19637735.920    80413281.363       -2380.610          37.000  
G30  21427477.522   112602131.497        3537.901          31.000                                                                  
G08  17144993.370    90097582.112       -1461.328          41.000    17144995.094    70205948.027       -1138.913          41.000  
G02  18146515.103    95360579.274        1636.228          39.000                                                                  
G09  18382358.607    96599937.916       -1262.933          38.000    18382360.482    75272712.389        -983.929          39.000  
G01  19663492.243   103332346.148        3124.178          36.000    19663494.076    80518700.115        2434.401          39.000  
G16  21282367.478   111839600.052       -1739.102          32.000                                                                  
G26                                                                  22916007.697    93837209.203       -1273.543          33.000  
> 2025 04 18 00 15 41.9890000  0 10                     
G07  18849443.786    99054508.821        2958.270          39.000    18849443.488    77185343.788        2304.841          39.000  
G04  18952345.803    99595235.387       -2649.490          35.000    18952347.994    77606734.397       -2064.773          41.000  
G27  19638312.868   103200003.463       -3055.867          35.000    19638317.230    80415662.216       -2381.203          38.000  
G30  21426804.123   112598593.366        3538.702          30.000                                                                  
G08  17145271.520    90099043.910       -1462.124          41.000    17145273.254    70207087.080       -1139.291          41.000  
G02  18146203.866    95358943.516        1635.087          39.000                                                                  
G09  18382598.999    96601200.736       -1263.285          38.000    18382600.902    75273696.393        -984.117          40.000  
G01  19662897.709   103329221.943        3124.218          35.000    19662899.514    80516265.689        2434.490          39.000  
G16  21282698.610   111841339.232       -1738.782          31.000                                                                  
G26                                                                  22916318.417    93838483.048       -1273.736          32.000  
> 2025 04 18 00 15 42.9890000  0 10                     
G07  18848880.839    99051550.711        2958.038          38.000    18848880.583    77183038.736        2305.252          39.000  
G04  18952849.978    99597885.133       -2650.054          35.000    18952852.299    77608799.092       -2064.517          41.000  
G27  19638894.361   103203058.943       -3055.337          35.000    19638898.629    80418043.102       -2380.625          38.000  
G30  21426130.806   112595055.204        3538.680          30.000                                                                  
G08  17145549.848    90100506.115       -1462.304          41.000    17145551.553    70208226.469       -1139.582          41.000  
G02  18145892.678    95357308.233        1635.154          39.000                                                                  
G09  18382839.366    96602463.967       -1262.921          38.000    18382841.263    75274680.747        -984.338          40.000  
G01  19662303.185   103326097.861        3123.989          35.000    19662304.996    80513831.321        2434.465          39.000  
G16  21283029.713   111843078.396       -1738.971          31.000                                                                  
G26                                                                  22916629.389    93839756.899       -1274.144          32.000  
> 2025 04 18 00 15 43.9890000  0 10                     
G07  18848317.927    99048592.786        2957.883          39.000    18848317.743    77180733.886        2304.625          39.000  
G04  18953354.272    99600535.101       -2650.317          35.000    18953356.584    77610864.025       -2064.995          41.000  
G27  19639475.835   103206114.609       -3055.366          35.000    19639480.145    80420424.140       -2380.856          38.000  
G30  21425457.454   112591517.028        3538.689          31.000                                                                  
G08  17145828.134    90101968.778       -1462.855          41.000    17145829.910    70209366.198       -1139.981          41.000  
G02  18145581.654    95355673.537        1634.402          40.000                                                                  
G09  18383079.851    96603727.746       -1263.670          38.000    18383081.739    75275665.511        -984.817          40.000  
G01  19661708.774   103322973.900        3123.385          36.000    19661710.512    80511397.062        2434.325          39.000  
G16  21283360.651   111844817.544       -1740.583          31.000                                                                  
G26                                                                  22916940.410    93841030.735       -1273.153          32.000  
> 2025 04 18 00 15 44.9890000  0 10                     
G07  18847755.023    99045635.162        2957.705          39.000    18847754.913    77178429.241        2304.597          39.000  
G04  18953858.643    99603185.414       -2650.328          35.000    18953860.839    77612929.197       -2065.326          41.000  
G27  19640057.289   103209170.523       -3055.868          35.000    19640061.655    80422805.387       -2381.691          38.000  
G30  21424784.112   112587978.977        3538.167          31.000                                                                  
G08  17146106.602    90103432.007       -1463.563          41.000    17146108.389    70210506.388       -1140.720          41.000  
G02  18145270.669    95354039.489        1633.622          40.000                                                                  
G09  18383320.398    96604992.116       -1264.769          38.000    18383322.234    75276650.721        -985.408          40.000  
G01  19661114.453   103319850.151        3123.333          35.000    19661116.122    80508962.972        2434.044          39.000  
G16  21283691.653   111846556.719       -1740.369          30.000                                                                  
G26                                                                  22917251.522    93842304.701       -1274.819          31.000  
> 2025 04 18 00 15 45.9890000  0 10                     
G07  18847192.254    99042677.757        2957.553          39.000    18847192.143    77176124.758        2304.590          39.000  
G04  18954363.117    99605836.011       -2650.896          35.000    18954365.339    77614994.589       -2065.415          41.000  
G27  19640638.859   103212226.627       -3056.261          35.000    19640643.184    80425186.703       -2380.640          37.000  
G30  21424110.864   112584440.933        3538.083          31.000                                                                  
G08  17146385.079    90104895.669       -1463.426          41.000    17146386.966    70211646.904       -1140.602          41.000  
G02  18144959.949    95352405.996        1633.512          40.000                                                                  
G09  18383561.116    96606256.957       -1264.740          38.000    18383562.877    75277636.322        -985.763          39.000  
G01  19660520.077   103316726.511        3124.435          35.000    19660521.770    80506529.009        2433.867          39.000  
G16  21284022.510   111848295.771       -1738.513          31.000                                                                  
G26                                                                  22917562.816    93843578.600       -1274.038          31.000  
> 2025 04 18 00 15 46.9890000  0 10                     
G07  18846629.624    99039720.386        2956.934          39.000    18846629.366    77173820.314        2304.441          39.000  
G04  18954867.521    99608486.666       -2651.125          35.000    18954869.771    77617060.033       -2065.733          41.000  
G27  19641220.318   103215282.666       -3055.960          35.000    19641224.733    80427568.083       -2381.393          37.000  
G30  21423437.345   112580902.626        3538.328          31.000                                                                  
G08  17146663.666    90106359.644       -1464.149          41.000    17146665.618    70212787.661       -1140.906          41.000  
G02  18144649.266    95350772.901        1632.708          40.000                                                                  
G09  18383801.886    96607522.132       -1264.978          38.000    18383803.611    75278622.186        -986.108          39.000  
G01  19659925.679   103313602.896        3123.040          35.000    19659927.334    80504094.986        2433.885          40.000  
G16  21284353.331   111850034.711       -1739.344          30.000                                                                  
G26                                                                  22917874.094    93844852.374       -1273.058          31.000  
> 2025 04 18 00 15 47.9890000  0 10                     
G07  18846066.859    99036763.297        2956.746          39.000    18846066.678    77171516.089        2304.148          39.000  
G04  18955372.061    99611137.651       -2651.178          35.000    18955374.144    77619125.731       -2065.869          41.000  
G27  19641801.995   103218338.994       -3056.945          35.000    19641806.373    80429949.604       -2381.409          37.000  
G30  21422764.088   112577364.430        3538.028          31.000                                                                  
G08  17146942.383    90107824.161       -1464.810          41.000    17146944.235    70213928.833       -1141.483          41.000  
G02  18144338.532    95349140.438        1632.247          40.000                                                                  
G09  18384042.773    96608787.934       -1266.171          38.000    18384044.387    75279608.501        -986.637          39.000  
G01  19659331.398   103310479.434        3123.195          35.000    19659333.077    80501661.142        2433.374          39.000  
G16  21284684.436   111851773.704       -1739.164          30.000                                                                  
G26                                                                  22918185.288    93846126.292       -1273.337          31.000  
> 2025 04 18 00 15 48.9890000  0 10                     
G07  18845504.102    99033806.403        2956.591          39.000    18845503.940    77169212.002        2304.401          39.000  
G04  18955876.652    99613788.914       -2651.836          35.000    18955878.749    77621191.613       -2065.806          41.000  
G27  19642383.689   103221395.406       -3055.948          35.000    19642387.980    80432331.265       -2381.453          37.000  
G30  21422090.889   112573826.244        3538.109          31.000                                                                  
G08  17147221.104    90109289.130       -1465.007          41.000    17147222.930    70215070.375       -1141.879          41.000  
G02  18144028.029    95347508.540        1631.738          40.000                                                                  
G09  18384283.662    96610054.206       -1266.564          38.000    18384285.363    75280595.208        -986.946          39.000  
G01  19658736.957   103307356.098        3123.790          35.000    19658738.718    80499227.388        2433.730          39.000  
G16  21285015.422   111853512.598       -1737.534          30.000                                                                  
G26                                                                  22918496.305    93847400.188       -1273.651          29.000  
> 2025 04 18 00 15 49.9890000  0 10                     
G07  18844941.519    99030849.645        2956.161          39.000    18844941.251    77166908.047        2303.651          39.000  
G04  18956381.209    99616440.300       -2651.849          35.000    18956383.397    77623257.667       -2066.471          41.000  
G27  19642965.301   103224451.966       -3056.749          35.000    19642969.553    80434712.992       -2381.995          37.000  
G30  21421417.638   112570287.941        3537.553          31.000                                                                  
G08  17147499.941    90110754.488       -1465.854          41.000    17147501.711    70216212.211       -1142.251          41.000  
G02  18143717.614    95345877.130        1630.770          40.000                                                                  
G09  18384524.693    96611320.909       -1267.552          38.000    18384526.394    75281582.242        -987.457          39.000  
G01  19658142.702   103304232.862        3122.981          35.000    19658144.403    80496793.681        2433.410          39.000  
G16  21285346.387   111855251.537       -1738.979          31.000                                                                  
G26                                                                  22918807.421    93848674.190       -1274.290          28.000  
> 2025 04 18 00 15 50.9890000  0 10                     
G07  18844379.032    99027893.174        2956.203          39.000    18844378.649    77164604.325        2303.383          39.000  
G04  18956885.885    99619092.072       -2652.251          35.000    18956888.001    77625323.961       -2066.273          41.000  
G27  19643547.078   103227508.765       -3056.796          35.000    19643551.272    80437094.876       -2381.269          37.000  
G30  21420744.362   112566749.768        3537.533          31.000                                                                  
G08  17147778.882    90112220.391       -1466.152          41.000    17147780.717    70217354.467       -1142.637          41.000  
G02  18143407.207    95344246.373        1630.516          40.000                                                                  
G09  18384765.888    96612588.178       -1267.474          38.000    18384767.607    75282569.723        -987.391          39.000  
G01  19657548.445   103301109.829        3122.947          35.000    19657550.164    80494360.150        2433.412          39.000  
G16  21285677.396   111856990.469       -1739.602          30.000                                                                  
G26                                                                  22919118.604    93849948.153       -1273.517          28.000  
> 2025 04 18 00 15 51.9890000  0 10                     
G07  18843816.458    99024936.771        2956.704          38.000    18843816.068    77162300.651        2303.332          39.000  
G04  18957390.386    99621743.932       -2651.706          35.000    18957392.592    77627390.369       -2066.711          41.000  
G27  19644128.860   103230565.575       -3057.051          35.000    19644132.942    80439476.858       -2382.366          37.000  
G30  21420071.158   112563211.444        3537.743          30.000                                                                  
G08  17148057.849    90113686.651       -1466.455          41.000    17148059.729    70218496.996       -1142.763          41.000  
G02  18143096.979    95342616.053        1629.874          40.000                                                                  
G09  18385007.099    96613855.835       -1267.937          38.000    18385008.881    75283557.507        -987.993          39.000  
G01  19656954.109   103297986.788        3122.938          35.000    19656955.841    80491926.626        2433.515          39.000  
G16  21286008.402   111858729.142       -1737.593          31.000                                                                  
G26                                                                  22919429.762    93851222.022       -1273.850          28.000  
> 2025 04 18 00 15 52.9890000  0 10                     
G07  18843253.889    99021980.706        2955.995          39.000    18843253.627    77159997.210        2303.344          39.000  
G04  18957895.180    99624396.227       -2652.855          35.000    18957897.277    77629457.052       -2066.886          41.000  
G27  19644710.670   103233622.660       -3057.312          35.000    19644714.635    80441858.968       -2382.347          37.000  
G30  21419397.735   112559673.203        3538.008          30.000                                                                  
G08  17148337.007    90115153.454       -1466.992          41.000    17148338.901    70219639.957       -1143.048          41.000  
G02  18142786.883    95340986.380        1629.722          39.000                                                                  
G09  18385248.522    96615124.088       -1268.458          38.000    18385250.270    75284545.757        -988.351          39.000  
G01  19656359.838   103294863.998        3123.073          35.000    19656361.653    80489493.285        2433.420          39.000  
G16  21286339.405   111860467.982       -1738.989          31.000                                                                  
G26                                                                  22919740.936    93852496.061       -1274.077          28.000  
> 2025 04 18 00 15 53.9890000  0 10                     
G07  18842691.307    99019024.802        2955.229          39.000    18842691.222    77157693.884        2303.064          39.000  
G04  18958400.107    99627048.641       -2653.134          35.000    18958401.929    77631523.891       -2067.278          40.000  
G27  19645292.471   103236679.850       -3057.673          35.000    19645296.316    80444241.159       -2381.815          37.000  
G30  21418724.392   112556134.889        3538.297          31.000                                                                  
G08  17148616.250    90116620.663       -1467.783          41.000    17148618.102    70220783.233       -1143.464          41.000  
G02  18142476.871    95339357.225        1628.717          40.000                                                                  
G09  18385489.918    96616392.796       -1269.391          38.000    18385491.804    75285534.356        -988.868          39.000  
G01  19655765.595   103291741.291        3122.400          35.000    19655767.487    80487060.001        2432.941          39.000  
G16  21286670.220   111862206.742       -1739.954          30.000                                                                  
G26                                                                  22920052.067    93853770.058       -1274.219          28.000  
> 2025 04 18 00 15 54.9890000  0 10                     
G07  18842128.893    99016069.036        2955.279          39.000    18842128.741    77155390.697        2303.106          39.000  
G04  18958904.894    99629701.276       -2652.451          35.000    18958906.703    77633590.873       -2066.962          40.000  
G27  19645874.232   103239737.127       -3057.568          35.000    19645878.047    80446623.483       -2382.385          38.000  
G30  21418051.222   112552596.547        3539.083          31.000                                                                  
G08  17148895.534    90118088.291       -1467.778          41.000    17148897.375    70221926.853       -1143.928          41.000  
G02  18142166.947    95337728.597        1628.300          40.000                                                                  
G09  18385731.405    96617661.946       -1269.442          38.000    18385733.310    75286523.305        -989.178          39.000  
G01  19655171.218   103288618.676        3122.081          35.000    19655173.295    80484626.770        2433.239          39.000  
G16  21287001.163   111863945.383       -1738.239          30.000                                                                  
G26                                                                  22920363.177    93855044.024       -1274.603          28.000  
> 2025 04 18 00 15 55.9890000  0 10                     
G07  18841566.587    99013113.586        2955.462          39.000    18841566.394    77153087.765        2302.685          39.000  
G04  18959409.776    99632354.359       -2653.939          35.000    18959411.652    77635658.187       -2067.455          40.000  
G27  19646456.061   103242794.735       -3058.485          35.000    19646459.895    80449006.005       -2382.599          38.000  
G30  21417377.792   112549058.356        3538.163          31.000                                                                  
G08  17149174.925    90119556.518       -1468.456          41.000    17149176.774    70223070.931       -1144.576          41.000  
G02  18141857.192    95336100.655        1627.476          40.000                                                                  
G09  18385973.077    96618931.738       -1270.052          38.000    18385974.906    75287512.763        -989.930          39.000  
G01  19654577.048   103285496.310        3121.879          34.000    19654579.166    80482193.800        2432.628          39.000  
G16  21287332.001   111865684.155       -1739.146          31.000                                                                  
G26                                                                  22920674.175    93856318.127       -1274.580          28.000  
> 2025 04 18 00 15 56.9890000  0 10                     
G07  18841004.317    99010158.358        2955.160          39.000    18841004.030    77150784.979        2302.701          39.000  
G04  18959914.533    99635007.600       -2653.119          35.000    18959916.665    77637725.671       -2067.590          40.000  
G27  19647037.955   103245852.422       -3057.782          35.000    19647041.689    80451388.637       -2382.400          37.000  
G30  21416704.320   112545520.146        3538.510          30.000                                                                  
G08  17149454.447    90121025.187       -1468.816          41.000    17149456.262    70224215.329       -1144.592          41.000  
G02  18141547.453    95334473.251        1626.987          40.000                                                                  
G09  18386214.853    96620202.027       -1270.520          38.000    18386216.602    75288502.574        -990.220          39.000  
G01  19653982.909   103282374.057        3122.338          34.000    19653985.023    80479760.856        2433.042          39.000  
G16  21287662.929   111867422.835       -1738.385          30.000                                                                  
G26                                                                  22920985.764                       -1273.803          27.000  
> 2025 04 18 00 15 57.9890000  0 10                     
G07  18840442.030    99007203.288        2954.623          39.000    18840441.736    77148482.317        2302.633          39.000  
G04  18960419.460    99637661.071       -2653.653          35.000    18960421.574    77639793.306       -2067.753          40.000  
G27  19647619.817   103248910.255       -3058.243          35.000    19647623.697    80453771.357       -2382.561          38.000  
G30  21416030.973   112541981.786        3539.132          30.000                                                                  
G08  17149734.057    90122494.261       -1469.286          41.000    17149735.831    70225360.068       -1145.002          41.000  
G02  18141237.865    95332846.368        1626.431          40.000                                                                  
G09  18386456.660    96621472.709       -1270.844          38.000    18386458.420    75289492.734        -990.308          39.000  
G01  19653388.745   103279251.860        3122.309          35.000    19653390.833    80477328.005        2433.008          39.000  
G16  21287993.844   111869161.429       -1737.697          30.000                                                                  
G26                                                                  22921296.334                       -1275.432          25.000  
> 2025 04 18 00 15 58.9890000  0 10                     
G07  18839879.740    99004248.380        2954.816          39.000    18839879.394    77146179.801        2302.287          39.000  
G04  18960924.395    99640314.795       -2654.489          35.000    18960926.522    77641861.109       -2067.850          40.000  
G27  19648201.767   103251968.196       -3058.130          35.000    19648205.570    80456154.180       -2383.316          38.000  
G30  21415357.659   112538443.515        3537.971          31.000                                                                  
G08  17150013.672    90123963.756       -1469.740          41.000    17150015.505    70226505.141       -1145.283          41.000  
G02  18140928.352    95331219.990        1626.121          40.000                                                                  
G09  18386698.600    96622743.917       -1271.655          38.000    18386700.340    75290483.273        -990.976          40.000  
G01  19652794.656   103276129.816        3122.217          35.000    19652796.640    80474895.240        2432.836          39.000  
G16  21288324.873   111870900.005       -1738.370          31.000                                                                  
G26                                                                  22921606.640                       -1276.531          24.000  
> 2025 04 18 00 15 59.9890000  0 10                     
G07  18839317.450    99001293.591        2954.364          39.000    18839317.051    77143877.351        2302.380          39.000  
G04  18961429.309    99642968.582       -2653.901          35.000    18961431.530    77643929.045       -2068.463          40.000  
G27  19648783.765   103255026.162       -3058.265          35.000    19648787.581    80458537.027       -2383.261          37.000  
G30  21414684.162   112534905.046        3538.708          31.000                                                                  
G08  17150293.422    90125433.601       -1470.063          41.000    17150295.215    70227650.477       -1145.699          41.000  
G02  18140618.847    95329594.088        1625.271          40.000                                                                  
G09  18386940.560    96624015.478       -1272.042          38.000    18386942.242    75291474.122        -991.471          40.000  
G01  19652200.544   103273007.797        3121.656          35.000    19652202.616    80472462.495        2432.332          39.000  
G16  21288655.964   111872638.424       -1738.704          31.000                                                                  
G26                                                                  22921917.783                       -1281.230          21.000  
> 2025 04 18 00 16 00.9890000  0 10                     
G07  18838755.147    98998339.047        2954.403          39.000    18838754.789    77141575.127        2302.112          39.000  
G04  18961934.230    99645622.749       -2654.071          35.000    18961936.482    77645997.193       -2068.156          40.000  
G27  19649365.765   103258084.408       -3058.555          35.000    19649369.572    80460920.043       -2383.005          37.000  
G30  21414010.894   112531366.686        3538.601          31.000                                                                  
G08  17150573.256    90126904.008       -1470.982          41.000    17150575.007    70228796.226       -1146.096          41.000  
G02  18140309.525    95327968.808        1624.885          40.000                                                                  
G09  18387182.666    96625287.638       -1272.647          38.000    18387184.317    75292465.388        -991.483          40.000  
G01  19651606.396   103269885.958        3121.734          35.000    19651608.513    80470029.880        2432.691          39.000  
G16  21288986.755   111874376.925       -1738.863          30.000                                                                  
G26                                                                  22922228.813                       -1261.251          20.000  
> 2025 04 18 00 16 01.9890000  0 10                     
G07  18838192.886    98995384.705        2954.568          39.000    18838192.479    77139273.048        2302.174          39.000  
G04  18962439.350    99648277.173       -2654.800          35.000    18962441.573    77648065.560       -2068.353          41.000  
G27  19649947.729   103261142.782       -3058.593          35.000    19649951.622    80463303.199       -2383.322          37.000  
G30  21413337.581   112527828.272        3538.883          31.000                                                                  
G08  17150853.270    90128374.825       -1470.954          41.000    17150854.859    70229942.326       -1146.290          41.000  
G02  18140000.338    95326344.086        1624.347          40.000                                                                  
G09  18387424.835    96626560.243       -1272.707          38.000    18387426.505    75293457.036        -991.655          40.000  
G01  19651012.275   103266764.246        3121.364          35.000    19651014.394    80467597.382        2432.754          39.000  
G16  21289317.569   111876115.310       -1738.413          31.000                                                                  
G26                                                                  22922539.757                       -1275.686          18.000  
> 2025 04 18 00 16 02.9890000  0 10                     
G07  18837630.692    98992430.556        2953.908          38.000    18837630.294    77136971.103        2301.758          39.000  
G04  18962944.597    99650931.755       -2654.695          35.000    18962946.722    77650134.076       -2068.701          41.000  
G27  19650529.718   103264201.250       -3058.324          35.000    19650533.658    80465686.413       -2383.183          37.000  
G30  21412664.375   112524289.894        3537.827          31.000                                                                  
G08  17151133.223    90129846.070       -1471.406          41.000    17151134.956    70231088.755       -1146.663          41.000  
G02  18139691.249    95324719.888        1623.812          40.000                                                                  
G09  18387667.048    96627833.345       -1273.563          38.000    18387668.672    75294449.074        -992.709          40.000  
G01  19650418.307   103263642.634        3121.666          35.000    19650420.383    80465164.984        2431.756          39.000  
G16  21289648.325   111877853.707       -1739.166          31.000                                                                  
G26                                                                  22922850.255                       -1279.195          20.000  
> 2025 04 18 00 16 03.9890000  0 10                     
G07  18837068.600    98989476.536        2954.258          38.000    18837068.152    77134669.272        2301.833          39.000  
G04  18963449.822    99653586.567       -2654.791          35.000    18963452.020    77652202.757       -2068.723          41.000  
G27  19651111.757   103267259.835       -3058.519          35.000    19651115.778    80468069.730       -2383.528          37.000  
G30  21411990.925   112520751.417        3537.741          31.000                                                                  
G08  17151413.264    90131317.734       -1471.920          41.000    17151415.020    70232235.497       -1146.887          41.000  
G02  18139382.306    95323096.183        1623.457          40.000                                                                  
G09  18387909.387    96629106.882       -1273.813          38.000    18387911.088    75295441.432        -992.598          40.000  
G01  19649824.260   103260521.101        3121.313          35.000    19649826.367    80462732.583        2432.628          39.000  
G16  21289979.144   111879591.963       -1738.651          31.000                                                                  
G26                                                                  22923160.908                       -1270.753          22.000  
> 2025 04 18 00 16 04.9890000  0 10                     
G07  18836506.535    98986522.729        2953.479          38.000    18836505.932    77132367.564        2302.017          39.000  
G04  18963955.051    99656241.609       -2655.524          35.000    18963957.219    77654271.595       -2068.691          41.000  
G27  19651693.723   103270318.541       -3058.433          35.000    19651697.834    80470453.131       -2383.290          37.000  
G30  21411317.738   112517212.849        3538.711          31.000                                                                  
G08  17151693.398    90132789.834       -1472.521          41.000    17151695.134    70233382.581       -1147.075          41.000  
G02  18139073.420    95321473.046        1622.695          40.000                                                                  
G09  18388151.849    96630380.872       -1274.001          38.000    18388153.630    75296434.155        -992.953          39.000  
G01  19649230.273   103257399.667        3121.611          35.000    19649232.388    80460300.309        2432.188          39.000  
G16  21290309.990   111881330.105       -1737.495          31.000                                                                  
G26                                                                  22923473.542                       -1277.065          22.000  
> 2025 04 18 00 16 05.9890000  0 10                     
G07  18835944.509    98983569.054        2953.664          38.000    18835943.737    77130066.042        2301.249          39.000  
G04  18964460.321    99658896.826       -2655.097          35.000    18964462.450    77656340.647       -2069.610          41.000  
G27  19652275.697   103273377.368       -3058.683          35.000    19652279.852    80472836.656       -2383.838          37.000  
G30  21410644.335   112513674.281        3538.469          31.000                                                                  
G08  17151973.500    90134262.353       -1472.884          41.000    17151975.372    70234530.014       -1147.823          41.000  
G02  18138764.649    95319850.408        1622.235          40.000                                                                  
G09  18388394.313    96631655.362       -1275.131          38.000    18388396.139    75297427.263        -993.875          39.000  
G01  19648636.307   103254278.352        3120.724          35.000    19648638.409    80457868.098        2432.046          39.000  
G16  21290640.912   111883068.239       -1737.250          30.000                                                                  
G26                                                                  22923785.512                       -1266.947          23.000  
> 2025 04 18 00 16 06.9890000  0 10                     
G07  18835382.499    98980615.567        2953.081          39.000    18835381.739    77127764.612        2301.320          39.000  
G04  18964965.629    99661552.300       -2655.662          35.000    18964967.825    77658409.809       -2069.492          41.000  
G27  19652857.751   103276436.313       -3058.716          35.000    19652861.940    80475220.242       -2383.727          38.000  
G30  21409971.133   112510135.679        3539.010          31.000                                                                  
G08  17152253.840    90135735.296       -1473.379          41.000    17152255.707    70235677.746       -1148.092          41.000  
G02  18138455.913    95318228.297        1621.985          40.000                                                                  
G09  18388636.813    96632930.298       -1275.512          38.000    18388638.799    75298420.698        -993.818          39.000  
G01  19648042.452   103251157.119        3120.879          35.000    19648044.473    80455435.976        2431.782          39.000  
G16  21290971.928   111884806.377       -1738.497          31.000                                                                  
G26                                                                  22924094.695                       -1275.498          24.000  
> 2025 04 18 00 16 07.9890000  0 10                     
G07  18834820.430    98977662.274        2953.283          39.000    18834819.829    77125463.361        2301.027          39.000  
G04  18965471.180    99664208.015       -2655.798          35.000    18965473.231    77660479.190       -2069.620          41.000  
G27  19653439.851   103279495.439       -3059.673          35.000    19653444.094    80477603.954       -2383.695          38.000  
G30  21409297.844   112506597.095        3538.320          31.000                                                                  
G08  17152534.164    90137208.697       -1473.714          41.000    17152536.105    70236825.848       -1148.508          41.000  
G02  18138147.434    95316606.747        1621.534          40.000                                                                  
G09  18388879.468    96634205.693       -1275.677          38.000    18388881.446    75299414.536        -994.118          39.000  
G01  19647448.536   103248036.013        3120.614          35.000    19647450.653    80453003.950        2431.798          40.000  
G16  21291302.769   111886544.427       -1738.688          31.000                                                                  
G26                                                                  22924405.370                       -1267.620          24.000  
> 2025 04 18 00 16 08.9890000  0 10                     
G07  18834258.375    98974709.201        2952.965          39.000    18834257.777    77123162.239        2301.188          39.000  
G04  18965976.688    99666863.976       -2656.243          35.000    18965978.670    77662548.768       -2069.895          41.000  
G27  19654022.004   103282554.675       -3059.556          35.000    19654026.219    80479987.772       -2383.840          37.000  
G30  21408624.403   112503058.472        3538.443          31.000                                                                  
G08  17152814.607    90138682.554       -1474.263          41.000    17152816.591    70237974.309       -1148.757          41.000  
G02  18137838.922    95314985.762        1620.870          40.000                                                                  
G09  18389122.306    96635481.630       -1276.301          38.000    18389124.257    75300408.762        -994.258          39.000  
G01  19646854.705   103244915.039        3120.868          35.000    19646856.772    80450572.019        2431.723          40.000  
G16  21291633.407   111888282.366       -1737.726          31.000                                                                  
G26                                                                  22924716.982                       -1280.458          23.000  
> 2025 04 18 00 16 09.9890000  0 10                     
G07  18833696.464    98971756.317        2953.000          39.000    18833695.906    77120861.308        2301.106          39.000  
G04  18966482.243    99669520.172       -2656.710          35.000    18966484.082    77664618.527       -2069.731          41.000  
G27  19654604.190   103285614.111       -3059.263          35.000    19654608.434    80482371.730       -2384.005          38.000  
G30  21407950.877   112499519.833        3538.819          31.000                                                                  
G08  17153095.212    90140156.856       -1474.426          41.000    17153097.097    70239123.111       -1148.997          41.000  
G02  18137530.544    95313365.349        1620.246          40.000                                                                  
G09  18389365.268    96636758.075       -1277.154          38.000    18389367.188    75301403.399        -994.803          39.000  
G01  19646260.905   103241794.186        3120.929          35.000    19646262.922    80448140.192        2432.174          40.000  
G16  21291964.257   111890020.343       -1737.599          31.000                                                                  
G26                                                                  22925026.858                       -1276.945          21.000  
> 2025 04 18 00 16 10.9890000  0 10                     
G07  18833134.657    98968803.606        2952.405          39.000    18833134.103    77118560.475        2300.722          39.000  
G04  18966987.771    99672176.536       -2656.514          35.000    18966989.514    77666688.431       -2070.000          41.000  
G27  19655186.358   103288673.606       -3060.071          35.000    19655190.686    80484755.746       -2384.035          37.000  
G30  21407277.220   112495981.112        3538.438          31.000                                                                  
G08  17153375.852    90141631.554       -1474.972          41.000    17153377.718    70240272.234       -1149.417          41.000  
G02  18137222.254    95311745.430        1619.302          40.000                                                                  
G09  18389608.242    96638034.885       -1276.935          38.000    18389610.102    75302398.308        -995.168          39.000  
G01  19645667.113   103238673.443        3120.170          35.000    19645669.073    80445708.427        2431.787          40.000  
G16  21292295.036   111891758.238       -1737.930          31.000                                                                  
G26                                                                  22925338.590                       -1274.155          21.000  
> 2025 04 18 00 16 11.9890000  0 10                     
G07  18832572.818    98965851.098        2952.459          38.000    18832572.293    77116259.844        2300.537          39.000  
G04  18967493.347    99674833.235       -2656.896          35.000    18967495.129    77668758.566       -2070.386          41.000  
G27  19655768.788   103291733.286       -3059.563          35.000    19655772.916    80487139.936       -2384.436          37.000  
G30  21406603.843   112492442.481        3538.083          31.000                                                                  
G08  17153656.503    90143106.751       -1475.441          41.000    17153658.383    70241421.746       -1149.936          41.000  
G02  18136914.172    95310126.095        1619.091          40.000                                                                  
G09  18389851.330    96639312.280       -1277.923          38.000    18389853.146    75303393.682        -995.497          39.000  
G01  19645073.264   103235552.804        3120.744          35.000    19645075.171    80443276.794        2431.575          40.000  
G16  21292625.540   111893496.059       -1737.318          31.000                                                                  
G26                                                                  22925649.950                       -1275.176          21.000  
> 2025 04 18 00 16 12.9890000  0 10                     
G07  18832011.014    98962898.757        2952.316          39.000    18832010.469    77113959.322        2300.354          39.000  
G04  18967999.010    99677490.080       -2656.894          35.000    18968000.721    77670828.828       -2070.471          41.000  
G27  19656351.125   103294793.069       -3060.127          35.000    19656355.082    80489524.151       -2384.107          37.000  
G30  21405930.228   112488903.754        3538.565          31.000                                                                  
G08  17153937.343    90144582.356       -1476.199          41.000    17153939.189    70242571.549       -1149.950          41.000  
G02  18136606.156    95308507.288        1618.268          40.000                                                                  
G09  18390094.500    96640590.087       -1278.148          38.000    18390096.301    75304389.378        -995.826          39.000  
G01  19644479.347   103232432.303        3120.248          34.000    19644481.494    80440845.213        2431.578          40.000  
G16  21292956.224   111895233.903       -1738.224          31.000                                                                  
G26                                                                  22925961.169                       -1278.688          22.000  
> 2025 04 18 00 16 13.9890000  0 10                     
G07  18831449.272    98959946.688        2952.134          39.000    18831448.684    77111659.004        2300.484          39.000  
G04  18968504.552    99680147.244       -2656.545          35.000    18968506.413    77672899.367       -2070.429          41.000  
G27  19656933.356   103297853.082       -3060.113          35.000    19656937.466    80491908.593       -2384.668          37.000  
G30  21405256.851   112485365.086        3538.466          31.000                                                                  
G08  17154218.329    90146058.470       -1476.418          41.000    17154220.184    70243721.781       -1150.416          41.000  
G02  18136298.274    95306889.095        1617.919          40.000                                                                  
G09  18390337.719    96641868.487       -1278.673          38.000    18390339.614    75305385.513        -996.261          39.000  
G01  19643885.427   103229311.997        3119.902          34.000    19643887.749    80438413.799        2431.510          40.000  
G16  21293286.891   111896971.755       -1738.445          31.000                                                                  
G26                                                                  22926272.243                       -1281.546          24.000  
> 2025 04 18 00 16 14.9890000  0 10                     
G07  18830887.587    98956994.772        2951.851          39.000    18830886.821    77109358.801        2300.155          39.000  
G04  18969010.245    99682804.624       -2657.155          35.000    18969012.180    77674970.041       -2070.760          41.000  
G27  19657515.628   103300913.175       -3059.782          35.000    19657519.722    80494293.088       -2384.759          37.000  
G30  21404583.561   112481826.369        3537.725          30.000                                                                  
G08  17154499.301    90147534.986       -1476.686          41.000    17154501.102    70244872.311       -1150.677          41.000  
G02  18135990.397    95305271.411        1617.340          40.000                                                                  
G09  18390581.071    96643147.297       -1279.139          38.000    18390582.979    75306382.015        -997.098          39.000  
G01  19643291.737   103226191.723        3119.651          34.000    19643294.134    80435982.445        2431.105          40.000  
G16  21293617.457   111898709.446       -1738.840          31.000                                                                  
G26                                                                  22926584.794                       -1274.923          26.000  
> 2025 04 18 00 16 15.9890000  0 10                     
G07  18830325.891    98954042.984        2951.721          39.000    18830325.224    77107058.722        2299.854          38.000  
G04  18969515.900    99685462.211       -2657.990          35.000    18969517.940    77677040.860       -2070.767          41.000  
G27  19658097.905   103303973.360       -3060.326          35.000    19658102.070    80496677.643       -2384.831          37.000  
G30  21403910.020   112478287.517        3538.917          30.000                                                                  
G08  17154780.451    90149011.910       -1477.118          41.000    17154782.120    70246023.165       -1151.136          41.000  
G02  18135682.729    95303654.221        1616.987          40.000                                                                  
G09  18390824.537    96644426.555       -1279.524          38.000    18390826.391    75307378.812        -996.866          39.000  
G01  19642697.964   103223071.522        3120.057          34.000    19642700.427    80433551.124        2431.602          40.000  
G16  21293948.142   111900447.030       -1736.857          31.000                                                                  
G26                                                                  22926896.273                       -1273.825          26.000  
> 2025 04 18 00 16 16.9890000  0 10                     
G07  18829764.209    98951091.329        2951.434          39.000    18829763.598    77104758.721        2299.987          39.000  
G04  18970021.507    99688119.896       -2657.383          35.000    18970023.737    77679111.807       -2070.999          40.000  
G27  19658680.443   103307033.624       -3060.787          35.000    19658684.429    80499062.252       -2384.740          37.000  
G30  21403236.526   112474748.630        3538.767          31.000                                                                  
G08  17155061.490    90150489.186       -1477.559          41.000    17155063.271    70247174.280       -1151.450          41.000  
G02  18135375.062    95302037.502        1616.584          40.000                                                                  
G09  18391068.056    96645706.214       -1279.635          38.000    18391069.930    75308375.965        -997.414          39.000  
G01  19642104.141   103219951.360        3120.392          34.000    19642106.747    80431119.850        2431.267          40.000  
G16  21294278.717   111902184.586       -1737.954          31.000                                                                  
G26                                                                  22927207.749                       -1273.929          26.000  
> 2025 04 18 00 16 17.9890000  0 10                     
G07  18829202.621    98948139.884        2951.249          39.000    18829201.928    77102458.903        2299.552          39.000  
G04  18970527.130    99690777.885       -2658.283          35.000    18970529.552    77681182.966       -2071.528          41.000  
G27  19659262.908   103310094.019       -3060.313          35.000    19659266.753    80501447.012       -2385.408          37.000  
G30  21402563.227   112471209.737        3539.067          31.000                                                                  
G08  17155342.695    90151966.951       -1478.244          41.000    17155344.462    70248325.785       -1151.913          41.000  
G02  18135067.586    95300421.376        1615.780          40.000                                                                  
G09  18391311.570    96646986.416       -1280.879          38.000    18391313.486    75309373.510        -997.996          39.000  
G01  19641510.300   103216831.381        3120.157          34.000    19641512.966    80428688.684        2431.230          40.000  
G16  21294609.377   111903922.038       -1737.340          31.000                                                                  
G26                                                                  22927519.608    93884359.9721      -1274.194          27.000  
> 2025 04 18 00 16 18.9890000  0 10                     
G07  18828641.002    98945188.685        2950.939          39.000    18828640.355    77100159.258        2299.581          38.000  
G04  18971033.098    99693436.176       -2658.418          35.000    18971035.517    77683254.340       -2071.712          41.000  
G27  19659845.386   103313154.653       -3060.393          35.000    19659849.167    80503831.879       -2384.781          37.000  
G30  21401889.757   112467670.882        3539.874          31.000                                                                  
G08  17155623.956    90153445.184       -1478.419          41.000    17155625.797    70249477.672       -1152.235          41.000  
G02  18134760.191    95298805.849        1615.150          40.000                                                                  
G09  18391555.295    96648267.111       -1281.217          38.000    18391557.257    75310371.452        -998.198          39.000  
G01  19640916.507   103213711.576        3119.398          34.000    19640919.303    80426257.680        2431.050          39.000  
G16  21294940.038   111905659.479       -1736.902          31.000                                                                  
G26                                                                  22927829.632    93885634.031       -1274.214          28.000  
> 2025 04 18 00 16 19.9890000  0 10                     
G07  18828079.443    98942237.679        2950.680          39.000    18828078.806    77097859.774        2299.376          38.000  
G04  18971539.062    99696094.672       -2658.727          35.000    18971541.483    77685325.875       -2071.390          41.000  
G27  19660427.850   103316215.397       -3060.679          35.000    19660431.530    80506216.887       -2384.745          37.000  
G30  21401216.256   112464132.060        3538.250          30.000                                                                  
G08  17155905.222    90154923.879       -1478.722          41.000    17155907.077    70250629.889       -1152.387          41.000  
G02  18134452.968    95297190.841        1614.819          40.000                                                                  
G09  18391799.101    96649548.275       -1281.448          38.000    18391801.071    75311369.793        -998.833          39.000  
G01  19640322.812   103210591.865        3119.735          34.000    19640325.615    80423826.752        2430.790          39.000  
G16  21295270.672   111907396.933       -1736.446          31.000                                                                  
G26                                                                  22928142.525    93886908.137       -1274.341          30.000  
> 2025 04 18 00 16 20.9890000  0 10                     
G07  18827518.022    98939286.794        2950.773          39.000    18827517.179    77095560.371        2299.694          38.000  
G04  18972045.087    99698753.337       -2659.147          35.000    18972047.489    77687397.561       -2071.677          41.000  
G27  19661010.264   103319276.218       -3060.337          35.000    19661014.016    80508601.938       -2385.008          37.000  
G30  21400542.671   112460593.081        3538.985          30.000                                                                  
G08  17156186.571    90156402.938       -1478.978          41.000    17156188.446    70251782.408       -1152.711          41.000  
G02  18134145.768    95295576.353        1614.286          40.000                                                                  
G09  18392043.079    96650829.899       -1282.207          38.000    18392045.038    75312368.424        -998.837          40.000  
G01  19639729.027   103207472.219        3119.357          35.000    19639731.986    80421395.852        2430.858          39.000  
G16  21295601.444   111909134.318       -1737.152          31.000                                                                  
G26                                                                  22928454.384    93888182.139       -1274.143          31.000  
> 2025 04 18 00 16 21.9890000  0 10                     
G07  18826956.455    98936335.990        2950.658          39.000    18826955.619    77093261.062        2299.102          38.000  
G04  18972551.016    99701412.124       -2659.035          35.000    18972553.464    77689469.354       -2072.131          41.000  
G27  19661592.804   103322337.068       -3061.036          35.000    19661596.497    80510987.024       -2385.184          37.000  
G30  21399869.248   112457053.940        3539.589          30.000                                                                  
G08  17156468.052    90157882.328       -1479.492          41.000    17156470.007    70252935.184       -1153.065          41.000  
G02  18133838.542    95293962.285        1613.605          40.000                                                                  
G09  18392286.929    96652111.839       -1282.124          38.000    18392288.974    75313367.363        -999.329          39.000  
G01  19639135.368   103204352.602        3119.155          35.000    19639138.392    80418964.975        2430.567          39.000  
G16  21295932.088   111910871.490       -1736.998          31.000                                                                  
G26                                                                  22928766.417    93889456.068       -1273.640          32.000  
> 2025 04 18 00 16 22.9890000  0 10                     
G07  18826395.066    98933385.361        2950.403          39.000    18826394.078    77090961.853        2299.251          38.000  
G04  18973056.979    99704071.083       -2659.197          35.000    18973059.465    77691541.270       -2072.045          41.000  
G27  19662175.180   103325398.012       -3060.646          35.000    19662179.031    80513372.181       -2385.241          37.000  
G30  21399195.794   112453514.900        3537.787          30.000                                                                  
G08  17156749.699    90159362.145       -1480.128          41.000    17156751.587    70254088.273       -1153.204          41.000  
G02  18133531.454    95292348.695        1613.541          40.000                                                                  
G09  18392530.901    96653394.257       -1282.858          38.000    18392532.927    75314366.611        -999.399          39.000  
G01  19638541.660   103201233.029        3119.845          35.000    19638544.758    80416534.139        2430.591          39.000  
G16  21296262.842   111912608.589       -1737.439          31.000                                                                  
G26                                                                  22929076.988    93890730.012       -1274.784          32.000  
> 2025 04 18 00 16 23.9890000  0 10                     
G07  18825833.518    98930434.830        2950.193          39.000    18825832.608    77088662.757        2298.873          38.000  
G04  18973563.020    99706730.234       -2659.377          35.000    18973565.520    77693613.330       -2072.105          41.000  
G27  19662757.663   103328459.045       -3061.523          35.000    19662761.522    80515757.391       -2385.767          37.000  
G30  21398522.400   112449975.614        3539.101          30.000                                                                  
G08  17157031.385    90160842.304       -1480.269          41.000    17157033.171    70255241.659       -1153.781          41.000  
G02  18133224.492    95290735.634        1612.561          40.000                                                                  
G09  18392775.009    96654677.073       -1283.189          38.000    18392777.046    75315366.216        -999.945          39.000  
G01  19637948.063   103198113.528        3119.412          35.000    19637951.100    80414103.360        2430.497          39.000  
G16  21296593.535   111914345.581       -1737.523          31.000                                                                  
G26                                                                  22929386.062    93892003.868       -1274.679          31.000  
> 2025 04 18 00 16 24.9890000  0 10                     
G07  18825271.966    98927484.462        2950.126          39.000    18825271.249    77086363.758        2298.829          38.000  
G04  18974069.099    99709389.579       -2659.278          35.000    18974071.604    77695685.540       -2072.262          41.000  
G27  19663340.209   103331520.171       -3061.512          35.000    19663344.065    80518142.680       -2385.757          38.000  
G30  21397848.952   112446436.317        3539.346          31.000                                                                  
G08  17157313.214    90162322.900       -1480.749          41.000    17157314.934    70256395.363       -1154.121          41.000  
G02  18132917.640    95289123.047        1612.246          40.000                                                                  
G09  18393019.202    96655960.336       -1283.399          38.000    18393021.330    75316366.184       -1000.569          39.000  
G01  19637354.440   103194994.110        3119.277          35.000    19637357.518    80411672.634        2430.471          39.000  
G16  21296924.050   111916082.419       -1736.187          31.000                                                                  
G26                                                                  22929697.193    93893277.670       -1273.038          30.000  
> 2025 04 18 00 16 25.9890000  0 10                     
G07  18824710.454    98924534.235        2950.137          39.000    18824709.720    77084064.869        2298.912          38.000  
G04  18974575.287    99712049.082       -2659.359          35.000    18974577.856    77697757.883       -2072.505          41.000  
G27  19663922.623   103334581.377       -3061.617          35.000    19663926.587    80520528.009       -2385.359          38.000  
G30  21397175.464   112442896.957        3539.697          31.000                                                                  
G08  17157595.021    90163803.852       -1480.976          41.000    17157596.744    70257549.337       -1154.129          41.000  
G02  18132610.792    95287510.957        1612.062          40.000                                                                  
G09  18393263.297    96657244.017       -1284.082          37.000    18393265.603    75317366.428       -1000.075          39.000  
G01  19636760.901   103191874.746        3119.639          35.000    19636763.863    80409241.958        2430.647          39.000  
G16  21297254.593   111917819.226       -1736.904          31.000                                                                  
G26                                                                  22930007.528    93894551.496       -1273.877          30.000  
> 2025 04 18 00 16 26.9890000  0 10                     
G07  18824149.129    98921584.152        2950.380          39.000    18824148.456    77081766.120        2298.725          38.000  
G04  18975081.493    99714708.823       -2660.107          35.000    18975083.975    77699830.378       -2072.640          41.000  
G27  19664505.207   103337642.656       -3061.205          35.000    19664509.188    80522913.434       -2385.302          38.000  
G30  21396501.895   112439357.525        3540.076          31.000                                                                  
G08  17157876.887    90165285.237       -1481.634          41.000    17157878.679    70258703.673       -1154.497          41.000  
G02  18132304.157    95285899.408        1611.256          40.000                                                                  
G09  18393507.638    96658528.184       -1284.699          38.000    18393509.941    75318367.086       -1000.879          39.000  
G01  19636167.315   103188755.464        3119.591          35.000    19636170.289    80406811.358        2430.532          39.000  
G16  21297585.055   111919555.956       -1736.547          31.000                                                                  
G26                                                                  22930318.730    93895821.2501      -1273.707          29.000  
> 2025 04 18 00 16 27.9890000  0 10                     
G07  18823587.915    98918634.299        2949.637          39.000    18823587.155    77079467.513        2298.678          38.000  
G04  18975587.666    99717368.770       -2660.817          35.000    18975590.211    77701903.069       -2072.975          41.000  
G27  19665087.752   103340704.110       -3061.982          35.000    19665091.701    80525298.960       -2385.417          38.000  
G30  21395828.381   112435818.099        3539.408          31.000                                                                  
G08  17158158.847    90166767.054       -1482.073          41.000    17158160.614    70259858.328       -1155.100          40.000  
G02  18131997.619    95284288.365        1610.923          40.000                                                                  
G09  18393752.155    96659812.784       -1284.961          38.000    18393754.404    75319368.075       -1001.247          39.000  
G01  19635573.839   103185636.349        3119.003          35.000    19635576.741    80404380.868        2430.347          39.000  
G16  21297915.715   111921292.588       -1737.036          31.000                                                                  
G26                                                                  22930629.678    93897095.031       -1273.914          28.000  
> 2025 04 18 00 16 28.9890000  0 10                     
G07  18823026.633    98915684.669        2949.393          39.000    18823025.888    77077169.109        2298.367          39.000  
G04  18976093.898    99720028.981       -2660.446          35.000    18976096.433    77703975.977       -2073.207          41.000  
G27  19665670.409   103343765.749       -3062.272          35.000    19665674.313    80527684.669       -2386.161          38.000  
G30  21395154.911   112432278.736        3539.470          30.000                                                                  
G08  17158440.885    90168249.363       -1482.898          41.000    17158442.730    70261013.373       -1155.399          41.000  
G02  18131691.114    95282677.959        1610.141          40.000                                                                  
G09  18393996.685    96661097.939       -1285.422          38.000    18393998.914    75320369.491       -1001.418          39.000  
G01  19634980.350   103182517.353        3119.295          35.000    19634983.243    80401950.494        2430.240          39.000  
G16  21298246.181   111923029.241       -1737.133          31.000                                                                  
G26                                                                  22930940.927    93898368.851       -1273.393          28.000  
> 2025 04 18 00 16 29.9890000  0 10                     
G07  18822465.349    98912735.209        2949.203          38.000    18822464.506    77074870.823        2298.233          39.000  
G04  18976600.068    99722689.412       -2660.398          35.000    18976602.677    77706049.040       -2073.110          41.000  
G27  19666253.039   103346827.474       -3061.835          35.000    19666256.969    80530070.426       -2385.813          38.000  
G30  21394481.457   112428739.260        3540.063          30.000                                                                  
G08  17158722.950    90169732.058       -1482.671          41.000    17158724.760    70262168.733       -1155.594          41.000  
G02  18131384.823    95281068.042        1609.858          40.000                                                                  
G09  18394241.354    96662383.523       -1285.705          38.000    18394243.518    75321371.258       -1001.777          39.000  
G01  19634386.901   103179398.476        3118.612          35.000    19634389.707    80399520.187        2430.274          39.000  
G16  21298576.800   111924765.787       -1736.083          31.000                                                                  
G26                                                                  22931252.043    93899642.731       -1273.537          28.000  
> 2025 04 18 00 16 30.9890000  0 10                     
G07  18821904.038    98909785.770        2949.527          39.000    18821903.231    77072572.577        2298.234          38.000  
G04  18977106.432    99725349.926       -2660.590          35.000    18977109.002    77708122.173       -2073.132          41.000  
G27  19666835.610   103349889.189       -3062.070          35.000    19666839.551    80532456.194       -2386.279          38.000  
G30  21393807.863   112425199.718        3538.492          31.000                                                                  
G08  17159005.183    90171215.093       -1483.252          41.000    17159006.997    70263324.326       -1155.707          41.000  
G02  18131078.582    95279458.558        1609.265          40.000                                                                  
G09  18394486.082    96663669.461       -1286.022          38.000    18394488.298    75322373.289       -1002.309          39.000  
G01  19633793.412   103176279.552        3118.966          35.000    19633796.141    80397089.864        2430.415          39.000  
G16  21298907.266   111926502.194       -1735.892          30.000                                                                  
G26                                                                  22931563.081    93900916.440       -1273.453          28.000  
> 2025 04 18 00 16 31.9890000  0 10                     
G07  18821342.877    98906836.579        2948.699          38.000    18821341.991    77070274.481        2298.122          38.000  
G04  18977612.804    99728010.680       -2660.278          35.000    18977615.392    77710195.492       -2073.456          41.000  
G27  19667418.237   103352951.102       -3062.822          35.000    19667422.099    80534842.052       -2386.097          38.000  
G30  21393134.354   112421660.034        3539.004          31.000                                                                  
G08  17159287.512    90172698.555       -1483.698          41.000    17159289.414    70264480.280       -1156.376          41.000  
G02  18130772.427    95277849.613        1608.657          40.000                                                                  
G09  18394730.884    96664955.868       -1286.528          38.000    18394733.041    75323375.696       -1002.717          40.000  
G01  19633199.881   103173160.803        3118.238          35.000    19633202.664    80394659.657        2430.168          39.000  
G16  21299237.803   111928238.560       -1735.874          30.000                                                                  
G26                                                                  22931874.213    93902190.180       -1273.675          29.000  
> 2025 04 18 00 16 32.9890000  0 10                     
G07  18820781.715    98903887.601        2949.170          39.000    18820780.841    77067976.604        2297.936          38.000  
G04  18978119.205    99730671.784       -2661.124          35.000    18978121.872    77712269.045       -2073.681          41.000  
G27  19668001.063   103356013.182       -3062.414          35.000    19668004.767    80537228.103       -2386.295          38.000  
G30  21392460.655   112418120.416        3540.121          30.000                                                                  
G08  17159569.908    90174182.543       -1484.253          41.000    17159571.812    70265636.630       -1156.574          41.000  
G02  18130466.322    95276241.298        1607.836          40.000                                                                  
G09  18394975.721    96666242.866       -1287.264          38.000    18394978.006    75324378.534       -1003.326          40.000  
G01  19632606.517   103170042.196        3118.746          35.000    19632609.164    80392229.565        2430.265          39.000  
G16  21299568.164   111929974.926       -1736.195          30.000                                                                  
G26                                                                  22932185.384    93903463.997       -1274.086          30.000  
> 2025 04 18 00 16 33.9890000  0 10                     
G07  18820220.581    98900938.917        2948.485          39.000    18820219.714    77065678.919        2297.535          38.000  
G04  18978625.700    99733333.139       -2661.662          35.000    18978628.400    77714342.827       -2073.875          41.000  
G27  19668583.713   103359075.469       -3062.805          35.000    19668587.489    80539614.293       -2386.618          37.000  
G30  21391787.081   112414580.923        3539.800          31.000                                                                  
G08  17159852.337    90175667.010       -1484.785          41.000    17159854.368    70266793.362       -1157.150          41.000  
G02  18130160.342    95274633.581        1607.114          40.000                                                                  
G09  18395220.782    96667530.405       -1288.087          37.000    18395223.119    75325381.796       -1003.541          40.000  
G01  19632013.060   103166923.790        3118.149          35.000    19632015.734    80389799.644        2429.755          39.000  
G16  21299898.590   111931711.317       -1735.959          29.000                                                                  
G26                                                                  22932496.558    93904737.807       -1273.614          31.000  
> 2025 04 18 00 16 34.9890000  0  9                     
G07  18819659.566    98897990.447        2948.490          39.000    18819658.639    77063381.422        2297.010          38.000  
G04  18979132.197    99735994.754       -2661.833          35.000    18979134.751    77716416.816       -2074.001          41.000  
G27  19669166.443   103362137.895       -3062.392          35.000    19669170.198    80542000.599       -2386.138          37.000  
G30  21391113.425   112411041.426        3538.811          30.000                                                                  
G08  17160135.006    90177151.976       -1485.224          41.000    17160136.960    70267950.479       -1157.529          41.000  
G02  18129854.564    95273026.455        1606.796          40.000                                                                  
G09  18395465.918    96668818.415       -1288.151          37.000    18395468.171    75326385.442       -1003.713          40.000  
G01  19631419.584   103163805.549        3118.006          34.000    19631422.357    80387369.840        2429.731          39.000  
G16  21300228.882   111933447.745       -1736.192          29.000                                                                  
> 2025 04 18 00 16 35.9890000  0  9                     
G07  18819098.595    98895042.100        2948.542          39.000    18819097.606    77061084.003        2297.425          38.000  
G04  18979638.825    99738656.566       -2661.999          35.000    18979641.212    77718490.950       -2074.422          41.000  
G27  19669749.334   103365200.433       -3062.410          35.000    19669753.012    80544387.000       -2386.552          37.000  
G30  21390439.725   112407501.886        3538.824          30.000                                                                  
G08  17160417.678    90178637.317       -1485.855          41.000    17160419.638    70269107.878       -1157.735          41.000  
G02  18129548.887    95271419.797        1606.525          40.000                                                                  
G09  18395711.113    96670106.863       -1288.773          37.000    18395713.408    75327389.429       -1004.192          40.000  
G01  19630826.169   103160687.341        3118.042          34.000    19630829.009    80384940.082        2429.521          39.000  
G16  21300558.824   111935184.023       -1736.581          29.000                                                                  
> 2025 04 18 00 16 36.9890000  0  9                     
G07  18818537.576    98892094.001        2948.067          39.000    18818536.586    77058786.789        2297.035          38.000  
G04  18980145.328    99741318.622       -2662.404          35.000    18980147.744    77720565.275       -2074.491          41.000  
G27  19670332.252   103368263.124       -3062.204          35.000    19670335.803    80546773.524       -2386.502          37.000  
G30  21389766.156   112403962.198        3540.124          30.000                                                                  
G08  17160700.359    90180123.120       -1486.122          41.000    17160702.398    70270265.645       -1157.843          41.000  
G02  18129243.348    95269813.752        1605.773          40.000                                                                  
G09  18395956.335    96671395.820       -1289.301          38.000    18395958.703    75328393.804       -1004.487          40.000  
G01  19630232.792   103157569.289        3117.753          34.000    19630235.714    80382510.457        2429.198          39.000  
G16  21300889.151   111936920.238       -1736.046          29.000                                                                  
> 2025 04 18 00 16 37.9890000  0  9                     
G07  18817976.602    98889146.115        2947.609          39.000    18817975.692    77056489.738        2296.422          38.000  
G04  18980651.834    99743980.928       -2662.286          35.000    18980654.355    77722639.796       -2074.603          41.000  
G27  19670915.112   103371326.000       -3063.126          35.000    19670918.624    80549160.146       -2386.456          37.000  
G30  21389092.491   112400422.660        3540.292          30.000                                                                  
G08  17160983.159    90181609.392       -1486.609          41.000    17160985.189    70271423.794       -1158.548          41.000  
G02  18128937.838    95268208.267        1605.132          40.000                                                                  
G09  18396201.644    96672685.275       -1289.543          37.000    18396204.053    75329398.581       -1005.057          39.000  
G01  19629639.385   103154451.417        3117.618          34.000    19629642.238    80380080.924        2429.381          40.000  
G16  21301219.539   111938656.508       -1736.454          29.000                                                                  
> 2025 04 18 00 16 38.9890000  0  9                     
G07  18817415.676    98886198.456        2947.801          39.000    18817414.806    77054192.846        2296.934          39.000  
G04  18981158.346    99746643.519       -2662.419          35.000    18981161.008    77724714.531       -2074.562          41.000  
G27  19671498.047   103374389.030       -3063.133          35.000    19671501.555    80551546.944       -2386.740          37.000  
G30  21388418.806   112396883.134        3539.208          30.000    21388414.584    87581981.8043       2757.883          32.000  
G08  17161266.058    90183096.141       -1486.688          41.000    17161268.131    70272582.297       -1158.563          41.000  
G02  18128632.398    95266603.363        1604.906          40.000                                                                  
G09  18396447.040    96673975.263       -1290.117          37.000    18396449.569    75330403.761       -1005.317          39.000  
G01  19629046.021   103151333.634        3118.410          34.000    19629048.872    80377651.531        2429.259          40.000  
G16  21301549.839   111940392.764       -1737.418          30.000                                                                  
> 2025 04 18 00 16 39.9890000  0  9                     
G07  18816854.820    98883250.976        2947.664          39.000    18816853.951    77051896.113        2296.833          39.000  
G04  18981665.186    99749306.327       -2662.645          35.000    18981667.666    77726789.446       -2074.949          41.000  
G27  19672080.938   103377452.210       -3063.559          35.000    19672084.471    80553933.804       -2386.851          37.000  
G30  21387745.150   112393343.547        3539.449          30.000    21387741.084    87579223.694        2758.478          31.000  
G08  17161549.130    90184583.314       -1487.028          41.000    17161551.144    70273741.136       -1159.071          41.000  
G02  18128327.120    95264999.022        1604.288          40.000                                                                  
G09  18396692.553    96675265.695       -1290.292          37.000    18396695.181    75331409.298       -1005.960          39.000  
G01  19628452.648   103148216.048        3117.495          34.000    19628455.736    80375222.218        2429.137          40.000  
G16  21301880.120   111942128.913       -1737.027          30.000                                                                  
> 2025 04 18 00 16 40.9890000  0  9                     
G07  18816293.925    98880303.682        2947.598          39.000    18816293.194    77049599.541        2296.208          39.000  
G04  18982171.817    99751969.346       -2663.092          35.000    18982174.423    77728864.535       -2075.140          41.000  
G27  19672663.796   103380515.495       -3063.598          35.000    19672667.525    80556320.792       -2387.069          37.000  
G30  21387071.658   112389803.943        3538.806          31.000    21387065.851    87576465.606        2756.874          30.000  
G08  17161832.199    90186070.948       -1488.022          41.000    17161834.211    70274900.323       -1159.499          41.000  
G02  18128021.939    95263395.227        1603.066          40.000                                                                  
G09  18396938.282    96676556.632       -1291.029          37.000    18396940.743    75332415.222       -1006.240          39.000  
G01  19627859.535   103145098.573        3117.132          34.000    19627862.574    80372792.997        2429.092          40.000  
G16  21302210.414   111943865.010       -1736.085          30.000                                                                  
> 2025 04 18 00 16 41.9890000  0  9                     
G07  18815733.069    98877356.577        2946.884          39.000    18815732.348    77047303.059        2296.592          39.000  
G04  18982678.532    99754632.581       -2663.082          35.000    18982681.341    77730939.767       -2075.308          41.000  
G27  19673246.890   103383578.888       -3063.853          35.000    19673250.535    80558707.831       -2386.874          37.000  
G30  21386398.050   112386264.243        3540.017          31.000    21386391.356    87573707.384        2757.664          31.000  
G08  17162115.412    90187558.969       -1488.492          41.000    17162117.234    70276059.818       -1160.187          41.000  
G02  18127716.780    95261791.916        1603.073          40.000                                                                  
G09  18397184.111    96677848.013       -1291.909          37.000    18397186.468    75333421.473       -1006.556          39.000  
G01  19627266.187   103141981.108        3117.656          35.000    19627269.302    80370363.844        2428.895          40.000  
G16  21302540.747   111945601.014       -1735.140          31.000                                                                  
> 2025 04 18 00 16 42.9890000  0  9                     
G07  18815172.203    98874409.630        2946.810          39.000    18815171.508    77045006.751        2296.081          39.000  
G04  18983185.394    99757296.051       -2663.995          35.000    18983188.152    77733015.180       -2075.511          41.000  
G27  19673829.917   103386642.382       -3064.005          35.000    19673833.447    80561094.996       -2387.355          37.000  
G30  21385724.527   112382724.590        3539.752          31.000    21385717.345    87570949.197        2758.011          31.000  
G08  17162398.697    90189047.408       -1488.592          41.000    17162400.564    70277219.627       -1160.036          41.000  
G02  18127411.756    95260189.151        1602.449          40.000                                                                  
G09  18397429.970    96679139.831       -1291.856          37.000    18397432.257    75334428.089       -1006.799          39.000  
G01  19626672.946   103138863.833        3117.212          35.000    19626676.127    80367934.767        2429.231          40.000  
G16  21302871.101   111947336.992       -1735.519          30.000                                                                  
> 2025 04 18 00 16 43.9890000  0  9                     
G07  18814611.558    98871462.882        2946.424          39.000    18814610.818    77042710.581        2295.928          39.000  
G04  18983692.271    99759959.714       -2664.209          35.000    18983695.031    77735090.762       -2075.850          41.000  
G27  19674412.942   103389706.040       -3064.494          35.000    19674416.519    80563482.246       -2387.312          37.000  
G30  21385050.972   112379184.902        3539.445          31.000    21385044.609    87568190.969        2758.810          31.000  
G08  17162682.122    90190536.291       -1489.452          41.000    17162683.911    70278379.792       -1160.434          41.000  
G02  18127106.950    95258586.929        1602.188          40.000                                                                  
G09  18397675.793    96680432.130       -1292.464          37.000    18397678.162    75335435.076       -1007.205          39.000  
G01  19626079.726   103135746.635        3116.879          35.000    19626082.983    80365505.786        2428.866          40.000  
G16  21303201.249   111949072.938       -1735.886          31.000                                                                  
> 2025 04 18 00 16 44.9890000  0  9                     
G07  18814050.959    98868516.273        2946.631          39.000    18814050.156    77040414.529        2296.060          39.000  
G04  18984199.189    99762623.549       -2663.720          35.000    18984201.938    77737166.487       -2075.562          41.000  
G27  19674995.939   103392769.749       -3063.282          35.000    19674999.508    80565869.574       -2387.238          37.000  
G30  21384377.340   112375645.156        3539.519          31.000    21384372.331    87565432.714        2758.454          31.000  
G08  17162965.536    90192025.563       -1489.554          41.000    17162967.326    70279540.266       -1160.485          41.000  
G02  18126802.058    95256985.225        1601.457          40.000                                                                  
G09  18397921.853    96681724.878       -1292.808          38.000    18397924.096    75336442.408       -1007.457          39.000  
G01  19625486.463   103132629.508        3117.474          35.000    19625489.936    80363076.880        2428.823          40.000  
G16  21303531.500   111950808.804       -1736.093          30.000                                                                  
> 2025 04 18 00 16 45.9890000  0  9                     
G07  18813490.165    98865569.853        2946.491          38.000    18813489.384    77038118.623        2295.575          38.000  
G04  18984706.224    99765287.606       -2663.749          35.000    18984708.946    77739242.397       -2076.066          41.000  
G27  19675578.949   103395833.609       -3063.919          35.000    19675582.477    80568257.003       -2388.049          37.000  
G30  21383703.558   112372105.332        3539.660          31.000    21383699.086    87562674.458        2758.107          31.000  
G08  17163248.994    90193515.272       -1490.017          41.000    17163250.842    70280701.078       -1160.950          41.000  
G02  18126497.374    95255384.054        1600.863          40.000                                                                  
G09  18398167.885    96683018.065       -1293.137          38.000    18398170.161    75337450.095       -1007.802          39.000  
G01  19624893.364   103129512.533        3116.638          35.000    19624896.861    80360648.044        2428.680          40.000  
G16  21303861.929   111952544.584       -1736.143          31.000                                                                  
> 2025 04 18 00 16 46.9890000  0  9                     
G07  18812929.573    98862623.698        2946.283          39.000    18812928.719    77035822.923        2295.602          38.000  
G04  18985213.347    99767952.008       -2664.372          35.000    18985215.954    77741318.513       -2076.054          41.000  
G27  19676162.057   103398897.663       -3063.711          35.000    19676165.599    80570644.579       -2387.767          37.000  
G30  21383030.142   112368565.596        3539.813          31.000    21383025.705    87559916.197        2758.267          31.000  
G08  17163532.585    90195005.467       -1490.260          41.000    17163534.360    70281862.276       -1161.137          41.000  
G02  18126192.805    95253783.486        1600.415          40.000                                                                  
G09  18398414.100    96684311.814       -1293.868          38.000    18398416.433    75338458.218       -1008.462          39.000  
G01  19624300.195   103126395.701        3116.937          35.000    19624303.816    80358219.355        2428.425          39.000  
G16  21304192.465   111954280.382       -1735.271          31.000                                                                  
> 2025 04 18 00 16 47.9890000  0  9                     
G07  18812368.931    98859677.638        2945.576          39.000    18812368.154    77033527.278        2295.449          38.000  
G04  18985720.264    99770616.477       -2664.349          35.000    18985723.048    77743394.744       -2076.751          41.000  
G27  19676745.221   103401961.757       -3064.859          35.000    19676748.621    80573032.166       -2387.795          37.000  
G30  21382356.713   112365025.695        3539.652          31.000    21382352.462    87557157.831        2757.791          31.000  
G08  17163816.179    90196496.005       -1490.760          41.000    17163818.087    70283023.739       -1161.937          41.000  
G02  18125888.338    95252183.368        1599.767          40.000                                                                  
G09  18398660.443    96685605.940       -1294.396          37.000    18398662.625    75339466.610       -1008.825          39.000  
G01  19623707.195   103123278.898        3116.700          35.000    19623710.722    80355790.664        2428.619          39.000  
G16  21304522.776   111956016.006       -1735.320          31.000                                                                  
> 2025 04 18 00 16 48.9890000  0  9                     
G07  18811808.361    98856731.738        2945.485          39.000    18811807.557    77031231.776        2295.170          38.000  
G04  18986227.453    99773281.188       -2664.928          35.000    18986230.156    77745471.126       -2076.650          41.000  
G27  19677328.309   103405025.965       -3064.635          35.000    19677331.690    80575419.858       -2387.775          37.000  
G30  21381683.090   112361485.767        3540.076          31.000    21381679.205    87554399.477        2757.937          31.000  
G08  17164099.883    90197986.970       -1491.409          41.000    17164101.781    70284185.520       -1162.057          41.000  
G02  18125584.129    95250583.782        1598.959          40.000                                                                  
G09  18398906.851    96686900.524       -1295.035          37.000    18398908.986    75340475.383       -1009.327          39.000  
G01  19623114.223   103120162.213        3116.144          35.000    19623117.663    80353362.090        2428.285          40.000  
G16  21304853.242   111957751.618       -1736.057          31.000                                                                  
> 2025 04 18 00 16 49.9890000  0  9                     
G07  18811247.766    98853785.986        2945.603          39.000    18811246.969    77028936.407        2294.938          38.000  
G04  18986734.496    99775946.106       -2665.325          35.000    18986737.420    77747547.664       -2076.777          41.000  
G27  19677911.431   103408090.263       -3064.501          35.000    19677914.824    80577807.631       -2387.819          37.000  
G30  21381009.395   112357945.779        3540.083          31.000    21381005.729    87551641.029        2758.753          31.000  
G08  17164383.694    90199478.333       -1491.522          41.000    17164385.715    70285347.637       -1162.583          41.000  
G02  18125279.841    95248984.715        1598.635          40.000                                                                  
G09  18399153.290    96688195.571       -1295.938          37.000    18399155.383    75341484.485       -1009.539          39.000  
G01  19622521.187   103117045.613        3116.110          35.000    19622524.587    80350933.550        2428.411          39.000  
G16  21305183.515   111959487.086       -1735.548          31.000                                                                  
> 2025 04 18 00 16 50.9890000  0  9                     
G07  18810687.299    98850840.444        2945.160          39.000    18810686.417    77026641.155        2295.059          38.000  
G04  18987241.581    99778611.208       -2665.248          35.000    18987244.564    77749624.365       -2076.901          41.000  
G27  19678494.660   103411154.690       -3064.712          35.000    19678497.991    80580195.490       -2388.159          37.000  
G30  21380335.744   112354405.797        3539.622          31.000    21380332.355    87548882.567        2758.520          31.000  
G08  17164667.548    90200970.116       -1491.795          41.000    17164669.562    70286510.059       -1162.697          41.000  
G02  18124975.639    95247386.174        1598.092          40.000                                                                  
G09  18399399.816    96689491.046       -1296.008          37.000    18399401.998    75342493.945       -1009.404          39.000  
G01  19621928.161   103113929.092        3116.664          35.000    19621931.604    80348505.109        2428.322          40.000  
G16  21305513.784   111961222.538       -1735.561          31.000                                                                  
> 2025 04 18 00 16 51.9890000  0  9                     
G07  18810126.778    98847895.010        2945.507          39.000    18810125.837    77024346.016        2295.197          38.000  
G04  18987748.749    99781276.465       -2664.989          35.000    18987751.699    77751701.210       -2076.850          41.000  
G27  19679077.896   103414219.170       -3064.257          35.000    19679081.091    80582583.395       -2387.638          38.000  
G30  21379662.035   112350865.724        3539.586          30.000    21379659.037    87546124.111        2758.579          31.000  
G08  17164951.442    90202462.284       -1492.174          41.000    17164953.534    70287672.782       -1162.935          41.000  
G02  18124671.534    95245788.105        1598.017          40.000                                                                  
G09  18399646.355    96690786.918       -1295.816          37.000    18399648.584    75343503.746       -1009.937          39.000  
G01  19621335.003   103110812.643        3116.874          35.000    19621338.508    80346076.709        2428.575          39.000  
G16  21305843.833   111962957.751       -1732.942          31.000                                                                  
> 2025 04 18 00 16 52.9890000  0  9                     
G07  18809566.234    98844949.706        2945.164          39.000    18809565.351    77022050.975        2294.976          38.000  
G04  18988255.980    99783941.902       -2665.151          35.000    18988258.817    77753778.162       -2077.046          41.000  
G27  19679661.133   103417283.723       -3064.346          35.000    19679664.239    80584971.356       -2387.788          38.000  
G30  21378988.401   112347325.518        3540.200          31.000    21378985.461    87543365.536        2758.406          31.000  
G08  17165235.477    90203954.809       -1492.585          41.000    17165237.547    70288835.793       -1163.153          41.000  
G02  18124367.453    95244190.532        1597.106          40.000                                                                  
G09  18399893.003    96692083.245       -1296.606          37.000    18399895.193    75344513.848       -1010.337          39.000  
G01  19620742.122   103107696.259        3116.388          34.000    19620745.337    80343648.337        2428.650          39.000  
G16  21306174.018   111964693.120       -1736.045          30.000                                                                  
> 2025 04 18 00 16 53.9890000  0  9                     
G07  18809005.889    98842004.633        2944.495          39.000    18809004.920    77019756.107        2294.689          38.000  
G04  18988763.389    99786607.631       -2666.063          35.000    18988766.061    77755855.330       -2077.524          41.000  
G27  19680244.271   103420348.445       -3065.049          35.000    19680247.441    80587359.437       -2387.621          38.000  
G30  21378314.906   112343785.382        3539.946          31.000    21378311.617    87540606.945        2758.923          31.000  
G08  17165519.703    90205447.811       -1493.503          41.000    17165521.648    70289999.151       -1163.358          41.000  
G02  18124063.502    95242593.526        1596.832          40.000                                                                  
G09  18400139.721    96693380.050       -1297.318          38.000    18400141.935    75345524.341       -1010.749          39.000  
G01  19620149.017   103104580.020        3116.122          34.000    19620152.230    80341220.131        2427.730          39.000  
G16  21306504.129   111966428.260       -1734.802          30.000                                                                  
> 2025 04 18 00 16 54.9890000  0  9                     
G07  18808445.430    98839059.706        2944.760          39.000    18808444.465    77017461.364        2294.598          38.000  
G04  18989270.790    99789273.492       -2666.148          35.000    18989273.209    77757932.649       -2077.653          41.000  
G27  19680827.625   103423413.293       -3064.811          35.000    19680830.712    80589747.630       -2388.088          37.000  
G30  21377641.275   112340245.147        3540.721          31.000    21377638.025    87537848.359        2758.869          31.000  
G08  17165803.882    90206941.207       -1493.383          41.000    17165805.829    70291162.849       -1163.832          41.000  
G02  18123759.697    95240997.055        1596.161          40.000                                                                  
G09  18400386.538    96694677.309       -1297.615          37.000    18400388.827    75346535.185       -1011.019          39.000  
G01  19619556.096   103101463.859        3116.400          34.000    19619559.113    80338791.928        2428.375          39.000  
G16  21306834.029   111968163.287       -1733.398          30.000                                                                  
> 2025 04 18 00 16 55.9890000  0  9                     
G07  18807885.008    98836114.806        2944.643          39.000    18807884.035    77015166.608        2294.784          38.000  
G04  18989778.084    99791939.446       -2666.468          35.000    18989780.427    77760009.969       -2077.526          41.000  
G27  19681410.808   103426478.047       -3064.587          34.000    19681413.908    80592135.753       -2388.116          37.000  
G30  21376967.507   112336704.752        3540.086          31.000    21376964.321    87535089.609        2758.775          31.000  
G08  17166088.133    90208434.875       -1493.737          41.000    17166090.090    70292326.737       -1164.033          41.000  
G02  18123455.938    95239400.925        1596.294          40.000                                                                  
G09  18400633.432    96695974.833       -1297.654          37.000    18400635.804    75347546.252       -1011.114          39.000  
G01  19618963.063   103098347.613        3116.396          33.000    19618966.004    80336363.710        2428.465          39.000  
G16  21307164.275   111969898.197       -1733.488          30.000                                                                  
> 2025 04 18 00 16 56.9890000  0  9                     
G07  18807324.685    98833169.994        2944.812          39.000    18807323.688    77012871.973        2294.523          39.000  
G04  18990285.379    99794605.470       -2666.181          35.000    18990287.747    77762087.407       -2077.360          41.000  
G27  19681994.047   103429542.854       -3064.921          35.000    19681997.126    80594523.894       -2387.760          37.000  
G30  21376293.580   112333164.194        3541.356          31.000    21376290.682    87532330.738        2759.158          31.000  
G08  17166372.559    90209928.851       -1493.797          41.000    17166374.423    70293490.883       -1164.228          41.000  
G02  18123152.444    95237805.274        1595.507          40.000                                                                  
G09  18400880.476    96697272.753       -1297.841          38.000    18400882.644    75348557.616       -1011.349          39.000  
G01  19618370.039   103095231.435        3116.225          34.000    19618372.954    80333935.505        2428.402          39.000  
G16  21307494.416   111971633.000       -1734.914          31.000                                                                  
> 2025 04 18 00 16 57.9890000  0  9                     
G07  18806764.369    98830225.269        2944.915          39.000    18806763.399    77010577.396        2294.513          38.000  
G04  18990792.617    99797271.658       -2665.685          35.000    18990795.126    77764164.989       -2077.870          41.000  
G27  19682577.239   103432607.702       -3064.520          35.000    19682580.414    80596912.098       -2387.993          37.000  
G30  21375619.718   112329623.572        3540.795          31.000    21375616.986    87529571.772        2759.206          32.000  
G08  17166656.908    90211423.209       -1494.582          41.000    17166658.781    70294655.306       -1164.688          41.000  
G02  18122848.901    95236210.070        1594.854          40.000                                                                  
G09  18401127.520    96698571.053       -1298.311          37.000    18401129.637    75349569.278       -1011.615          39.000  
G01  19617777.042   103092115.284        3116.578          34.000    19617780.000    80331507.344        2428.065          39.000  
G16  21307824.428   111973367.600       -1734.432          31.000                                                                  
> 2025 04 18 00 16 58.9890000  0  9                     
G07  18806203.977    98827280.721        2944.531          39.000    18806203.129    77008282.933        2294.803          38.000  
G04  18991299.923    99799938.047       -2666.073          35.000    18991302.522    77766242.672       -2077.875          40.000  
G27  19683160.495   103435672.663       -3065.357          35.000    19683163.601    80599300.361       -2388.225          37.000  
G30  21374945.969   112326082.857        3540.985          30.000    21374943.223    87526812.802        2759.650          32.000  
G08  17166941.500    90212917.942       -1495.083          41.000    17166943.267    70295820.025       -1164.547          41.000  
G02  18122545.461    95234615.362        1594.282          40.000                                                                  
G09  18401374.686    96699869.812       -1299.219          37.000    18401376.871    75350581.293       -1012.345          39.000  
G01  19617183.997   103088999.207        3115.847          34.000    19617187.108    80329079.229        2428.177          40.000  
G16  21308154.346   111975102.100       -1734.948          30.000                                                                  
> 2025 04 18 00 16 59.9890000  0  9                     
G07  18805643.745    98824336.359        2944.206          39.000    18805642.796    77005988.616        2294.342          39.000  
G04  18991807.344    99802604.639       -2666.673          35.000    18991809.933    77768320.523       -2077.908          40.000  
G27  19683743.849   103438737.715       -3065.421          35.000    19683746.903    80601688.729       -2388.702          37.000  
G30  21374272.177   112322542.157        3540.008          30.000    21374269.729    87524053.822        2758.445          32.000  
G08  17167226.095    90214413.099       -1495.467          41.000    17167227.726    70296985.096       -1165.369          41.000  
G02  18122242.072    95233021.189        1593.833          40.000                                                                  
G09  18401621.900    96701168.999       -1299.550          37.000    18401624.100    75351593.656       -1012.637          39.000  
G01  19616591.116   103085883.235        3115.974          34.000    19616594.096    80326651.210        2427.930          40.000  
G16  21308484.420   111976836.561       -1734.928          31.000                                                                  
> 2025 04 18 00 17 00.9890000  0  9                     
G07  18805083.493    98821392.186        2944.495          39.000    18805082.575    77003694.465        2294.438          39.000  
G04  18992314.919    99805271.463       -2666.715          35.000    18992317.389    77770398.567       -2077.774          40.000  
G27  19684327.051   103441802.878       -3064.805          35.000    19684330.281    80604077.169       -2388.296          37.000  
G30  21373598.318   112319001.381        3540.833          30.000    21373596.013    87521294.795        2758.534          32.000  
G08  17167510.703    90215908.710       -1495.826          41.000    17167512.318    70298150.495       -1165.627          41.000  
G02  18121938.685    95231427.579        1593.451          40.000                                                                  
G09  18401869.269    96702468.683       -1299.854          37.000    18401871.420    75352606.396       -1012.793          39.000  
G01  19615998.158   103082767.382        3116.250          34.000    19616001.134    80324223.280        2427.981          40.000  
G16  21308814.408   111978570.892       -1734.089          31.000                                                                  
> 2025 04 18 00 17 01.9890000  0  9                     
G07  18804523.208    98818448.072        2944.438          39.000    18804522.304    77001400.353        2294.271          39.000  
G04  18992822.312    99807938.384       -2666.906          35.000    18992824.874    77772476.678       -2078.170          40.000  
G27  19684910.344   103444868.058       -3065.150          35.000    19684913.496    80606465.632       -2388.691          37.000  
G30  21372924.466   112315460.474        3541.187          31.000    21372922.402    87518535.579        2760.264          32.000  
G08  17167795.334    90217404.594       -1495.893          41.000    17167796.993    70299316.120       -1165.682          41.000  
G02  18121635.474    95229834.380        1592.806          40.000                                                                  
G09  18402116.660    96703768.696       -1300.148          37.000    18402118.680    75353619.397       -1013.317          39.000  
G01  19615405.093   103079651.498        3116.616          34.000    19615408.174    80321795.327        2428.200          40.000  
G16  21309144.540   111980305.120       -1733.298          31.000                                                                  
> 2025 04 18 00 17 02.9890000  0  9                     
G07  18803963.046    98815504.219        2944.273          39.000    18803962.205    76999106.446        2294.161          38.000  
G04  18993329.877    99810605.638       -2667.962          35.000    18993332.491    77774555.025       -2078.353          40.000  
G27  19685493.683   103447933.498       -3066.513          35.000    19685496.728    80608854.227       -2388.497          37.000  
G30  21372250.548   112311919.625        3540.225          31.000    21372248.753    87515776.524        2759.417          32.000  
G08  17168080.046    90218900.995       -1496.613          41.000    17168081.825    70300482.158       -1166.433          41.000  
G02  18121332.480    95228241.799        1592.226          40.000                                                                  
G09  18402364.214    96705069.267       -1301.014          37.000    18402366.183    75354632.819       -1013.628          39.000  
G01  19614812.199   103076535.854        3115.454          34.000    19614815.265    80319367.546        2427.521          40.000  
G16  21309474.401   111982039.347       -1733.636          31.000                                                                  
> 2025 04 18 00 17 03.9890000  0  9                     
G07  18803402.936    98812560.525        2943.388          39.000    18803401.990    76996812.651        2293.532          38.000  
G04  18993837.372    99813272.968       -2666.953          35.000    18993839.981    77776633.503       -2078.702          40.000  
G27  19686076.982   103450998.910       -3065.484          35.000    19686080.177    80611242.908       -2388.770          37.000  
G30  21371576.906   112308378.683        3540.838          31.000    21371575.224    87513017.362        2759.594          32.000  
G08  17168364.887    90220397.787       -1497.286          41.000    17168366.644    70301648.475       -1166.542          41.000  
G02  18121029.537    95226649.700        1591.743          40.000                                                                  
G09  18402611.774    96706370.235       -1300.991          37.000    18402613.778    75355646.552       -1013.948          39.000  
G01  19614219.383   103073420.249        3115.702          34.000    19614222.383    80316939.794        2427.683          39.000  
G16  21309804.396   111983773.465       -1733.589          31.000                                                                  
> 2025 04 18 00 17 04.9890000  0  9                     
G07  18802842.865    98809617.052        2943.162          39.000    18802841.923    76994519.038        2293.160          38.000  
G04  18994344.899    99815940.645       -2668.252          35.000    18994347.601    77778712.194       -2078.974          40.000  
G27  19686660.274   103454064.544       -3065.590          35.000    19686663.478    80613631.718       -2389.221          37.000  
G30  21370903.039   112304837.788        3540.434          31.000    21370901.601    87510258.227        2758.722          32.000  
G08  17168649.859    90221895.037       -1497.578          41.000    17168651.620    70302815.168       -1167.013          41.000  
G02  18120726.688    95225058.205        1591.155          40.000                                                                  
G09  18402859.505    96707671.747       -1301.940          37.000    18402861.478    75356660.698       -1014.214          39.000  
G01  19613626.554   103070304.810        3115.388          34.000    19613629.572    80314512.190        2427.349          40.000  
G16  21310134.359   111985507.623       -1734.000          31.000                                                                  
> 2025 04 18 00 17 05.9890000  0  9                     
G07  18802282.725    98806673.677        2943.418          39.000    18802281.876    76992225.513        2293.137          38.000  
G04  18994852.556    99818608.420       -2667.679          35.000    18994855.277    77780790.976       -2078.912          40.000  
G27  19687243.596   103457130.229       -3065.353          35.000    19687246.868    80616020.564       -2389.335          37.000  
G30  21370229.167   112301296.762        3541.105          31.000    21370227.863    87507498.997        2759.547          32.000  
G08  17168934.791    90223392.646       -1497.797          41.000    17168936.510    70303982.144       -1167.144          41.000  
G02  18120423.901    95223467.168        1590.706          40.000                                                                  
G09  18403107.314    96708973.650       -1302.693          37.000    18403109.173    75357675.171       -1014.809          39.000  
G01  19613033.712   103067189.391        3115.792          35.000    19613036.781    80312084.602        2427.598          40.000  
G16  21310464.516   111987241.539       -1733.646          31.000                                                                  
> 2025 04 18 00 17 06.9890000  0  9                     
G07  18801722.636    98803730.522        2943.084          39.000    18801721.778    76989932.123        2293.394          38.000  
G04  18995360.155    99821276.428       -2667.855          35.000    18995362.914    77782869.950       -2079.049          41.000  
G27  19687826.972   103460196.061       -3066.264          35.000    19687830.228    80618409.497       -2388.762          37.000  
G30  21369555.354   112297755.748        3541.550          31.000    21369554.149    87504739.780        2758.799          32.000  
G08  17169219.894    90224890.707       -1498.170          41.000    17169221.548    70305149.463       -1167.686          41.000  
G02  18120121.305    95221876.689        1590.399          40.000                                                                  
G09  18403355.129    96710275.986       -1302.278          37.000    18403356.938    75358690.009       -1015.248          39.000  
G01  19612440.830   103064074.149        3115.052          35.000    19612444.042    80309657.130        2427.530          39.000  
G16  21310794.616   111988975.553       -1734.313          30.000                                                                  
> 2025 04 18 00 17 07.9890000  0  9                     
G07  18801162.608    98800787.446        2943.073          39.000    18801161.693    76987638.822        2293.392          39.000  
G04  18995867.964    99823944.581       -2668.530          35.000    18995870.675    77784949.009       -2078.881          41.000  
G27  19688410.296   103463261.908       -3066.113          35.000    19688413.595    80620798.497       -2389.249          37.000  
G30  21368881.343   112294214.560        3541.647          31.000    21368880.490    87501980.426        2759.962          32.000  
G08  17169505.000    90226389.088       -1498.395          41.000    17169506.644    70306317.017       -1167.442          41.000  
G02  18119818.796    95220286.662        1589.897          40.000                                                                  
G09  18403602.997    96711578.714       -1302.811          37.000    18403604.840    75359705.100       -1014.817          39.000  
G01  19611847.867   103060958.905        3115.152          35.000    19611851.122    80307229.650        2427.542          40.000  
G16  21311124.590   111990709.263       -1732.291          31.000                                                                  
> 2025 04 18 00 17 08.9890000  0  9                     
G07  18800602.593    98797844.438        2943.129          39.000    18800601.629    76985345.574        2293.410          39.000  
G04  18996375.695    99826612.855       -2668.778          35.000    18996378.423    77787028.183       -2079.472          41.000  
G27  19688993.596   103466327.765       -3065.982          35.000    19688996.949    80623187.478       -2389.125          37.000  
G30  21368207.225   112290673.327        3540.840          31.000    21368206.631    87499220.988        2759.960          31.000  
G08  17169790.177    90227887.807       -1498.945          41.000    17169791.845    70307484.853       -1168.014          41.000  
G02  18119516.409    95218697.076        1589.232          40.000                                                                  
G09  18403850.862    96712881.849       -1303.705          37.000    18403852.895    75360720.532       -1015.633          39.000  
G01  19611255.041   103057843.650        3115.388          35.000    19611258.372    80304802.210        2427.026          40.000  
G16  21311454.424   111992442.943       -1733.441          31.000                                                                  
> 2025 04 18 00 17 09.9890000  0  9                     
G07  18800042.659    98794901.736        2942.707          39.000    18800041.614    76983052.554        2292.923          39.000  
G04  18996883.476    99829281.411       -2669.186          35.000    18996886.197    77789107.567       -2079.567          41.000  
G27  19689577.150   103469393.850       -3066.423          35.000    19689580.446    80625576.618       -2389.293          37.000  
G30  21367533.514   112287132.095        3541.580          30.000    21367532.837    87496461.611        2758.751          31.000  
G08  17170075.501    90229387.030       -1499.711          41.000    17170077.071    70308653.076       -1168.428          41.000  
G02  18119213.985    95217108.123        1588.365          40.000                                                                  
G09  18404098.948    96714185.484       -1303.768          37.000    18404100.964    75361736.368       -1016.318          39.000  
G01  19610662.193   103054728.624        3114.962          35.000    19610665.694    80302374.897        2427.049          40.000  
G16  21311784.524   111994176.625       -1733.783          31.000                                                                  
> 2025 04 18 00 17 10.9890000  0  9                     
G07  18799482.675    98791959.244        2942.538          39.000    18799481.635    76980759.697        2293.070          39.000  
G04  18997391.286    99831950.196       -2668.712          35.000    18997393.957    77791187.162       -2079.666          41.000  
G27  19690160.682   103472460.054       -3065.628          35.000    19690163.914    80627965.910       -2389.651          37.000  
G30  21366859.710   112283590.900        3541.577          31.000    21366858.896    87493702.235        2759.594          32.000  
G08  17170360.858    90230886.711       -1499.706          41.000    17170362.464    70309821.666       -1168.770          41.000  
G02  18118911.588    95215519.743        1588.064          40.000                                                                  
G09  18404347.224    96715489.637       -1304.188          37.000    18404349.174    75362752.581       -1016.196          39.000  
G01  19610069.484   103051613.722        3115.286          34.000    19610072.856    80299947.730        2426.640          39.000  
G16  21312114.628   111995910.205       -1732.690          32.000                                                                  
> 2025 04 18 00 17 11.9890000  0  9                     
G07  18798922.719    98789016.736        2942.919          39.000    18798921.707    76978466.853        2292.827          39.000  
G04  18997899.055    99834619.034       -2668.631          35.000    18997901.725    77793266.756       -2079.440          40.000  
G27  19690744.132   103475526.253       -3066.631          35.000    19690747.491    80630355.103       -2389.134          38.000  
G30  21366185.926   112280049.460        3541.868          31.000    21366185.297    87490942.712        2759.639          32.000  
G08  17170646.289    90232386.622       -1499.857          41.000    17170647.984    70310990.415       -1168.682          41.000  
G02  18118609.422    95213931.688        1588.082          40.000                                                                  
G09  18404595.538    96716794.071       -1304.641          37.000    18404597.430    75363769.013       -1016.746          39.000  
G01  19609476.851   103048498.781        3114.664          34.000    19609480.086    80297520.452        2427.471          39.000  
G16  21312444.676   111997643.587       -1732.763          32.000                                                                  
> 2025 04 18 00 17 12.9890000  0  9                     
G07  18798362.784    98786074.352        2942.233          39.000    18798361.725    76976174.083        2292.788          39.000  
G04  18998407.084    99837288.025       -2669.087          35.000    18998409.665    77795346.483       -2079.883          40.000  
G27  19691327.536   103478592.465       -3066.197          35.000    19691330.854    80632744.369       -2389.708          38.000  
G30  21365512.111   112276507.931        3541.906          31.000    21365511.437    87488183.066        2759.615          32.000  
G08  17170931.856    90233886.904       -1500.574          41.000    17170933.446    70312159.484       -1169.318          41.000  
G02  18118307.332    95212344.148        1586.875          40.000                                                                  
G09  18404843.922    96718098.910       -1305.459          37.000    18404845.637    75364785.755       -1016.980          39.000  
G01  19608884.087   103045383.849        3114.438          35.000    19608887.284    80295093.246        2427.167          39.000  
G16  21312774.502   111999376.923       -1734.292          32.000                                                                  
> 2025 04 18 00 17 13.9890000  0  9                     
G07  18797803.007    98783132.172        2941.708          39.000    18797801.864    76973881.466        2292.476          39.000  
G04  18998914.967    99839957.218       -2669.281          35.000    18998917.582    77797426.371       -2079.920          40.000  
G27  19691910.940   103481658.797       -3066.362          35.000    19691914.298    80635133.682       -2389.036          38.000  
G30  21364838.329   112272966.418        3541.489          31.000    21364837.613    87485423.426        2759.251          32.000  
G08  17171217.337    90235387.598       -1501.119          41.000    17171219.100    70313328.850       -1169.717          41.000  
G02  18118005.251    95210757.106        1586.725          40.000                                                                  
G09  18405092.230    96719404.167       -1305.118          38.000    18405093.999    75365802.856       -1017.429          39.000  
G01  19608291.434   103042269.032        3114.323          34.000    19608294.605    80292666.115        2427.153          39.000  
G16  21313104.181   112001110.106       -1734.047          31.000                                                                  
> 2025 04 18 00 17 14.9890000  0  9                     
G07  18797243.116    98780190.159        2941.737          39.000    18797242.085    76971588.985        2292.634          39.000  
G04  18999423.010    99842626.624       -2669.547          35.000    18999425.579    77799506.424       -2080.105          40.000  
G27  19692494.594   103484725.240       -3066.194          35.000    19692497.837    80637523.129       -2389.475          37.000  
G30  21364164.556   112269424.845        3541.250          31.000    21364163.432    87482663.754        2759.540          32.000  
G08  17171502.915    90236888.733       -1501.404          41.000    17171504.771    70314498.552       -1169.942          41.000  
G02  18117703.471    95209170.638        1585.876          40.000                                                                  
G09  18405340.779    96720709.915       -1306.001          38.000    18405342.476    75366820.312       -1017.682          39.000  
G01  19607698.788   103039154.354        3114.274          34.000    19607701.913    80290239.067        2427.152          39.000  
G16  21313434.045   112002843.215       -1733.112          31.000                                                                  
> 2025 04 18 00 17 15.9890000  0  9                     
G07  18796683.215    98777248.163        2941.932          39.000    18796682.231    76969296.549        2292.359          38.000  
G04  18999931.013    99845296.098       -2669.790          35.000    18999933.605    77801586.524       -2080.047          40.000  
G27  19693078.154   103487791.716       -3067.219          35.000    19693081.448    80639912.553       -2389.329          37.000  
G30  21363490.555   112265883.136        3540.797          31.000    21363489.480    87479903.964        2759.633          32.000  
G08  17171788.655    90238390.111       -1501.520          41.000    17171790.462    70315668.470       -1169.977          41.000  
G02  18117401.660    95207584.537        1585.640          40.000                                                                  
G09  18405589.320    96722015.982       -1306.665          37.000    18405591.003    75367838.012       -1017.814          39.000  
G01  19607105.980   103036039.579        3114.735          34.000    19607109.139    80287812.007        2427.165          39.000  
G16  21313763.549   112004576.103       -1732.109          31.000                                                                  
> 2025 04 18 00 17 16.9890000  0  9                     
G07  18796123.466    98774306.401        2941.420          39.000    18796122.483    76967004.236        2292.284          39.000  
G04  19000439.016    99847965.784       -2669.943          35.000    19000441.588    77803666.799       -2080.271          40.000  
G27  19693661.765   103490858.212       -3066.288          35.000    19693665.068    80642302.083       -2389.511          37.000  
G30  21362816.661   112262341.283        3541.732          31.000    21362815.821    87477144.091        2760.049          32.000  
G08  17172074.440    90239891.951       -1502.167          41.000    17172076.287    70316838.722       -1170.676          41.000  
G02  18117099.895    95205998.969        1585.394          40.000                                                                  
G09  18405837.965    96723322.504       -1307.222          37.000    18405839.557    75368856.084       -1018.150          39.000  
G01  19606513.360   103032924.951        3114.217          34.000    19606516.382    80285385.022        2426.554          39.000  
G16  21314093.094   112006309.001       -1732.582          31.000                                                                  
> 2025 04 18 00 17 17.9890000  0  9                     
G07  18795563.664    98771364.598        2941.525          39.000    18795562.697    76964711.949        2292.173          39.000  
G04  19000947.075    99850635.526       -2670.245          35.000    19000949.606    77805747.120       -2080.498          40.000  
G27  19694245.242   103493924.719       -3066.065          35.000    19694248.658    80644691.546       -2389.629          37.000  
G30  21362142.732   112258799.253        3542.407          31.000    21362141.810    87474384.106        2760.167          32.000  
G08  17172360.322    90241394.014       -1502.574          41.000    17172362.087    70318009.161       -1170.575          41.000  
G02  18116798.237    95204413.788        1585.000          40.000                                                                  
G09  18406086.600    96724629.295       -1307.013          37.000    18406088.162    75369874.379       -1018.401          39.000  
G01  19605920.639   103029810.267        3114.843          34.000    19605923.796    80282957.986        2426.936          39.000  
G16  21314422.689   112008041.646       -1732.378          31.000                                                                  
> 2025 04 18 00 17 18.9890000  0  9                     
G07  18795003.918    98768423.050        2941.510          39.000    18795002.896    76962419.812        2292.144          39.000  
G04  19001455.164    99853305.527       -2670.310          35.000    19001457.696    77807827.625       -2080.711          40.000  
G27  19694828.900   103496991.403       -3067.061          35.000    19694832.238    80647081.147       -2389.513          37.000  
G30  21361468.672   112255257.304        3542.042          31.000    21361467.823    87471624.138        2760.295          32.000  
G08  17172646.280    90242896.557       -1502.568          41.000    17172648.008    70319179.981       -1171.028          41.000  
G02  18116496.662    95202829.180        1584.324          40.000                                                                  
G09  18406335.445    96725936.623       -1307.547          37.000    18406336.867    75370893.075       -1018.942          39.000  
G01  19605328.015   103026695.772        3114.243          34.000    19605331.125    80280531.107        2426.535          39.000  
G16  21314752.371   112009774.318       -1732.031          31.000                                                                  
> 2025 04 18 00 17 19.9890000  0  9                     
G07  18794444.152    98765481.652        2941.115          39.000    18794443.055    76960127.815        2291.802          39.000  
G04  19001963.126    99855975.650       -2670.029          35.000    19001965.742    77809908.261       -2080.689          40.000  
G27  19695412.449   103500058.095       -3066.090          35.000    19695415.732    80649470.808       -2389.789          37.000  
G30  21360794.621   112251715.286        3542.405          31.000    21360793.916    87468864.120        2760.174          32.000  
G08  17172932.197    90244399.471       -1503.362          41.000    17172934.041    70320351.077       -1171.316          41.000  
G02  18116195.214    95201245.051        1584.047          40.000                                                                  
G09  18406584.353    96727244.349       -1307.976          37.000    18406585.746    75371912.090       -1019.498          39.000  
G01  19604735.344   103023581.292        3114.512          34.000    19604738.487    80278104.238        2426.643          39.000  
G16  21315081.888   112011506.767       -1731.081          31.000                                                                  
> 2025 04 18 00 17 20.9890000  0  9                     
G07  18793884.396    98762540.377        2940.919          39.000    18793883.325    76957835.901        2292.040          38.000  
G04  19002471.182    99858645.970       -2669.824          35.000    19002473.949    77811989.031       -2080.850          40.000  
G27  19695996.133   103503124.941       -3067.271          35.000    19695999.361    80651860.529       -2389.873          37.000  
G30  21360120.688   112248173.261        3540.426          31.000    21360120.098    87466104.039        2760.188          32.000  
G08  17173218.231    90245902.767       -1503.498          41.000    17173220.077    70321522.477       -1171.584          41.000  
G02  18115893.911    95199661.429        1583.719          40.000                                                                  
G09  18406833.389    96728552.504       -1308.178          37.000    18406834.687    75372931.429       -1019.662          39.000  
G01  19604142.745   103020466.901        3113.698          34.000    19604145.714    80275677.427        2427.021          39.000  
G16  21315411.502   112013239.272       -1732.192          31.000                                                                  
> 2025 04 18 00 17 21.9890000  0  9                     
G07  18793324.827    98759599.310        2940.914          39.000    18793323.678    76955544.167        2291.858          38.000  
G04  19002979.348    99861316.561       -2670.615          35.000    19002982.111    77814069.979       -2081.083          40.000  
G27  19696579.792   103506191.876       -3067.293          35.000    19696582.952    80654250.360       -2389.834          37.000  
G30  21359446.569   112244631.092        3541.656          31.000    21359446.101    87463343.977        2760.086          32.000  
G08  17173504.445    90247406.515       -1503.900          41.000    17173506.230    70322694.236       -1171.961          41.000  
G02  18115592.786    95198078.399        1582.809          40.000                                                                  
G09  18407082.411    96729861.178       -1309.263          37.000    18407083.578    75373951.151       -1020.075          39.000  
G01  19603550.047   103017352.649        3113.803          34.000    19603552.959    80273250.750        2426.792          39.000  
G16  21315741.155   112014971.680       -1733.028          31.000                                                                  
> 2025 04 18 00 17 22.9890000  0  9                     
G07  18792765.269    98756658.432        2940.415          39.000    18792764.064    76953252.579        2291.524          38.000  
G04  19003487.536    99863987.325       -2670.978          35.000    19003490.488    77816151.099       -2081.343          40.000  
G27  19697163.354   103509258.951       -3067.574          35.000    19697166.595    80656640.279       -2390.084          37.000  
G30  21358772.579   112241088.892        3542.565          31.000    21358772.137    87460583.834        2759.852          32.000  
G08  17173790.658    90248910.688       -1504.648          41.000    17173792.577    70323866.307       -1172.372          41.000  
G02  18115291.636    95196495.871        1582.230          40.000                                                                  
G09  18407331.492    96731170.261       -1309.459          37.000    18407332.647    75374971.219       -1020.291          39.000  
G01  19602957.418   103014238.525        3113.291          34.000    19602960.325    80270824.170        2426.417          39.000  
G16  21316070.751   112016704.010       -1733.146          31.000                                                                  
> 2025 04 18 00 17 23.9890000  0  9                     
G07  18792205.640    98753717.770        2940.440          39.000    18792204.440    76950961.138        2291.451          38.000  
G04  19003995.893    99866658.351       -2671.376          35.000    19003998.751    77818232.403       -2081.335          40.000  
G27  19697746.964   103512326.135       -3066.874          35.000    19697750.374    80659030.318       -2390.174          37.000  
G30  21358098.248   112237546.773        3542.178          31.000    21358098.310    87457823.708        2760.315          32.000  
G08  17174077.017    90250415.291       -1504.773          41.000    17174078.852    70325038.731       -1172.671          41.000  
G02  18114990.675    95194913.930        1581.552          40.000                                                                  
G09  18407580.718    96732479.876       -1310.154          37.000    18407581.948    75375991.694       -1021.054          39.000  
G01  19602364.795   103011124.512        3113.852          34.000    19602367.755    80268397.662        2426.343          39.000  
G16  21316400.541   112018436.242       -1731.856          32.000                                                                  
> 2025 04 18 00 17 24.9890000  0  9                     
G07  18791646.091    98750777.210        2940.365          39.000    18791645.001    76948669.795        2291.540          38.000  
G04  19004504.158    99869329.491       -2671.530          35.000    19004506.967    77820313.811       -2081.260          40.000  
G27  19698330.611   103515393.406       -3067.282          35.000    19698334.094    80661420.383       -2390.329          37.000  
G30  21357424.365   112234004.496        3543.136          32.000    21357424.186    87455063.537        2760.072          32.000  
G08  17174363.402    90251920.265       -1505.214          41.000    17174365.321    70326211.452       -1173.018          41.000  
G02  18114689.682    95193332.436        1581.224          40.000                                                                  
G09  18407830.075    96733789.829       -1310.151          37.000    18407831.176    75377012.442       -1020.851          39.000  
G01  19601772.238   103008010.541        3114.071          34.000    19601775.142    80265971.208        2426.367          39.000  
G16  21316730.064   112020168.436       -1732.330          31.000                                                                  
> 2025 04 18 00 17 25.9890000  0  9                     
G07  18791086.523    98747836.837        2940.279          39.000    18791085.460    76946378.625        2290.850          38.000  
G04  19005012.359    99872000.864       -2671.648          35.000    19005015.232    77822395.413       -2081.917          40.000  
G27  19698914.449   103518460.775       -3067.662          35.000    19698917.782    80663810.559       -2390.405          37.000  
G30  21356750.554   112230462.241        3542.775          32.000    21356750.188    87452303.315        2760.029          32.000  
G08  17174649.994    90253425.670       -1505.609          41.000    17174651.608    70327384.480       -1173.256          41.000  
G02  18114388.749    95191751.502        1580.507          40.000                                                                  
G09  18408079.483    96735100.308       -1311.139          37.000    18408080.662    75378033.581       -1021.226          39.000  
G01  19601179.772   103004896.748        3113.076          34.000    19601182.590    80263544.851        2426.346          39.000  
G16  21317059.740   112021900.478       -1731.301          31.000                                                                  
> 2025 04 18 00 17 26.9890000  0  9                     
G07  18790527.011    98744896.711        2939.819          39.000    18790525.989    76944087.612        2290.551          39.000  
G04  19005520.662    99874672.529       -2672.274          35.000    19005523.603    77824477.210       -2082.305          40.000  
G27  19699498.201   103521528.355       -3067.684          35.000    19699501.493    80666200.873       -2390.754          37.000  
G30  21356076.509   112226919.975        3542.640          31.000    21356076.267    87449543.124        2760.399          32.000  
G08  17174936.591    90254931.553       -1506.270          41.000    17174938.017    70328557.874       -1173.553          41.000  
G02  18114087.994    95190171.159        1579.626          40.000                                                                  
G09  18408328.973    96736411.246       -1311.552          38.000    18408330.107    75379055.096       -1021.687          39.000  
G01  19600587.362   103001783.028        3113.792          34.000    19600590.111    80261118.605        2426.083          39.000  
G16  21317389.354   112023632.641       -1732.034          31.000                                                                  
> 2025 04 18 00 17 27.9890000  0  9                     
G07  18789967.639    98741956.789        2939.770          39.000    18789966.468    76941796.756        2290.535          39.000  
G04  19006029.030    99877344.404       -2672.256          35.000    19006031.981    77826559.170       -2081.973          40.000  
G27  19700081.968   103524596.074       -3068.220          35.000    19700085.305    80668591.275       -2390.364          37.000  
G30  21355402.416   112223377.747        3542.239          31.000    21355402.346    87446782.943        2760.171          32.000  
G08  17175223.255    90256437.861       -1506.526          41.000    17175224.598    70329731.644       -1173.913          41.000  
G02  18113787.450    95188591.384        1579.287          40.000                                                                  
G09  18408578.439    96737722.708       -1312.121          38.000    18408579.677    75380077.022       -1022.555          39.000  
G01  19599994.907   102998669.520        3113.552          35.000    19599997.617    80258692.473        2426.495          40.000  
G16  21317718.839   112025364.748       -1732.715          31.000                                                                  
> 2025 04 18 00 17 28.9890000  0  9                     
G07  18789408.234    98739017.052        2939.721          39.000    18789407.154    76939506.051        2290.700          39.000  
G04  19006537.593    99880016.478       -2672.133          35.000    19006540.418    77828641.303       -2082.137          40.000  
G27  19700665.851   103527663.859       -3068.167          35.000    19700669.131    80670981.753       -2390.090          37.000  
G30  21354728.459   112219835.428        3542.236          31.000    21354728.330    87444022.722        2759.990          32.000  
G08  17175509.958    90257944.593       -1506.875          41.000    17175511.289    70330905.708       -1174.097          41.000  
G02  18113486.911    95187012.119        1579.189          40.000                                                                  
G09  18408828.072    96739034.603       -1312.277          38.000    18408829.406    75381099.268       -1022.508          39.000  
G01  19599402.471   102995556.106        3113.037          35.000    19599405.248    80256266.431        2426.167          40.000  
G16  21318048.442   112027096.694       -1731.915          31.000                                                                  
> 2025 04 18 00 17 29.9890000  0  9                     
G07  18788848.819    98736077.435        2939.512          39.000    18788847.732    76937215.443        2290.695          39.000  
G04  19007046.218    99882688.701       -2672.478          35.000    19007048.928    77830723.554       -2082.476          40.000  
G27  19701249.558   103530731.714       -3068.023          35.000    19701252.997    80673372.349       -2391.474          37.000  
G30  21354054.471   112216293.116        3541.969          31.000    21354054.374    87441262.430        2759.472          32.000  
G08  17175796.800    90259451.692       -1507.454          41.000    17175798.130    70332080.064       -1174.588          41.000  
G02  18113186.495    95185433.337        1578.502          40.000                                                                  
G09  18409077.779    96740346.911       -1312.907          37.000    18409079.026    75382121.820       -1022.628          39.000  
G01  19598810.071   102992442.693        3113.700          35.000    19598812.869    80253840.432        2426.002          40.000  
G16  21318378.115   112028828.602       -1731.920          31.000                                                                  
> 2025 04 18 00 17 30.9890000  0  9                     
G07  18788289.536    98733137.876        2940.004          39.000    18788288.447    76934924.873        2290.923          39.000  
G04  19007555.003    99885361.039       -2672.627          35.000    19007557.538    77832805.886       -2082.452          40.000  
G27  19701833.318   103533799.587       -3067.680          35.000    19701836.797    80675762.842       -2390.420          37.000  
G30  21353380.510   112212750.559        3542.468          31.000    21353380.550    87438502.006        2760.819          33.000  
G08  17176083.650    90260959.079       -1507.508          41.000    17176085.019    70333254.666       -1174.664          41.000  
G02  18112886.125    95183854.993        1578.120          40.000                                                                  
G09  18409327.498    96741659.509       -1312.517          38.000    18409328.814    75383144.671       -1022.987          39.000  
G01  19598217.578   102989329.345        3113.266          35.000    19598220.527    80251414.421        2426.386          40.000  
G16  21318707.579   112030560.323       -1731.666          31.000                                                                  
> 2025 04 18 00 17 31.9890000  0  9                     
G07  18787730.118    98730198.482        2939.054          39.000    18787729.132    76932634.404        2290.908          39.000  
G04  19008063.639    99888033.491       -2672.585          35.000    19008066.146    77834888.339       -2082.793          40.000  
G27  19702417.188   103536867.476       -3067.193          35.000    19702420.663    80678153.451       -2390.879          37.000  
G30  21352706.427   112209207.977        3542.661          32.000    21352706.685    87435741.553        2760.220          33.000  
G08  17176370.509    90262466.856       -1508.232          41.000    17176371.990    70334429.558       -1175.340          41.000  
G02  18112585.773    95182277.137        1577.544          40.000                                                                  
G09  18409577.418    96742972.588       -1313.397          38.000    18409578.589    75384167.826       -1023.374          39.000  
G01  19597625.145   102986216.036        3113.137          34.000    19597628.109    80248988.476        2425.783          40.000  
G16  21319037.061   112032291.897       -1731.047          31.000                                                                  
> 2025 04 18 00 17 32.9890000  0  9                     
G07  18787170.709    98727259.190        2939.396          39.000    18787169.777    76930344.091        2290.142          39.000  
G04  19008572.240    99890706.130       -2672.458          35.000    19008574.818    77836970.902       -2082.643          40.000  
G27  19703000.992   103539935.543       -3068.323          35.000    19703004.482    80680544.091       -2390.598          37.000  
G30  21352032.471   112205665.287        3542.865          31.000    21352032.706    87432981.080        2760.025          32.000  
G08  17176657.439    90263975.000       -1508.196          41.000    17176659.126    70335604.733       -1175.385          41.000  
G02  18112285.633    95180699.765        1577.054          40.000                                                                  
G09  18409827.452    96744286.047       -1313.446          38.000    18409828.510    75385191.313       -1023.824          39.000  
G01  19597032.791   102983102.780        3113.378          34.000    19597035.662    80246562.564        2425.775          40.000  
G16  21319366.512   112034023.407       -1731.041          31.000                                                                  
> 2025 04 18 00 17 33.9890000  0  9                     
G07  18786611.349    98724320.076        2939.032          39.000    18786610.594    76928053.857        2290.470          39.000  
G04  19009080.757    99893378.998       -2673.345          35.000    19009083.408    77839053.649       -2083.073          40.000  
G27  19703584.761   103543003.648       -3068.571          35.000    19703588.394    80682934.818       -2390.886          37.000  
G30  21351357.970   112202122.589        3542.007          31.000    21351358.540    87430220.458        2760.699          32.000  
G08  17176944.387    90265483.542       -1508.704          41.000    17176946.267    70336780.204       -1175.587          41.000  
G02  18111985.440    95179122.901        1576.622          40.000                                                                  
G09  18410077.438    96745599.931       -1313.804          38.000    18410078.596    75386215.118       -1024.094          39.000  
G01  19596440.346   102979989.629        3113.389          34.000    19596443.237    80244136.724        2425.860          40.000  
G16  21319695.970   112035754.800       -1731.556          31.000                                                                  
> 2025 04 18 00 17 34.9890000  0  9                     
G07  18786052.130    98721381.185        2938.946          39.000    18786051.371    76925763.826        2290.030          39.000  
G04  19009589.507    99896052.042       -2672.877          35.000    19009592.104    77841136.542       -2083.043          40.000  
G27  19704168.533   103546071.896       -3069.079          35.000    19704172.307    80685325.665       -2391.113          37.000  
G30  21350683.787   112198579.852        3543.064          31.000    21350684.352    87427459.902        2760.440          32.000  
G08  17177231.519    90266992.553       -1509.352          41.000    17177233.518    70337956.063       -1176.310          41.000  
G02  18111685.401    95177546.624        1575.966          40.000                                                                  
G09  18410327.538    96746914.360       -1314.885          38.000    18410328.707    75387239.323       -1024.463          39.000  
G01  19595848.044   102976876.609        3113.146          34.000    19595850.806    80241711.007        2425.608          40.000  
G16  21320025.584   112037486.140       -1731.264          32.000                                                                  
> 2025 04 18 00 17 35.9890000  0  9                     
G07  18785492.940    98718442.598        2938.729          39.000    18785492.068    76923474.007        2289.720          39.000  
G04  19010098.180    99898725.466       -2673.817          35.000    19010100.902    77843219.700       -2083.057          40.000  
G27  19704752.488   103549140.384       -3069.352          34.000    19704756.265    80687716.682       -2391.092          37.000  
G30  21350009.539   112195037.144        3544.135          31.000    21350010.256    87424699.366        2761.099          32.000  
G08  17177518.757    90268502.049       -1509.484          41.000    17177520.788    70339132.292       -1176.127          41.000  
G02  18111385.591    95175970.994        1575.144          40.000                                                                  
G09  18410577.777    96748229.304       -1314.949          38.000    18410578.865    75388263.976       -1025.176          39.000  
G01  19595255.787   102973763.837        3112.739          34.000    19595258.472    80239285.466        2425.298          40.000  
G16  21320355.041   112039217.601       -1731.709          32.000                                                                  
> 2025 04 18 00 17 36.9890000  0  9                     
G07  18784933.773    98715503.996        2938.922          39.000    18784932.857    76921184.188        2290.141          39.000  
G04  19010606.897    99901398.882       -2673.435          35.000    19010609.676    77845302.913       -2083.614          40.000  
G27  19705336.193   103552208.756       -3068.541          34.000    19705340.104    80690107.652       -2391.111          37.000  
G30  21349335.220   112191494.342        3542.960          31.000    21349336.185    87421938.771        2760.081          32.000  
G08  17177806.127    90270011.836       -1509.949          41.000    17177808.098    70340308.735       -1176.392          41.000  
G02  18111085.806    95174395.711        1575.106          40.000                                                                  
G09  18410828.004    96749544.547       -1315.400          38.000    18410829.224    75389288.847       -1025.178          39.000  
G01  19594663.496   102970650.971        3113.275          34.000    19594666.127    80236859.856        2425.767          40.000  
G16  21320684.416   112040948.770       -1730.838          32.000                                                                  
> 2025 04 18 00 17 37.9890000  0  9                     
G07  18784374.682    98712565.712        2938.218          40.000    18784373.706    76918894.621        2289.463          39.000  
G04  19011115.744    99904072.622       -2673.570          35.000    19011118.414    77847386.336       -2083.541          40.000  
G27  19705920.188   103555277.447       -3069.588          34.000    19705924.002    80692498.806       -2391.293          37.000  
G30  21348661.089   112187951.540        3543.397          31.000    21348661.985    87419178.162        2760.358          32.000  
G08  17178093.558    90271522.134       -1510.529          41.000    17178095.438    70341485.613       -1177.323          41.000  
G02  18110786.224    95172821.107        1574.122          40.000                                                                  
G09  18411078.408    96750860.369       -1315.999          38.000    18411079.617    75390314.152       -1025.633          39.000  
G01  19594071.138   102967538.360        3112.156          34.000    19594073.856    80234434.447        2425.380          40.000  
G16  21321014.022   112042680.022       -1731.322          32.000                                                                  
> 2025 04 18 00 17 38.9890000  0  9                     
G07  18783815.601    98709627.644        2937.902          39.000    18783814.533    76916605.212        2289.384          39.000  
G04  19011624.566    99906746.601       -2673.376          35.000    19011627.171    77849469.963       -2083.572          40.000  
G27  19706504.141   103558346.218       -3069.122          35.000    19706508.011    80694890.059       -2391.526          37.000  
G30  21347986.962   112184408.786        3543.726          31.000    21347987.909    87416417.593        2759.895          33.000  
G08  17178381.015    90273032.890       -1510.993          41.000    17178382.907    70342662.815       -1177.363          41.000  
G02  18110486.693    95171247.052        1573.716          40.000                                                                  
G09  18411328.827    96752176.696       -1316.684          38.000    18411330.107    75391339.844       -1026.043          39.000  
G01  19593478.841   102964425.865        3112.388          34.000    19593481.492    80232009.130        2425.367          40.000  
G16  21321343.430   112044411.208       -1731.100          32.000                                                                  
> 2025 04 18 00 17 39.9890000  0  9                     
G07  18783256.582    98706689.789        2937.588          39.000    18783255.382    76914315.963        2289.147          39.000  
G04  19012133.479    99909420.861       -2674.238          35.000    19012136.025    77851553.779       -2084.065          40.000  
G27  19707088.165   103561415.130       -3068.966          35.000    19707091.979    80697281.419       -2391.445          37.000  
G30  21347312.771   112180866.066        3542.332          31.000    21347314.041    87413656.988        2760.445          33.000  
G08  17178668.636    90274544.095       -1511.679          40.000    17178670.508    70343840.369       -1177.704          41.000  
G02  18110187.283    95169673.565        1573.149          40.000                                                                  
G09  18411579.409    96753493.489       -1317.496          38.000    18411580.690    75392365.920       -1026.606          39.000  
G01  19592886.668   102961313.547        3111.802          34.000    19592889.233    80229583.940        2424.987          39.000  
G16  21321672.999   112046142.440       -1731.500          32.000                                                                  
> 2025 04 18 00 17 40.9890000  0  9                     
G07  18782697.564    98703752.174        2937.165          39.000    18782696.392    76912026.933        2288.928          39.000  
G04  19012642.389    99912095.344       -2674.315          35.000    19012644.991    77853637.826       -2084.556          40.000  
G27  19707672.222   103564484.231       -3069.380          35.000    19707675.989    80699672.920       -2391.241          37.000  
G30  21346638.642   112177323.363        3542.386          31.000    21346640.087    87410896.411        2760.376          33.000  
G08  17178956.301    90276055.768       -1511.990          40.000    17178958.177    70345018.306       -1178.361          41.000  
G02  18109887.900    95168100.684        1572.524          40.000                                                                  
G09  18411830.092    96754810.792       -1317.556          38.000    18411831.331    75393392.400       -1027.263          39.000  
G01  19592294.466   102958201.361        3112.250          33.000    19592296.947    80227158.876        2424.957          39.000  
G16  21322002.366   112047873.579       -1729.806          32.000                                                                  
> 2025 04 18 00 17 41.9890000  0  9                     
G07  18782138.509    98700814.653        2937.412          39.000    18782137.323    76909737.960        2288.990          39.000  
G04  19013151.447    99914769.976       -2674.956          35.000    19013154.014    77855721.921       -2084.190          40.000  
G27  19708256.241   103567553.380       -3069.084          35.000    19708260.029    80702064.457       -2391.704          37.000  
G30  21345964.490   112173780.433        3543.885          31.000    21345965.748    87408135.742        2760.957          33.000  
G08  17179244.016    90277567.773       -1512.036          40.000    17179245.915    70346196.488       -1178.149          41.000  
G02  18109588.609    95166528.251        1572.173          40.000                                                                  
G09  18412080.934    96756128.449       -1317.366          38.000    18412082.041    75394419.136       -1026.577          39.000  
G01  19591702.279   102955089.222        3111.915          34.000    19591704.711    80224733.823        2425.258          39.000  
G16  21322331.852   112049604.686       -1731.936          32.000                                                                  
> 2025 04 18 00 17 42.9890000  0  9                     
G07  18781579.620    98697877.266        2937.291          39.000    18781578.390    76907449.088        2288.655          39.000  
G04  19013660.532    99917444.760       -2674.908          35.000    19013662.978    77857806.140       -2084.012          40.000  
G27  19708840.213   103570622.565       -3069.374          35.000    19708844.079    80704456.044       -2391.614          37.000  
G30  21345290.199   112170237.526        3543.526          31.000    21345291.672    87405375.019        2760.607          33.000  
G08  17179531.744    90279080.174       -1512.597          40.000    17179533.785    70347374.970       -1178.589          41.000  
G02  18109289.446    95164956.309        1571.848          40.000                                                                  
G09  18412331.852    96757446.557       -1318.304          38.000    18412332.931    75395446.236       -1027.433          39.000  
G01  19591110.020   102951977.129        3112.111          34.000    19591112.470    80222308.830        2425.073          39.000  
G16  21322661.353   112051335.563       -1729.852          32.000                                                                  
> 2025 04 18 00 17 43.9890000  0  9                     
G07  18781020.743    98694940.230        2937.194          39.000    18781019.493    76905160.493        2288.452          39.000  
G04  19014169.526    99920119.878       -2674.836          35.000    19014172.105    77859890.686       -2084.777          40.000  
G27  19709424.453   103573692.028       -3069.398          35.000    19709428.080    80706847.843       -2391.795          37.000  
G30  21344615.789   112166694.767        3542.608          31.000    21344617.667    87402614.399        2761.031          32.000  
G08  17179819.600    90280593.116       -1513.272          41.000    17179821.690    70348553.911       -1179.275          41.000  
G02  18108990.358    95163385.078        1571.035          40.000                                                                  
G09  18412582.715    96758765.271       -1319.080          38.000    18412583.822    75396473.797       -1027.627          39.000  
G01  19590517.651   102948865.330        3111.783          34.000    19590520.297    80219884.048        2424.702          39.000  
G16  21322990.659   112053066.692       -1732.186          32.000                                                                  
> 2025 04 18 00 17 44.9890000  0  9                     
G07  18780461.873    98692003.411        2936.632          39.000    18780460.530    76902872.050        2288.147          39.000  
G04  19014678.510    99922795.255       -2675.029          35.000    19014681.142    77861975.377       -2084.806          40.000  
G27  19710008.524   103576761.621       -3069.606          34.000    19710012.261    80709239.728       -2391.971          37.000  
G30  21343941.699   112163151.961        3542.501          31.000    21343943.594    87399853.799        2760.317          32.000  
G08  17180107.573    90282106.499       -1513.569          41.000    17180109.688    70349733.157       -1179.469          41.000  
G02  18108691.499    95161814.362        1570.725          40.000                                                                  
G09  18412833.641    96760084.429       -1319.177          37.000    18412834.871    75397501.728       -1028.204          39.000  
G01  19589925.464   102945753.645        3111.565          34.000    19589928.084    80217459.356        2424.985          39.000  
G16  21323319.977   112054797.655       -1731.396          32.000                                                                  
> 2025 04 18 00 17 45.9890000  0  9                     
G07  18779903.119    98689066.726        2936.395          39.000    18779901.776    76900583.724        2288.305          39.000  
G04  19015187.677    99925470.797       -2675.419          35.000    19015190.303    77864060.205       -2084.763          40.000  
G27  19710592.632   103579831.288       -3069.452          34.000    19710596.373    80711631.673       -2391.987          37.000  
G30  21343267.569   112159609.096        3541.902          31.000    21343269.331    87397093.085        2760.650          32.000  
G08  17180395.544    90283620.267       -1513.808          41.000    17180397.682    70350912.722       -1179.769          41.000  
G02  18108392.750    95160244.208        1569.930          39.000                                                                  
G09  18413084.769    96761404.034       -1319.648          37.000    18413086.012    75398529.961       -1028.118          39.000  
G01  19589333.325   102942642.037        3111.619          34.000    19589335.978    80215034.744        2424.664          39.000  
G16  21323649.479   112056528.482       -1730.174          32.000                                                                  
> 2025 04 18 00 17 46.9890000  0  9                     
G07  18779344.376    98686130.162        2936.224          39.000    18779342.958    76898295.498        2287.951          39.000  
G04  19015696.778    99928146.493       -2676.140          35.000    19015699.466    77866145.166       -2085.171          40.000  
G27  19711176.756   103582901.038       -3070.439          34.000    19711180.551    80714023.672       -2392.133          37.000  
G30  21342593.401   112156066.071        3542.615          31.000    21342595.088    87394332.335        2760.448          32.000  
G08  17180683.777    90285134.399       -1514.448          41.000    17180685.829    70352092.569       -1180.201          41.000  
G02  18108093.989    95158674.477        1569.457          40.000                                                                  
G09  18413336.033    96762724.038       -1320.615          37.000    18413337.134    75399558.537       -1029.019          39.000  
G01  19588741.168   102939530.471        3111.683          34.000    19588743.912    80212610.147        2424.490          38.000  
G16  21323978.687   112058259.325       -1731.745          31.000                                                                  
> 2025 04 18 00 17 47.9890000  0  9                     
G07  18778785.549    98683193.753        2936.125          40.000    18778784.173    76896007.390        2287.920          39.000  
G04  19016205.949    99930822.329       -2675.869          35.000    19016208.672    77868230.231       -2085.227          40.000  
G27  19711761.010   103585970.832       -3069.898          34.000    19711764.821    80716415.729       -2392.285          37.000  
G30  21341919.294   112152522.994        3543.921          31.000    21341920.742    87391571.530        2760.443          32.000  
G08  17180971.881    90286648.900       -1514.656          41.000    17180973.966    70353272.685       -1180.138          41.000  
G02  18107795.414    95157105.275        1568.457          40.000                                                                  
G09  18413587.265    96764044.437       -1320.776          37.000    18413588.416    75400587.433       -1029.290          39.000  
G01  19588149.055   102936419.010        3111.423          34.000    19588151.843    80210185.617        2424.691          38.000  
G16  21324308.075   112059989.966       -1731.399          31.000                                                                  
> 2025 04 18 00 17 48.9890000  0  9                     
G07  18778226.791    98680257.562        2936.112          40.000    18778225.378    76893719.430        2287.995          39.000  
G04  19016715.268    99933498.448       -2676.483          35.000    19016718.007    77870315.514       -2085.730          40.000  
G27  19712345.057   103589040.769       -3069.673          34.000    19712348.994    80718807.908       -2392.747          37.000  
G30  21341244.969   112148979.991        3542.978          31.000    21341246.427    87388810.723        2760.762          32.000  
G08  17181260.123    90288163.878       -1515.395          41.000    17181262.255    70354453.191       -1180.775          41.000  
G02  18107496.971    95155536.645        1568.118          40.000                                                                  
G09  18413838.617    96765365.343       -1321.283          37.000    18413839.888    75401616.708       -1029.542          39.000  
G01  19587556.921   102933307.706        3110.953          34.000    19587559.769    80207761.210        2424.276          38.000  
G16  21324637.531   112061720.597       -1731.272          31.000                                                                  
> 2025 04 18 00 17 49.9890000  0  9                     
G07  18777668.162    98677321.603        2935.803          40.000    18777666.638    76891431.649        2287.942          38.000  
G04  19017224.627    99936174.780       -2677.032          35.000    19017227.240    77872400.941       -2085.479          40.000  
G27  19712929.347   103592110.885       -3070.271          35.000    19712933.154    80721200.171       -2392.366          37.000  
G30  21340570.782   112145436.932        3544.143          31.000    21340572.275    87386049.874        2761.563          32.000  
G08  17181548.505    90289679.281       -1515.694          41.000    17181550.599    70355634.007       -1180.780          41.000  
G02  18107198.653    95153968.581        1567.733          40.000                                                                  
G09  18414090.009    96766686.731       -1321.629          37.000    18414091.317    75402646.365       -1030.109          39.000  
G01  19586965.010   102930196.523        3111.478          34.000    19586967.703    80205336.928        2423.874          39.000  
G16  21324966.816   112063451.177       -1730.678          31.000                                                                  
> 2025 04 18 00 17 50.9890000  0  9                     
G07  18777109.465    98674385.777        2935.611          40.000    18777108.001    76889144.017        2287.356          39.000  
G04  19017733.911    99938851.253       -2676.348          35.000    19017736.611    77874486.543       -2085.886          40.000  
G27  19713513.642   103595181.058       -3070.312          35.000    19713517.234    80723592.513       -2392.276          37.000  
G30  21339896.690   112141893.896        3543.254          31.000    21339898.083    87383289.060        2761.029          33.000  
G08  17181836.879    90291195.068       -1515.826          41.000    17181839.055    70356815.177       -1181.403          41.000  
G02  18106900.352    95152401.027        1566.971          40.000                                                                  
G09  18414341.555    96768008.545       -1322.011          37.000    18414342.847    75403676.344       -1030.250          39.000  
G01  19586372.897   102927085.448        3110.643          34.000    19586375.590    80202912.684        2424.306          39.000  
G16  21325296.124   112065181.706       -1730.933          31.000                                                                  
> 2025 04 18 00 17 51.9890000  0  9                     
G07  18776550.880    98671450.150        2935.030          40.000    18776549.350    76886856.500        2287.046          39.000  
G04  19018243.327    99941528.013       -2677.200          35.000    19018245.940    77876572.285       -2085.936          40.000  
G27  19714097.875   103598251.365       -3070.556          35.000    19714101.508    80725984.963       -2392.825          37.000  
G30  21339222.384   112138350.798        3542.221          31.000    21339223.833    87380528.203        2760.784          32.000  
G08  17182125.462    90292711.308       -1516.931          41.000    17182127.470    70357996.617       -1181.451          41.000  
G02  18106602.213    95150834.023        1566.554          40.000                                                                  
G09  18414593.211    96769330.826       -1322.679          37.000    18414594.485    75404706.687       -1030.844          39.000  
G01  19585780.966   102923974.472        3110.540          35.000    19585783.523    80200488.561        2423.625          39.000  
G16  21325625.446   112066912.150       -1730.916          31.000                                                                  
> 2025 04 18 00 17 52.9890000  0  9                     
G07  18775992.270    98668514.757        2935.264          40.000    18775990.908    76884569.210        2286.879          39.000  
G04  19018752.859    99944204.999       -2677.359          35.000    19018755.344    77878658.251       -2086.006          40.000  
G27  19714682.151   103601321.835       -3070.718          34.000    19714685.768    80728377.531       -2392.820          37.000  
G30  21338548.180   112134807.708        3542.559          31.000    21338549.745    87377767.376        2760.193          32.000  
G08  17182414.004    90294228.018       -1517.338          41.000    17182416.121    70359178.486       -1182.216          41.000  
G02  18106304.167    95149267.637        1565.542          40.000                                                                  
G09  18414844.897    96770653.622       -1323.004          37.000    18414846.108    75405737.440       -1031.385          39.000  
G01  19585188.940   102920863.641        3110.722          34.000    19585191.535    80198064.566        2423.623          39.000  
G16  21325954.464   112068642.531       -1728.344          32.000                                                                  
> 2025 04 18 00 17 53.9890000  0  9                     
G07  18775433.686    98665579.699        2934.982          39.000    18775432.426    76882282.140        2286.884          39.000  
G04  19019262.394    99946882.310       -2677.258          35.000    19019264.866    77880744.494       -2086.578          40.000  
G27  19715266.459   103604392.564       -3070.659          34.000    19715270.122    80730770.298       -2392.560          37.000  
G30  21337873.998   112131264.700        3543.598          31.000    21337875.593    87375006.580        2761.581          33.000  
G08  17182702.711    90295745.262       -1517.679          41.000    17182704.824    70360360.768       -1182.619          41.000  
G02  18106006.189    95147701.909        1565.114          40.000                                                                  
G09  18415096.753    96771977.007       -1323.438          37.000    18415097.931    75406768.637       -1031.454          39.000  
G01  19584597.007   102917753.111        3110.841          34.000    19584599.595    80195640.768        2423.319          39.000  
G16  21326283.651   112070373.164       -1730.966          32.000                                                                  
> 2025 04 18 00 17 54.9890000  0  9                     
G07  18774875.187    98662644.807        2934.958          40.000    18774873.929    76879995.222        2286.821          39.000  
G04  19019772.043    99949559.863       -2678.014          35.000    19019774.340    77882830.876       -2086.643          40.000  
G27  19715850.807   103607463.372       -3070.474          34.000    19715854.443    80733163.162       -2393.141          37.000  
G30  21337199.752   112127721.670        3543.569          31.000    21337201.488    87372245.810        2760.918          33.000  
G08  17182991.529    90297262.919       -1517.811          41.000    17182993.790    70361543.354       -1182.796          41.000  
G02  18105708.341    95146136.691        1565.172          40.000                                                                  
G09  18415348.677    96773300.850       -1324.146          38.000    18415349.986    75407800.179       -1031.378          39.000  
G01  19584005.181   102914642.688        3110.159          34.000    19584007.684    80193217.034        2423.651          40.000  
G16  21326612.853   112072103.644       -1730.943          31.000                                                                  
> 2025 04 18 00 17 55.9890000  0  9                     
G07  18774316.792    98659710.145        2934.374          40.000    18774315.421    76877708.471        2286.623          39.000  
G04  19020281.791    99952237.634       -2678.019          35.000    19020283.833    77884917.430       -2086.861          40.000  
G27  19716435.121   103610534.358       -3071.202          34.000    19716438.850    80735556.110       -2393.097          37.000  
G30  21336525.670   112124178.710        3542.758          31.000    21336527.472    87369485.048        2760.494          33.000  
G08  17183280.443    90298781.028       -1518.683          41.000    17183282.653    70362726.293       -1183.143          41.000  
G02  18105410.558    95144572.084        1564.183          40.000                                                                  
G09  18415600.687    96774625.188       -1324.842          37.000    18415602.046    75408832.136       -1032.549          39.000  
G01  19583413.258   102911532.368        3110.139          34.000    19583415.890    80190793.431        2423.355          40.000  
G16  21326942.172   112073834.016       -1731.330          32.000                                                                  
> 2025 04 18 00 17 56.9890000  0  9                     
G07  18773758.384    98656775.660        2934.281          40.000    18773757.089    76875421.835        2286.811          39.000  
G04  19020791.317    99954915.579       -2678.017          35.000    19020793.545    77887004.126       -2086.698          40.000  
G27  19717019.459   103613605.406       -3071.166          34.000    19717023.259    80737949.133       -2392.934          37.000  
G30  21335851.483   112120635.586        3543.780          31.000    21335853.493    87366724.196        2760.741          33.000  
G08  17183569.420    90300299.528       -1518.597          41.000    17183571.455    70363909.542       -1183.474          41.000  
G02  18105112.984    95143007.976        1563.457          40.000                                                                  
G09  18415852.754    96775949.904       -1324.814          37.000    18415854.136    75409864.384       -1032.249          39.000  
G01  19582821.349   102908422.154        3110.003          34.000    19582823.999    80188369.870        2423.692          40.000  
G16  21327271.387   112075564.341       -1730.248          32.000                                                                  
> 2025 04 18 00 17 57.9890000  0  9                     
G07  18773199.989    98653841.246        2934.347          40.000    18773198.630    76873135.305        2286.533          39.000  
G04  19021300.805    99957593.670       -2678.686          35.000    19021303.145    77889090.940       -2086.803          40.000  
G27  19717603.805   103616676.494       -3070.834          34.000    19717607.677    80740342.182       -2392.702          37.000  
G30  21335177.222   112117092.434        3544.240          31.000    21335179.414    87363963.294        2761.332          33.000  
G08  17183858.417    90301818.359       -1518.939          41.000    17183860.403    70365093.057       -1183.797          41.000  
G02  18104815.355    95141444.302        1563.520          40.000                                                                  
G09  18416104.933    96777275.021       -1324.969          37.000    18416106.270    75410896.957       -1032.448          39.000  
G01  19582229.383   102905311.973        3109.474          34.000    19582232.087    80185946.377        2423.379          40.000  
G16  21327600.604   112077294.508       -1729.549          32.000                                                                  
> 2025 04 18 00 17 58.9890000  0  9                     
G07  18772641.611    98650907.184        2933.695          40.000    18772640.335    76870849.005        2286.261          39.000  
G04  19021810.555    99960272.051       -2678.292          35.000    19021812.801    77891178.011       -2087.208          40.000  
G27  19718188.109   103619747.866       -3071.935          34.000    19718192.130    80742735.458       -2393.779          37.000  
G30  21334502.828   112113549.372        3543.836          31.000    21334505.323    87361202.482        2760.381          33.000  
G08  17184147.626    90303337.745       -1519.554          41.000    17184149.601    70366276.983       -1184.199          41.000  
G02  18104517.968    95139881.324        1562.683          40.000                                                                  
G09  18416357.291    96778600.761       -1326.063          37.000    18416358.504    75411929.992       -1033.551          39.000  
G01  19581637.678   102902202.031        3109.885          34.000    19581640.379    80183523.046        2423.104          40.000  
G16  21327929.876   112079024.822       -1730.806          32.000                                                                  
> 2025 04 18 00 17 59.9890000  0  9                     
G07  18772083.267    98647973.247        2933.782          40.000    18772082.003    76868562.853        2285.762          39.000  
G04  19022320.277    99962950.635       -2678.877          35.000    19022322.528    77893265.215       -2087.120          40.000  
G27  19718772.609   103622819.267       -3071.415          34.000    19718776.602    80745128.753       -2393.360          37.000  
G30  21333828.592   112110006.287        3542.839          31.000    21333831.234    87358441.590        2760.772          33.000  
G08  17184436.779    90304857.521       -1520.108          40.000    17184438.853    70367461.226       -1184.548          41.000  
G02  18104220.580    95138318.847        1562.020          40.000                                                                  
G09  18416609.581    96779926.885       -1326.137          37.000    18416610.821    75412963.324       -1033.175          39.000  
G01  19581045.866   102899092.188        3109.463          34.000    19581048.629    80181099.787        2423.231          40.000  
G16  21328259.107   112080754.953       -1730.526          32.000                                                                  
> 2025 04 18 00 18 00.9890000  0  9                     
G07  18771524.927    98645039.439        2933.761          40.000    18771523.622    76866276.746        2286.040          38.000  
G04  19022830.031    99965629.360       -2679.048          35.000    19022832.347    77895352.540       -2087.563          40.000  
G27  19719356.982   103625890.741       -3071.908          34.000    19719361.011    80747522.093       -2393.422          37.000  
G30  21333154.464   112106463.023        3543.981          32.000    21333157.072    87355680.644        2760.720          33.000  
G08  17184726.032    90306377.632       -1520.215          40.000    17184728.152    70368645.726       -1184.755          40.000  
G02  18103923.295    95136756.858        1561.479          40.000                                                                  
G09  18416861.965    96781253.426       -1326.585          37.000    18416863.381    75413996.989       -1033.550          39.000  
G01  19580453.980   102895982.389        3109.690          34.000    19580456.897    80178676.579        2422.926          40.000  
G16  21328588.185   112082485.014       -1729.808          32.000                                                                  
> 2025 04 18 00 18 01.9890000  0  9                     
G07  18770966.641    98642105.918        2933.314          40.000    18770965.435    76863990.874        2285.804          38.000  
G04  19023339.841    99968308.410       -2679.757          35.000    19023342.134    77897440.089       -2088.001          40.000  
G27  19719941.554   103628962.385       -3071.774          34.000    19719945.537    80749915.597       -2393.712          37.000  
G30  21332480.173   112102919.910        3542.624          32.000    21332482.914    87352919.777        2760.135          33.000  
G08  17185015.387    90307898.262       -1520.950          41.000    17185017.555    70369830.646       -1185.510          41.000  
G02  18103626.199    95135195.480        1561.208          40.000                                                                  
G09  18417114.462    96782580.492       -1327.251          37.000    18417115.902    75415031.090       -1034.411          39.000  
G01  19579862.158   102892872.809        3109.091          34.000    19579865.064    80176253.501        2423.114          40.000  
G16  21328917.547   112084215.069       -1729.702          32.000                                                                  
> 2025 04 18 00 18 02.9890000  0  9                     
G07  18770408.438    98639172.542        2933.429          40.000    18770407.276    76861705.151        2285.347          38.000  
G04  19023849.732    99970987.599       -2679.309          35.000    19023851.940    77899527.780       -2087.792          40.000  
G27  19720526.075   103632034.159       -3071.722          34.000    19720530.005    80752309.158       -2393.240          37.000  
G30  21331806.185   112099376.708        3542.980          32.000    21331808.702    87350158.828        2760.620          33.000  
G08  17185304.949    90309419.301       -1521.242          41.000    17185307.037    70371015.852       -1185.483          41.000  
G02  18103329.207    95133634.642        1560.656          40.000                                                                  
G09  18417367.069    96783908.021       -1327.676          37.000    18417368.481    75416065.522       -1034.878          39.000  
G01  19579270.467   102889763.282        3109.371          34.000    19579273.351    80173830.542        2422.863          40.000  
G16  21329246.776   112085945.082       -1729.920          32.000                                                                  
> 2025 04 18 00 18 03.9890000  0  9                     
G07  18769850.297    98636239.431        2932.807          40.000    18769849.103    76859419.591        2285.514          38.000  
G04  19024359.682    99973667.054       -2679.823          35.000    19024361.786    77901615.661       -2088.033          40.000  
G27  19721110.645   103635106.090       -3071.994          34.000    19721114.520    80754702.889       -2393.890          37.000  
G30  21331131.994   112095833.458        3543.750          32.000    21331134.646    87347397.863        2761.003          33.000  
G08  17185594.414    90310940.790       -1521.816          41.000    17185596.457    70372201.437       -1186.031          41.000  
G02  18103032.299    95132074.365        1559.894          40.000                                                                  
G09  18417619.805    96785236.017       -1328.343          38.000    18417621.213    75417100.326       -1035.226          39.000  
G01  19578678.636   102886653.950        3108.989          34.000    19578681.578    80171407.663        2422.852          40.000  
G16  21329575.953   112087675.043       -1730.170          32.000                                                                  
> 2025 04 18 00 18 04.9890000  0  9                     
G07  18769292.239    98633306.494        2932.860          40.000    18769291.005    76857134.194        2285.439          39.000  
G04  19024869.517    99976346.745       -2680.014          35.000    19024871.688    77903703.713       -2088.023          40.000  
G27  19721695.255   103638178.126       -3072.074          34.000    19721699.125    80757096.680       -2393.948          37.000  
G30  21330457.776   112092290.295        3543.346          32.000    21330460.598    87344636.938        2761.089          34.000  
G08  17185883.905    90312462.722       -1522.267          41.000    17185886.013    70373387.338       -1186.159          41.000  
G02  18102735.483    95130514.667        1559.327          40.000                                                                  
G09  18417872.627    96786564.517       -1328.856          38.000    18417874.051    75418135.504       -1035.242          39.000  
G01  19578086.956   102883544.774        3108.599          34.000    19578089.875    80168984.922        2422.622          39.000  
G16  21329905.250   112089404.962       -1730.033          32.000                                                                  
> 2025 04 18 00 18 05.9890000  0  9                     
G07  18768734.156    98630373.873        2932.782          40.000    18768732.906    76854849.038        2285.244          38.000  
G04  19025379.530    99979026.737       -2680.171          35.000    19025381.727    77905792.049       -2088.623          40.000  
G27  19722279.889   103641250.429       -3072.988          34.000    19722283.758    80759490.687       -2394.221          37.000  
G30  21329783.725   112088747.224        3542.600          32.000    21329786.685    87341876.091        2760.772          34.000  
G08  17186173.685    90313985.171       -1522.519          41.000    17186175.732    70374573.667       -1186.413          41.000  
G02  18102438.758    95128955.638        1558.531          40.000                                                                  
G09  18418125.546    96787893.562       -1329.278          38.000    18418126.857    75419171.134       -1035.766          39.000  
G01  19577495.368   102880435.773        3109.318          34.000    19577498.232    80166562.347        2422.356          39.000  
G16  21330234.412   112091135.026       -1730.252          32.000                                                                  
> 2025 04 18 00 18 06.9890000  0  9                     
G07  18768176.121    98627441.525        2932.587          40.000    18768174.947    76852564.107        2284.662          38.000  
G04  19025889.733    99981707.053       -2680.729          35.000    19025891.650    77907880.592       -2088.896          40.000  
G27  19722864.571   103644322.892       -3072.612          34.000    19722868.559    80761884.814       -2394.385          37.000  
G30  21329109.595   112085204.136        3543.803          32.000    21329112.714    87339115.278        2761.029          34.000  
G08  17186463.418    90315508.137       -1523.268          40.000    17186465.579    70375760.378       -1186.743          41.000  
G02  18102142.267    95127397.206        1558.206          40.000                                                                  
G09  18418378.644    96789223.185       -1330.223          38.000    18418379.862    75420207.190       -1036.194          39.000  
G01  19576903.725   102877327.020        3108.634          34.000    19576906.577    80164139.929        2422.387          39.000  
G16  21330563.652   112092865.036       -1730.115          31.000                                                                  
> 2025 04 18 00 18 07.9890000  0  9                     
G07  18767618.159    98624509.409        2931.577          39.000    18767617.061    76850279.316        2284.498          38.000  
G04  19026399.765    99984387.584       -2681.046          35.000    19026401.837    77909969.303       -2088.918          40.000  
G27  19723449.349   103647395.520       -3073.018          34.000    19723453.205    80764279.055       -2394.320          37.000  
G30  21328435.421   112081661.104        3543.687          32.000    21328438.456    87336354.482        2760.607          33.000  
G08  17186753.247    90317031.552       -1523.899          40.000    17186755.441    70376947.469       -1187.577          41.000  
G02  18101845.808    95125839.372        1557.248          40.000                                                                  
G09  18418631.691    96790553.255       -1330.391          37.000    18418633.044    75421243.620       -1036.805          39.000  
G01  19576312.109   102874218.403        3107.797          35.000    19576314.986    80161717.631        2422.409          39.000  
G16  21330892.973   112094595.028       -1731.054          31.000                                                                  
