     3.04           OBSERVATION DATA    G: GPS              RINEX VERSION / TYPE
RTKCONV demo5 b34i                      20250515 182751 UTC PGM / RUN BY / DATE 
format: u-blox UBX                                          COMMENT             
log: D:\20242\NGUYENDS\GNSS_DOA_Spoofing\hai\ngoc\2025-04-18COMMENT             
                                                            MARKER NAME         
                                                            MARKER NUMBER       
                                                            MARKER TYPE         
                                                            OBSERVER / AGENCY   
                                                            REC # / TYPE / VERS 
                                                            ANT # / TYPE        
 -1626590.9866  5730536.0439  2271882.2450                  APPROX POSITION XYZ 
        0.0000        0.0000        0.0000                  ANTENNA: DELTA H/E/N
G    8 C1C L1C D1C S1C C2X L2X D2X S2X                      SYS / # / OBS TYPES 
  2025    04    18    09    30   11.9850000     GPS         TIME OF FIRST OBS   
  2025    04    18    09    55   31.9850000     GPS         TIME OF LAST OBS    
G L1C                                                       SYS / PHASE SHIFT   
G L2X  0.00000                                              SYS / PHASE SHIFT   
  0                                                         GLONASS SLOT / FRQ #
                                                            GLONASS COD/PHS/BIS 
                                                            END OF HEADER       
> 2025 04 18 09 30 11.9850000  0 10                     
G19  19462368.156   102275253.4981      -3414.728          32.000                                                                  
G11  17609902.339    92540659.2351       -266.569          43.000    17609909.356    72109735.2941       -207.783          44.000  
G20  17050514.951    89601068.3761      -1446.405          44.000                                                                  
G05  16391890.164    86140037.7721        -19.788          46.000    16391895.634    67122362.5051        -15.405          45.000  
G06  19265290.983   101239694.7231      -1116.974          36.000    19265309.291    78888202.6271       -870.129          40.000  
G12  18544727.411    97453091.5711      -2011.000          41.000    18544743.686    75937691.7151      -1566.707          38.000  
G25  19006453.924    99879544.6431       -781.931          36.000    19006473.938    77828320.9971       -609.064          35.000  
G15  18551563.144    97489174.5891       3735.290          38.000    18551582.110    75965687.5711       2910.765          39.000  
G29  19208040.158   100938965.9401       3478.589          38.000    19208049.964    78653855.8911       2710.614          36.000  
G13  16680156.921    87655005.0491       2657.369          44.000                                                                  
> 2025 04 18 09 30 12.9850000  0 10                     
G19  19463017.860   102278668.197       -3414.746          32.000                                                                  
G11  17609953.112    92540926.153        -267.239          43.000    17609960.098    72109943.284        -208.249          44.000  
G20  17050790.328    89602515.019       -1447.019          44.000                                                                  
G05  16391893.771    86140057.818         -20.551          46.000    16391899.438    67122378.131         -15.936          45.000  
G06  19265503.472   101240811.652       -1117.224          36.000    19265521.801    78889072.944        -870.526          40.000  
G12  18545110.134    97455102.805       -2011.318          40.000    18545126.369    75939258.914       -1567.544          38.000  
G25  19006602.730    99880326.633        -782.289          36.000    19006622.748    77828930.361        -610.356          35.000  
G15  18550852.352    97485439.566        3734.553          39.000    18550871.330    75962777.170        2910.333          39.000  
G29  19207378.202   100935487.745        3477.710          38.000    19207388.195    78651145.636        2709.729          36.000  
G13  16679651.291    87652347.944        2656.616          44.000                                                                  
> 2025 04 18 09 30 13.9850000  0 10                     
G19  19463667.651   102282083.207       -3415.173          33.000                                                                  
G11  17610003.938    92541193.217        -266.904          43.000    17610010.824    72110151.380        -207.975          44.000  
G20  17051065.573    89603961.774       -1446.600          44.000                                                                  
G05  16391897.413    86140078.230         -20.319          46.000    16391903.346    67122394.042         -15.875          45.000  
G06  19265716.000   101241928.730       -1117.041          36.000    19265734.332    78889943.400        -870.148          40.000  
G12  18545492.874    97457114.323       -2011.273          40.000    18545509.220    75940826.312       -1567.168          38.000  
G25  19006751.501    99881109.095        -782.422          36.000    19006771.696    77829540.030        -609.607          35.000  
G15  18550141.542    97481704.728        3734.970          39.000    18550160.560    75959866.926        2910.285          39.000  
G29  19206716.401   100932009.754        3478.125          38.000    19206726.342    78648435.503        2710.400          36.000  
G13  16679145.749    87649691.314        2656.469          45.000                                                                  
> 2025 04 18 09 30 14.9850000  0 10                     
G19  19464317.552   102285498.234       -3415.191          32.000                                                                  
G11  17610054.821    92541460.219        -267.293          43.000    17610061.649    72110359.431        -208.214          44.000  
G20  17051340.986    89605408.432       -1446.827          44.000                                                                  
G05  16391901.587    86140098.814         -20.880          46.000    16391907.286    67122410.079         -16.266          45.000  
G06  19265928.584   101243045.777       -1117.334          37.000    19265946.876    78890813.814        -870.453          40.000  
G12  18545875.689    97459125.899       -2011.520          40.000    18545892.018    75942393.770       -1567.816          39.000  
G25  19006900.444    99881891.770        -783.300          36.000    19006920.688    77830149.875        -609.901          35.000  
G15  18549430.852    97477969.891        3734.639          39.000    18549449.797    75956956.671        2910.116          39.000  
G29  19206054.514   100928531.743        3477.863          38.000    19206064.446    78645725.370        2709.894          36.000  
G13  16678640.145    87647034.930        2656.085          45.000                                                                  
> 2025 04 18 09 30 15.9850000  0 10                     
G19  19464967.466   102288913.385       -3415.320          32.000                                                                  
G11  17610105.549    92541727.260        -267.150          43.000    17610112.529    72110567.516        -208.273          44.000  
G20  17051616.310    89606855.110       -1447.052          44.000                                                                  
G05  16391905.674    86140119.671         -21.161          46.000    16391911.227    67122426.334         -16.351          45.000  
G06  19266141.197   101244162.895       -1117.712          37.000    19266159.438    78891684.275        -870.715          40.000  
G12  18546258.489    97461137.646       -2012.107          41.000    18546274.858    75943961.345       -1567.893          39.000  
G25  19007049.250    99882674.735        -782.924          36.000    19007069.712    77830760.014        -610.180          36.000  
G15  18548719.997    97474235.136        3734.640          39.000    18548739.051    75954046.489        2909.953          39.000  
G29  19205392.578   100925053.828        3478.040          38.000    19205402.602    78643015.318        2710.089          36.000  
G13  16678134.680    87644378.913        2655.563          44.000                                                                  
> 2025 04 18 09 30 16.9850000  0 10                     
G19  19465617.470   102292328.905       -3416.187          32.000                                                                  
G11  17610156.495    92541994.537        -267.583          43.000    17610163.334    72110775.778        -208.386          44.000  
G20  17051891.635    89608301.973       -1447.224          44.000                                                                  
G05  16391909.713    86140141.002         -21.857          46.000    16391915.334    67122442.964         -17.065          45.000  
G06  19266353.844   101245280.222       -1117.676          37.000    19266372.007    78892554.922        -871.240          40.000  
G12  18546641.350    97463149.734       -2012.665          41.000    18546657.715    75945529.180       -1568.077          39.000  
G25  19007198.341    99883458.301        -784.115          36.000    19007218.841    77831370.559        -611.303          36.000  
G15  18548009.389    97470500.681        3734.083          39.000    18548028.426    75951136.535        2909.466          39.000  
G29  19204730.814   100921576.198        3477.039          38.000    19204740.729    78640305.500        2709.155          36.000  
G13  16677629.343    87641723.421        2655.082          44.000                                                                  
> 2025 04 18 09 30 17.9850000  0 10                     
G19  19466267.453   102295744.693       -3416.229          32.000                                                                  
G11  17610207.365    92542262.046        -267.719          43.000    17610214.295    72110984.226        -208.491          44.000  
G20  17052166.981    89609749.034       -1447.178          44.000                                                                  
G05  16391913.640    86140162.773         -21.924          46.000    16391919.473    67122459.936         -17.188          45.000  
G06  19266566.588   101246397.784       -1117.633          37.000    19266584.625    78893425.743        -871.124          40.000  
G12  18547024.396    97465162.146       -2012.612          41.000    18547040.699    75947097.282       -1568.091          39.000  
G25  19007347.625    99884242.333        -784.339          36.000    19007368.061    77831981.456        -611.288          36.000  
G15  18547298.708    97466766.477        3734.270          39.000    18547317.786    75948226.776        2909.700          39.000  
G29  19204069.085   100918098.814        3477.460          38.000    19204078.983    78637595.849        2709.503          36.000  
G13  16677124.074    87639068.477        2654.781          44.000                                                                  
> 2025 04 18 09 30 18.9850000  0 10                     
G19  19466917.536   102299160.735       -3416.644          32.000                                                                  
G11  17610258.312    92542529.675        -267.851          43.000    17610265.218    72111192.769        -208.687          44.000  
G20  17052442.278    89611196.197       -1447.281          44.000                                                                  
G05  16391917.875    86140184.917         -22.296          46.000    16391923.574    67122477.191         -17.474          45.000  
G06  19266779.273   101247515.518       -1117.859          37.000    19266797.322    78894296.674        -870.898          40.000  
G12  18547407.340    97467174.820       -2012.879          41.000    18547423.663    75948665.590       -1568.272          38.000  
G25  19007496.914    99885026.744        -784.079          36.000    19007517.346    77832592.706        -611.946          36.000  
G15  18546588.188    97463032.495        3734.031          39.000    18546607.307    75945317.163        2909.778          39.000  
G29  19203407.430   100914621.638        3477.185          38.000    19203417.166    78634886.369        2709.375          36.000  
G13  16676618.892    87636413.982        2654.194          45.000                                                                  
> 2025 04 18 09 30 19.9850000  0 10                     
G19  19467567.650   102302576.996       -3416.479          32.000                                                                  
G11  17610309.346    92542797.453        -268.020          43.000    17610316.232    72111401.429        -208.773          44.000  
G20  17052717.614    89612643.467       -1447.573          44.000                                                                  
G05  16391922.365    86140207.432         -22.839          46.000    16391927.915    67122494.738         -17.816          45.000  
G06  19266991.979   101248633.390       -1118.164          37.000    19267010.088    78895167.736        -871.216          40.000  
G12  18547790.390    97469187.750       -2013.253          41.000    18547806.801    75950234.110       -1568.790          38.000  
G25  19007646.202    99885811.674        -785.774          36.000    19007666.771    77833204.286        -611.921          36.000  
G15  18545877.625    97459298.691        3733.530          39.000    18545896.778    75942407.715        2909.235          39.000  
G29  19202745.830   100911144.656        3476.745          38.000    19202755.651    78632177.022        2709.186          36.000  
G13  16676113.765    87633759.952        2653.569          45.000                                                                  
> 2025 04 18 09 30 20.9850000  0 10                     
G19  19468217.729   102305993.497       -3416.595          32.000                                                                  
G11  17610360.392    92543065.349        -268.089          43.000    17610367.134    72111610.176        -208.876          43.000  
G20  17052993.050    89614090.830       -1447.455          44.000                                                                  
G05  16391926.830    86140230.276         -23.035          46.000    16391932.219    67122512.542         -17.944          45.000  
G06  19267204.676   101249751.380       -1118.231          37.000    19267222.814    78896038.900        -871.283          40.000  
G12  18548173.504    97471200.917       -2013.254          41.000    18548189.910    75951802.813       -1569.074          38.000  
G25  19007795.685    99886596.913        -785.044          35.000    19007816.146    77833816.187        -612.432          35.000  
G15  18545167.075    97455565.040        3733.523          39.000    18545186.274    75939498.402        2909.072          39.000  
G29  19202084.262   100907667.845        3476.648          38.000    19202094.096    78629467.818        2709.119          36.000  
G13  16675608.806    87631106.333        2653.311          45.000                                                                  
> 2025 04 18 09 30 21.9850000  0 10                     
G19  19468867.900   102309410.145       -3416.797          33.000                                                                  
G11  17610411.429    92543333.314        -267.946          43.000    17610418.200    72111818.989        -208.884          44.000  
G20  17053268.500    89615538.209       -1447.275          44.000                                                                  
G05  16391930.994    86140253.409         -23.236          46.000    16391936.651    67122530.570         -18.176          45.000  
G06  19267417.410   101250869.459       -1118.115          37.000    19267435.682    78896910.124        -871.411          40.000  
G12  18548556.679    97473214.267       -2013.347          41.000    18548572.950    75953371.631       -1568.865          38.000  
G25  19007945.260    99887382.587        -786.082          35.000    19007965.686    77834428.364        -612.788          35.000  
G15  18544456.609    97451831.507        3733.627          39.000    18544475.925    75936589.183        2908.965          39.000  
G29  19201422.713   100904191.107        3476.971          38.000    19201432.487    78626758.697        2708.832          36.000  
G13  16675103.888    87628453.098        2653.120          45.000                                                                  
> 2025 04 18 09 30 22.9850000  0 10                     
G19  19469518.087   102312826.943       -3417.450          32.000                                                                  
G11  17610462.430    92543601.318        -268.232          43.000    17610469.262    72112027.804        -209.024          44.000  
G20  17053543.976    89616985.614       -1447.697          44.000                                                                  
G05  16391935.275    86140276.815         -23.749          46.000    16391941.176    67122548.799         -18.280          45.000  
G06  19267630.115   101251987.593       -1118.542          37.000    19267648.431    78897781.361        -871.234          40.000  
G12  18548939.851    97475227.751       -2013.578          41.000    18548956.131    75954940.585       -1569.409          38.000  
G25  19008094.782    99888168.503        -785.942          36.000    19008115.258    77835040.765        -612.784          35.000  
G15  18543746.096    97448098.042        3733.271          39.000    18543765.492    75933680.001        2908.626          39.000  
G29  19200761.179   100900714.490        3476.263          38.000    19200770.935    78624049.625        2708.929          36.000  
G13  16674599.146    87625800.214        2652.586          44.000                                                                  
> 2025 04 18 09 30 23.9850000  0 10                     
G19  19470168.348   102316244.080       -3417.859          32.000                                                                  
G11  17610513.463    92543869.564        -268.533          43.000    17610520.269    72112236.841        -209.338          44.000  
G20  17053819.472    89618433.235       -1447.910          44.000                                                                  
G05  16391940.119    86140300.706         -24.280          46.000    16391945.788    67122567.428         -18.866          45.000  
G06  19267842.991   101253105.994       -1118.890          37.000    19267861.288    78898652.835        -871.741          40.000  
G12  18549323.154    97477241.639       -2014.276          41.000    18549339.455    75956509.816       -1569.621          38.000  
G25  19008244.508    99888955.025        -786.650          36.000    19008264.968    77835653.638        -613.412          35.000  
G15  18543035.677    97444364.925        3732.587          39.000    18543055.067    75930771.069        2908.711          39.000  
G29  19200099.655   100897238.172        3475.983          38.000    19200109.368    78621340.821        2708.618          36.000  
G13  16674094.518    87623147.907        2651.992          44.000                                                                  
> 2025 04 18 09 30 24.9850000  0 10                     
G19  19470818.583   102319661.467       -3417.706          32.000                                                                  
G11  17610564.610    92544138.008        -268.641          43.000    17610571.378    72112446.012        -209.336          44.000  
G20  17054095.070    89619880.999       -1448.011          44.000                                                                  
G05  16391944.856    86140325.010         -24.591          47.000    16391950.416    67122586.370         -19.275          45.000  
G06  19268055.865   101254224.570       -1118.854          37.000    19268074.140    78899524.449        -871.680          40.000  
G12  18549706.365    97479255.803       -2014.397          41.000    18549722.743    75958079.287       -1569.714          38.000  
G25  19008394.139    99889741.974        -786.800          36.000    19008414.656    77836266.823        -613.263          35.000  
G15  18542325.306    97440632.033        3732.377          39.000    18542344.588    75927862.321        2908.610          39.000  
G29  19199438.168   100893762.077        3476.068          38.000    19199448.016    78618632.202        2708.356          36.000  
G13  16673589.863    87620496.101        2651.380          44.000                                                                  
> 2025 04 18 09 30 25.9850000  0 10                     
G19  19471469.029   102323079.198       -3417.987          32.000                                                                  
G11  17610615.688    92544406.636        -268.465          43.000    17610622.503    72112655.347        -209.508          44.000  
G20  17054370.561    89621328.931       -1447.799          44.000                                                                  
G05  16391949.291    86140349.745         -24.799          46.000    16391955.162    67122605.641         -19.275          45.000  
G06  19268268.791   101255343.354       -1118.616          37.000    19268287.098    78900396.220        -871.649          40.000  
G12  18550089.730    97481270.290       -2014.560          41.000    18550106.043    75959648.995       -1569.475          39.000  
G25  19008543.981    99890529.426        -787.550          36.000    19008564.548    77836880.411        -613.760          35.000  
G15  18541614.976    97436899.360        3732.710          39.000    18541634.426    75924953.773        2908.498          39.000  
G29  19198776.794   100890286.240        3475.995          38.000    19198786.538    78615923.719        2708.868          36.000  
G13  16673085.334    87617844.788        2651.263          44.000                                                                  
> 2025 04 18 09 30 26.9850000  0 10                     
G19  19472119.345   102326497.017       -3418.512          32.000                                                                  
G11  17610666.799    92544675.283        -268.746          43.000    17610673.538    72112864.678        -209.609          44.000  
G20  17054646.070    89622776.822       -1447.833          44.000                                                                  
G05  16391953.855    86140374.693         -25.110          46.000    16391959.899    67122625.090         -19.550          45.000  
G06  19268481.783   101256462.185       -1118.890          37.000    19268499.933    78901268.009        -871.558          40.000  
G12  18550473.162    97483284.875       -2014.948          41.000    18550489.392    75961218.792       -1569.776          39.000  
G25  19008693.773    99891317.153        -787.965          36.000    19008714.458    77837494.221        -613.866          36.000  
G15  18540904.786    97433166.762        3732.567          39.000    18540924.066    75922045.258        2908.291          39.000  
G29  19198115.348   100886810.441        3475.732          38.000    19198125.212    78613215.341        2708.118          36.000  
G13  16672580.889    87615193.793        2650.958          44.000                                                                  
> 2025 04 18 09 30 27.9850000  0 10                     
G19  19472769.839   102329915.009       -3417.895          33.000                                                                  
G11  17610718.025    92544944.035        -269.045          43.000    17610724.691    72113074.083        -209.550          44.000  
G20  17054921.620    89624224.829       -1448.083          44.000                                                                  
G05  16391958.881    86140399.996         -25.543          46.000    16391964.654    67122644.813         -20.074          45.000  
G06  19268694.707   101257581.121       -1119.275          37.000    19268712.903    78902139.880        -871.790          40.000  
G12  18550856.557    97485299.678       -2014.945          41.000    18550872.711    75962788.762       -1569.866          39.000  
G25  19008843.696    99892105.275        -788.119          36.000    19008864.488    77838108.315        -613.975          36.000  
G15  18540194.533    97429434.314        3732.457          39.000    18540213.887    75919136.862        2908.344          39.000  
G29  19197454.017   100883334.807        3475.641          38.000    19197463.713    78610507.036        2708.362          36.000  
G13  16672076.562    87612543.241        2650.222          44.000                                                                  
> 2025 04 18 09 30 28.9850000  0 10                     
G19  19473420.176   102333333.205       -3417.627          33.000                                                                  
G11  17610769.236    92545212.888        -269.035          43.000    17610775.833    72113283.584        -209.734          44.000  
G20  17055197.174    89625672.908       -1448.251          44.000                                                                  
G05  16391963.920    86140425.637         -25.940          46.000    16391969.620    67122664.796         -20.367          45.000  
G06  19268907.745   101258700.156       -1119.476          37.000    19268925.888    78903011.863        -872.058          40.000  
G12  18551239.975    97487314.740       -2015.462          40.000    18551256.290    75964358.924       -1570.498          38.000  
G25  19008993.668    99892893.788        -788.698          35.000    19009014.534    77838722.723        -614.598          36.000  
G15  18539484.320    97425702.027        3732.011          39.000    18539503.612    75916228.594        2908.076          39.000  
G29  19196792.564   100879859.327        3475.244          38.000    19196802.417    78607798.910        2707.434          36.000  
G13  16671572.269    87609893.102        2649.671          44.000                                                                  
> 2025 04 18 09 30 29.9850000  0 10                     
G19  19474070.655   102336751.670       -3418.518          32.000                                                                  
G11  17610820.331    92545481.872        -269.122          43.000    17610827.011    72113493.175        -209.813          44.000  
G20  17055472.661    89627121.080       -1448.411          44.000                                                                  
G05  16391968.728    86140451.642         -26.282          46.000    16391974.498    67122685.059         -20.557          45.000  
G06  19269120.925   101259819.328       -1119.104          37.000    19269138.837    78903883.943        -872.235          40.000  
G12  18551623.497    97489330.014       -2015.669          40.000    18551639.735    75965929.259       -1570.500          38.000  
G25  19009143.729    99893682.735        -788.986          35.000    19009164.698    77839337.492        -614.921          36.000  
G15  18538774.161    97421969.918        3731.997          38.000    18538793.377    75913320.475        2907.901          39.000  
G29  19196131.266   100876384.027        3474.609          38.000    19196141.070    78605090.866        2708.069          36.000  
G13  16671068.101    87607243.407        2649.342          44.000                                                                  
> 2025 04 18 09 30 30.9850000  0 10                     
G19  19474721.276   102340170.443       -3418.988          32.000                                                                  
G11  17610871.632    92545751.094        -269.176          43.000    17610878.265    72113702.957        -209.740          44.000  
G20  17055748.330    89628569.446       -1448.354          44.000                                                                  
G05  16391973.614    86140478.100         -26.593          46.000    16391979.557    67122705.674         -20.685          45.000  
G06  19269333.955   101260938.767       -1119.330          37.000    19269351.940    78904756.221        -872.491          40.000  
G12  18552007.112    97491345.647       -2015.641          40.000    18552023.298    75967499.868       -1570.778          38.000  
G25  19009294.116    99894472.190        -789.657          35.000    19009314.948    77839952.636        -615.171          36.000  
G15  18538064.004    97418238.095        3731.781          38.000    18538083.247    75910412.571        2907.786          39.000  
G29  19195470.046   100872909.001        3474.774          38.000    19195479.742    78602383.063        2707.898          36.000  
G13  16670563.998    87604594.249        2648.966          44.000                                                                  
> 2025 04 18 09 30 31.9850000  0 10                     
G19  19475371.795   102343589.394       -3419.037          32.000                                                                  
G11  17610922.851    92546020.408        -269.167          43.000    17610929.426    72113912.820        -210.035          44.000  
G20  17056024.016    89630017.875       -1448.308          44.000                                                                  
G05  16391978.919    86140504.874         -26.685          46.000    16391984.662    67122726.546         -20.905          45.000  
G06  19269547.111   101262058.311       -1119.482          37.000    19269564.979    78905628.558        -872.022          40.000  
G12  18552390.754    97493361.469       -2015.732          40.000    18552406.944    75969070.626       -1570.684          38.000  
G25  19009444.577    99895261.997        -789.512          35.000    19009465.248    77840568.068        -615.707          36.000  
G15  18537353.868    97414506.394        3732.004          38.000    18537373.082    75907504.774        2907.610          39.000  
G29  19194808.787   100869434.107        3475.214          38.000    19194818.429    78599675.362        2707.959          36.000  
G13  16670059.949    87601945.518        2648.590          45.000                                                                  
> 2025 04 18 09 30 32.9850000  0 10                     
G19  19476022.452   102347008.625       -3419.513          32.000                                                                  
G11  17610974.027    92546289.890        -269.597          43.000    17610980.722    72114122.810        -210.440          43.000  
G20  17056299.720    89631466.436       -1448.738          44.000                                                                  
G05  16391984.174    86140532.066         -27.448          46.000    16391989.830    67122747.735         -21.344          45.000  
G06  19269760.242   101263178.024       -1120.172          37.000    19269778.051    78906501.048        -872.388          40.000  
G12  18552774.458    97495377.592       -2016.190          41.000    18552790.610    75970641.635       -1571.296          38.000  
G25  19009594.938    99896052.295        -790.202          36.000    19009615.670    77841183.851        -615.915          35.000  
G15  18536643.817    97410774.969        3731.042          38.000    18536663.031    75904597.144        2907.307          39.000  
G29  19194147.608   100865959.458        3474.530          38.000    19194157.149    78596967.826        2707.746          36.000  
G13  16669555.972    87599297.263        2647.891          45.000                                                                  
> 2025 04 18 09 30 33.9850000  0 10                     
G19  19476673.134   102350428.021       -3418.939          32.000                                                                  
G11  17611025.337    92546559.491        -269.505          43.000    17611031.975    72114332.876        -210.171          43.000  
G20  17056575.306    89632915.073       -1448.571          44.000                                                                  
G05  16391989.220    86140559.576         -27.509          46.000    16391995.121    67122769.185         -21.509          45.000  
G06  19269973.471   101264297.842       -1119.678          37.000    19269991.085    78907373.649        -872.522          40.000  
G12  18553158.125    97497393.938       -2016.547          41.000    18553174.287    75972212.793       -1571.300          38.000  
G25  19009745.512    99896843.003        -791.179          36.000    19009766.089    77841799.971        -616.452          35.000  
G15  18535933.728    97407043.653        3730.994          38.000    18535952.949    75901689.647        2907.495          39.000  
G29  19193486.430   100862484.952        3474.805          38.000    19193495.954    78594260.460        2707.300          36.000  
G13  16669052.017    87596649.434        2647.780          45.000                                                                  
> 2025 04 18 09 30 34.9850000  0 10                     
G19  19477323.859   102353847.745       -3419.781          32.000                                                                  
G11  17611076.674    92546829.272        -269.818          43.000    17611083.294    72114543.090        -210.445          43.000  
G20  17056850.989    89634363.845       -1448.679          44.000                                                                  
G05  16391994.560    86140587.502         -28.070          46.000    16392000.385    67122790.946         -21.997          45.000  
G06  19270186.549   101265417.871       -1120.361          37.000    19270204.232    78908246.376        -872.803          39.000  
G12  18553541.834    97499410.570       -2016.995          41.000    18553558.025    75973784.203       -1571.941          38.000  
G25  19009896.152    99897634.142        -791.493          36.000    19009916.685    77842416.452        -617.059          35.000  
G15  18535223.608    97403312.555        3731.330          38.000    18535242.869    75898782.350        2907.019          39.000  
G29  19192825.332   100859010.696        3474.035          38.000    19192834.851    78591553.225        2707.233          36.000  
G13  16668548.209    87594002.109        2647.115          44.000                                                                  
> 2025 04 18 09 30 35.9850000  0 10                     
G19  19477974.615   102357267.532       -3419.452          32.000                                                                  
G11  17611127.997    92547099.065        -269.741          43.000    17611134.655    72114753.320        -210.378          43.000  
G20  17057126.646    89635812.610       -1448.761          44.000                                                                  
G05  16392000.072    86140615.666         -28.387          46.000    16392005.625    67122812.889         -22.144          45.000  
G06  19270399.720   101266537.933       -1120.221          37.000    19270417.276    78909119.149        -872.791          39.000  
G12  18553925.572    97501427.324       -2016.769          40.000    18553941.840    75975355.685       -1571.644          38.000  
G25  19010046.886    99898425.596        -791.908          36.000    19010067.307    77843033.142        -616.888          35.000  
G15  18534513.527    97399581.559        3731.044          38.000    18534532.813    75895875.072        2907.348          39.000  
G29  19192164.194   100855536.479        3474.060          38.000    19192173.770    78588846.079        2706.805          36.000  
G13  16668044.495    87591355.110        2646.897          44.000                                                                  
> 2025 04 18 09 30 36.9850000  0 10                     
G19  19478625.478   102360687.598       -3420.435          32.000                                                                  
G11  17611179.351    92547368.975        -269.988          43.000    17611185.968    72114963.629        -210.274          43.000  
G20  17057402.386    89637261.436       -1448.783          44.000                                                                  
G05  16392005.298    86140644.157         -28.778          46.000    16392011.086    67122835.089         -22.290          45.000  
G06  19270613.004   101267658.109       -1120.355          37.000    19270630.458    78909991.990        -872.919          39.000  
G12  18554309.441    97503444.305       -2016.920          40.000    18554325.650    75976927.334       -1571.564          38.000  
G25  19010197.684    99899217.448        -792.502          36.000    19010217.956    77843650.145        -617.231          35.000  
G15  18533803.596    97395850.744        3730.705          38.000    18533822.775    75892967.935        2907.125          39.000  
G29  19191503.147   100852062.446        3473.676          38.000    19191512.705    78586139.034        2706.671          36.000  
G13  16667540.787    87588708.538        2646.372          44.000                                                                  
> 2025 04 18 09 30 37.9850000  0 10                     
G19  19479276.301   102364107.904       -3421.240          32.000                                                                  
G11  17611230.708    92547639.099        -270.107          43.000    17611237.454    72115174.101        -210.294          43.000  
G20  17057678.219    89638710.450       -1448.943          44.000                                                                  
G05  16392010.614    86140673.096         -28.961          46.000    16392016.624    67122857.650         -22.632          45.000  
G06  19270826.224   101268778.511       -1120.361          37.000    19270843.695    78910865.039        -872.955          39.000  
G12  18554693.352    97505461.618       -2017.405          41.000    18554709.572    75978499.272       -1572.084          38.000  
G25  19010348.342    99900009.722        -792.205          36.000    19010368.766    77844267.517        -617.276          36.000  
G15  18533093.695    97392120.174        3730.798          38.000    18533112.840    75890061.007        2906.783          39.000  
G29  19190842.007   100848588.646        3473.828          38.000    19190851.608    78583432.180        2707.037          36.000  
G13  16667037.262    87586062.490        2645.856          45.000                                                                  
> 2025 04 18 09 30 38.9850000  0 10                     
G19  19479927.070   102367528.280       -3420.087          32.000                                                                  
G11  17611282.077    92547909.201        -269.942          43.000    17611288.862    72115384.594        -210.503          44.000  
G20  17057953.962    89640159.402       -1448.610          44.000                                                                  
G05  16392016.333    86140702.263         -29.260          46.000    16392022.249    67122880.385         -22.845          45.000  
G06  19271039.400   101269898.908       -1120.221          37.000    19271056.926    78911738.062        -872.919          39.000  
G12  18555077.179    97507479.026       -2017.086          41.000    18555093.553    75980071.270       -1571.922          38.000  
G25  19010499.237    99900802.380        -792.862          36.000    19010519.614    77844885.152        -618.138          36.000  
G15  18532383.741    97388389.657        3730.361          38.000    18532402.960    75887154.134        2906.873          39.000  
G29  19190180.956   100845114.909        3473.767          38.000    19190190.549    78580725.380        2707.007          36.000  
G13  16666533.761    87583416.754        2645.612          44.000                                                                  
> 2025 04 18 09 30 39.9850000  0 10                     
G19  19480578.005   102370948.979       -3420.844          32.000                                                                  
G11  17611333.599    92548179.496        -270.418          43.000    17611340.216    72115595.202        -210.748          43.000  
G20  17058229.689    89641608.518       -1449.173          44.000                                                                  
G05  16392021.964    86140731.828         -29.846          46.000    16392027.838    67122903.420         -23.352          45.000  
G06  19271252.632   101271019.510       -1120.850          37.000    19271270.162    78912611.249        -873.450          39.000  
G12  18555461.097    97509496.746       -2017.934          40.000    18555477.590    75981643.489       -1572.296          38.000  
G25  19010650.175    99901595.456        -793.800          36.000    19010670.529    77845503.100        -618.630          36.000  
G15  18531673.837    97384659.360        3729.736          38.000    18531693.029    75884247.409        2906.436          39.000  
G29  19189520.054   100841641.405        3473.205          38.000    19189529.643    78578018.767        2706.354          36.000  
G13  16666030.485    87580771.506        2645.008          44.000                                                                  
> 2025 04 18 09 30 40.9850000  0 10                     
G19  19481228.948   102374369.920       -3420.764          32.000                                                                  
G11  17611385.200    92548449.951        -270.380          43.000    17611391.658    72115805.936        -210.614          44.000  
G20  17058505.436    89643057.741       -1449.274          44.000                                                                  
G05  16392027.594    86140761.786         -30.042          46.000    16392033.574    67122926.765         -23.456          45.000  
G06  19271465.731   101272140.278       -1120.782          37.000    19271483.435    78913484.550        -873.016          39.000  
G12  18555845.048    97511514.727       -2018.177          40.000    18555861.553    75983215.937       -1572.582          38.000  
G25  19010801.158    99902388.969        -793.696          36.000    19010821.604    77846121.424        -618.364          36.000  
G15  18530963.968    97380929.265        3730.256          39.000    18530983.231    75881340.853        2906.608          39.000  
G29  19188859.066   100838168.100        3473.431          38.000    19188868.654    78575312.286        2706.775          36.000  
G13  16665527.242    87578126.739        2644.680          44.000                                                                  
> 2025 04 18 09 30 41.9850000  0 10                     
G19  19481879.996   102377790.981       -3420.923          32.000                                                                  
G11  17611436.622    92548720.432        -270.469          43.000    17611443.193    72116016.719        -211.050          43.000  
G20  17058781.208    89644506.967       -1449.285          44.000                                                                  
G05  16392033.530    86140792.014         -30.481          46.000    16392039.245    67122950.324         -23.645          45.000  
G06  19271679.051   101273261.081       -1120.764          37.000    19271696.596    78914357.902        -873.273          39.000  
G12  18556229.057    97513532.846       -2018.326          40.000    18556245.560    75984788.485       -1572.563          38.000  
G25  19010952.281    99903182.782        -794.282          36.000    19010972.609    77846739.966        -618.725          35.000  
G15  18530254.167    97377199.270        3729.985          39.000    18530273.399    75878434.378        2906.312          39.000  
G29  19188198.180   100834694.876        3473.138          38.000    19188207.804    78572605.910        2706.329          36.000  
G13  16665023.983    87575482.322        2644.195          44.000                                                                  
> 2025 04 18 09 30 42.9850000  0 10                     
G19  19482531.066   102381212.405       -3421.893          32.000                                                                  
G11  17611488.182    92548991.176        -270.731          43.000    17611494.603    72116227.669        -210.891          43.000  
G20  17059057.077    89645956.398       -1449.473          44.000                                                                  
G05  16392039.391    86140822.710         -30.847          46.000    16392044.974    67122974.245         -24.109          45.000  
G06  19271892.393   101274382.149       -1121.088          37.000    19271909.916    78915231.457        -873.688          39.000  
G12  18556613.192    97515551.336       -2018.412          40.000    18556629.629    75986361.333       -1572.833          38.000  
G25  19011103.441    99903977.172        -794.813          36.000    19011123.814    77847358.931        -618.889          35.000  
G15  18529544.449    97373469.590        3729.646          39.000    18529563.784    75875528.120        2906.209          39.000  
G29  19187537.291   100831221.952        3472.979          38.000    19187546.907    78569899.731        2705.976          36.000  
G13  16664520.932    87572838.462        2643.735          44.000                                                                  
> 2025 04 18 09 30 43.9850000  0 10                     
G19  19483182.281   102384633.967       -3421.967          32.000                                                                  
G11  17611539.771    92549261.987        -270.909          43.000    17611546.185    72116438.695        -211.116          44.000  
G20  17059332.855    89647405.882       -1449.462          44.000                                                                  
G05  16392045.041    86140853.714         -31.073          46.000    16392050.916    67122998.406         -24.133          45.000  
G06  19272105.794   101275503.317       -1121.216          37.000    19272123.240    78916105.076        -873.553          39.000  
G12  18556997.371    97517570.020       -2018.806          40.000    18557013.756    75987934.309       -1573.230          38.000  
G25  19011254.683    99904771.868        -794.721          36.000    19011275.001    77847978.203        -619.485          35.000  
G15  18528834.780    97369740.024        3729.552          39.000    18528854.147    75872621.973        2906.422          39.000  
G29  19186876.451   100827749.158        3472.882          38.000    19186886.058    78567193.677        2705.713          36.000  
G13  16664017.938    87570195.002        2643.450          44.000                                                                  
> 2025 04 18 09 30 44.9850000  0 10                     
G19  19483833.432   102388055.649       -3421.960          32.000                                                                  
G11  17611591.250    92549532.831        -271.183          43.000    17611597.845    72116649.737        -211.058          44.000  
G20  17059608.664    89648855.344       -1449.452          44.000                                                                  
G05  16392051.012    86140884.958         -31.415          46.000    16392056.770    67123022.759         -24.463          45.000  
G06  19272319.112   101276624.490       -1120.990          37.000    19272336.607    78916978.734        -873.981          39.000  
G12  18557381.685    97519588.827       -2018.916          40.000    18557397.996    75989507.403       -1573.244          38.000  
G25  19011405.983    99905566.904        -794.911          36.000    19011426.328    77848597.697        -619.876          36.000  
G15  18528125.092    97366010.497        3729.592          38.000    18528144.352    75869715.887        2906.103          39.000  
G29  19186215.613   100824276.454        3472.644          38.000    19186225.214    78564487.649        2705.894          36.000  
G13  16663514.972    87567551.884        2642.917          44.000                                                                  
> 2025 04 18 09 30 45.9850000  0 10                     
G19  19484484.593   102391477.498       -3422.699          33.000                                                                  
G11  17611642.866    92549803.705        -271.377          43.000    17611649.416    72116860.806        -211.279          44.000  
G20  17059884.514    89650304.809       -1449.554          44.000                                                                  
G05  16392057.340    86140916.479         -31.891          46.000    16392062.873    67123047.321         -24.908          45.000  
G06  19272532.417   101277745.743       -1121.643          37.000    19272549.943    78917852.398        -873.926          39.000  
G12  18557765.797    97521607.805       -2019.311          40.000    18557782.230    75991080.609       -1573.470          38.000  
G25  19011557.439    99906362.257        -795.401          36.000    19011577.703    77849217.448        -620.182          35.000  
G15  18527415.371    97362281.095        3729.180          38.000    18527434.639    75866809.868        2905.595          39.000  
G29  19185554.774   100820803.801        3472.490          38.000    19185564.422    78561781.705        2705.964          36.000  
G13  16663012.052    87564909.122        2642.361          44.000                                                                  
> 2025 04 18 09 30 46.9850000  0 10                     
G19  19485135.801   102394899.661       -3422.418          33.000                                                                  
G11  17611694.462    92550074.829        -271.013          43.000    17611701.012    72117072.083        -211.426          44.000  
G20  17060160.330    89651754.503       -1449.515          44.000                                                                  
G05  16392063.187    86140948.476         -32.050          46.000    16392068.948    67123072.255         -24.982          45.000  
G06  19272745.835   101278867.245       -1121.338          37.000    19272763.351    78918726.291        -873.535          39.000  
G12  18558150.160    97523627.138       -2019.190          40.000    18558166.476    75992654.106       -1573.369          38.000  
G25  19011708.945    99907158.175        -795.945          36.000    19011729.147    77849837.611        -620.040          35.000  
G15  18526705.713    97358552.002        3728.793          38.000    18526724.981    75863904.084        2905.875          39.000  
G29  19184893.915   100817331.494        3472.346          38.000    19184903.669    78559076.007        2705.712          36.000  
G13  16662509.199    87562266.930        2641.992          44.000                                                                  
> 2025 04 18 09 30 48.9850000  0 10                     
G19  19486438.251   102401744.539       -3422.998          32.000                                                                  
G11  17611797.552    92550617.356        -271.332          43.000    17611804.224    72117494.820        -211.303          44.000  
G20  17060712.034    89654654.029       -1449.685          44.000                                                                  
G05  16392075.722    86141013.422         -32.770          46.000    16392081.425    67123122.868         -25.421          45.000  
G06  19273172.676   101281110.548       -1121.521          37.000    19273190.061    78920474.296        -874.036          39.000  
G12  18558918.727    97527666.406       -2019.591          40.000    18558935.155    75995801.580       -1573.953          38.000  
G25  19012011.975    99908751.050        -796.710          36.000    19012032.346    77851078.789        -620.568          36.000  
G15  18525286.398    97351094.217        3728.569          38.000    18525305.767    75858092.821        2905.787          38.000  
G29  19183572.497   100810387.241        3472.169          38.000    19183582.182    78553664.930        2705.345          36.000  
G13  16661503.771    87556983.739        2641.125          44.000                                                                  
> 2025 04 18 09 30 49.9850000  0 10                     
G19  19487089.666   102405167.276       -3423.024          32.000                                                                  
G11  17611849.174    92550888.769        -271.618          43.000    17611855.904    72117706.317        -211.572          44.000  
G20  17060987.946    89656103.881       -1449.961          44.000                                                                  
G05  16392081.801    86141046.374         -33.197          46.000    16392087.709    67123148.546         -25.781          45.000  
G06  19273386.194   101282232.381       -1122.223          37.000    19273403.513    78921348.450        -874.402          39.000  
G12  18559303.042    97529686.370       -2020.196          40.000    18559319.574    75997375.554       -1574.137          38.000  
G25  19012163.710    99909548.079        -797.130          36.000    19012184.073    77851699.852        -621.247          36.000  
G15  18524576.779    97347365.556        3728.359          38.000    18524596.269    75855187.395        2905.249          38.000  
G29  19182911.815   100806915.332        3471.806          38.000    19182921.482    78550959.545        2705.229          36.000  
G13  16661001.178    87554342.765        2640.629          44.000                                                                  
> 2025 04 18 09 30 50.9850000  0 10                     
G19  19487740.892   102408590.153       -3422.964          32.000                                                                  
G11  17611900.896    92551160.260        -271.691          43.000    17611907.573    72117917.875        -211.892          44.000  
G20  17061263.826    89657553.772       -1450.083          44.000                                                                  
G05  16392088.056    86141079.630         -33.673          46.000    16392094.018    67123174.471         -26.324          45.000  
G06  19273599.695   101283354.291       -1122.156          37.000    19273617.001    78922222.654        -874.640          39.000  
G12  18559687.471    97531706.518       -2020.744          40.000    18559703.967    75998949.689       -1574.601          38.000  
G25  19012315.499    99910345.437        -797.150          36.000    19012335.825    77852321.172        -621.682          36.000  
G15  18523867.254    97343637.013        3728.045          38.000    18523886.792    75852282.059        2905.139          38.000  
G29  19182251.266   100803443.578        3471.390          38.000    19182260.803    78548254.274        2705.194          36.000  
G13  16660498.653    87551702.197        2640.188          44.000                                                                  
> 2025 04 18 09 30 51.9850000  0 10                     
G19  19488392.267   102412013.462       -3423.947          32.000                                                                  
G11  17611952.630    92551432.004        -271.582          43.000    17611959.199    72118129.623        -211.861          44.000  
G20  17061539.837    89659003.885       -1450.083          44.000                                                                  
G05  16392094.709    86141113.372         -33.826          46.000    16392100.487    67123200.763         -26.245          45.000  
G06  19273813.234   101284476.457       -1122.101          37.000    19273830.507    78923097.050        -874.182          39.000  
G12  18560071.968    97533727.021       -2020.750          40.000    18560088.421    76000524.066       -1574.101          38.000  
G25  19012467.415    99911143.374        -798.486          36.000    19012487.631    77852942.897        -621.542          36.000  
G15  18523157.767    97339908.784        3728.219          38.000    18523177.280    75849376.944        2905.297          39.000  
G29  19181590.645   100799972.112        3471.502          38.000    19181600.168    78545549.252        2705.399          36.000  
G13  16659996.292    87549062.195        2639.799          44.000                                                                  
> 2025 04 18 09 30 52.9850000  0 10                     
G19  19489043.662   102415436.653       -3423.155          32.000                                                                  
G11  17612004.278    92551703.645        -271.622          43.000    17612010.908    72118341.284        -211.838          43.000  
G20  17061815.721    89660453.846       -1450.160          44.000                                                                  
G05  16392100.965    86141147.238         -34.186          46.000    16392106.817    67123227.161         -26.648          45.000  
G06  19274026.791   101285598.539       -1122.394          38.000    19274043.948    78923971.393        -874.805          38.000  
G12  18560456.429    97535747.527       -2021.042          40.000    18560472.909    76002098.505       -1574.598          38.000  
G25  19012619.221    99911941.444        -798.105          36.000    19012639.542    77853564.786        -622.157          36.000  
G15  18522448.349    97336180.507        3727.899          38.000    18522467.722    75846471.797        2905.134          39.000  
G29  19180929.975   100796500.590        3471.213          38.000    19180939.558    78542844.172        2705.201          36.000  
G13  16659493.893    87546422.397        2639.549          44.000                                                                  
> 2025 04 18 09 30 53.9850000  0 10                     
G19  19489695.193   102418860.214       -3424.535          32.000                                                                  
G11  17612056.027    92551975.505        -272.161          43.000    17612062.645    72118553.120        -212.175          43.000  
G20  17062091.744    89661903.996       -1450.426          44.000                                                                  
G05  16392107.592    86141181.548         -34.711          46.000    16392113.378    67123253.898         -27.081          45.000  
G06  19274240.460   101286720.825       -1122.614          38.000    19274257.529    78924845.897        -874.817          39.000  
G12  18560841.082    97537768.353       -2021.232          40.000    18560857.471    76003673.165       -1574.871          38.000  
G25  19012771.289    99912740.040        -799.248          36.000    19012791.456    77854187.047        -622.817          36.000  
G15  18521738.889    97332452.466        3728.087          38.000    18521758.338    75843566.877        2904.406          39.000  
G29  19180269.428   100793029.344        3470.798          38.000    19180278.999    78540139.310        2705.009          36.000  
G13  16658991.677    87543783.139        2638.944          44.000                                                                  
> 2025 04 18 09 30 54.9850000  0 10                     
G19  19490346.668   102422283.993       -3424.000          32.000                                                                  
G11  17612107.781    92552247.500        -271.937          43.000    17612114.440    72118765.074        -212.081          44.000  
G20  17062367.711    89663354.245       -1450.375          44.000                                                                  
G05  16392114.313    86141216.211         -34.857          46.000    16392119.967    67123280.908         -27.216          45.000  
G06  19274454.130   101287843.292       -1122.827          38.000    19274471.000    78925720.542        -875.012          39.000  
G12  18561225.589    97539789.442       -2021.104          40.000    18561242.086    76005248.045       -1575.016          38.000  
G25  19012923.437    99913539.061        -799.688          36.000    19012943.471    77854809.616        -622.274          36.000  
G15  18521029.533    97328724.660        3727.861          38.000    18521048.867    75840662.084        2904.906          39.000  
G29  19179608.961   100789558.264        3470.896          38.000    19179618.517    78537434.603        2704.635          36.000  
G13  16658489.622    87541144.342        2638.335          44.000                                                                  
> 2025 04 18 09 30 55.9850000  0 10                     
G19  19490998.259   102425707.937       -3424.950          33.000                                                                  
G11  17612159.535    92552519.570        -272.324          43.000    17612166.230    72118977.065        -212.015          43.000  
G20  17062643.688    89664804.525       -1450.370          44.000                                                                  
G05  16392120.767    86141251.164         -35.223          47.000    16392126.571    67123308.144         -27.411          45.000  
G06  19274667.769   101288965.831       -1123.071          38.000    19274684.625    78926595.225        -874.841          38.000  
G12  18561610.281    97541810.708       -2021.496          40.000    18561626.741    76006823.020       -1575.037          38.000  
G25  19013075.684    99914338.412        -799.734          36.000    19013095.593    77855432.504        -623.231          36.000  
G15  18520320.174    97324996.956        3727.681          39.000    18520339.525    75837757.391        2904.304          39.000  
G29  19178948.404   100786087.324        3470.609          38.000    19178957.990    78534729.968        2704.473          36.000  
G13  16657987.581    87538505.912        2638.176          44.000                                                                  
> 2025 04 18 09 30 56.9850000  0 10                     
G19  19491649.981   102429132.066       -3424.295          32.000                                                                  
G11  17612211.375    92552791.755        -272.303          43.000    17612218.057    72119189.160        -212.173          44.000  
G20  17062919.645    89666254.891       -1450.363          44.000                                                                  
G05  16392127.618    86141286.483         -35.547          47.000    16392133.346    67123335.668         -27.631          45.000  
G06  19274881.435   101290088.480       -1122.797          38.000    19274898.266    78927470.011        -874.896          39.000  
G12  18561994.949    97543832.191       -2021.562          40.000    18562011.420    76008398.210       -1575.230          38.000  
G25  19013227.944    99915138.150        -799.754          36.000    19013247.717    77856055.680        -623.396          36.000  
G15  18519610.823    97321269.437        3727.444          39.000    18519630.210    75834852.829        2904.717          39.000  
G29  19178287.959   100782616.549        3470.549          38.000    19178297.473    78532025.454        2704.558          36.000  
G13  16657485.585    87535867.925        2637.899          44.000                                                                  
> 2025 04 18 09 30 57.9850000  0 10                     
G19  19492301.680   102432556.402       -3424.685          33.000                                                                  
G11  17612263.172    92553064.044        -272.336          43.000    17612269.802    72119401.325        -211.954          44.000  
G20  17063195.643    89667705.318       -1450.365          44.000                                                                  
G05  16392134.511    86141322.126         -35.760          46.000    16392140.191    67123363.447         -27.893          45.000  
G06  19275095.141   101291211.242       -1122.571          38.000    19275111.942    78928344.886        -874.695          38.000  
G12  18562379.689    97545853.901       -2021.581          40.000    18562396.128    76009973.552       -1575.500          38.000  
G25  19013380.148    99915938.281        -799.867          36.000    19013399.914    77856679.132        -623.765          36.000  
G15  18518901.589    97317542.088        3727.214          39.000    18518921.032    75831948.388        2904.677          39.000  
G29  19177627.640   100779145.925        3470.408          38.000    19177636.922    78529321.055        2705.123          36.000  
G13  16656983.655    87533230.366        2637.353          44.000                                                                  
> 2025 04 18 09 30 58.9850000  0 10                     
G19  19492953.292   102435980.954       -3424.535          32.000                                                                  
G11  17612315.057    92553336.458        -272.223          43.000    17612321.734    72119613.593        -212.060          44.000  
G20  17063471.680    89669155.833       -1450.422          44.000                                                                  
G05  16392141.145    86141358.108         -35.895          47.000    16392147.168    67123391.495         -28.125          45.000  
G06  19275308.812   101292334.144       -1122.650          38.000    19275325.692    78929219.868        -874.976          39.000  
G12  18562764.451    97547875.866       -2022.187          40.000    18562780.907    76011549.076       -1575.440          38.000  
G25  19013532.458    99916738.825        -800.618          36.000    19013552.309    77857302.928        -624.043          36.000  
G15  18518192.380    97313814.860        3727.574          39.000    18518211.707    75829044.098        2904.410          39.000  
G29  19176967.208   100775675.452        3470.674          38.000    19176976.498    78526616.818        2704.877          35.000  
G13  16656481.808    87530593.234        2637.206          44.000                                                                  
> 2025 04 18 09 30 59.9850000  0 10                     
G19  19493604.879   102439405.533       -3424.461          32.000                                                                  
G11  17612366.858    92553608.810        -272.338          43.000    17612373.527    72119825.818        -212.126          44.000  
G20  17063747.641    89670606.260       -1450.436          44.000                                                                  
G05  16392148.148    86141394.274         -36.346          47.000    16392154.059    67123419.671         -28.186          45.000  
G06  19275522.426   101293457.018       -1123.077          38.000    19275539.381    78930094.813        -875.079          39.000  
G12  18563149.177    97549897.837       -2021.884          40.000    18563165.738    76013124.643       -1575.407          38.000  
G25  19013684.797    99917539.589        -800.802          36.000    19013704.675    77857926.897        -624.481          36.000  
G15  18517483.143    97310087.669        3727.236          38.000    18517502.422    75826139.796        2904.056          39.000  
G29  19176306.824   100772205.018        3470.268          38.000    19176316.078    78523912.593        2703.994          36.000  
G13  16655980.038    87527956.385        2636.598          44.000                                                                  
> 2025 04 18 09 31 00.9850000  0 10                     
G19  19494256.565   102442830.254       -3424.201          32.000                                                                  
G11  17612418.662    92553881.243        -272.331          43.000    17612425.328    72120038.117        -212.435          44.000  
G20  17064023.655    89672056.720       -1450.598          44.000                                                                  
G05  16392155.087    86141430.744         -36.584          46.000    16392161.010    67123448.103         -28.625          45.000  
G06  19275736.099   101294579.955       -1123.029          38.000    19275753.104    78930969.828        -875.000          38.000  
G12  18563533.973    97551920.024       -2022.425          40.000    18563550.517    76014700.352       -1575.634          38.000  
G25  19013837.246    99918340.724        -801.594          36.000    19013857.135    77858551.129        -624.520          36.000  
G15  18516773.869    97306360.567        3727.477          38.000    18516793.140    75823235.586        2904.187          39.000  
G29  19175646.399   100768734.657        3470.570          38.000    19175655.620    78521208.438        2704.124          36.000  
G13  16655478.378    87525319.900        2636.260          44.000                                                                  
> 2025 04 18 09 31 01.9850000  0 10                     
G19  19494908.389   102446255.251       -3425.724          32.000                                                                  
G11  17612470.479    92554153.806        -272.837          43.000    17612477.234    72120250.490        -212.547          44.000  
G20  17064299.703    89673507.259       -1450.826          44.000                                                                  
G05  16392161.947    86141467.563         -37.183          46.000    16392167.962    67123476.793         -28.986          45.000  
G06  19275949.866   101295703.042       -1123.376          38.000    19275966.769    78931844.942        -875.171          38.000  
G12  18563918.832    97553942.427       -2022.818          40.000    18563935.370    76016276.245       -1576.096          38.000  
G25  19013989.729    99919142.250        -802.336          36.000    19014009.741    77859175.687        -625.306          36.000  
G15  18516064.708    97302633.663        3726.509          38.000    18516083.900    75820331.497        2903.949          39.000  
G29  19174985.926   100765264.500        3469.938          38.000    19174995.291    78518504.428        2703.844          36.000  
G13  16654976.736    87522683.867        2635.637          44.000                                                                  
> 2025 04 18 09 31 02.9850000  0 10                     
G19  19495560.206   102449680.615       -3425.607          32.000                                                                  
G11  17612522.419    92554426.668        -273.013          43.000    17612529.111    72120463.117        -212.885          44.000  
G20  17064575.758    89674958.081       -1450.923          44.000                                                                  
G05  16392169.207    86141504.914         -37.610          46.000    16392175.101    67123505.901         -29.187          45.000  
G06  19276163.760   101296826.456       -1123.816          38.000    19276180.572    78932720.312        -875.330          38.000  
G12  18564303.816    97555965.254       -2023.162          40.000    18564320.243    76017852.467       -1576.703          38.000  
G25  19014142.313    99919944.372        -802.354          36.000    19014162.354    77859800.702        -625.417          35.000  
G15  18515355.541    97298907.136        3726.289          38.000    18515374.730    75817427.730        2903.670          39.000  
G29  19174325.527   100761794.702        3469.757          38.000    19174334.886    78515800.692        2703.389          36.000  
G13  16654475.168    87520048.459        2635.212          44.000                                                                  
> 2025 04 18 09 31 03.9850000  0 10                     
G19  19496212.217   102453106.247       -3425.724          32.000                                                                  
G11  17612574.291    92554699.718        -273.215          43.000    17612581.103    72120675.889        -213.051          44.000  
G20  17064851.896    89676409.056       -1451.244          44.000                                                                  
G05  16392176.232    86141542.680         -38.116          46.000    16392182.206    67123535.332         -29.834          45.000  
G06  19276377.490   101297950.060       -1123.798          38.000    19276394.341    78933595.872        -876.062          38.000  
G12  18564688.709    97557988.377       -2023.431          40.000    18564705.252    76019428.908       -1576.847          38.000  
G25  19014295.160    99920746.939        -802.909          36.000    19014315.092    77860426.079        -625.728          35.000  
G15  18514646.413    97295180.845        3726.000          38.000    18514665.625    75814524.111        2903.829          39.000  
G29  19173665.197   100758325.134        3469.315          38.000    19173674.628    78513097.146        2703.114          36.000  
G13  16653973.805    87517413.572        2634.322          44.000                                                                  
> 2025 04 18 09 31 04.9850000  0 10                     
G19  19496864.102   102456532.006       -3426.245          32.000                                                                  
G11  17612626.300    92554972.780        -272.861          43.000    17612633.014    72120888.651        -212.598          44.000  
G20  17065127.995    89677859.987       -1450.931          44.000                                                                  
G05  16392183.468    86141580.673         -38.104          46.000    16392189.382    67123564.938         -29.559          45.000  
G06  19276591.363   101299073.673       -1123.462          38.000    19276608.242    78934471.373        -875.452          38.000  
G12  18565073.723    97560011.600       -2023.198          40.000    18565090.312    76021005.435       -1576.329          38.000  
G25  19014447.909    99921549.861        -803.767          36.000    19014467.940    77861051.662        -625.375          35.000  
G15  18513937.363    97291454.597        3726.313          38.000    18513956.541    75811620.573        2903.659          39.000  
G29  19173004.981   100754855.632        3469.778          38.000    19173014.422    78510393.613        2703.710          36.000  
G13  16653472.438    87514778.980        2634.510          44.000                                                                  
> 2025 04 18 09 31 05.9850000  0 10                     
G19  19497516.047   102459957.879       -3426.759          32.000                                                                  
G11  17612678.276    92555245.856        -273.029          43.000    17612684.937    72121101.442        -212.827          44.000  
G20  17065404.087    89679310.901       -1451.152          44.000                                                                  
G05  16392190.800    86141618.919         -38.641          46.000    16392196.680    67123594.747         -30.127          45.000  
G06  19276805.183   101300197.332       -1123.779          38.000    19276822.129    78935346.936        -875.507          39.000  
G12  18565458.787    97562034.969       -2023.555          41.000    18565475.251    76022582.093       -1577.366          38.000  
G25  19014600.752    99922352.983        -802.794          36.000    19014620.795    77861677.522        -625.963          35.000  
G15  18513228.270    97287728.437        3725.851          38.000    18513247.470    75808717.067        2903.313          39.000  
G29  19172344.836   100751386.196        3469.490          38.000    19172354.161    78507690.197        2703.061          36.000  
G13  16652971.261    87512144.734        2633.956          44.000                                                                  
> 2025 04 18 09 31 06.9850000  0 10                     
G19  19498168.086   102463383.840       -3426.147          32.000                                                                  
G11  17612730.165    92555518.991        -273.194          43.000    17612736.966    72121314.262        -212.750          44.000  
G20  17065680.163    89680761.812       -1451.025          44.000                                                                  
G05  16392197.949    86141657.434         -38.727          46.000    16392203.981    67123624.756         -30.084          45.000  
G06  19277019.060   101301321.029       -1123.584          38.000    19277035.976    78936222.547        -875.854          39.000  
G12  18565843.956    97564058.483       -2023.751          40.000    18565860.297    76024158.837       -1576.982          38.000  
G25  19014753.684    99923156.510        -804.057          36.000    19014773.721    77862303.637        -626.688          35.000  
G15  18512519.155    97284002.388        3725.848          38.000    18512538.381    75805813.645        2903.521          39.000  
G29  19171684.614   100747916.864        3469.027          38.000    19171693.963    78504986.802        2703.537          36.000  
G13  16652470.118    87509510.852        2633.586          44.000                                                                  
> 2025 04 18 09 31 07.9850000  0 10                     
G19  19498820.022   102466810.073       -3425.621          32.000                                                                  
G11  17612782.201    92555792.291        -272.989          43.000    17612788.985    72121527.239        -212.933          44.000  
G20  17065956.313    89682212.881       -1450.934          44.000                                                                  
G05  16392205.499    86141696.358         -38.861          46.000    16392211.291    67123655.090         -30.261          45.000  
G06  19277232.823   101302444.927       -1123.480          38.000    19277249.929    78937098.298        -875.684          38.000  
G12  18566229.154    97566082.283       -2023.574          40.000    18566245.348    76025735.813       -1577.231          38.000  
G25  19014906.807    99923960.436        -803.296          36.000    19014926.764    77862930.055        -626.164          35.000  
G15  18511810.134    97280276.522        3726.208          38.000    18511829.346    75802910.404        2903.428          39.000  
G29  19171024.485   100744447.750        3469.296          38.000    19171033.795    78502283.606        2703.433          36.000  
G13  16651968.964    87506877.458        2633.447          44.000                                                                  
> 2025 04 18 09 31 08.9850000  0 10                     
G19  19499472.059   102470236.442       -3426.725          32.000                                                                  
G11  17612834.169    92556065.571        -273.335          43.000    17612840.903    72121740.182        -213.057          44.000  
G20  17066232.367    89683663.868       -1450.979          44.000                                                                  
G05  16392212.947    86141735.475         -39.410          46.000    16392218.749    67123685.568         -30.530          45.000  
G06  19277446.589   101303568.796       -1123.584          38.000    19277463.749    78937974.025        -875.604          38.000  
G12  18566614.246    97568106.160       -2024.214          40.000    18566630.424    76027312.853       -1577.397          38.000  
G25  19015059.849    99924764.670        -804.258          36.000    19015079.771    77863556.705        -626.529          35.000  
G15  18511101.139    97276550.706        3725.858          38.000    18511120.330    75800007.194        2903.067          39.000  
G29  19170364.271   100740978.657        3469.007          38.000    19170373.643    78499580.438        2702.811          36.000  
G13  16651467.873    87504244.362        2632.731          44.000                                                                  
> 2025 04 18 09 31 09.9850000  0 10                     
G19  19500124.131   102473662.964       -3426.509          32.000                                                                  
G11  17612886.198    92556338.993        -273.363          43.000    17612893.080    72121953.228        -213.014          44.000  
G20  17066508.561    89685114.977       -1451.217          44.000                                                                  
G05  16392220.429    86141774.955         -39.667          46.000    16392226.278    67123716.339         -30.908          45.000  
G06  19277660.492   101304692.857       -1124.213          38.000    19277677.640    78938849.905        -875.873          39.000  
G12  18566999.367    97570130.298       -2024.186          40.000    18567015.713    76028890.086       -1577.455          38.000  
G25  19015212.930    99925569.287        -804.311          37.000    19015232.893    77864183.680        -626.777          35.000  
G15  18510392.251    97272825.098        3725.602          38.000    18510411.341    75797104.124        2903.140          39.000  
G29  19169704.130   100737509.753        3468.940          38.000    19169713.544    78496877.391        2703.331          36.000  
G13  16650966.881    87501611.712        2632.335          44.000                                                                  
> 2025 04 18 09 31 10.9850000  0 10                     
G19  19500776.138   102477089.566       -3426.767          32.000                                                                  
G11  17612938.140    92556612.327        -273.103          43.000    17612945.106    72122166.222        -213.015          44.000  
G20  17066784.598    89686565.952       -1450.845          44.000                                                                  
G05  16392228.015    86141814.593         -39.600          46.000    16392233.895    67123747.232         -30.920          45.000  
G06  19277874.522   101305816.809       -1123.871          38.000    19277891.504    78939725.713        -875.775          38.000  
G12  18567384.548    97572154.467       -2024.185          40.000    18567400.937    76030467.349       -1577.223          38.000  
G25  19015365.998    99926374.139        -804.864          36.000    19015385.936    77864810.807        -626.777          35.000  
G15  18509683.377    97269099.456        3725.686          38.000    18509702.357    75794201.041        2902.837          38.000  
G29  19169043.901   100734040.823        3469.024          38.000    19169053.435    78494174.356        2703.003          36.000  
G13  16650465.910    87498979.297        2632.408          44.000                                                                  
> 2025 04 18 09 31 11.9850000  0 10                     
G19  19501428.331   102480516.333       -3427.094          32.000                                                                  
G11  17612990.253    92556885.791        -273.443          43.000    17612997.146    72122379.310        -213.351          44.000  
G20  17067060.787    89688017.015       -1450.990          44.000                                                                  
G05  16392235.417    86141854.588         -40.173          46.000    16392241.499    67123778.412         -31.494          45.000  
G06  19278088.426   101306940.890       -1123.907          38.000    19278105.358    78940601.611        -876.135          39.000  
G12  18567769.828    97574178.842       -2024.344          40.000    18567786.057    76032044.787       -1577.432          38.000  
G25  19015519.250    99927179.361        -805.403          36.000    19015539.168    77865438.250        -627.354          35.000  
G15  18508974.447    97265373.983        3725.429          38.000    18508993.355    75791298.077        2903.119          38.000  
G29  19168383.846   100730572.081        3468.564          38.000    19168393.355    78491471.439        2702.499          36.000  
G13  16649965.087    87496347.321        2631.741          44.000                                                                  
> 2025 04 18 09 31 12.9850000  0 10                     
G19  19502080.480   102483943.179       -3426.621          32.000                                                                  
G11  17613042.280    92557159.272        -273.695          43.000    17613049.177    72122592.396        -213.095          44.000  
G20  17067336.912    89689468.067       -1451.250          44.000                                                                  
G05  16392243.176    86141894.826         -40.527          47.000    16392249.147    67123809.755         -31.525          45.000  
G06  19278302.474   101308065.036       -1124.561          38.000    19278319.289    78941477.521        -875.745          38.000  
G12  18568155.159    97576203.360       -2024.802          40.000    18568171.427    76033622.325       -1578.119          38.000  
G25  19015672.582    99927984.876        -806.066          37.000    19015692.393    77866065.927        -628.065          36.000  
G15  18508265.514    97261648.578        3725.392          38.000    18508284.497    75788395.177        2902.828          38.000  
G29  19167723.754   100727103.399        3468.610          38.000    19167733.325    78488768.569        2702.660          36.000  
G13  16649464.345    87493715.680        2631.329          44.000                                                                  
> 2025 04 18 09 31 13.9850000  0 10                     
G19  19502732.712   102487370.542       -3426.988          32.000                                                                  
G11  17613094.382    92557433.134        -273.915          43.000    17613101.327    72122805.793        -213.291          44.000  
G20  17067613.073    89690919.451       -1451.350          44.000                                                                  
G05  16392250.879    86141935.666         -41.010          47.000    16392256.907    67123841.579         -31.781          45.000  
G06  19278516.449   101309189.535       -1124.640          38.000    19278533.302    78942353.761        -876.178          38.000  
G12  18568540.520    97578228.346       -2024.854          40.000    18568556.735    76035200.214       -1577.837          38.000  
G25  19015825.937    99928791.058        -806.126          37.000    19015845.742    77866694.089        -628.050          35.000  
G15  18507556.579    97257923.615        3724.770          38.000    18507575.720    75785492.621        2902.397          39.000  
G29  19167063.770   100723635.139        3468.241          38.000    19167073.351    78486066.039        2702.559          36.000  
G13  16648963.717    87491084.732        2630.803          44.000                                                                  
> 2025 04 18 09 31 14.9850000  0 10                     
G19  19503384.967   102490798.055       -3427.799          32.000                                                                  
G11  17613146.532    92557707.047        -273.677          43.000    17613153.513    72123019.241        -213.412          44.000  
G20  17067889.244    89692370.862       -1451.439          44.000                                                                  
G05  16392258.785    86141976.777         -41.211          46.000    16392264.653    67123873.619         -32.050          45.000  
G06  19278730.410   101310314.118       -1124.506          37.000    19278747.324    78943230.055        -876.343          38.000  
G12  18568925.923    97580253.508       -2024.959          40.000    18568942.186    76036778.261       -1578.297          38.000  
G25  19015979.378    99929597.595        -806.875          37.000    19015999.249    77867322.538        -628.627          35.000  
G15  18506847.790    97254198.759        3724.634          38.000    18506866.905    75782590.131        2902.606          39.000  
G29  19166403.858   100720167.015        3468.269          38.000    19166413.359    78483363.587        2702.496          36.000  
G13  16648463.066    87488454.165        2630.531          44.000                                                                  
> 2025 04 18 09 31 15.9850000  0 10                     
G19  19504037.267   102494225.698       -3428.073          32.000                                                                  
G11  17613198.733    92557981.016        -274.148          43.000    17613205.621    72123232.710        -213.510          44.000  
G20  17068165.390    89693822.273       -1451.479          44.000                                                                  
G05  16392266.629    86142018.145         -41.431          47.000    16392272.418    67123905.861         -32.367          45.000  
G06  19278944.325   101311438.752       -1124.817          38.000    19278961.236    78944106.386        -876.630          38.000  
G12  18569311.378    97582278.832       -2025.496          40.000    18569327.556    76038356.410       -1578.486          38.000  
G25  19016132.941    99930404.424        -807.141          36.000    19016152.795    77867951.222        -628.624          35.000  
G15  18506138.979    97250474.000        3724.341          39.000    18506158.043    75779687.744        2902.170          38.000  
G29  19165743.859   100716698.953        3467.992          38.000    19165753.400    78480661.217        2702.263          36.000  
G13  16647962.514    87485823.960        2629.892          44.000                                                                  
> 2025 04 18 09 31 16.9850000  0 10                     
G19  19504689.512   102497653.416       -3428.095          32.000                                                                  
G11  17613250.906    92558254.996        -274.162          43.000    17613257.819    72123446.191        -213.455          44.000  
G20  17068441.578    89695273.662       -1451.610          44.000                                                                  
G05  16392274.284    86142059.757         -41.882          47.000    16392280.291    67123938.294         -32.721          45.000  
G06  19279158.304   101312563.402       -1124.542          38.000    19279175.201    78944982.732        -876.569          39.000  
G12  18569696.857    97584304.263       -2025.447          40.000    18569713.005    76039934.662       -1578.467          38.000  
G25  19016286.678    99931211.557        -807.269          36.000    19016306.448    77868580.152        -629.146          35.000  
G15  18505430.239    97246749.290        3724.722          39.000    18505449.284    75776785.373        2902.304          39.000  
G29  19165083.984   100713230.989        3467.718          38.000    19165093.559    78477958.922        2702.151          36.000  
G13  16647462.070    87483194.092        2629.567          44.000                                                                  
> 2025 04 18 09 31 17.9850000  0 10                     
G19  19505341.914   102501081.394       -3427.614          32.000                                                                  
G11  17613303.108    92558529.144        -274.187          43.000    17613310.044    72123659.830        -213.739          44.000  
G20  17068717.798    89696725.190       -1451.553          44.000                                                                  
G05  16392282.456    86142101.771         -42.261          47.000    16392288.428    67123971.031         -32.910          45.000  
G06  19279372.287   101313688.271       -1124.847          38.000    19279389.249    78945859.219        -876.556          38.000  
G12  18570082.280    97586330.000       -2026.165          40.000    18570098.478    76041513.132       -1578.337          38.000  
G25  19016440.447    99932019.125        -807.593          36.000    19016460.199    77869209.443        -629.599          35.000  
G15  18504721.496    97243024.840        3724.448          39.000    18504740.521    75773883.213        2902.007          39.000  
G29  19164424.060   100709763.246        3467.367          38.000    19164433.636    78475256.745        2702.369          36.000  
G13  16646961.638    87480564.711        2629.234          44.000                                                                  
> 2025 04 18 09 31 18.9850000  0 10                     
G19  19505994.357   102504509.629       -3428.149          32.000                                                                  
G11  17613355.268    92558803.447        -274.383          43.000    17613362.224    72123873.558        -213.625          44.000  
G20  17068994.069    89698176.827       -1451.749          44.000                                                                  
G05  16392290.356    86142144.149         -42.682          47.000    16392296.456    67124004.055         -33.215          45.000  
G06  19279586.365   101314813.268       -1124.969          37.000    19279603.374    78946735.827        -876.495          38.000  
G12  18570467.863    97588355.946       -2025.796          40.000    18570484.095    76043091.788       -1578.465          38.000  
G25  19016594.240    99932827.208        -809.046          36.000    19016613.906    77869839.044        -629.767          35.000  
G15  18504012.738    97239300.564        3724.113          39.000    18504031.707    75770981.194        2901.962          39.000  
G29  19163764.232   100706295.680        3467.308          38.000    19163773.910    78472554.770        2701.958          36.000  
G13  16646461.496    87477935.796        2628.623          44.000                                                                  
> 2025 04 18 09 31 19.9850000  0 10                     
G19  19506646.644   102507937.999       -3428.445          32.000                                                                  
G11  17613407.470    92559077.761        -274.163          43.000    17613414.478    72124087.315        -213.749          44.000  
G20  17069270.318    89699628.439       -1451.477          44.000                                                                  
G05  16392298.666    86142186.774         -42.761          47.000    16392304.643    67124037.277         -33.380          45.000  
G06  19279800.358   101315938.296       -1124.951          37.000    19279817.443    78947612.460        -876.294          38.000  
G12  18570853.414    97590382.058       -2026.238          40.000    18570869.698    76044670.555       -1578.722          38.000  
G25  19016748.119    99933635.466        -808.555          36.000    19016767.763    77870468.893        -630.149          35.000  
G15  18503304.104    97235576.369        3724.229          39.000    18503322.988    75768079.245        2901.869          39.000  
G29  19163104.272   100702828.195        3467.396          38.000    19163114.137    78469852.864        2701.862          36.000  
G13  16645961.281    87475307.234        2628.214          44.000                                                                  
> 2025 04 18 09 31 20.9850000  0 10                     
G19  19507299.160   102511366.370       -3427.977          32.000                                                                  
G11  17613459.590    92559352.069        -274.440          43.000    17613466.553    72124301.062        -213.748          44.000  
G20  17069546.634    89701080.009       -1451.733          44.000                                                                  
G05  16392306.737    86142229.601         -42.889          47.000    16392312.780    67124070.661         -33.759          45.000  
G06  19280014.357   101317063.335       -1125.195          37.000    19280031.614    78948489.110        -876.648          38.000  
G12  18571238.909    97592408.244       -2026.148          40.000    18571255.264    76046249.407       -1578.816          38.000  
G25  19016901.999    99934444.048        -808.221          36.000    19016921.666    77871098.938        -630.429          36.000  
G15  18502595.487    97231852.217        3724.280          39.000    18502614.285    75765177.317        2901.855          39.000  
G29  19162444.434   100699360.739        3467.283          38.000    19162454.273    78467150.945        2701.570          36.000  
G13  16645461.149    87472678.944        2628.145          44.000                                                                  
> 2025 04 18 09 31 21.9850000  0 10                     
G19  19507951.585   102514794.885       -3428.589          32.000                                                                  
G11  17613511.790    92559626.355        -274.357          43.000    17613518.821    72124514.792        -213.851          44.000  
G20  17069822.886    89702531.512       -1451.647          44.000                                                                  
G05  16392314.920    86142272.655         -43.250          46.000    16392320.943    67124104.201         -33.740          45.000  
G06  19280228.376   101318188.362       -1125.012          37.000    19280245.635    78949365.757        -876.788          38.000  
G12  18571624.554    97594434.517       -2026.285          40.000    18571640.914    76047828.297       -1578.583          38.000  
G25  19017055.890    99935252.922        -809.282          36.000    19017075.528    77871729.197        -630.794          35.000  
G15  18501886.886    97228128.119        3723.826          39.000    18501905.584    75762275.414        2901.817          39.000  
G29  19161784.677   100695893.328        3467.302          38.000    19161794.487    78464449.090        2701.576          36.000  
G13  16644961.101    87470050.973        2627.870          44.000                                                                  
> 2025 04 18 09 31 22.9850000  0 10                     
G19  19508604.167   102518223.500       -3429.179          33.000                                                                  
G11  17613564.075    92559900.681        -274.970          43.000    17613571.065    72124728.542        -214.036          44.000  
G20  17070099.084    89703983.007       -1452.048          44.000                                                                  
G05  16392323.207    86142315.943         -43.848          46.000    16392329.166    67124137.933         -34.125          45.000  
G06  19280442.530   101319313.438       -1125.800          37.000    19280459.729    78950242.423        -877.448          38.000  
G12  18572010.183    97596460.941       -2026.874          40.000    18572026.624    76049407.326       -1579.614          38.000  
G25  19017209.831    99936062.059        -810.153          36.000    19017229.473    77872359.699        -630.935          35.000  
G15  18501178.319    97224404.083        3723.750          38.000    18501196.919    75759373.611        2901.052          39.000  
G29  19161124.763   100692425.993        3466.755          38.000    19161134.589    78461747.277        2701.507          36.000  
G13  16644461.134    87467423.371        2626.921          44.000                                                                  
> 2025 04 18 09 31 23.9850000  0 10                     
G19  19509256.756   102521652.575       -3428.774          32.000                                                                  
G11  17613616.381    92560175.411        -274.919          43.000    17613623.346    72124942.621        -214.158          44.000  
G20  17070375.465    89705434.865       -1451.776          44.000                                                                  
G05  16392331.394    86142359.873         -44.104          46.000    16392337.458    67124172.175         -34.552          45.000  
G06  19280656.765   101320438.908       -1125.763          37.000    19280673.914    78951119.391        -876.611          38.000  
G12  18572395.825    97598487.866       -2027.029          40.000    18572412.382    76050986.751       -1579.747          38.000  
G25  19017363.866    99936871.865        -809.635          36.000    19017383.601    77872990.718        -631.042          35.000  
G15  18500469.752    97220680.527        3723.393          38.000    18500488.363    75756472.120        2901.598          39.000  
G29  19160465.068   100688959.126        3466.746          38.000    19160474.984    78459045.816        2701.409          36.000  
G13  16643961.213    87464796.488        2626.558          44.000                                                                  
> 2025 04 18 09 31 24.9850000  0 10                     
G19  19509909.421   102525082.007       -3429.904          32.000                                                                  
G11  17613668.673    92560450.350        -275.195          43.000    17613675.674    72125156.855        -214.255          44.000  
G20  17070651.773    89706886.903       -1452.251          44.000                                                                  
G05  16392340.001    86142404.236         -44.623          46.000    16392345.823    67124206.747         -35.052          45.000  
G06  19280870.988   101321564.630       -1126.044          37.000    19280888.177    78951996.575        -877.350          38.000  
G12  18572781.657    97600515.114       -2027.302          40.000    18572798.134    76052566.406       -1579.550          38.000  
G25  19017518.072    99937682.218        -811.165          36.000    19017537.874    77873622.120        -631.631          35.000  
G15  18499761.214    97216957.233        3723.304          38.000    18499779.873    75753570.872        2901.168          39.000  
G29  19159805.360   100685492.513        3466.584          38.000    19159815.307    78456344.567        2701.395          36.000  
G13  16643461.445    87462170.128        2625.919          44.000                                                                  
> 2025 04 18 09 31 25.9850000  0 10                     
G19  19510562.039   102528511.680       -3430.371          33.000                                                                  
G11  17613721.011    92560725.445        -275.322          43.000    17613728.120    72125371.220        -214.672          44.000  
G20  17070928.035    89708339.047       -1452.294          44.000                                                                  
G05  16392348.399    86142448.973         -45.123          46.000    16392354.366    67124241.605         -35.223          45.000  
G06  19281085.102   101322690.471       -1125.854          37.000    19281102.444    78952873.849        -877.344          38.000  
G12  18573167.412    97602542.633       -2027.938          40.000    18573183.868    76054146.256       -1579.971          38.000  
G25  19017672.407    99938492.996        -811.584          36.000    19017692.117    77874253.890        -632.229          35.000  
G15  18499052.704    97213234.136        3722.844          39.000    18499071.314    75750669.758        2901.012          39.000  
G29  19159145.792   100682026.122        3466.230          38.000    19159155.616    78453643.469        2701.036          36.000  
G13  16642961.690    87459544.233        2625.597          44.000                                                                  
> 2025 04 18 09 31 26.9850000  0 10                     
G19  19511214.759   102531941.516       -3429.795          32.000                                                                  
G11  17613773.295    92561000.695        -275.065          43.000    17613780.461    72125585.699        -214.511          44.000  
G20  17071204.484    89709791.317       -1452.074          44.000                                                                  
G05  16392357.167    86142494.075         -45.044          47.000    16392362.867    67124276.754         -35.229          45.000  
G06  19281299.388   101323816.532       -1125.964          37.000    19281316.727    78953751.290        -877.502          38.000  
G12  18573553.310    97604570.386       -2027.588          40.000    18573569.699    76055726.353       -1580.238          38.000  
G25  19017826.742    99939304.128        -811.164          37.000    19017846.498    77874885.983        -632.293          35.000  
G15  18498344.233    97209511.251        3722.825          39.000    18498362.747    75747768.832        2901.029          39.000  
G29  19158486.244   100678559.933        3466.285          38.000    19158496.007    78450942.558        2701.032          36.000  
G13  16642462.057    87456918.824        2625.503          44.000                                                                  
> 2025 04 18 09 31 27.9850000  0 10                     
G19  19511867.473   102535371.599       -3430.912          32.000                                                                  
G11  17613825.768    92561276.009        -275.475          43.000    17613832.830    72125800.223        -214.637          44.000  
G20  17071480.844    89711243.599       -1452.247          44.000                                                                  
G05  16392365.562    86142539.457         -45.490          47.000    16392371.602    67124312.127         -35.529          45.000  
G06  19281513.712   101324942.636       -1125.970          37.000    19281531.023    78954628.740        -877.094          38.000  
G12  18573939.171    97606598.316       -2027.672          40.000    18573955.511    76057306.540       -1580.322          38.000  
G25  19017981.012    99940115.679        -812.082          36.000    19018001.024    77875518.301        -632.077          35.000  
G15  18497635.847    97205788.476        3723.033          38.000    18497654.360    75744867.970        2901.080          39.000  
G29  19157826.654   100675093.833        3466.272          38.000    19157836.328    78448241.719        2700.959          36.000  
G13  16641962.523    87454293.793        2624.722          44.000                                                                  
> 2025 04 18 09 31 28.9850000  0 10                     
G19  19512520.082   102538801.757       -3430.292          32.000                                                                  
G11  17613878.107    92561551.369        -275.584          43.000    17613885.244    72126014.789        -214.802          44.000  
G20  17071757.183    89712695.894       -1452.485          44.000                                                                  
G05  16392374.516    86142585.121         -45.935          47.000    16392380.168    67124347.710         -35.852          45.000  
G06  19281728.062   101326068.818       -1126.404          37.000    19281745.387    78955506.262        -877.344          38.000  
G12  18574325.152    97608626.420       -2028.386          40.000    18574341.503    76058886.829       -1580.034          38.000  
G25  19018135.540    99940927.514        -812.140          37.000    19018155.559    77876150.919        -632.974          35.000  
G15  18496927.326    97202065.820        3722.703          39.000    18496945.839    75741967.235        2900.197          39.000  
G29  19157167.168   100671627.861        3465.986          38.000    19157176.785    78445540.975        2700.771          36.000  
G13  16641463.052    87451669.122        2624.394          44.000                                                                  
> 2025 04 18 09 31 29.9850000  0 10                     
G19  19513172.872   102542232.113       -3429.738          32.000                                                                  
G11  17613930.566    92561826.845        -275.452          43.000    17613937.767    72126229.447        -214.758          44.000  
G20  17072033.567    89714148.278       -1452.489          44.000                                                                  
G05  16392383.163    86142631.135         -46.271          47.000    16392388.933    67124383.564         -36.102          45.000  
G06  19281942.300   101327195.120       -1126.611          37.000    19281959.666    78956383.921        -877.954          38.000  
G12  18574711.090    97610654.724       -2028.436          40.000    18574727.481    76060467.358       -1580.662          38.000  
G25  19018290.105    99941739.769        -812.730          36.000    19018310.086    77876783.818        -633.182          36.000  
G15  18496218.973    97198343.337        3722.348          38.000    18496237.507    75739066.581        2900.897          39.000  
G29  19156507.593   100668162.071        3465.500          38.000    19156517.172    78442840.345        2700.734          36.000  
G13  16640963.632    87449044.910        2623.913          44.000                                                                  
> 2025 04 18 09 31 30.9850000  0 10                     
G19  19513825.720   102545662.683       -3430.361          33.000                                                                  
G11  17613983.061    92562102.449        -275.745          43.000    17613990.110    72126444.204        -215.003          44.000  
G20  17072309.979    89715600.718       -1452.436          44.000                                                                  
G05  16392392.033    86142677.477         -46.613          47.000    16392397.802    67124419.671         -36.224          45.000  
G06  19282156.720   101328321.539       -1126.801          37.000    19282174.028    78957261.620        -877.716          38.000  
G12  18575097.046    97612683.251       -2028.667          40.000    18575113.479    76062048.006       -1581.035          38.000  
G25  19018444.962    99942552.379        -812.505          37.000    19018464.770    77877417.020        -633.543          36.000  
G15  18495510.565    97194621.011        3722.080          38.000    18495529.150    75736166.073        2900.383          39.000  
G29  19155848.153   100664696.435        3465.274          38.000    19155857.649    78440139.860        2700.118          36.000  
G13  16640464.363    87446421.104        2623.451          44.000                                                                  
> 2025 04 18 09 31 31.9850000  0 10                     
G19  19514478.620   102549093.440       -3430.769          33.000                                                                  
G11  17614035.621    92562378.104        -275.714          43.000    17614042.577    72126658.993        -214.884          44.000  
G20  17072586.377    89717053.189       -1452.487          44.000                                                                  
G05  16392400.797    86142724.094         -46.747          47.000    16392406.586    67124456.003         -36.383          45.000  
G06  19282371.078   101329448.026       -1126.831          37.000    19282388.486    78958139.404        -877.857          38.000  
G12  18575483.151    97614711.950       -2029.020          40.000    18575499.552    76063628.789       -1581.041          38.000  
G25  19018599.694    99943365.345        -813.131          36.000    19018619.498    77878050.499        -633.478          36.000  
G15  18494802.222    97190898.791        3721.959          38.000    18494820.792    75733265.665        2900.320          39.000  
G29  19155188.730   100661230.884        3465.305          38.000    19155198.176    78437439.441        2700.098          36.000  
G13  16639965.111    87443797.676        2623.186          44.000                                                                  
> 2025 04 18 09 31 32.9850000  0 10                     
G19  19515131.545   102552524.342       -3430.798          33.000                                                                  
G11  17614088.112    92562653.848        -275.884          43.000    17614095.096    72126873.860        -214.976          44.000  
G20  17072862.833    89718505.720       -1452.655          44.000                                                                  
G05  16392409.800    86142771.042         -47.150          47.000    16392415.695    67124492.592         -36.768          45.000  
G06  19282585.501   101330574.613       -1126.721          37.000    19282602.924    78959017.256        -877.832          38.000  
G12  18575869.289    97616740.836       -2028.926          40.000    18575885.685    76065209.724       -1580.953          38.000  
G25  19018754.390    99944178.702        -813.639          36.000    19018774.263    77878684.255        -633.435          36.000  
G15  18494093.937    97187176.721        3722.069          39.000    18494112.609    75730365.373        2900.181          39.000  
G29  19154529.258   100657765.492        3465.380          38.000    19154538.746    78434739.166        2699.770          36.000  
G13  16639466.014    87441174.676        2622.760          44.000                                                                  
> 2025 04 18 09 31 33.9850000  0 10                     
G19  19515784.443   102555955.444       -3430.679          33.000                                                                  
G11  17614140.605    92562929.712        -275.762          43.000    17614147.464    72127088.809        -214.740          44.000  
G20  17073139.275    89719958.309       -1452.632          44.000                                                                  
G05  16392418.717    86142818.302         -47.345          46.000    16392424.700    67124529.418         -36.829          45.000  
G06  19282799.963   101331701.344       -1126.581          37.000    19282817.285    78959895.212        -877.985          38.000  
G12  18576255.450    97618769.952       -2029.327          40.000    18576271.853    76066790.845       -1581.116          38.000  
G25  19018909.103    99944992.417        -813.585          36.000    19018929.123    77879318.310        -634.096          36.000  
G15  18493385.632    97183454.824        3721.853          39.000    18493404.307    75727465.186        2900.394          39.000  
G29  19153869.894   100654300.285        3464.938          38.000    19153879.327    78432039.004        2699.679          36.000  
G13  16638967.057    87438552.095        2622.334          44.000                                                                  
> 2025 04 18 09 31 34.9850000  0 10                     
G19  19516437.325   102559386.714       -3431.721          33.000                                                                  
G11  17614193.094    92563205.590        -275.887          43.000    17614199.941    72127303.780        -214.845          44.000  
G20  17073415.794    89721410.866       -1452.323          44.000                                                                  
G05  16392427.715    86142865.804         -47.491          46.000    16392433.797    67124566.435         -37.006          45.000  
G06  19283014.536   101332828.089       -1126.874          37.000    19283031.759    78960773.196        -878.082          38.000  
G12  18576641.639    97620799.172       -2029.165          40.000    18576657.972    76068372.056       -1581.308          38.000  
G25  19019063.966    99945806.470        -814.365          36.000    19019084.082    77879952.591        -634.018          35.000  
G15  18492677.307    97179733.000        3721.901          39.000    18492696.050    75724565.072        2900.248          39.000  
G29  19153210.469   100650835.121        3465.383          38.000    19153219.929    78429338.847        2700.813          36.000  
G13  16638468.106    87435929.856        2622.065          44.000                                                                  
> 2025 04 18 09 31 35.9850000  0 10                     
G19  19517090.257   102562818.082       -3431.486          32.000                                                                  
G11  17614245.617    92563481.548        -275.971          43.000    17614252.454    72127518.817        -215.065          44.000  
G20  17073692.146    89722863.476       -1452.631          44.000                                                                  
G05  16392436.802    86142913.607         -47.931          47.000    16392442.859    67124603.690         -37.305          45.000  
G06  19283229.103   101333954.928       -1126.965          37.000    19283246.130    78961651.227        -878.180          38.000  
G12  18577027.912    97622828.581       -2029.458          40.000    18577044.198    76069953.408       -1581.794          38.000  
G25  19019218.992    99946620.827        -814.486          37.000    19019239.119    77880587.169        -634.651          35.000  
G15  18491969.024    97176011.297        3721.475          39.000    18491987.909    75721665.065        2899.979          39.000  
G29  19152551.113   100647370.088        3465.107          38.000    19152560.543    78426638.837        2700.270          36.000  
G13  16637969.186    87433308.004        2621.700          44.000                                                                  
> 2025 04 18 09 31 36.9850000  0 10                     
G19  19517743.149   102566249.425       -3431.143          32.000                                                                  
G11  17614298.145    92563757.415        -275.857          43.000    17614304.844    72127733.770        -214.904          44.000  
G20  17073968.561    89724315.943       -1452.289          44.000                                                                  
G05  16392445.981    86142961.548         -47.913          46.000    16392451.994    67124641.051         -37.408          45.000  
G06  19283443.453   101335081.664       -1126.556          37.000    19283460.579    78962529.199        -877.857          38.000  
G12  18577414.198    97624858.004       -2029.216          40.000    18577430.308    76071534.766       -1581.498          38.000  
G25  19019374.060    99947435.393        -814.309          37.000    19019394.240    77881221.891        -634.860          35.000  
G15  18491260.799    97172289.556        3721.920          39.000    18491279.655    75718765.025        2899.999          39.000  
G29  19151891.808   100643905.033        3465.210          38.000    19151901.153    78423938.809        2699.913          36.000  
G13  16637470.333    87430686.388        2621.453          44.000                                                                  
> 2025 04 18 09 31 37.9850000  0 10                     
G19  19518396.224   102569681.130       -3431.482          32.000                                                                  
G11  17614350.647    92564033.508        -275.949          43.000    17614357.505    72127948.913        -215.087          44.000  
G20  17074244.970    89725768.602       -1452.427          44.000                                                                  
G05  16392455.298    86143009.930         -48.474          46.000    16392461.136    67124678.747         -37.610          45.000  
G06  19283657.894   101336208.680       -1126.959          37.000    19283674.978    78963407.373        -877.960          38.000  
G12  18577800.426    97626887.756       -2029.638          40.000    18577816.613    76073116.384       -1581.704          38.000  
G25  19019529.068    99948250.447        -814.502          37.000    19019549.376    77881857.011        -635.371          35.000  
G15  18490552.578    97168568.105        3721.661          39.000    18490571.513    75715865.191        2900.047          39.000  
G29  19151232.558   100640440.261        3464.647          38.000    19151241.811    78421238.973        2700.193          36.000  
G13  16636971.503    87428065.314        2621.080          44.000                                                                  
> 2025 04 18 09 31 38.9850000  0 10                     
G19  19519049.382   102573113.017       -3432.529          32.000                                                                  
G11  17614403.139    92564309.678        -276.272          43.000    17614410.030    72128164.103        -215.313          44.000  
G20  17074521.305    89727221.295       -1452.820          44.000                                                                  
G05  16392464.528    86143058.599         -48.895          46.000    16392470.340    67124716.677         -38.110          45.000  
G06  19283872.353   101337335.768       -1127.319          37.000    19283889.546    78964285.615        -878.601          38.000  
G12  18578186.716    97628917.687       -2029.940          40.000    18578202.977    76074698.141       -1582.274          38.000  
G25  19019684.303    99949065.933        -816.364          37.000    19019704.531    77882492.374        -635.413          35.000  
G15  18489844.440    97164846.794        3720.989          39.000    18489863.331    75712965.473        2899.846          39.000  
G29  19150573.251   100636975.591        3464.593          38.000    19150582.489    78418539.261        2699.763          36.000  
G13  16636472.710    87425444.643        2620.348          44.000                                                                  
> 2025 04 18 09 31 39.9850000  0 10                     
G19  19519702.501   102576545.106       -3432.051          32.000                                                                  
G11  17614455.832    92564586.023        -276.500          43.000    17614462.636    72128379.443        -215.540          44.000  
G20  17074797.685    89728674.123       -1452.900          44.000                                                                  
G05  16392473.918    86143107.676         -49.438          46.000    16392479.653    67124754.933         -38.507          45.000  
G06  19284086.917   101338463.032       -1127.594          37.000    19284104.022    78965163.976        -878.180          38.000  
G12  18578573.084    97630947.929       -2030.627          40.000    18578589.302    76076280.127       -1582.258          38.000  
G25  19019839.470    99949881.769        -816.256          37.000    19019859.813    77883128.124        -636.147          35.000  
G15  18489136.383    97161125.695        3721.144          39.000    18489155.281    75710065.949        2899.171          39.000  
G29  19149913.971   100633511.180        3464.046          38.000    19149923.177    78415839.714        2699.487          36.000  
G13  16635974.099    87422824.464        2619.784          45.000                                                                  
> 2025 04 18 09 31 40.9850000  0 10                     
G19  19520355.756   102579977.592       -3432.418          32.000                                                                  
G11  17614508.434    92564862.654        -276.638          43.000    17614515.282    72128594.998        -215.667          44.000  
G20  17075074.191    89730127.200       -1453.276          44.000                                                                  
G05  16392483.403    86143157.259         -49.878          46.000    16392489.084    67124793.564         -38.770          45.000  
G06  19284301.488   101339590.590       -1127.679          37.000    19284318.531    78966042.585        -878.778          38.000  
G12  18578959.362    97632978.528       -2030.678          40.000    18578975.760    76077862.399       -1582.359          38.000  
G25  19019994.749    99950698.181        -816.454          37.000    19020015.211    77883764.295        -636.597          35.000  
G15  18488428.309    97157404.966        3720.535          39.000    18488447.229    75707166.657        2899.543          39.000  
G29  19149254.752   100630047.108        3463.971          38.000    19149264.015    78413140.430        2699.535          36.000  
G13  16635475.606    87420204.894        2619.384          44.000                                                                  
> 2025 04 18 09 31 41.9850000  0 10                     
G19  19521009.082   102583410.316       -3432.805          33.000                                                                  
G11  17614561.087    92565139.418        -276.843          43.000    17614567.891    72128810.650        -215.688          44.000  
G20  17075350.727    89731580.354       -1453.134          43.000                                                                  
G05  16392492.937    86143207.174         -50.067          46.000    16392498.730    67124832.466         -38.989          45.000  
G06  19284516.141   101340718.275       -1127.588          37.000    19284533.207    78966921.316        -878.845          38.000  
G12  18579345.841    97635009.381       -2030.988          40.000    18579362.238    76079444.873       -1582.779          38.000  
G25  19020150.305    99951515.055        -817.441          36.000    19020170.667    77884400.751        -636.580          35.000  
G15  18487720.347    97153684.396        3720.385          39.000    18487739.219    75704267.529        2899.448          39.000  
G29  19148595.494   100626583.193        3463.798          38.000    19148604.850    78410441.299        2698.912          36.000  
G13  16634977.189    87417585.766        2618.971          45.000                                                                  
> 2025 04 18 09 31 42.9850000  0 10                     
G19  19521662.331   102586843.095       -3432.660          33.000                                                                  
G11  17614613.725    92565416.197        -277.162          43.000    17614620.525    72129026.316        -215.784          44.000  
G20  17075627.223    89733033.490       -1453.390          44.000                                                                  
G05  16392502.490    86143257.343         -50.488          46.000    16392508.122    67124871.562         -39.294          45.000  
G06  19284730.754   101341846.005       -1127.899          37.000    19284747.772    78967800.034        -878.320          38.000  
G12  18579732.341    97637040.331       -2031.192          40.000    18579748.672    76081027.415       -1582.518          38.000  
G25  19020305.860    99952332.121        -816.855          36.000    19020326.247    77885037.454        -636.581          35.000  
G15  18487012.324    97149963.896        3720.523          39.000    18487031.179    75701368.450        2899.005          39.000  
G29  19147936.263   100623119.362        3463.474          38.000    19147945.747    78407742.184        2699.064          36.000  
G13  16634478.778    87414966.975        2618.341          44.000                                                                  
> 2025 04 18 09 31 43.9850000  0 10                     
G19  19522315.601   102590276.283       -3433.315          33.000                                                                  
G11  17614666.377    92565693.251        -277.064          43.000    17614673.230    72129242.206        -215.859          44.000  
G20  17075903.773    89734486.864       -1453.168          44.000                                                                  
G05  16392512.202    86143308.012         -50.787          46.000    16392517.850    67124911.047         -39.465          45.000  
G06  19284945.358   101342974.025       -1127.856          37.000    19284962.431    78968679.002        -879.010          38.000  
G12  18580118.841    97639071.675       -2031.338          40.000    18580135.291    76082610.256       -1582.887          38.000  
G25  19020461.437    99953149.845        -817.840          36.000    19020481.722    77885674.591        -637.048          35.000  
G15  18486304.351    97146243.760        3720.205          39.000    18486323.155    75698469.658        2898.777          39.000  
G29  19147277.178   100619655.859        3463.698          38.000    19147286.674    78405043.390        2698.562          36.000  
G13  16633980.611    87412348.788        2618.144          44.000                                                                  
> 2025 04 18 09 31 44.9850000  0 10                     
G19  19522968.898   102593709.719       -3434.076          33.000                                                                  
G11  17614719.119    92565970.463        -277.298          43.000    17614726.066    72129458.219        -216.019          44.000  
G20  17076180.392    89735940.361       -1453.585          44.000                                                                  
G05  16392521.860    86143359.062         -51.276          46.000    16392527.611    67124950.822         -39.734          45.000  
G06  19285160.069   101344102.220       -1128.229          37.000    19285177.182    78969558.107        -879.156          38.000  
G12  18580505.463    97641103.270       -2031.629          40.000    18580521.925    76084193.314       -1582.825          38.000  
G25  19020617.180    99953967.943        -818.386          36.000    19020637.439    77886312.107        -638.079          35.000  
G15  18485596.402    97142523.796        3719.823          39.000    18485615.226    75695571.009        2898.461          39.000  
G29  19146618.082   100616192.576        3463.095          38.000    19146627.638    78402344.732        2698.264          36.000  
G13  16633482.516    87409731.067        2617.645          45.000                                                                  
> 2025 04 18 09 31 45.9850000  0 10                     
G19  19523622.256   102597143.293       -3433.509          32.000                                                                  
G11  17614771.817    92566247.758        -277.359          43.000    17614778.822    72129674.297        -216.306          44.000  
G20  17076457.010    89737393.894       -1453.711          44.000                                                                  
G05  16392531.542    86143410.419         -51.581          46.000    16392537.333    67124990.849         -40.125          45.000  
G06  19285374.690   101345230.506       -1128.693          37.000    19285391.967    78970437.271        -879.266          38.000  
G12  18580891.992    97643135.045       -2031.611          40.000    18580908.565    76085776.515       -1583.158          38.000  
G25  19020772.921    99954786.405        -818.739          36.000    19020793.282    77886949.844        -637.817          34.000  
G15  18484888.612    97138803.994        3719.521          39.000    18484907.365    75692672.445        2898.762          39.000  
G29  19145959.033   100612729.427        3462.778          38.000    19145968.594    78399646.131        2698.406          36.000  
G13  16632984.370    87407113.770        2617.029          44.000                                                                  
> 2025 04 18 09 31 46.9850000  0 10                     
G19  19524275.714   102600577.255       -3434.269          33.000                                                                  
G11  17614824.614    92566525.351        -277.804          43.000    17614831.625    72129890.594        -216.434          44.000  
G20  17076733.610    89738847.670       -1454.008          44.000                                                                  
G05  16392541.499    86143462.280         -52.228          46.000    16392547.234    67125031.265         -40.643          45.000  
G06  19285589.413   101346359.080       -1128.412          37.000    19285606.707    78971316.675        -879.578          38.000  
G12  18581278.778    97645167.234       -2032.352          40.000    18581295.285    76087360.025       -1583.474          38.000  
G25  19020928.874    99955605.439        -818.912          37.000    19020949.181    77887588.061        -638.494          35.000  
G15  18484180.792    97135084.525        3719.390          39.000    18484199.574    75689774.192        2897.955          38.000  
G29  19145300.099   100609266.608        3462.671          38.000    19145309.670    78396947.879        2698.023          36.000  
G13  16632486.490    87404497.073        2616.391          44.000                                                                  
> 2025 04 18 09 31 47.9850000  0 10                     
G19  19524929.175   102604011.312       -3434.175          32.000                                                                  
G11  17614877.470    92566802.969        -277.767          43.000    17614884.481    72130106.918        -216.528          44.000  
G20  17077010.243    89740301.435       -1453.868          44.000                                                                  
G05  16392551.278    86143514.380         -52.203          46.000    16392557.156    67125071.867         -40.692          45.000  
G06  19285804.228   101347487.692       -1128.827          37.000    19285821.496    78972196.104        -879.694          38.000  
G12  18581665.483    97647199.546       -2032.841          40.000    18581682.120    76088943.628       -1583.908          38.000  
G25  19021084.792    99956424.748        -818.874          37.000    19021105.063    77888226.488        -638.946          35.000  
G15  18483473.151    97131365.152        3719.084          39.000    18483491.664    75686875.965        2898.273          38.000  
G29  19144641.228   100605803.859        3462.880          38.000    19144650.685    78394249.625        2698.526          36.000  
G13  16631988.598    87401880.715        2615.986          44.000                                                                  
> 2025 04 18 09 31 48.9850000  0 10                     
G19  19525582.744   102607445.699       -3434.949          32.000                                                                  
G11  17614930.367    92567080.787        -277.949          43.000    17614937.317    72130323.408        -216.679          44.000  
G20  17077286.845    89741755.366       -1454.110          44.000                                                                  
G05  16392561.417    86143566.931         -52.814          46.000    16392567.152    67125112.814         -41.223          45.000  
G06  19286018.950   101348616.540       -1129.144          37.000    19286036.390    78973075.704        -880.139          38.000  
G12  18582052.411    97649232.153       -2032.751          40.000    18582068.954    76090527.461       -1583.751          38.000  
G25  19021240.676    99957244.615        -820.645          37.000    19021261.108    77888865.290        -639.010          35.000  
G15  18482765.456    97127646.037        3719.073          39.000    18482783.906    75683977.957        2897.980          39.000  
G29  19143982.376   100602341.393        3462.478          38.000    19143991.810    78391551.598        2698.240          36.000  
G13  16631490.837    87399264.882        2615.569          44.000                                                                  
> 2025 04 18 09 31 49.9850000  0 10                     
G19  19526236.340   102610880.442       -3434.656          33.000                                                                  
G11  17614983.341    92567358.944        -278.373          43.000    17614990.201    72130540.146        -216.948          44.000  
G20  17077563.636    89743209.580       -1454.380          43.000                                                                  
G05  16392571.381    86143620.002         -53.326          46.000    16392577.218    67125154.170         -41.486          45.000  
G06  19286233.913   101349745.698       -1129.291          37.000    19286251.266    78973955.547        -880.035          38.000  
G12  18582439.298    97651265.190       -2033.268          41.000    18582455.856    76092111.641       -1584.300          38.000  
G25  19021396.812    99958065.016        -820.611          37.000    19021417.224    77889504.558        -639.473          35.000  
G15  18482057.772    97123927.264        3718.605          39.000    18482076.219    75681080.249        2897.568          39.000  
G29  19143323.562   100598879.291        3461.986          38.000    19143332.979    78388853.877        2697.637          36.000  
G13  16630993.168    87396649.705        2614.782          45.000                                                                  
> 2025 04 18 09 31 50.9850000  0 10                     
G19  19526890.120   102614315.458       -3435.702          32.000                                                                  
G11  17615036.315    92567637.206        -278.309          43.000    17615043.060    72130756.970        -216.747          44.000  
G20  17077840.364    89744663.861       -1454.176          43.000                                                                  
G05  16392581.600    86143673.414         -53.436          46.000    16392587.411    67125195.806         -41.870          45.000  
G06  19286448.661   101350874.997       -1129.181          37.000    19286466.147    78974835.510        -880.017          38.000  
G12  18582826.181    97653298.438       -2033.310          40.000    18582842.872    76093695.992       -1584.467          38.000  
G25  19021553.007    99958885.828        -821.281          36.000    19021573.456    77890144.146        -639.535          35.000  
G15  18481350.278    97120208.691        3718.875          39.000    18481368.690    75678182.685        2897.353          39.000  
G29  19142664.723   100595417.372        3461.920          38.000    19142674.251    78386156.280        2697.670          36.000  
G13  16630495.554    87394034.967        2614.510          44.000                                                                  
> 2025 04 18 09 31 51.9850000  0 10                     
G19  19527543.781   102617750.613       -3435.364          33.000                                                                  
G11  17615089.350    92567915.592        -278.420          43.000    17615096.116    72130973.890        -216.791          44.000  
G20  17078117.131    89746118.239       -1454.281          44.000                                                                  
G05  16392591.668    86143727.171         -53.693          46.000    16392597.548    67125237.692         -41.913          45.000  
G06  19286663.684   101352004.431       -1129.193          37.000    19286681.082    78975715.575        -879.956          38.000  
G12  18583213.164    97655331.916       -2033.390          40.000    18583229.784    76095280.511       -1584.557          38.000  
G25  19021709.316    99959707.032        -821.315          36.000    19021729.703    77890784.026        -639.792          35.000  
G15  18480642.673    97116490.335        3718.233          39.000    18480660.996    75675285.243        2897.468          39.000  
G29  19142005.940   100591955.631        3461.855          38.000    19142015.475    78383458.852        2696.963          36.000  
G13  16629998.021    87391420.668        2614.353          45.000                                                                  
> 2025 04 18 09 31 52.9850000  0 10                     
G19  19528197.525   102621185.871       -3435.718          33.000                                                                  
G11  17615142.468    92568193.969        -278.384          43.000    17615149.073    72131190.819        -217.029          44.000  
G20  17078393.929    89747572.545       -1454.351          44.000                                                                  
G05  16392602.113    86143781.139         -54.199          46.000    16392607.819    67125279.741         -42.242          45.000  
G06  19286878.637   101353133.866       -1129.468          37.000    19286896.026    78976595.623        -879.865          38.000  
G12  18583600.157    97657365.498       -2033.763          40.000    18583616.753    76096865.099       -1584.709          38.000  
G25  19021865.634    99960528.514        -821.495          36.000    19021886.030    77891424.114        -639.999          35.000  
G15  18479935.149    97112771.978        3718.204          39.000    18479953.508    75672387.837        2897.360          39.000  
G29  19141347.174   100588493.909        3461.663          38.000    19141356.772    78380761.406        2696.832          36.000  
G13  16629500.686    87388806.683        2613.799          45.000                                                                  
> 2025 04 18 09 31 53.9850000  0 10                     
G19  19528851.176   102624621.233       -3435.050          33.000                                                                  
G11  17615195.409    92568472.388        -278.195          43.000    17615202.095    72131407.770        -216.966          44.000  
G20  17078670.636    89749026.870       -1454.244          44.000                                                                  
G05  16392612.325    86143835.377         -54.297          46.000    16392618.111    67125322.014         -42.358          45.000  
G06  19287093.595   101354263.353       -1129.535          37.000    19287110.963    78977475.753        -880.017          38.000  
G12  18583987.078    97659399.214       -2033.937          41.000    18584003.752    76098449.793       -1584.538          38.000  
G25  19022022.060    99961350.300        -821.894          37.000    19022042.276    77892064.475        -640.756          35.000  
G15  18479227.555    97109053.764        3717.793          39.000    18479245.929    75669490.519        2897.450          39.000  
G29  19140688.390   100585032.297        3461.680          38.000    19140698.027    78378064.042        2697.481          36.000  
G13  16629003.358    87386193.073        2613.414          45.000                                                                  
> 2025 04 18 09 31 54.9850000  0 10                     
G19  19529505.018   102628056.934       -3436.415          32.000                                                                  
G11  17615248.407    92568751.021        -278.690          43.000    17615255.097    72131624.871        -217.159          44.000  
G20  17078947.402    89750481.344       -1454.532          44.000                                                                  
G05  16392622.865    86143890.031         -54.913          46.000    16392628.525    67125364.602         -42.761          45.000  
G06  19287308.697   101355393.050       -1130.029          37.000    19287325.949    78978356.032        -880.536          38.000  
G12  18584374.169    97661433.216       -2034.052          40.000    18584390.822    76100034.718       -1584.776          38.000  
G25  19022178.478    99962172.583        -823.250          37.000    19022198.765    77892705.163        -640.795          35.000  
G15  18478519.982    97105335.768        3717.667          39.000    18478538.473    75666593.407        2896.974          39.000  
G29  19140029.698   100581570.954        3460.977          38.000    19140039.330    78375366.888        2697.004          36.000  
G13  16628506.062    87383579.971        2612.686          44.000                                                                  
> 2025 04 18 09 31 55.9850000  0 10                     
G19  19530158.885   102631492.905       -3436.063          33.000                                                                  
G11  17615301.347    92569029.889        -278.654          43.000    17615308.210    72131842.171        -217.086          44.000  
G20  17079224.181    89751936.018       -1454.501          44.000                                                                  
G05  16392633.305    86143945.144         -55.090          46.000    16392638.995    67125407.543         -42.841          45.000  
G06  19287523.770   101356523.001       -1129.956          37.000    19287540.994    78979236.496        -880.389          38.000  
G12  18584761.309    97663467.590       -2034.622          40.000    18584777.975    76101619.926       -1584.843          38.000  
G25  19022335.071    99962995.340        -823.055          37.000    19022355.323    77893346.281        -640.996          35.000  
G15  18477812.467    97101618.069        3717.360          39.000    18477831.069    75663696.506        2897.169          39.000  
G29  19139371.063   100578109.895        3461.140          38.000    19139380.687    78372669.987        2696.270          36.000  
G13  16628008.876    87380967.428        2612.431          45.000                                                                  
> 2025 04 18 09 32 03.9850000  0 10                     
G19  19535391.189   102658988.411       -3437.432          33.000                                                                  
G11  17615726.816    92571265.357        -279.729          43.000    17615733.632    72133584.098        -218.093          44.000  
G20  17081439.317    89763576.435       -1455.626          44.000                                                                  
G05  16392719.410    86144398.403         -58.057          46.000    16392725.067    67125760.761         -45.251          45.000  
G06  19289245.158   101365567.527       -1131.281          37.000    19289262.153    78986284.076        -881.787          38.000  
G12  18587859.943    97679750.590       -2036.500          41.000    18587876.229    76114307.909       -1586.942          38.000  
G25  19023590.224    99969591.926        -826.239          37.000    19023610.591    77898486.390        -644.085          35.000  
G15  18472154.210    97071883.061        3716.280          39.000    18472172.599    75640526.478        2895.470          39.000  
G29  19134103.314   100550427.855        3459.601          38.000    19134113.022    78351099.612        2695.024          36.000  
G13  16624034.666    87360083.192        2608.719          45.000                                                                  
> 2025 04 18 09 32 04.9850000  0 10                     
G19  19536045.356   102662426.363       -3437.132          33.000                                                                  
G11  17615780.119    92571545.481        -280.221          43.000    17615786.963    72133802.382        -218.402          44.000  
G20  17081716.406    89765031.958       -1455.660          43.000                                                                  
G05  16392730.634    86144456.722         -58.563          46.000    16392736.145    67125806.207         -45.599          45.000  
G06  19289460.405   101366698.803       -1131.403          37.000    19289477.523    78987165.567        -881.262          38.000  
G12  18588247.422    97681787.083       -2036.584          41.000    18588263.756    76115894.783       -1587.101          38.000  
G25  19023747.412    99970418.391        -826.437          36.000    19023767.805    77899130.392        -644.215          35.000  
G15  18471446.964    97068167.124        3716.055          39.000    18471465.443    75637630.940        2895.457          39.000  
G29  19133445.133   100546968.554        3458.913          38.000    19133454.706    78348404.018        2695.575          35.000  
G13  16623538.318    87357474.788        2608.146          45.000                                                                  
> 2025 04 18 09 32 05.9850000  0 10                     
G19  19536699.759   102665864.601       -3438.328          33.000                                                                  
G11  17615833.336    92571825.743        -280.242          43.000    17615840.258    72134020.768        -218.516          44.000  
G20  17081993.376    89766487.586       -1455.667          43.000                                                                  
G05  16392741.722    86144515.409         -58.948          46.000    16392747.357    67125851.935         -45.685          45.000  
G06  19289675.630   101367830.243       -1131.360          37.000    19289692.877    78988047.206        -881.366          38.000  
G12  18588635.052    97683823.837       -2036.997          41.000    18588651.292    76117481.831       -1586.882          38.000  
G25  19023904.661    99971245.271        -826.570          36.000    19023925.198    77899774.709        -644.297          35.000  
G15  18470739.915    97064451.379        3715.725          39.000    18470758.368    75634735.597        2894.862          39.000  
G29  19132786.863   100543509.416        3458.891          38.000    19132796.334    78345708.621        2695.201          35.000  
G13  16623042.009    87354866.840        2607.732          45.000                                                                  
> 2025 04 18 09 32 06.9850000  0 10                     
G19  19537354.041   102669303.177       -3438.918          33.000                                                                  
G11  17615886.629    92572106.268        -280.584          43.000    17615893.711    72134239.355        -218.890          44.000  
G20  17082270.259    89767943.441       -1455.986          43.000                                                                  
G05  16392753.027    86144574.546         -59.320          46.000    16392758.608    67125898.030         -46.320          45.000  
G06  19289890.969   101368961.952       -1131.494          37.000    19289908.214    78988929.044        -881.677          38.000  
G12  18589022.772    97685860.954       -2037.412          40.000    18589038.951    76119069.196       -1587.351          38.000  
G25  19024062.117    99972072.721        -827.646          36.000    19024082.637    77900419.429        -644.345          35.000  
G15  18470032.894    97060735.966        3714.964          39.000    18470051.238    75631840.448        2895.037          39.000  
G29  19132128.723   100540050.588        3458.838          38.000    19132137.993    78343013.408        2694.979          35.000  
G13  16622545.808    87352259.477        2607.083          45.000                                                                  
> 2025 04 18 09 32 07.9850000  0 10                     
G19  19538008.521   102672742.074       -3439.094          33.000                                                                  
G11  17615940.098    92572387.021        -280.871          43.000    17615947.058    72134458.116        -218.797          44.000  
G20  17082547.270    89769399.474       -1456.072          43.000                                                                  
G05  16392764.385    86144634.153         -59.717          46.000    16392769.848    67125944.476         -46.643          45.000  
G06  19290106.353   101370093.925       -1132.013          37.000    19290123.595    78989811.095        -882.172          38.000  
G12  18589410.517    97687898.383       -2037.399          40.000    18589426.670    76120656.803       -1587.684          38.000  
G25  19024219.648    99972900.656        -827.477          36.000    19024240.177    77901064.573        -645.155          35.000  
G15  18469325.888    97057020.798        3715.324          39.000    18469344.206    75628945.539        2894.892          39.000  
G29  19131470.647   100536592.068        3458.341          39.000    19131479.870    78340318.436        2695.351          35.000  
G13  16622049.673    87349652.669        2606.582          45.000                                                                  
> 2025 04 18 09 32 08.9850000  0 10                     
G19  19538662.967   102676181.175       -3439.261          33.000                                                                  
G11  17615993.557    92572667.961        -281.048          43.000    17616000.453    72134677.024        -218.946          44.000  
G20  17082824.449    89770855.645       -1456.110          43.000                                                                  
G05  16392775.750    86144694.146         -60.138          46.000    16392781.373    67125991.233         -46.796          45.000  
G06  19290321.911   101371226.070       -1132.123          37.000    19290339.064    78990693.284        -882.648          38.000  
G12  18589798.345    97689936.092       -2037.756          40.000    18589814.433    76122244.614       -1587.841          38.000  
G25  19024377.290    99973729.039        -828.530          36.000    19024397.876    77901710.062        -645.674          35.000  
G15  18468618.957    97053305.897        3715.062          39.000    18468637.239    75626050.835        2894.602          39.000  
G29  19130812.600   100533133.768        3458.084          38.000    19130821.664    78337623.704        2694.629          35.000  
G13  16621553.800    87347046.363        2605.934          45.000                                                                  
> 2025 04 18 09 32 09.9850000  0 10                     
G19  19539317.439   102679620.531       -3439.409          33.000                                                                  
G11  17616047.005    92572949.003        -281.183          43.000    17616053.900    72134896.032        -219.179          44.000  
G20  17083101.628    89772311.897       -1456.329          43.000                                                                  
G05  16392787.292    86144754.482         -60.443          46.000    16392792.881    67126038.244         -47.040          45.000  
G06  19290537.327   101372358.347       -1132.422          37.000    19290554.605    78991575.547        -882.324          38.000  
G12  18590186.156    97691974.013       -2037.978          40.000    18590202.262    76123832.603       -1588.270          38.000  
G25  19024535.004    99974557.829        -829.010          36.000    19024555.549    77902355.860        -646.232          35.000  
G15  18467912.102    97049591.187        3714.610          39.000    18467930.420    75623156.245        2894.540          39.000  
G29  19130154.611   100529675.646        3457.971          38.000    19130163.564    78334929.062        2694.359          35.000  
G13  16621057.943    87344440.494        2605.576          45.000                                                                  
> 2025 04 18 09 32 10.9850000  0 10                     
G19  19539971.987   102683060.168       -3440.222          33.000                                                                  
G11  17616100.479    92573230.262        -281.371          43.000    17616107.451    72135115.193        -219.558          44.000  
G20  17083378.800    89773768.300       -1456.439          43.000                                                                  
G05  16392798.780    86144815.244         -60.956          46.000    16392804.466    67126085.598         -47.485          45.000  
G06  19290752.801   101373490.831       -1132.367          37.000    19290770.198    78992457.986        -882.202          38.000  
G12  18590573.976    97694012.261       -2038.497          40.000    18590590.236    76125420.825       -1588.437          38.000  
G25  19024692.860    99975387.093        -829.806          36.000    19024713.308    77903002.008        -646.330          35.000  
G15  18467205.310    97045876.695        3714.626          39.000    18467223.585    75620261.861        2894.305          38.000  
G29  19129496.614   100526217.775        3457.783          38.000    19129505.546    78332234.611        2694.297          35.000  
G13  16620562.193    87341835.155        2605.026          45.000                                                                  
> 2025 04 18 09 32 11.9850000  0 10                     
G19  19540626.500   102686500.153       -3439.990          33.000                                                                  
G11  17616154.101    92573511.820        -281.358          43.000    17616161.051    72135334.586        -219.430          44.000  
G20  17083655.947    89775224.968       -1456.505          43.000                                                                  
G05  16392810.439    86144876.529         -61.267          46.000    16392816.080    67126133.350         -47.656          45.000  
G06  19290968.417   101374623.656       -1132.813          37.000    19290985.920    78993340.682        -882.336          38.000  
G12  18590961.854    97696050.904       -2038.671          40.000    18590978.177    76127009.354       -1588.232          38.000  
G25  19024850.757    99976216.891        -829.527          36.000    19024871.171    77903648.605        -646.241          35.000  
G15  18466498.580    97042162.634        3714.033          39.000    18466516.875    75617367.789        2893.871          38.000  
G29  19128838.676   100522760.281        3457.589          38.000    19128847.502    78329540.455        2694.276          35.000  
G13  16620066.541    87339230.448        2604.726          45.000                                                                  
> 2025 04 18 09 32 12.9850000  0 10                     
G19  19541281.228   102689940.404       -3440.387          33.000                                                                  
G11  17616207.733    92573793.549        -281.846          43.000    17616214.724    72135554.108        -219.626          44.000  
G20  17083933.174    89776681.759       -1456.823          43.000                                                                  
G05  16392822.265    86144938.180         -61.841          46.000    16392827.801    67126181.401         -48.291          45.000  
G06  19291184.034   101375756.641       -1133.221          37.000    19291201.537    78994223.529        -882.849          38.000  
G12  18591349.847    97698089.804       -2039.208          40.000    18591366.212    76128598.093       -1588.596          38.000  
G25  19025008.822    99977047.155        -830.294          37.000    19025029.244    77904295.567        -647.114          35.000  
G15  18465791.876    97038448.728        3714.021          39.000    18465809.999    75614473.835        2893.931          38.000  
G29  19128180.778   100519302.990        3457.146          38.000    19128189.678    78326846.447        2694.357          35.000  
G13  16619570.947    87336626.216        2604.012          45.000                                                                  
> 2025 04 18 09 32 13.9850000  0 10                     
G19  19541935.907   102693380.896       -3440.929          33.000                                                                  
G11  17616261.434    92574075.458        -282.249          43.000    17616268.372    72135773.775        -219.991          44.000  
G20  17084210.447    89778138.677       -1457.025          43.000                                                                  
G05  16392834.024    86145000.221         -62.225          46.000    16392839.599    67126229.748         -48.608          45.000  
G06  19291399.703   101376889.796       -1133.435          37.000    19291417.269    78995106.487        -882.996          38.000  
G12  18591737.903    97700128.979       -2039.736          41.000    18591754.287    76130187.064       -1589.299          38.000  
G25  19025167.001    99977877.910        -831.606          36.000    19025187.356    77904942.851        -647.481          35.000  
G15  18465085.192    97034735.084        3713.553          39.000    18465103.312    75611580.092        2893.428          38.000  
G29  19127522.886   100515845.928        3456.724          38.000    19127531.895    78324152.655        2693.898          36.000  
G13  16619075.513    87334022.489        2603.391          45.000                                                                  
> 2025 04 18 09 32 14.9850000  0 10                     
G19  19542590.581   102696821.677       -3441.581          33.000                                                                  
G11  17616315.123    92574357.509        -282.174          43.000    17616321.974    72135993.550        -219.877          44.000  
G20  17084487.755    89779595.712       -1456.975          43.000                                                                  
G05  16392845.981    86145062.655         -62.677          46.000    16392851.509    67126278.399         -48.798          45.000  
G06  19291615.299   101378023.136       -1133.710          37.000    19291632.827    78995989.597        -883.411          38.000  
G12  18592126.085    97702168.393       -2039.608          40.000    18592142.421    76131776.219       -1589.659          38.000  
G25  19025325.094    99978709.028        -831.545          37.000    19025345.583    77905590.502        -648.031          35.000  
G15  18464378.570    97031021.650        3713.183          39.000    18464396.677    75608686.524        2893.389          39.000  
G29  19126865.035   100512389.088        3456.682          38.000    19126874.110    78321459.018        2693.793          36.000  
G13  16618580.106    87331419.242        2602.923          45.000                                                                  
> 2025 04 18 09 32 15.9850000  0 10                     
G19  19543245.394   102700262.677       -3441.768          33.000                                                                  
G11  17616368.730    92574639.736        -282.436          43.000    17616375.673    72136213.479        -220.061          44.000  
G20  17084765.004    89781052.886       -1457.399          43.000                                                                  
G05  16392857.874    86145125.465         -63.013          46.000    16392863.305    67126327.347         -49.176          45.000  
G06  19291831.129   101379156.634       -1133.508          37.000    19291848.461    78996872.857        -883.435          38.000  
G12  18592514.301    97704208.079       -2039.798          40.000    18592530.617    76133365.577       -1589.440          38.000  
G25  19025483.375    99979540.609        -831.885          36.000    19025503.842    77906238.434        -647.466          35.000  
G15  18463671.996    97027308.428        3713.052          39.000    18463690.192    75605793.117        2893.165          39.000  
G29  19126207.265   100508932.469        3456.519          38.000    19126216.233    78318765.562        2693.458          36.000  
G13  16618084.860    87328816.486        2602.438          45.000                                                                  
> 2025 04 18 09 32 16.9850000  0 10                     
G19  19543900.303   102703703.981       -3441.324          33.000                                                                  
G11  17616422.484    92574922.223        -282.524          43.000    17616429.468    72136433.589        -220.175          44.000  
G20  17085042.351    89782510.263       -1457.389          43.000                                                                  
G05  16392869.853    86145188.767         -63.495          46.000    16392875.418    67126376.675         -49.493          45.000  
G06  19292046.974   101380290.441       -1133.990          37.000    19292064.354    78997756.310        -883.911          38.000  
G12  18592902.507    97706248.143       -2040.211          40.000    18592918.755    76134955.231       -1590.077          38.000  
G25  19025641.789    99980372.690        -832.010          36.000    19025662.167    77906886.846        -649.000          35.000  
G15  18462965.401    97023595.530        3712.783          39.000    18462983.688    75602899.960        2893.192          39.000  
G29  19125549.494   100505476.177        3456.177          38.000    19125558.617    78316072.352        2693.276          36.000  
G13  16617589.740    87326214.318        2601.827          45.000                                                                  
> 2025 04 18 09 32 17.9850000  0 10                     
G19  19544555.135   102707145.519       -3441.495          33.000                                                                  
G11  17616476.317    92575204.816        -282.559          43.000    17616483.298    72136653.802        -220.226          44.000  
G20  17085319.670    89783967.705       -1457.517          43.000                                                                  
G05  16392882.062    86145252.385         -63.782          46.000    16392887.404    67126426.243         -49.512          45.000  
G06  19292262.742   101381424.335       -1133.862          37.000    19292280.151    78998639.828        -883.051          38.000  
G12  18593290.769    97708288.399       -2040.190          40.000    18593306.936    76136545.004       -1589.879          38.000  
G25  19025800.179    99981205.208        -833.155          36.000    19025820.591    77907535.525        -648.989          35.000  
G15  18462258.910    97019882.803        3712.840          39.000    18462277.184    75600006.939        2892.971          39.000  
G29  19124891.887   100502020.017        3456.331          38.000    19124900.945    78313379.247        2693.386          36.000  
G13  16617094.566    87323612.574        2601.593          45.000                                                                  
> 2025 04 18 09 32 18.9850000  0 10                     
G19  19545210.121   102710587.261       -3441.825          33.000                                                                  
G11  17616530.171    92575487.558        -282.967          43.000    17616537.175    72136874.108        -220.549          44.000  
G20  17085597.024    89785425.235       -1457.843          43.000                                                                  
G05  16392894.265    86145316.335         -64.301          46.000    16392899.586    67126476.094         -50.323          45.000  
G06  19292478.520   101382558.392       -1134.625          37.000    19292496.050    78999523.503        -883.746          38.000  
G12  18593679.105    97710328.881       -2040.739          40.000    18593695.209    76138134.993       -1589.987          38.000  
G25  19025958.694    99982038.083        -833.719          37.000    19025979.142    77908184.522        -649.318          35.000  
G15  18461552.452    97016170.257        3712.340          39.000    18461570.706    75597114.053        2892.655          38.000  
G29  19124234.279   100498564.067        3455.673          38.000    19124243.362    78310686.316        2692.810          36.000  
G13  16616599.617    87321011.279        2600.931          45.000                                                                  
> 2025 04 18 09 32 19.9850000  0 10                     
G19  19545865.153   102714029.466       -3442.418          33.000                                                                  
G11  17616583.981    92575770.655        -283.221          43.000    17616590.995    72137094.696        -220.626          44.000  
G20  17085874.355    89786883.071       -1458.000          43.000                                                                  
G05  16392906.499    86145380.877         -64.630          46.000    16392911.769    67126526.382         -50.403          45.000  
G06  19292694.323   101383692.791       -1134.271          37.000    19292711.945    79000407.451        -883.722          38.000  
G12  18594067.517    97712369.825       -2040.986          40.000    18594083.612    76139725.332       -1590.470          38.000  
G25  19026117.393    99982871.600        -833.482          37.000    19026137.757    77908834.023        -649.923          35.000  
G15  18460846.047    97012458.138        3712.138          39.000    18460864.269    75594221.512        2892.390          38.000  
G29  19123576.657   100495108.535        3455.475          38.000    19123585.716    78307993.711        2692.030          36.000  
G13  16616104.707    87318410.675        2600.370          45.000                                                                  
> 2025 04 18 09 32 20.9850000  0 10                     
G19  19546520.275   102717471.854       -3442.203          33.000                                                                  
G11  17616637.919    92576053.872        -283.307          43.000    17616644.938    72137315.388        -220.767          44.000  
G20  17086151.792    89788340.992       -1458.110          43.000                                                                  
G05  16392918.917    86145445.767         -65.131          46.000    16392924.175    67126576.942         -50.677          45.000  
G06  19292910.249   101384827.352       -1134.674          37.000    19292927.794    79001291.511        -884.052          38.000  
G12  18594455.941    97714411.015       -2041.328          40.000    18594472.076    76141315.839       -1590.586          38.000  
G25  19026275.990    99983705.537        -834.526          36.000    19026296.355    77909483.806        -650.020          35.000  
G15  18460139.708    97008746.197        3712.123          39.000    18460157.969    75591329.106        2892.418          39.000  
G29  19122919.139   100491653.173        3455.490          38.000    19122928.293    78305301.219        2692.338          36.000  
G13  16615609.921    87315810.516        2600.034          45.000                                                                  
> 2025 04 18 09 32 21.9850000  0 10                     
G19  19547175.472   102720914.561       -3443.353          33.000                                                                  
G11  17616691.881    92576337.328        -283.875          43.000    17616698.861    72137536.260        -221.174          44.000  
G20  17086429.262    89789799.105       -1458.573          43.000                                                                  
G05  16392931.217    86145511.104         -65.863          46.000    16392936.653    67126627.852         -51.215          45.000  
G06  19293126.187   101385962.143       -1134.833          37.000    19293143.773    79002175.763        -884.344          38.000  
G12  18594844.420    97716452.516       -2042.060          40.000    18594860.586    76142906.623       -1591.217          38.000  
G25  19026434.763    99984539.945        -834.784          36.000    19026455.174    77910133.983        -650.638          35.000  
G15  18459433.473    97005034.570        3711.298          39.000    18459451.656    75588436.935        2891.707          39.000  
G29  19122261.609   100488198.102        3454.913          38.000    19122270.869    78302608.971        2691.817          36.000  
G13  16615115.209    87313210.927        2599.160          45.000                                                                  
> 2025 04 18 09 32 22.9850000  0 10                     
G19  19547830.688   102724357.693       -3443.703          33.000                                                                  
G11  17616745.819    92576621.138        -284.095          43.000    17616752.841    72137757.405        -221.236          44.000  
G20  17086706.819    89791257.505       -1458.446          43.000                                                                  
G05  16392943.828    86145577.009         -66.241          46.000    16392949.171    67126679.216         -51.532          45.000  
G06  19293342.315   101387097.315       -1135.321          37.000    19293359.738    79003060.286        -884.473          38.000  
G12  18595232.944    97718494.458       -2042.146          40.000    18595249.124    76144497.734       -1591.049          38.000  
G25  19026593.733    99985374.989        -835.309          36.000    19026614.007    77910784.624        -650.380          35.000  
G15  18458727.249    97001323.325        3711.050          39.000    18458745.412    75585545.060        2891.885          39.000  
G29  19121604.288   100484743.455        3454.417          38.000    19121613.443    78299917.013        2691.839          36.000  
G13  16614620.737    87310612.001        2598.551          45.000                                                                  
> 2025 04 18 09 32 23.9850000  0 10                     
G19  19548485.981   102727801.203       -3443.262          33.000                                                                  
G11  17616799.853    92576905.236        -284.132          43.000    17616806.990    72137978.783        -221.392          44.000  
G20  17086984.440    89792716.184       -1458.821          43.000                                                                  
G05  16392956.562    86145643.443         -66.553          46.000    16392961.845    67126730.992         -51.880          45.000  
G06  19293558.438   101388232.793       -1135.571          37.000    19293575.840    79003945.072        -885.022          38.000  
G12  18595621.743    97720536.804       -2042.434          40.000    18595637.750    76146089.175       -1591.466          38.000  
G25  19026752.780    99986210.605        -835.672          36.000    19026773.018    77911435.760        -651.482          35.000  
G15  18458021.084    96997612.436        3711.029          39.000    18458039.152    75582653.485        2891.765          38.000  
G29  19120947.001   100481289.142        3454.223          38.000    19120956.121    78297225.357        2691.551          36.000  
G13  16614126.199    87308013.693        2598.183          45.000                                                                  
> 2025 04 18 09 32 24.9850000  0 10                     
G19  19549141.289   102731244.772       -3443.602          33.000                                                                  
G11  17616853.921    92577189.326        -284.229          43.000    17616861.016    72138200.152        -221.452          44.000  
G20  17087262.050    89794174.781       -1458.765          43.000                                                                  
G05  16392969.121    86145710.079         -66.840          46.000    16392974.564    67126782.918         -52.118          45.000  
G06  19293774.505   101389368.253       -1135.767          37.000    19293791.930    79004829.843        -885.156          38.000  
G12  18596010.412    97722579.242       -2042.768          40.000    18596026.426    76147680.657       -1591.835          38.000  
G25  19026911.939    99987046.495        -836.664          36.000    19026932.031    77912087.096        -651.928          35.000  
G15  18457314.924    96993901.609        3710.984          39.000    18457333.009    75579761.937        2891.427          38.000  
G29  19120289.699   100477834.881        3453.872          38.000    19120298.819    78294533.746        2691.045          36.000  
G13  16613631.794    87305415.706        2597.536          45.000                                                                  
> 2025 04 18 09 32 25.9850000  0 10                     
G19  19549796.574   102734688.491       -3443.862          33.000                                                                  
G11  17616908.104    92577473.457        -284.185          43.000    17616915.010    72138421.552        -221.556          44.000  
G20  17087539.574    89795633.382       -1458.768          44.000                                                                  
G05  16392981.931    86145776.975         -67.175          46.000    16392987.243    67126835.048         -52.448          45.000  
G06  19293990.455   101390503.785       -1135.858          37.000    19294008.023    79005714.627        -884.668          38.000  
G12  18596399.168    97724621.805       -2042.536          40.000    18596415.115    76149272.268       -1591.965          38.000  
G25  19027071.124    99987882.669        -836.586          36.000    19027091.241    77912738.636        -651.437          35.000  
G15  18456608.791    96990190.903        3710.180          40.000    18456626.868    75576870.443        2891.797          39.000  
G29  19119632.294   100474380.710        3453.811          38.000    19119641.541    78291842.182        2691.406          36.000  
G13  16613137.580    87302818.063        2597.345          45.000                                                                  
> 2025 04 18 09 32 26.9850000  0 10                     
G19  19550451.945   102738132.428       -3444.091          33.000                                                                  
G11  17616962.145    92577757.747        -284.402          43.000    17616969.172    72138643.068        -221.471          44.000  
G20  17087817.239    89797092.097       -1458.834          43.000                                                                  
G05  16392994.863    86145844.238         -67.499          46.000    16392999.987    67126887.457         -52.557          45.000  
G06  19294206.589   101391639.469       -1136.121          36.000    19294224.044    79006599.579        -885.229          38.000  
G12  18596787.931    97726664.633       -2043.106          40.000    18596803.830    76150864.055       -1591.984          38.000  
G25  19027230.308    99988719.248        -836.428          37.000    19027250.527    77913390.518        -652.064          35.000  
G15  18455902.710    96986480.364        3710.521          39.000    18455920.698    75573979.160        2891.194          39.000  
G29  19118975.061   100470926.746        3453.931          38.000    19118984.221    78289150.771        2691.411          36.000  
G13  16612643.398    87300220.908        2596.901          45.000                                                                  
> 2025 04 18 09 32 27.9850000  0 10                     
G19  19551107.278   102741576.614       -3444.135          33.000                                                                  
G11  17617016.345    92578042.217        -284.399          43.000    17617023.337    72138864.734        -221.604          44.000  
G20  17088094.764    89798550.946       -1458.800          43.000                                                                  
G05  16393007.576    86145911.903         -67.664          46.000    16393012.866    67126940.190         -52.820          45.000  
G06  19294422.777   101392775.320       -1135.944          36.000    19294440.262    79007484.665        -885.120          38.000  
G12  18597176.682    97728707.717       -2043.253          40.000    18597192.595    76152456.068       -1591.860          38.000  
G25  19027389.677    99989556.317        -837.159          37.000    19027409.821    77914042.770        -652.413          35.000  
G15  18455196.598    96982770.070        3710.513          40.000    18455214.679    75571088.028        2891.295          39.000  
G29  19118317.789   100467473.041        3453.675          38.000    19118327.059    78286459.590        2691.180          36.000  
G13  16612149.229    87297624.257        2596.585          45.000                                                                  
> 2025 04 18 09 32 28.9850000  0 10                     
G19  19551762.729   102745020.969       -3444.785          33.000                                                                  
G11  17617070.507    92578326.756        -284.866          43.000    17617077.537    72139086.456        -222.065          44.000  
G20  17088372.349    89800009.818       -1459.283          44.000                                                                  
G05  16393020.419    86145979.852         -68.243          46.000    16393025.821    67126993.145         -53.223          45.000  
G06  19294638.904   101393911.267       -1136.084          36.000    19294656.408    79008369.829        -885.907          38.000  
G12  18597565.503    97730750.991       -2043.606          40.000    18597581.365    76154048.210       -1592.272          38.000  
G25  19027549.068    99990393.731        -837.863          37.000    19027569.219    77914695.259        -652.386          35.000  
G15  18454490.584    96979059.925        3710.005          40.000    18454508.658    75568197.026        2890.978          39.000  
G29  19117660.560   100464019.438        3453.453          39.000    19117669.900    78283768.486        2690.803          36.000  
G13  16611655.178    87295028.001        2595.764          45.000                                                                  
> 2025 04 18 09 32 29.9850000  0 10                     
G19  19552418.157   102748465.514       -3444.514          33.000                                                                  
G11  17617124.691    92578611.419        -284.881          43.000    17617131.598    72139308.271        -222.054          44.000  
G20  17088649.938    89801468.757       -1459.079          44.000                                                                  
G05  16393033.531    86146048.158         -68.597          46.000    16393038.755    67127046.369         -53.461          45.000  
G06  19294855.019   101395047.358       -1136.090          37.000    19294872.607    79009255.062        -885.541          38.000  
G12  18597954.442    97732794.454       -2043.502          41.000    18597970.245    76155640.528       -1592.825          38.000  
G25  19027708.562    99991231.502        -837.742          36.000    19027728.635    77915348.095        -653.262          34.000  
G15  18453784.708    96975349.934        3709.936          40.000    18453802.718    75565306.151        2890.724          39.000  
G29  19117003.389   100460566.028        3453.259          38.000    19117012.690    78281077.524        2690.963          36.000  
G13  16611161.167    87292432.186        2595.461          45.000                                                                  
> 2025 04 18 09 32 30.9850000  0 10                     
G19  19553073.628   102751910.261       -3444.743          33.000                                                                  
G11  17617178.827    92578896.199        -284.771          43.000    17617185.836    72139530.173        -221.865          44.000  
G20  17088927.545    89802927.779       -1459.116          44.000                                                                  
G05  16393046.539    86146116.789         -68.799          46.000    16393051.774    67127099.851         -53.693          45.000  
G06  19295071.155   101396183.571       -1136.090          37.000    19295088.856    79010140.411        -885.596          38.000  
G12  18598343.328    97734838.157       -2043.613          40.000    18598359.234    76157232.997       -1592.606          38.000  
G25  19027868.167    99992069.674        -837.812          36.000    19027888.160    77916001.217        -653.241          35.000  
G15  18453078.869    96971640.169        3709.635          40.000    18453096.675    75562415.403        2890.840          39.000  
G29  19116346.222   100457112.807        3453.000          38.000    19116355.545    78278386.693        2691.050          36.000  
G13  16610667.333    87289836.809        2595.140          45.000                                                                  
> 2025 04 18 09 32 31.9850000  0 10                     
G19  19553729.302   102755355.356       -3445.728          33.000                                                                  
G11  17617232.998    92579181.231        -284.968          43.000    17617240.092    72139752.279        -222.264          44.000  
G20  17089205.283    89804386.996       -1459.224          44.000                                                                  
G05  16393059.611    86146185.885         -69.244          46.000    16393064.952    67127153.693         -53.857          45.000  
G06  19295287.546   101397320.069       -1136.395          37.000    19295305.167    79011025.951        -885.632          38.000  
G12  18598732.258    97736882.189       -2044.021          40.000    18598748.290    76158825.726       -1592.487          38.000  
G25  19028027.854    99992908.366        -838.247          36.000    19028047.653    77916654.728        -653.670          35.000  
G15  18452373.025    96967930.664        3709.546          40.000    18452390.737    75559524.917        2890.496          39.000  
G29  19115689.204   100453659.881        3452.740          39.000    19115698.529    78275696.115        2690.448          36.000  
G13  16610173.600    87287242.019        2594.541          45.000                                                                  
> 2025 04 18 09 32 32.9850000  0 10                     
G19  19554384.989   102758800.427       -3444.880          33.000                                                                  
G11  17617287.146    92579466.214        -284.819          43.000    17617294.258    72139974.331        -221.877          44.000  
G20  17089482.848    89805846.110       -1458.952          43.000                                                                  
G05  16393072.863    86146255.147         -69.385          46.000    16393078.093    67127207.665         -53.906          45.000  
G06  19295503.928   101398456.491       -1136.188          37.000    19295521.435    79011911.481        -885.608          38.000  
G12  18599121.157    97738926.272       -2044.177          40.000    18599137.314    76160418.536       -1593.068          38.000  
G25  19028187.532    99993747.323        -839.224          37.000    19028207.385    77917308.425        -653.822          35.000  
G15  18451667.119    96964221.183        3709.281          39.000    18451684.884    75556634.411        2890.556          39.000  
G29  19115032.119   100450206.936        3452.969          39.000    19115041.357    78273005.508        2690.914          36.000  
G13  16609679.736    87284647.492        2594.353          45.000                                                                  
> 2025 04 18 09 32 33.9850000  0 10                     
G19  19555040.623   102762245.762       -3445.071          33.000                                                                  
G11  17617341.368    92579751.327        -285.187          43.000    17617348.614    72140196.510        -222.277          44.000  
G20  17089760.527    89807305.333       -1459.290          43.000                                                                  
G05  16393086.161    86146324.745         -69.720          46.000    16393091.375    67127261.899         -54.242          45.000  
G06  19295720.127   101399593.091       -1136.938          37.000    19295737.806    79012797.117        -885.675          38.000  
G12  18599510.259    97740970.590       -2044.840          40.000    18599526.366    76162011.484       -1593.055          38.000  
G25  19028347.311    99994586.590        -839.548          37.000    19028367.080    77917962.384        -653.677          35.000  
G15  18450961.344    96960511.887        3709.056          40.000    18450979.059    75553744.078        2890.044          39.000  
G29  19114375.013   100446754.210        3452.489          38.000    19114384.272    78270315.076        2690.381          36.000  
G13  16609186.071    87282053.427        2593.739          45.000                                                                  
> 2025 04 18 09 32 34.9850000  0 10                     
G19  19555696.281   102765691.295       -3445.217          33.000                                                                  
G11  17617395.720    92580036.616        -285.600          43.000    17617402.914    72140418.796        -222.442          44.000  
G20  17090038.328    89808764.657       -1459.594          43.000                                                                  
G05  16393099.332    86146394.738         -70.349          46.000    16393104.582    67127316.446         -54.773          45.000  
G06  19295936.447   101400729.821       -1136.902          37.000    19295954.137    79013682.885        -885.950          38.000  
G12  18599899.287    97743015.156       -2044.995          40.000    18599915.466    76163604.666       -1593.766          38.000  
G25  19028506.994    99995426.368        -840.086          37.000    19028526.924    77918616.746        -654.702          35.000  
G15  18450255.529    96956802.828        3708.688          40.000    18450273.185    75550853.888        2890.223          39.000  
G29  19113718.102   100443301.677        3452.392          38.000    19113727.244    78267624.806        2690.149          35.000  
G13  16608692.462    87279459.847        2593.083          45.000                                                                  
> 2025 04 18 09 32 35.9850000  0 10                     
G19  19556352.084   102769137.147       -3446.007          33.000                                                                  
G11  17617449.995    92580322.096        -285.760          43.000    17617457.180    72140641.248        -222.481          44.000  
G20  17090316.116    89810224.135       -1459.584          43.000                                                                  
G05  16393112.701    86146465.148         -70.734          46.000    16393118.021    67127371.325         -55.481          45.000  
G06  19296152.719   101401866.804       -1137.274          37.000    19296170.498    79014568.821        -886.176          38.000  
G12  18600288.406    97745060.005       -2045.084          40.000    18600304.634    76165198.034       -1593.517          38.000  
G25  19028666.841    99996266.545        -839.557          36.000    19028686.841    77919271.456        -654.732          35.000  
G15  18449549.777    96953094.018        3708.619          40.000    18449567.366    75547963.932        2889.617          39.000  
G29  19113061.165   100439849.427        3451.853          38.000    19113070.185    78264934.743        2689.682          35.000  
G13  16608199.054    87276866.787        2592.629          45.000                                                                  
> 2025 04 18 09 32 36.9850000  0 10                     
G19  19557007.877   102772583.210       -3445.405          33.000                                                                  
G11  17617504.282    92580607.734        -285.505          43.000    17617511.453    72140863.827        -222.475          44.000  
G20  17090593.869    89811683.735       -1459.504          43.000                                                                  
G05  16393126.202    86146535.922         -70.728          46.000    16393131.568    67127426.469         -55.304          45.000  
G06  19296369.139   101403003.944       -1136.920          37.000    19296386.890    79015454.891        -886.017          38.000  
G12  18600677.581    97747105.125       -2044.767          40.000    18600693.897    76166791.610       -1593.521          38.000  
G25  19028826.727    99997107.235        -840.875          37.000    19028846.764    77919926.463        -655.179          35.000  
G15  18448844.171    96949385.418        3708.935          39.000    18448861.545    75545074.130        2889.970          38.000  
G29  19112404.268   100436397.371        3452.050          38.000    19112413.188    78262244.798        2690.649          35.000  
G13  16607705.834    87274274.201        2592.557          45.000                                                                  
> 2025 04 18 09 32 37.9850000  0 10                     
G19  19557663.579   102776029.463       -3446.635          33.000                                                                  
G11  17617558.680    92580893.427        -286.109          43.000    17617565.907    72141086.447        -223.014          44.000  
G20  17090871.532    89813143.322       -1459.926          43.000                                                                  
G05  16393139.656    86146606.971         -71.631          46.000    16393145.081    67127481.825         -55.817          45.000  
G06  19296585.552   101404141.129       -1137.573          37.000    19296603.337    79016340.997        -886.224          38.000  
G12  18601066.854    97749150.389       -2045.809          40.000    18601083.068    76168385.299       -1593.880          38.000  
G25  19028986.841    99997948.164        -841.236          36.000    19029006.832    77920581.753        -655.579          35.000  
G15  18448138.526    96945676.933        3708.120          39.000    18448155.851    75542184.407        2889.501          39.000  
G29  19111747.447   100432945.413        3451.683          38.000    19111756.346    78259554.980        2689.677          35.000  
G13  16607212.507    87271681.992        2591.733          45.000                                                                  
> 2025 04 18 09 32 38.9850000  0 10                     
G19  19558319.532   102779476.041       -3446.552          33.000                                                                  
G11  17617613.217    92581179.436        -286.231          43.000    17617620.285    72141309.304        -222.969          44.000  
G20  17091149.343    89814603.190       -1460.126          43.000                                                                  
G05  16393153.229    86146678.532         -71.893          46.000    16393158.772    67127537.591         -56.024          45.000  
G06  19296802.102   101405278.670       -1137.988          37.000    19296819.836    79017227.390        -886.743          38.000  
G12  18601456.068    97751196.038       -2045.665          40.000    18601472.373    76169979.332       -1594.281          38.000  
G25  19029146.977    99998789.747        -842.351          36.000    19029166.909    77921237.511        -656.253          35.000  
G15  18447432.791    96941968.815        3708.010          39.000    18447450.123    75539294.962        2889.713          39.000  
G29  19111090.646   100429493.854        3451.192          39.000    19111099.531    78256865.493        2689.034          35.000  
G13  16606719.337    87269090.434        2591.156          45.000                                                                  
> 2025 04 18 09 32 39.9850000  0 10                     
G19  19558975.456   102782922.954       -3447.521          33.000                                                                  
G11  17617667.710    92581465.648        -286.557          43.000    17617674.713    72141532.327        -223.219          44.000  
G20  17091427.241    89816063.208       -1460.134          43.000                                                                  
G05  16393166.963    86146750.523         -72.290          46.000    16393172.394    67127593.688         -56.207          45.000  
G06  19297018.586   101406416.400       -1137.726          36.000    19297036.356    79018113.907        -886.523          38.000  
G12  18601845.400    97753242.024       -2046.262          40.000    18601861.718    76171573.564       -1594.024          38.000  
G25  19029307.165    99999631.731        -841.876          37.000    19029327.189    77921893.591        -656.268          35.000  
G15  18446727.149    96938260.964        3707.606          40.000    18446744.557    75536405.757        2889.144          39.000  
G29  19110433.847   100426042.540        3451.103          39.000    19110442.681    78254176.112        2689.874          35.000  
G13  16606226.276    87266499.392        2590.618          45.000                                                                  
> 2025 04 18 09 32 40.9850000  0 10                     
G19  19559631.440   102786370.195       -3447.562          33.000                                                                  
G11  17617722.277    92581752.115        -286.508          43.000    17617729.277    72141755.552        -223.412          44.000  
G20  17091705.115    89817523.445       -1460.262          43.000                                                                  
G05  16393180.718    86146822.995         -72.736          46.000    16393186.295    67127650.164         -56.677          45.000  
G06  19297235.147   101407554.412       -1138.037          36.000    19297252.907    79019000.671        -886.835          38.000  
G12  18602234.857    97755288.341       -2046.424          40.000    18602251.193    76173168.101       -1594.548          38.000  
G25  19029467.486   100000474.277        -842.588          36.000    19029487.419    77922550.091        -656.501          35.000  
G15  18446021.707    96934553.448        3707.175          39.000    18446039.004    75533516.784        2889.037          38.000  
G29  19109777.150   100422591.538        3451.014          39.000    19109785.961    78251487.051        2689.372          35.000  
G13  16605733.308    87263908.954        2589.993          45.000                                                                  
> 2025 04 18 09 32 41.9850000  0 10                     
G19  19560287.339   102789817.513       -3447.417          33.000                                                                  
G11  17617776.789    92582038.621        -286.711          43.000    17617783.780    72141978.811        -223.699          44.000  
G20  17091983.001    89818983.687       -1460.494          43.000                                                                  
G05  16393194.606    86146895.715         -72.974          46.000    16393200.193    67127706.842         -57.141          45.000  
G06  19297451.824   101408692.477       -1138.300          36.000    19297469.512    79019887.443        -886.707          38.000  
G12  18602624.257    97757334.806       -2046.880          40.000    18602640.658    76174762.728       -1594.834          38.000  
G25  19029628.028   100001317.138        -842.800          37.000    19029647.846    77923206.855        -657.268          35.000  
G15  18445316.140    96930846.020        3707.020          40.000    18445333.498    75530627.878        2888.805          38.000  
G29  19109120.342   100419140.642        3450.645          38.000    19109129.221    78248798.048        2688.781          35.000  
G13  16605240.433    87261318.864        2589.615          45.000                                                                  
> 2025 04 18 09 32 42.9850000  0 10                     
G19  19560943.353   102793265.022       -3447.580          33.000                                                                  
G11  17617831.291    92582325.208        -286.538          43.000    17617838.309    72142202.099        -223.160          44.000  
G20  17092260.896    89820443.932       -1460.274          43.000                                                                  
G05  16393208.496    86146968.718         -73.016          46.000    16393214.116    67127763.718         -56.879          45.000  
G06  19297668.403   101409830.609       -1137.994          36.000    19297686.040    79020774.283        -886.646          38.000  
G12  18603013.729    97759381.403       -2046.558          40.000    18603030.152    76176357.467       -1594.724          38.000  
G25  19029788.524   100002160.338        -843.662          37.000    19029808.329    77923863.864        -657.224          35.000  
G15  18444610.669    96927138.705        3707.192          40.000    18444627.984    75527739.086        2888.844          38.000  
G29  19108463.627   100415689.861        3450.773          38.000    19108472.619    78246109.114        2689.044          35.000  
G13  16604747.712    87258729.170        2589.512          45.000                                                                  
> 2025 04 18 09 32 43.9850000  0 10                     
G19  19561599.331   102796712.392       -3447.214          33.000                                                                  
G11  17617885.844    92582611.609        -286.439          43.000    17617892.867    72142425.266        -223.139          44.000  
G20  17092538.721    89821903.951       -1459.903          43.000                                                                  
G05  16393222.385    86147041.750         -73.083          46.000    16393227.974    67127820.635         -57.068          45.000  
G06  19297884.968   101410968.570       -1138.049          36.000    19297902.610    79021661.010        -886.658          38.000  
G12  18603403.144    97761427.922       -2046.535          40.000    18603419.556    76177952.153       -1594.785          38.000  
G25  19029949.020   100003003.591        -843.500          37.000    19029968.800    77924520.966        -657.270          35.000  
G15  18443905.184    96923431.247        3707.544          40.000    18443922.498    75524850.175        2888.829          38.000  
G29  19107806.993   100412238.947        3450.970          38.000    19107815.917    78243420.123        2688.806          35.000  
G13  16604255.025    87256139.626        2589.351          45.000                                                                  
> 2025 04 18 09 32 44.9850000  0 10                     
G19  19562255.336   102800160.087       -3448.149          33.000                                                                  
G11  17617940.354    92582898.198        -286.915          43.000    17617947.374    72142648.588        -223.430          44.000  
G20  17092816.572    89823364.114       -1460.230          43.000                                                                  
G05  16393236.355    86147115.189         -73.706          46.000    16393241.809    67127877.863         -57.385          45.000  
G06  19298101.480   101412106.737       -1138.342          36.000    19298119.214    79022547.876        -886.774          38.000  
G12  18603792.615    97763474.721       -2046.949          41.000    18603809.105    76179547.077       -1595.291          38.000  
G25  19030109.592   100003847.304        -843.687          37.000    19030129.434    77925178.405        -657.821          35.000  
G15  18443199.760    96919724.060        3707.358          40.000    18443216.922    75521961.485        2888.386          38.000  
G29  19107150.291   100408788.303        3450.303          38.000    19107159.256    78240731.270        2689.194          35.000  
G13  16603762.235    87253550.599        2588.636          45.000                                                                  
> 2025 04 18 09 32 45.9850000  0 10                     
G19  19562911.442   102803608.021       -3448.138          33.000                                                                  
G11  17617995.007    92583185.019        -286.851          43.000    17618001.978    72142872.083        -223.442          44.000  
G20  17093094.504    89824824.467       -1460.412          43.000                                                                  
G05  16393250.350    86147189.075         -73.877          46.000    16393255.889    67127935.447         -57.788          45.000  
G06  19298318.101   101413245.167       -1138.873          36.000    19298335.920    79023434.946        -887.317          38.000  
G12  18604182.182    97765521.865       -2047.257          41.000    18604198.750    76181142.219       -1595.348          38.000  
G25  19030270.257   100004691.552        -844.252          36.000    19030290.138    77925836.255        -658.157          35.000  
G15  18442494.293    96916017.203        3706.545          40.000    18442511.604    75519072.995        2888.544          39.000  
G29  19106493.665   100405337.931        3450.274          38.000    19106502.631    78238042.698        2688.570          35.000  
G13  16603269.643    87250962.134        2588.305          45.000                                                                  
> 2025 04 18 09 32 46.9850000  0 10                     
G19  19563567.531   102807056.163       -3447.889          33.000                                                                  
G11  17618049.548    92583471.920        -286.813          43.000    17618056.558    72143095.651        -223.477          44.000  
G20  17093372.466    89826284.857       -1460.240          43.000                                                                  
G05  16393264.406    86147263.255         -74.225          46.000    16393269.952    67127993.247         -57.831          45.000  
G06  19298534.758   101414383.638       -1138.013          36.000    19298552.538    79024322.072        -887.256          38.000  
G12  18604571.759    97767569.178       -2047.313          41.000    18604588.253    76182737.504       -1595.051          38.000  
G25  19030431.061   100005536.133        -844.618          37.000    19030450.772    77926494.331        -658.037          34.000  
G15  18441789.036    96912310.434        3706.884          40.000    18441806.130    75516184.621        2888.766          38.000  
G29  19105837.050   100401887.700        3450.406          38.000    19105846.169    78235354.223        2688.632          35.000  
G13  16602777.123    87248374.075        2588.005          45.000                                                                  
> 2025 04 18 09 32 47.9850000  0 10                     
G19  19564223.763   102810504.411       -3448.650          33.000                                                                  
G11  17618104.155    92583758.856        -286.896          43.000    17618111.230    72143319.233        -223.500          44.000  
G20  17093650.276    89827745.219       -1460.328          43.000                                                                  
G05  16393278.703    86147337.676         -74.518          46.000    16393284.131    67128051.234         -58.075          45.000  
G06  19298751.299   101415522.192       -1138.416          36.000    19298769.248    79025209.231        -886.957          38.000  
G12  18604961.521    97769616.607       -2047.549          41.000    18604977.927    76184332.904       -1595.354          38.000  
G25  19030591.805   100006381.028        -845.083          37.000    19030611.446    77927152.688        -658.597          35.000  
G15  18441083.685    96908603.762        3706.603          40.000    18441100.782    75513296.332        2887.956          38.000  
G29  19105180.420   100398437.548        3450.066          38.000    19105189.608    78232665.796        2688.366          36.000  
G13  16602284.740    87245786.366        2587.509          45.000                                                                  
> 2025 04 18 09 32 48.9850000  0 10                     
G19  19564879.948   102813952.742       -3449.048          34.000                                                                  
G11  17618158.799    92584045.810        -287.111          43.000    17618165.811    72143542.817        -223.565          44.000  
G20  17093928.104    89829205.535       -1460.229          43.000                                                                  
G05  16393292.935    86147412.305         -74.750          46.000    16393298.273    67128109.391         -58.350          45.000  
G06  19298967.989   101416660.762       -1138.708          36.000    19298985.823    79026096.420        -887.567          38.000  
G12  18605351.165    97771664.135       -2047.672          40.000    18605367.538    76185928.371       -1595.664          38.000  
G25  19030752.556   100007226.169        -845.331          37.000    19030772.351    77927811.224        -658.601          35.000  
G15  18440378.284    96904897.156        3706.656          40.000    18440395.552    75510408.068        2888.335          38.000  
G29  19104523.838   100394987.455        3450.164          38.000    19104533.138    78229977.417        2688.693          35.000  
G13  16601792.411    87243198.976        2587.303          45.000                                                                  
> 2025 04 18 09 32 49.9850000  0 10                     
G19  19565536.198   102817401.203       -3449.104          34.000                                                                  
G11  17618213.516    92584332.832        -287.105          43.000    17618220.316    72143766.485        -223.856          44.000  
G20  17094205.981    89830665.904       -1460.524          43.000                                                                  
G05  16393307.145    86147487.245         -75.146          46.000    16393312.568    67128167.789         -58.545          45.000  
G06  19299184.738   101417799.405       -1138.617          36.000    19299202.480    79026983.670        -887.268          38.000  
G12  18605740.796    97773711.825       -2047.705          40.000    18605757.115    76187523.979       -1595.734          38.000  
G25  19030913.537   100008071.698        -846.660          37.000    19030933.281    77928470.051        -658.804          35.000  
G15  18439672.991    96901190.709        3706.157          40.000    18439690.243    75507519.933        2887.980          38.000  
G29  19103867.365   100391537.519        3450.033          38.000    19103876.636    78227289.162        2688.554          36.000  
G13  16601300.098    87240612.012        2586.617          45.000                                                                  
> 2025 04 18 09 32 50.9850000  0 10                     
G19  19566192.451   102820849.876       -3449.507          33.000                                                                  
G11  17618268.216    92584619.942        -287.066          43.000    17618274.971    72143990.206        -223.752          44.000  
G20  17094483.913    89832126.303       -1460.371          43.000                                                                  
G05  16393321.388    86147562.487         -75.476          46.000    16393326.942    67128226.423         -58.783          45.000  
G06  19299401.421   101418938.165       -1138.867          36.000    19299419.098    79027870.994        -887.415          38.000  
G12  18606130.522    97775759.715       -2047.915          40.000    18606146.931    76189119.712       -1595.859          38.000  
G25  19031074.534   100008917.505        -845.684          37.000    19031094.274    77929129.157        -659.674          35.000  
G15  18438967.636    96897484.391        3706.188          40.000    18438984.935    75504631.917        2887.990          39.000  
G29  19103210.937   100388087.741        3449.410          38.000    19103220.113    78224601.009        2688.536          35.000  
G13  16600807.871    87238025.448        2586.307          45.000                                                                  
> 2025 04 18 09 32 51.9850000  0 10                     
G19  19566848.707   102824298.680       -3448.607          33.000                                                                  
G11  17618322.751    92584907.191        -287.208          43.000    17618329.766    72144214.029        -223.834          44.000  
G20  17094761.777    89833586.791       -1460.447          43.000                                                                  
G05  16393335.830    86147638.066         -75.647          46.000    16393341.274    67128285.318         -58.911          45.000  
G06  19299618.073   101420077.047       -1138.629          36.000    19299635.769    79028758.457        -887.756          38.000  
G12  18606520.155    97777807.810       -2047.820          40.000    18606536.683    76190715.620       -1595.877          38.000  
G25  19031235.568   100009763.781        -846.226          37.000    19031255.322    77929788.540        -659.220          35.000  
G15  18438262.354    96893778.245        3706.332          40.000    18438279.696    75501744.027        2888.283          39.000  
G29  19102554.447   100384638.106        3449.672          38.000    19102563.729    78221913.011        2687.751          36.000  
G13  16600315.732    87235439.339        2585.874          45.000                                                                  
> 2025 04 18 09 32 52.9850000  0 10                     
G19  19567505.028   102827747.818       -3449.196          34.000                                                                  
G11  17618377.474    92585194.603        -287.463          43.000    17618384.490    72144437.992        -223.977          44.000  
G20  17095039.776    89835047.422       -1460.911          43.000                                                                  
G05  16393350.400    86147714.046         -76.184          46.000    16393355.732    67128344.530         -59.528          45.000  
G06  19299834.751   101421216.123       -1138.739          36.000    19299852.580    79029646.021        -887.469          38.000  
G12  18606910.008    97779856.196       -2048.619          40.000    18606926.536    76192311.747       -1596.022          38.000  
G25  19031396.689   100010610.463        -846.690          37.000    19031416.502    77930448.305        -660.418          35.000  
G15  18437557.186    96890072.372        3705.709          39.000    18437574.470    75498856.350        2887.630          39.000  
G29  19101897.970   100381188.737        3449.174          38.000    19101907.373    78219225.191        2687.545          36.000  
G13  16599823.719    87232853.726        2585.405          45.000                                                                  
> 2025 04 18 09 32 53.9850000  0 10                     
G19  19568161.421   102831197.124       -3449.258          34.000                                                                  
G11  17618432.119    92585482.141        -287.438          43.000    17618439.199    72144662.051        -224.005          44.000  
G20  17095317.734    89836508.087       -1460.608          43.000                                                                  
G05  16393364.840    86147790.361         -76.453          46.000    16393370.275    67128403.991         -59.485          45.000  
G06  19300051.413   101422355.338       -1139.325          36.000    19300069.438    79030533.734        -888.416          38.000  
G12  18607299.800    97781904.789       -2048.756          40.000    18607316.373    76193908.033       -1596.125          38.000  
G25  19031557.932   100011457.557        -846.912          37.000    19031577.739    77931108.332        -660.051          35.000  
G15  18436852.013    96886366.646        3705.733          39.000    18436869.311    75495968.791        2887.576          39.000  
G29  19101241.570   100377739.536        3449.258          38.000    19101251.007    78216537.515        2687.968          36.000  
G13  16599331.707    87230268.568        2584.854          45.000                                                                  
> 2025 04 18 09 32 54.9850000  0 10                     
G19  19568817.914   102834646.770       -3449.985          34.000                                                                  
G11  17618486.934    92585769.953        -287.885          43.000    17618493.995    72144886.315        -224.482          44.000  
G20  17095595.773    89837968.978       -1461.079          43.000                                                                  
G05  16393379.395    86147867.141         -77.069          46.000    16393384.975    67128463.829         -60.175          45.000  
G06  19300268.235   101423494.836       -1139.703          36.000    19300286.172    79031421.601        -887.823          38.000  
G12  18607689.637    97783953.718       -2048.968          40.000    18607706.247    76195504.624       -1597.142          38.000  
G25  19031719.152   100012305.161        -847.873          37.000    19031739.095    77931768.828        -661.241          35.000  
G15  18436146.846    96882661.258        3705.233          40.000    18436164.320    75493081.491        2887.016          39.000  
G29  19100585.341   100374290.640        3448.859          38.000    19100594.747    78213850.075        2687.477          36.000  
G13  16598839.855    87227683.975        2584.344          45.000                                                                  
> 2025 04 18 09 32 55.9850000  0 10                     
G19  19569474.431   102838096.626       -3449.124          34.000                                                                  
G11  17618541.679    92586057.939        -287.773          43.000    17618548.738    72145110.710        -224.286          44.000  
G20  17095873.727    89839430.011       -1460.776          43.000                                                                  
G05  16393394.222    86147944.313         -77.185          46.000    16393399.715    67128523.968         -60.229          45.000  
G06  19300484.972   101424634.516       -1139.722          36.000    19300503.056    79032309.647        -888.025          38.000  
G12  18608079.638    97786002.934       -2049.156          40.000    18608096.272    76197101.408       -1597.173          38.000  
G25  19031880.423   100013153.202        -848.022          37.000    19031900.423    77932429.619        -660.906          35.000  
G15  18435441.778    96878956.102        3705.209          40.000    18435459.234    75490194.357        2887.139          39.000  
G29  19099929.040   100370842.014        3448.535          38.000    19099938.562    78211162.813        2687.836          36.000  
G13  16598348.137    87225099.911        2584.034          45.000                                                                  
> 2025 04 18 09 32 56.9850000  0 10                     
G19  19570130.937   102841546.585       -3449.458          34.000                                                                  
G11  17618596.517    92586345.888        -287.892          43.000    17618603.619    72145335.084        -224.274          44.000  
G20  17096151.713    89840890.947       -1460.648          43.000                                                                  
G05  16393408.971    86148021.669         -77.289          46.000    16393414.362    67128584.240         -60.248          45.000  
G06  19300701.867   101425774.141       -1139.539          36.000    19300719.957    79033197.660        -887.561          38.000  
G12  18608469.689    97788052.187       -2049.053          40.000    18608486.237    76198698.187       -1596.712          38.000  
G25  19032041.912   100014001.501        -848.353          37.000    19032061.896    77933090.592        -660.845          35.000  
G15  18434736.657    96875250.960        3705.349          40.000    18434754.171    75487307.251        2887.275          39.000  
G29  19099272.804   100367393.381        3448.841          38.000    19099282.325    78208475.595        2687.194          35.000  
G13  16597856.417    87222516.122        2583.826          45.000                                                                  
> 2025 04 18 09 32 57.9850000  0 10                     
G19  19570787.630   102844996.760       -3450.742          34.000                                                                  
G11  17618651.363    92586633.956        -288.217          43.000    17618658.481    72145559.561        -224.717          44.000  
G20  17096429.839    89842351.968       -1461.165          43.000                                                                  
G05  16393423.815    86148099.359         -78.033          46.000    16393429.071    67128644.782         -60.767          45.000  
G06  19300918.692   101426913.934       -1139.960          36.000    19300936.894    79034085.802        -888.312          38.000  
G12  18608859.683    97790101.666       -2049.558          40.000    18608876.315    76200295.186       -1597.020          38.000  
G25  19032203.354   100014850.172        -848.424          37.000    19032223.470    77933751.879        -661.179          35.000  
G15  18434031.698    96871546.023        3704.775          40.000    18434049.161    75484420.287        2886.988          39.000  
G29  19098616.611   100363944.929        3448.445          39.000    19098626.198    78205788.500        2687.037          35.000  
G13  16597364.796    87219932.783        2583.120          45.000                                                                  
> 2025 04 18 09 32 58.9850000  0 10                     
G19  19571444.223   102848447.173       -3450.792          33.000                                                                  
G11  17618706.194    92586922.219        -288.323          43.000    17618713.386    72145784.174        -224.718          44.000  
G20  17096707.974    89843813.127       -1461.159          43.000                                                                  
G05  16393438.692    86148177.456         -78.394          46.000    16393444.019    67128705.636         -61.035          45.000  
G06  19301135.636   101428053.918       -1140.082          36.000    19301153.836    79034974.092        -888.678          38.000  
G12  18609249.781    97792151.431       -2049.942          40.000    18609266.493    76201892.385       -1597.423          38.000  
G25  19032365.036   100015699.294        -849.396          37.000    19032385.036    77934413.525        -661.551          35.000  
G15  18433326.672    96867841.325        3704.481          40.000    18433344.042    75481533.520        2886.509          38.000  
G29  19097960.471   100360496.750        3447.955          39.000    19097969.977    78203101.602        2686.662          35.000  
G13  16596873.365    87217349.959        2582.504          45.000                                                                  
> 2025 04 18 09 32 59.9850000  0 10                     
G19  19572100.815   102851897.756       -3450.565          33.000                                                                  
G11  17618761.101    92587210.586        -288.252          43.000    17618768.292    72146008.880        -224.751          44.000  
G20  17096986.041    89845274.348       -1461.044          43.000                                                                  
G05  16393453.582    86148255.864         -78.406          46.000    16393458.888    67128766.738         -61.090          45.000  
G06  19301352.644   101429193.994       -1139.825          36.000    19301370.735    79035862.432        -887.921          38.000  
G12  18609639.898    97794201.370       -2049.703          40.000    18609656.587    76203489.744       -1597.152          38.000  
G25  19032526.660   100016548.816        -849.819          37.000    19032546.679    77935075.459        -661.797          35.000  
G15  18432621.723    96864136.796        3704.565          40.000    18432638.987    75478646.880        2886.787          38.000  
G29  19097304.258   100357048.707        3448.101          39.000    19097313.814    78200414.832        2686.730          35.000  
G13  16596381.917    87214767.562        2582.314          45.000                                                                  
> 2025 04 18 09 33 00.9850000  0 10                     
G19  19572757.418   102855348.405       -3450.385          34.000                                                                  
G11  17618816.049    92587498.977        -288.399          43.000    17618823.216    72146233.596        -224.892          44.000  
G20  17097264.028    89846735.547       -1461.263          43.000                                                                  
G05  16393468.611    86148334.512         -78.851          46.000    16393473.919    67128828.024         -61.395          45.000  
G06  19301569.637   101430334.138       -1140.417          36.000    19301587.639    79036750.846        -888.190          38.000  
G12  18610030.027    97796251.441       -2049.863          40.000    18610046.697    76205087.201       -1597.726          38.000  
G25  19032688.412   100017398.570        -849.915          37.000    19032708.356    77935737.625        -661.978          35.000  
G15  18431916.846    96860432.332        3704.525          40.000    18431933.948    75475760.317        2886.356          39.000  
G29  19096648.118   100353600.759        3447.936          39.000    19096657.786    78197728.115        2686.552          36.000  
G13  16595890.627    87212185.512        2581.746          45.000                                                                  
> 2025 04 18 09 33 01.9850000  0 10                     
G19  19573414.107   102858799.384       -3451.192          34.000                                                                  
G11  17618870.969    92587787.558        -288.806          44.000    17618878.087    72146458.448        -224.977          44.000  
G20  17097542.163    89848196.885       -1461.683          43.000                                                                  
G05  16393483.554    86148413.564         -79.285          46.000    16393488.910    67128889.627         -61.719          45.000  
G06  19301786.675   101431474.454       -1140.448          36.000    19301804.660    79037639.387        -888.422          38.000  
G12  18610420.218    97798301.772       -2050.398          40.000    18610436.834    76206684.842       -1597.988          38.000  
G25  19032850.188   100018248.836        -850.926          37.000    19032870.186    77936400.132        -662.956          35.000  
G15  18431211.964    96856728.129        3703.834          40.000    18431229.090    75472873.911        2886.217          39.000  
G29  19095992.028   100350153.036        3447.749          39.000    19096001.668    78195041.566        2686.664          36.000  
G13  16595399.364    87209603.972        2581.159          45.000                                                                  
> 2025 04 18 09 33 02.9850000  0 10                     
G19  19574070.933   102862250.515       -3451.840          34.000                                                                  
G11  17618925.922    92588076.224        -288.720          43.000    17618932.954    72146683.391        -224.945          44.000  
G20  17097820.150    89849658.258       -1461.493          43.000                                                                  
G05  16393498.608    86148492.921         -79.474          46.000    16393503.960    67128951.468         -62.018          45.000  
G06  19302003.838   101432614.896       -1140.723          36.000    19302021.673    79038528.036        -888.892          38.000  
G12  18610810.376    97800352.313       -2050.678          40.000    18610827.019    76208282.645       -1597.967          38.000  
G25  19033012.131   100019099.408        -850.460          37.000    19033032.090    77937062.943        -663.100          35.000  
G15  18430507.119    96853024.062        3704.168          40.000    18430524.313    75469987.672        2885.791          39.000  
G29  19095336.050   100346705.480        3447.640          39.000    19095345.642    78192355.186        2686.339          35.000  
G13  16594908.174    87207022.862        2580.803          45.000                                                                  
> 2025 04 18 09 33 03.9850000  0 10                     
G19  19574727.665   102865701.868       -3451.397          34.000                                                                  
G11  17618980.863    92588365.077        -288.812          43.000    17618987.991    72146908.465        -224.878          44.000  
G20  17098098.301    89851119.762       -1461.298          43.000                                                                  
G05  16393513.694    86148572.683         -79.877          46.000    16393519.095    67129013.622         -62.329          45.000  
G06  19302220.890   101433755.513       -1140.576          36.000    19302238.711    79039416.812        -888.770          38.000  
G12  18611200.624    97802403.116       -2050.654          40.000    18611217.283    76209880.660       -1597.686          39.000  
G25  19033174.161   100019950.457        -850.994          37.000    19033194.046    77937726.073        -663.325          35.000  
G15  18429802.463    96849320.256        3704.070          40.000    18429819.491    75467101.583        2886.010          39.000  
G29  19094680.084   100343258.179        3447.216          38.000    19094689.594    78189668.968        2686.076          36.000  
G13  16594417.063    87204442.259        2580.384          45.000                                                                  
> 2025 04 18 09 33 04.9850000  0 10                     
G19  19575384.469   102869153.375       -3451.446          34.000                                                                  
G11  17619035.833    92588653.973        -288.866          43.000    17619042.977    72147133.580        -225.107          44.000  
G20  17098376.406    89852581.268       -1461.432          43.000                                                                  
G05  16393528.871    86148652.684         -80.011          46.000    16393534.330    67129075.965         -62.500          45.000  
G06  19302437.754   101434896.169       -1140.491          36.000    19302455.751    79040305.630        -888.812          38.000  
G12  18611590.853    97804454.055       -2051.022          40.000    18611607.505    76211478.783       -1598.081          39.000  
G25  19033336.199   100020801.817        -851.357          37.000    19033356.000    77938389.459        -663.823          35.000  
G15  18429097.642    96845616.552        3703.805          40.000    18429114.598    75464215.580        2885.923          38.000  
G29  19094023.999   100339810.945        3447.129          38.000    19094033.593    78186982.807        2686.590          36.000  
G13  16593926.007    87201862.006        2580.192          45.000                                                                  
> 2025 04 18 09 33 05.9850000  0 10                     
G19  19576041.252   102872604.924       -3451.865          34.000                                                                  
G11  17619090.750    92588942.862        -288.977          43.000    17619097.943    72147358.691        -225.332          44.000  
G20  17098654.500    89854042.713       -1461.415          43.000                                                                  
G05  16393544.169    86148732.884         -80.383          46.000    16393549.606    67129138.467         -62.781          45.000  
G06  19302654.745   101436036.851       -1140.802          36.000    19302672.906    79041194.439        -888.757          38.000  
G12  18611981.095    97806505.080       -2051.351          40.000    18611997.839    76213076.978       -1598.341          39.000  
G25  19033498.217   100021653.439        -851.677          37.000    19033518.054    77939053.047        -664.153          35.000  
G15  18428392.899    96841912.904        3703.378          40.000    18428409.835    75461329.628        2885.784          38.000  
G29  19093367.981   100336363.783        3446.878          38.000    19093377.621    78184296.730        2686.302          35.000  
G13  16593435.135    87199282.099        2579.513          45.000                                                                  
> 2025 04 18 09 33 06.9850000  0 10                     
G19  19576698.227   102876056.822       -3451.996          34.000                                                                  
G11  17619145.785    92589232.015        -289.541          43.000    17619152.892    72147583.997        -225.561          44.000  
G20  17098932.714    89855504.376       -1462.045          43.000                                                                  
G05  16393559.625    86148813.549         -80.939          46.000    16393565.003    67129201.315         -63.110          45.000  
G06  19302871.967   101437177.782       -1141.266          36.000    19302890.049    79042083.485        -889.093          38.000  
G12  18612371.497    97808556.430       -2051.509          40.000    18612388.170    76214675.439       -1598.768          39.000  
G25  19033660.280   100022505.567        -853.141          37.000    19033680.242    77939717.002        -664.223          35.000  
G15  18427688.127    96838209.538        3703.390          40.000    18427705.160    75458443.899        2885.847          38.000  
G29  19092712.051   100332916.926        3446.574          38.000    19092721.697    78181610.888        2685.582          36.000  
G13  16592944.248    87196702.742        2578.918          45.000                                                                  
> 2025 04 18 09 33 07.9850000  0 10                     
G19  19577355.240   102879508.998       -3452.321          34.000                                                                  
G11  17619200.828    92589521.350        -289.430          43.000    17619207.922    72147809.453        -225.577          44.000  
G20  17099210.935    89856966.158       -1461.941          43.000                                                                  
G05  16393575.020    86148894.621         -81.152          46.000    16393580.373    67129264.502         -63.470          45.000  
G06  19303089.161   101438318.922       -1141.180          35.000    19303107.228    79042972.664        -889.252          38.000  
G12  18612761.960    97810608.069       -2051.455          40.000    18612778.684    76216274.094       -1598.606          39.000  
G25  19033822.426   100023358.126        -852.661          37.000    19033842.573    77940381.357        -664.731          35.000  
G15  18426983.463    96834506.458        3702.897          40.000    18427000.472    75455558.402        2885.540          38.000  
G29  19092056.144   100329470.315        3446.509          38.000    19092065.778    78178925.209        2685.334          35.000  
G13  16592453.541    87194123.919        2578.567          45.000                                                                  
> 2025 04 18 09 33 08.9850000  0 10                     
G19  19578012.107   102882961.143       -3451.857          34.000                                                                  
G11  17619255.925    92589810.623        -289.151          43.000    17619262.955    72148034.862        -225.566          44.000  
G20  17099489.112    89858427.841       -1461.711          43.000                                                                  
G05  16393590.495    86148975.850         -81.287          46.000    16393595.857    67129327.792         -63.379          45.000  
G06  19303306.232   101439459.994       -1140.558          35.000    19303324.385    79043861.817        -889.093          38.000  
G12  18613152.426    97812659.753       -2051.533          40.000    18613169.158    76217872.804       -1599.112          39.000  
G25  19033984.870   100024210.932        -853.003          37.000    19034004.973    77941045.875        -664.951          35.000  
G15  18426278.654    96830803.370        3702.920          40.000    18426295.812    75452672.883        2885.338          38.000  
G29  19091400.218   100326023.710        3446.558          38.000    19091409.820    78176239.538        2685.991          35.000  
G13  16591962.881    87191545.365        2578.406          45.000                                                                  
> 2025 04 18 09 33 09.9850000  0 10                     
G19  19578669.074   102886413.408       -3452.563          34.000                                                                  
G11  17619310.991    92590099.877        -289.271          43.000    17619318.144    72148260.251        -225.483          44.000  
G20  17099767.273    89859889.446       -1461.846          43.000                                                                  
G05  16393605.928    86149057.268         -81.567          46.000    16393611.396    67129391.232         -63.580          45.000  
G06  19303523.440   101440601.105       -1141.327          35.000    19303541.533    79044750.962        -888.995          38.000  
G12  18613542.891    97814711.495       -2051.890          40.000    18613559.532    76219471.537       -1598.668          39.000  
G25  19034147.212   100025063.951        -853.061          37.000    19034167.235    77941710.536        -665.049          35.000  
G15  18425573.907    96827100.310        3703.037          40.000    18425591.178    75449787.395        2885.442          39.000  
G29  19090744.388   100322577.137        3446.540          38.000    19090753.985    78173553.909        2685.397          35.000  
G13  16591472.267    87188967.108        2577.969          45.000                                                                  
> 2025 04 18 09 33 10.9850000  0 10                     
G19  19579326.016   102889865.886       -3452.900          34.000                                                                  
G11  17619366.093    92590389.301        -289.572          43.000    17619373.112    72148485.776        -225.582          44.000  
G20  17100045.389    89861351.161       -1461.860          43.000                                                                  
G05  16393621.486    86149139.070         -82.123          46.000    16393626.960    67129454.986         -64.014          45.000  
G06  19303740.622   101441742.337       -1141.364          35.000    19303758.721    79045640.268        -889.838          38.000  
G12  18613933.489    97816763.486       -2052.011          40.000    18613949.939    76221070.474       -1598.669          39.000  
G25  19034309.699   100025917.430        -854.333          37.000    19034329.677    77942375.577        -665.419          35.000  
G15  18424869.326    96823397.479        3702.681          40.000    18424886.600    75446902.115        2884.936          38.000  
G29  19090088.642   100319130.779        3446.171          38.000    19090098.064    78170868.454        2685.321          35.000  
G13  16590981.636    87186389.344        2577.437          45.000                                                                  
> 2025 04 18 09 33 11.9850000  0 10                     
G19  19579983.017   102893318.564       -3451.575          34.000                                                                  
G11  17619421.090    92590678.913        -289.518          43.000    17619428.162    72148711.440        -225.541          44.000  
G20  17100323.504    89862813.025       -1461.713          43.000                                                                  
G05  16393637.157    86149221.270         -82.263          46.000    16393642.563    67129519.037         -64.044          45.000  
G06  19303957.801   101442883.808       -1141.473          35.000    19303975.978    79046529.669        -889.124          38.000  
G12  18614324.066    97818815.760       -2052.094          40.000    18614340.487    76222669.626       -1598.601          38.000  
G25  19034472.190   100026771.302        -853.902          37.000    19034492.222    77943040.929        -665.382          35.000  
G15  18424164.808    96819694.908        3702.558          40.000    18424181.910    75444016.988        2885.046          38.000  
G29  19089432.931   100315684.693        3446.131          38.000    19089442.222    78168183.187        2685.475          35.000  
G13  16590491.205    87183812.098        2577.121          45.000                                                                  
> 2025 04 18 09 33 12.9850000  0 10                     
G19  19580640.027   102896771.297       -3453.044          34.000                                                                  
G11  17619476.168    92590968.419        -289.847          43.000    17619483.244    72148937.019        -225.743          44.000  
G20  17100601.643    89864274.726       -1461.901          43.000                                                                  
G05  16393652.865    86149303.571         -82.562          46.000    16393658.185    67129583.164         -64.410          45.000  
G06  19304175.004   101444025.157       -1141.211          35.000    19304193.202    79047419.031        -889.508          38.000  
G12  18614714.594    97820868.012       -2052.354          40.000    18614731.022    76224268.808       -1599.424          38.000  
G25  19034634.721   100027625.405        -854.363          37.000    19034654.740    77943706.417        -665.829          35.000  
G15  18423460.199    96815992.279        3702.558          40.000    18423477.312    75441131.825        2884.912          38.000  
G29  19088777.097   100312238.524        3446.012          38.000    19088786.511    78165497.858        2685.291          35.000  
G13  16590000.811    87181235.056        2576.643          45.000                                                                  
> 2025 04 18 09 33 13.9850000  0 10                     
G19  19581297.012   102900224.317       -3452.805          34.000                                                                  
G11  17619531.266    92591258.186        -289.834          43.000    17619538.454    72149162.830        -226.027          44.000  
G20  17100879.835    89865736.643       -1461.880          43.000                                                                  
G05  16393668.618    86149386.357         -82.996          46.000    16393674.101    67129647.675         -64.606          45.000  
G06  19304392.218   101445166.809       -1141.589          35.000    19304410.482    79048308.620        -889.832          38.000  
G12  18615105.289    97822920.626       -2052.687          40.000    18615121.588    76225868.218       -1599.194          39.000  
G25  19034797.383   100028480.008        -855.163          37.000    19034817.332    77944372.323        -666.055          35.000  
G15  18422755.638    96812289.995        3701.975          40.000    18422772.760    75438246.927        2885.091          38.000  
G29  19088121.364   100308792.709        3445.622          38.000    19088130.787    78162812.818        2685.010          35.000  
G13  16589510.468    87178658.609        2576.223          45.000                                                                  
> 2025 04 18 09 33 14.9850000  0 10                     
G19  19581954.208   102903677.636       -3453.098          34.000                                                                  
G11  17619586.417    92591548.167        -290.000          43.000    17619593.637    72149388.787        -226.035          44.000  
G20  17101158.079    89867198.728       -1462.083          43.000                                                                  
G05  16393684.471    86149469.565         -83.490          46.000    16393689.826    67129712.525         -65.149          45.000  
G06  19304609.550   101446308.661       -1141.644          35.000    19304627.767    79049198.367        -889.587          38.000  
G12  18615495.948    97824973.548       -2053.089          40.000    18615512.247    76227467.885       -1599.582          39.000  
G25  19034960.212   100029335.082        -855.862          37.000    19034980.040    77945038.610        -666.246          35.000  
G15  18422051.119    96808587.961        3701.647          40.000    18422068.240    75435362.248        2884.663          38.000  
G29  19087465.569   100305347.151        3445.648          38.000    19087475.143    78160127.997        2684.355          35.000  
G13  16589020.337    87176082.711        2575.597          45.000                                                                  
> 2025 04 18 09 33 15.9850000  0 10                     
G19  19582611.360   102907130.976       -3453.514          34.000                                                                  
G11  17619641.599    92591838.088        -290.160          43.000    17619648.735    72149614.689        -226.207          44.000  
G20  17101436.335    89868660.694       -1462.305          43.000                                                                  
G05  16393700.194    86149552.913         -83.673          46.000    16393705.665    67129777.469         -65.265          45.000  
G06  19304826.777   101447450.484       -1142.670          35.000    19304844.972    79050088.052        -889.655          38.000  
G12  18615886.593    97827026.470       -2052.926          40.000    18615902.939    76229067.570       -1600.099          39.000  
G25  19035122.915   100030190.323        -855.557          37.000    19035142.864    77945705.050        -666.984          35.000  
G15  18421346.613    96804885.913        3701.880          40.000    18421363.793    75432477.543        2884.719          38.000  
G29  19086809.828   100301901.598        3445.278          38.000    19086819.439    78157443.133        2684.857          35.000  
G13  16588530.101    87173507.063        2575.372          45.000                                                                  
> 2025 04 18 09 33 16.9850000  0 10                     
G19  19583268.641   102910584.737       -3454.179          34.000                                                                  
G11  17619696.840    92592128.337        -290.614          43.000    17619704.026    72149840.855        -226.315          44.000  
G20  17101714.467    89870122.925       -1462.484          43.000                                                                  
G05  16393716.135    86149636.805         -84.161          46.000    16393721.506    67129842.842         -65.692          45.000  
G06  19305044.117   101448592.602       -1142.340          35.000    19305062.310    79050978.026        -890.155          38.000  
G12  18616277.359    97829079.820       -2053.643          40.000    18616293.763    76230667.566       -1600.396          39.000  
G25  19035285.876   100031046.174        -856.205          37.000    19035305.760    77946371.941        -667.263          35.000  
G15  18420642.249    96801184.273        3701.246          40.000    18420659.396    75429593.171        2884.135          38.000  
G29  19086154.217   100298456.426        3444.829          38.000    19086163.754    78154758.590        2684.449          35.000  
G13  16588040.082    87170932.075        2574.598          45.000                                                                  
> 2025 04 18 09 33 17.9850000  0 10                     
G19  19583925.885   102914038.787       -3454.137          34.000                                                                  
G11  17619752.039    92592418.821        -290.576          43.000    17619759.194    72150067.205        -226.346          44.000  
G20  17101992.725    89871585.353       -1462.307          43.000                                                                  
G05  16393732.222    86149721.152         -84.351          46.000    16393737.567    67129908.572         -65.863          45.000  
G06  19305261.519   101449735.010       -1142.688          35.000    19305279.779    79051868.193        -890.265          38.000  
G12  18616668.219    97831133.495       -2053.691          40.000    18616684.621    76232267.819       -1600.337          39.000  
G25  19035448.927   100031902.574        -856.340          37.000    19035468.689    77947039.226        -667.563          35.000  
G15  18419937.927    96797482.925        3701.448          40.000    18419955.096    75426709.020        2884.211          38.000  
G29  19085498.634   100295011.562        3444.855          38.000    19085508.210    78152074.287        2684.282          36.000  
G13  16587550.069    87168357.661        2574.256          45.000                                                                  
> 2025 04 18 09 33 18.9850000  0 10                     
G19  19584583.172   102917492.837       -3454.312          34.000                                                                  
G11  17619807.404    92592709.238        -290.460          43.000    17619814.398    72150293.514        -226.241          44.000  
G20  17102270.970    89873047.672       -1462.371          43.000                                                                  
G05  16393748.290    86149805.635         -84.406          46.000    16393753.626    67129974.409         -65.930          45.000  
G06  19305478.823   101450877.322       -1142.004          35.000    19305497.132    79052758.302        -889.795          38.000  
G12  18617059.077    97833187.193       -2053.753          40.000    18617075.530    76233868.089       -1600.077          39.000  
G25  19035611.844   100032759.135        -856.855          37.000    19035631.760    77947706.670        -667.846          35.000  
G15  18419233.616    96793781.585        3701.475          40.000    18419250.660    75423824.853        2884.292          39.000  
G29  19084843.140   100291566.666        3445.145          38.000    19084852.622    78149389.956        2684.306          36.000  
G13  16587060.336    87165783.492        2574.082          45.000                                                                  
> 2025 04 18 09 33 19.9850000  0 10                     
G19  19585240.474   102920946.971       -3454.594          34.000                                                                  
G11  17619862.687    92592999.668        -290.403          43.000    17619869.612    72150519.813        -226.317          44.000  
G20  17102549.212    89874509.936       -1462.403          43.000                                                                  
G05  16393764.454    86149890.337         -84.851          46.000    16393769.701    67130040.409         -66.284          45.000  
G06  19305696.228   101452019.686       -1142.297          35.000    19305714.503    79053648.435        -890.002          37.000  
G12  18617449.814    97835240.972       -2053.858          40.000    18617466.362    76235468.425       -1600.469          39.000  
G25  19035774.820   100033615.937        -856.429          37.000    19035794.816    77948374.294        -667.405          35.000  
G15  18418529.296    96790080.305        3701.309          40.000    18418546.323    75420940.765        2884.167          39.000  
G29  19084187.580   100288121.861        3444.735          39.000    19084197.187    78146705.704        2684.051          36.000  
G13  16586570.577    87163209.665        2573.468          45.000                                                                  
> 2025 04 18 09 33 23.9850000  0 10                     
G19  19587869.746   102934764.955       -3454.397          35.000                                                                  
G11  17620083.962    92594162.120        -290.886          44.000    17620090.856    72151425.615        -226.744          44.000  
G20  17103662.353    89880359.229       -1462.634          43.000                                                                  
G05  16393829.379    86150232.016         -86.096          46.000    16393834.957    67130306.655         -67.004          45.000  
G06  19306565.747   101456589.936       -1142.871          35.000    19306584.326    79057209.633        -890.521          38.000  
G12  18619013.462    97843457.716       -2054.396          40.000    18619029.951    76241871.044       -1601.066          39.000  
G25  19036427.630   100037046.649        -857.976          37.000    19036447.897    77951047.544        -669.228          36.000  
G15  18415712.145    96775276.542        3700.441          40.000    18415729.150    75409405.409        2883.364          39.000  
G29  19081565.680   100274343.897        3443.993          39.000    19081575.591    78135969.661        2683.136          36.000  
G13  16584612.161    87152918.364        2571.990          45.000                                                                  
> 2025 04 18 09 33 24.9850000  0 10                     
G19  19588527.139   102938220.103       -3455.703          34.000                                                                  
G11  17620139.402    92594453.229        -291.623          44.000    17620146.198    72151652.449        -227.132          44.000  
G20  17103940.679    89881821.916       -1463.200          43.000                                                                  
G05  16393845.895    86150318.452         -86.920          46.000    16393851.393    67130374.012         -67.700          45.000  
G06  19306783.295   101457733.005       -1143.292          35.000    19306801.845    79058100.335        -891.156          38.000  
G12  18619404.490    97845512.621       -2055.514          40.000    18619421.080    76243472.256       -1601.453          39.000  
G25  19036590.929   100037905.488        -859.824          37.000    19036611.356    77951716.738        -669.790          36.000  
G15  18415008.038    96771576.237        3699.940          40.000    18415024.984    75406522.059        2883.193          38.000  
G29  19080910.344   100270900.019        3443.688          39.000    19080920.200    78133286.108        2683.255          36.000  
G13  16584122.890    87150346.838        2571.087          45.000                                                                  
> 2025 04 18 09 33 25.9850000  0 10                     
G19  19589184.703   102941675.514       -3455.607          34.000                                                                  
G11  17620194.762    92594744.486        -291.546          43.000    17620201.674    72151879.400        -227.038          44.000  
G20  17104219.017    89883284.695       -1462.800          43.000                                                                  
G05  16393862.421    86150405.251         -87.061          46.000    16393867.869    67130441.658         -67.932          45.000  
G06  19307000.839   101458876.266       -1143.604          35.000    19307019.332    79058991.159        -890.851          38.000  
G12  18619795.625    97847567.740       -2055.270          40.000    18619812.199    76245073.640       -1601.428          39.000  
G25  19036754.400   100038764.695        -858.969          36.000    19036774.890    77952386.260        -669.936          36.000  
G15  18414303.973    96767876.149        3699.918          40.000    18414320.780    75403638.885        2882.806          38.000  
G29  19080255.116   100267456.394        3443.307          39.000    19080264.875    78130602.749        2683.360          35.000  
G13  16583633.691    87147775.802        2570.709          45.000                                                                  
> 2025 04 18 09 33 26.9850000  0 10                     
G19  19589842.371   102945131.157       -3456.089          34.000                                                                  
G11  17620250.162    92595035.885        -291.293          43.000    17620257.089    72152106.465        -227.037          44.000  
G20  17104497.340    89884747.575       -1462.718          43.000                                                                  
G05  16393878.982    86150492.401         -87.122          46.000    16393884.473    67130509.569         -68.005          45.000  
G06  19307218.436   101460019.666       -1143.634          35.000    19307236.958    79059882.102        -891.016          38.000  
G12  18620186.711    97849623.112       -2055.137          40.000    18620203.251    76246675.223       -1601.576          39.000  
G25  19036918.008   100039624.367        -860.204          36.000    19036938.524    77953056.085        -669.991          35.000  
G15  18413599.815    96764176.267        3699.812          40.000    18413616.737    75400755.867        2882.974          38.000  
G29  19079599.803   100264012.960        3443.252          39.000    19079609.543    78127919.533        2683.873          36.000  
G13  16583144.507    87145205.228        2570.632          45.000                                                                  
> 2025 04 18 09 33 27.9850000  0 10                     
G19  19590499.981   102948586.923       -3456.218          35.000                                                                  
G11  17620305.665    92595327.388        -291.932          43.000    17620312.592    72152333.609        -227.383          44.000  
G20  17104775.726    89886210.502       -1463.241          43.000                                                                  
G05  16393895.690    86150579.842         -87.726          46.000    16393901.091    67130577.705         -68.524          45.000  
G06  19307436.041   101461163.155       -1143.805          35.000    19307454.504    79060773.122        -891.370          38.000  
G12  18620577.880    97851678.668       -2055.915          41.000    18620594.435    76248276.913       -1601.467          39.000  
G25  19037081.705   100040484.354        -860.371          36.000    19037102.185    77953726.198        -670.219          35.000  
G15  18412895.737    96760476.525        3699.367          40.000    18412912.735    75397872.968        2882.600          38.000  
G29  19078944.620   100260569.669        3442.646          39.000    19078954.260    78125236.486        2682.735          36.000  
G13  16582655.371    87142635.089        2569.546          45.000                                                                  
> 2025 04 18 09 33 28.9850000  0 10                     
G19  19591157.650   102952042.913       -3456.222          35.000                                                                  
G11  17620361.103    92595618.995        -291.487          43.000    17620368.117    72152560.839        -227.194          44.000  
G20  17105054.099    89887673.507       -1463.112          43.000                                                                  
G05  16393912.381    86150667.624         -87.897          46.000    16393917.762    67130646.106         -68.427          45.000  
G06  19307653.650   101462306.797       -1143.787          35.000    19307672.165    79061664.257        -891.187          38.000  
G12  18620969.058    97853734.421       -2055.737          41.000    18620985.662    76249878.807       -1601.829          39.000  
G25  19037245.447   100041344.739        -860.844          36.000    19037265.876    77954396.610        -670.373          35.000  
G15  18412191.663    96756776.983        3699.506          40.000    18412208.733    75394990.216        2882.868          39.000  
G29  19078289.407   100257126.570        3443.043          39.000    19078298.982    78122553.567        2682.333          36.000  
G13  16582166.323    87140065.381        2569.513          45.000                                                                  
> 2025 04 18 09 33 29.9850000  0 10                     
G19  19591815.375   102955499.178       -3456.362          35.000                                                                  
G11  17620416.652    92595910.845        -292.015          43.000    17620423.657    72152788.246        -227.426          44.000  
G20  17105332.479    89889136.657       -1463.098          43.000                                                                  
G05  16393929.104    86150755.821         -88.342          46.000    16393934.559    67130714.840         -68.860          45.000  
G06  19307871.334   101463450.662       -1144.110          35.000    19307889.954    79062555.580        -891.351          38.000  
G12  18621360.257    97855790.490       -2056.061          41.000    18621376.982    76251480.934       -1602.029          39.000  
G25  19037409.323   100042205.619        -861.478          36.000    19037429.649    77955067.415        -671.066          35.000  
G15  18411487.653    96753077.714        3699.351          40.000    18411504.826    75392107.695        2882.566          39.000  
G29  19077634.261   100253683.752        3442.346          39.000    19077643.797    78119870.829        2682.689          36.000  
G13  16581677.518    87137496.232        2568.904          45.000                                                                  
> 2025 04 18 09 33 30.9850000  0 10                     
G19  19592473.094   102958955.690       -3456.562          35.000                                                                  
G11  17620472.174    92596202.859        -292.063          44.000    17620479.159    72153015.802        -227.634          44.000  
G20  17105610.875    89890599.961       -1463.464          43.000                                                                  
G05  16393945.879    86150844.421         -88.885          46.000    16393951.427    67130783.872         -69.250          45.000  
G06  19308089.040   101464594.721       -1144.232          35.000    19308107.671    79063447.035        -891.541          38.000  
G12  18621751.581    97857846.831       -2056.378          41.000    18621768.303    76253083.273       -1602.668          39.000  
G25  19037573.277   100043066.882        -861.168          36.000    19037593.615    77955738.535        -671.297          35.000  
G15  18410783.753    96749378.716        3698.787          40.000    18410800.937    75389225.351        2882.277          38.000  
G29  19076979.158   100250241.186        3442.253          39.000    19076988.651    78117188.306        2682.448          36.000  
G13  16581188.812    87134927.584        2568.444          45.000                                                                  
> 2025 04 18 09 33 31.9850000  0 10                     
G19  19593130.920   102962412.529       -3457.505          34.000                                                                  
G11  17620527.794    92596495.102        -292.308          43.000    17620534.734    72153243.522        -227.924          44.000  
G20  17105889.347    89892063.421       -1463.572          43.000                                                                  
G05  16393962.789    86150933.448         -89.331          46.000    16393968.445    67130853.247         -69.580          45.000  
G06  19308306.665   101465739.017       -1144.580          35.000    19308325.459    79064338.683        -891.901          37.000  
G12  18622143.016    97859903.469       -2056.939          41.000    18622159.760    76254685.828       -1602.700          39.000  
G25  19037737.259   100043928.680        -861.759          36.000    19037757.608    77956410.040        -671.520          35.000  
G15  18410079.898    96745679.965        3698.421          40.000    18410097.103    75386343.229        2881.864          39.000  
G29  19076324.114   100246798.847        3442.248          38.000    19076333.646    78114506.019        2682.017          36.000  
G13  16580700.086    87132359.491        2567.724          45.000                                                                  
> 2025 04 18 09 33 32.9850000  0 10                     
G19  19593788.697   102965869.581       -3457.130          34.000                                                                  
G11  17620583.470    92596787.537        -292.553          43.000    17620590.388    72153471.390        -227.899          44.000  
G20  17106167.945    89893527.019       -1463.666          43.000                                                                  
G05  16393979.810    86151022.865         -89.600          46.000    16393985.518    67130922.928         -69.836          45.000  
G06  19308524.555   101466883.492       -1144.824          35.000    19308543.313    79065230.475        -891.833          38.000  
G12  18622534.461    97861960.380       -2057.270          41.000    18622551.184    76256288.610       -1602.973          38.000  
G25  19037901.205   100044790.926        -862.343          37.000    19037921.793    77957081.927        -672.096          35.000  
G15  18409376.169    96741981.455        3698.468          40.000    18409393.233    75383461.302        2881.598          39.000  
G29  19075669.209   100243356.794        3442.022          38.000    19075678.736    78111823.890        2682.123          36.000  
G13  16580211.475    87129791.911        2567.262          45.000                                                                  
> 2025 04 18 09 33 33.9850000  0 10                     
G19  19594446.698   102969326.841       -3457.735          34.000                                                                  
G11  17620639.164    92597080.072        -292.855          44.000    17620645.931    72153699.335        -228.104          44.000  
G20  17106446.568    89894990.661       -1463.849          43.000                                                                  
G05  16393996.780    86151112.584         -89.880          46.000    16394002.599    67130992.851         -70.136          45.000  
G06  19308742.374   101468028.090       -1144.769          35.000    19308761.063    79066122.345        -891.846          38.000  
G12  18622925.783    97864017.458       -2056.962          40.000    18622942.682    76257891.538       -1603.390          38.000  
G25  19038065.386   100045653.532        -862.935          36.000    19038086.062    77957754.083        -673.055          35.000  
G15  18408672.392    96738283.097        3698.345          40.000    18408689.459    75380579.484        2881.597          39.000  
G29  19075014.118   100239914.870        3442.032          38.000    19075023.779    78109141.882        2682.130          36.000  
G13  16579722.954    87127224.748        2566.823          45.000                                                                  
> 2025 04 18 09 33 34.9850000  0 10                     
G19  19595104.583   102972784.362       -3457.790          34.000                                                                  
G11  17620694.845    92597372.821        -292.899          44.000    17620701.658    72153927.458        -228.166          44.000  
G20  17106725.164    89896454.482       -1464.063          43.000                                                                  
G05  16394013.870    86151202.760         -90.369          46.000    16394019.791    67131063.107         -70.404          45.000  
G06  19308960.212   101469172.907       -1144.830          35.000    19308978.866    79067014.428        -892.517          38.000  
G12  18623317.292    97866074.887       -2057.556          40.000    18623334.189    76259494.714       -1603.662          39.000  
G25  19038229.604   100046516.639        -863.248          37.000    19038250.311    77958426.603        -673.129          35.000  
G15  18407968.695    96734585.057        3697.925          40.000    18407985.708    75377697.894        2881.114          38.000  
G29  19074359.137   100236473.272        3441.505          38.000    19074368.885    78106460.124        2681.567          36.000  
G13  16579234.588    87124658.153        2566.326          45.000                                                                  
> 2025 04 18 09 33 35.9850000  0 10                     
G19  19595762.501   102976242.079       -3457.510          34.000                                                                  
G11  17620750.607    92597665.664        -292.634          44.000    17620757.375    72154155.647        -228.316          44.000  
G20  17107003.765    89897918.326       -1463.810          43.000                                                                  
G05  16394031.082    86151293.214         -90.436          46.000    16394036.991    67131133.599         -70.508          45.000  
G06  19309178.045   101470317.818       -1144.470          35.000    19309196.656    79067906.551        -892.255          38.000  
G12  18623708.861    97868132.475       -2057.531          40.000    18623725.783    76261098.002       -1603.548          39.000  
G25  19038393.980   100047380.034        -863.461          36.000    19038414.623    77959099.377        -672.744          35.000  
G15  18407264.918    96730887.155        3698.024          40.000    18407282.096    75374816.439        2881.119          38.000  
G29  19073704.245   100233031.805        3441.447          38.000    19073714.013    78103778.479        2681.083          36.000  
G13  16578746.251    87122091.976        2565.933          45.000                                                                  
> 2025 04 18 09 33 36.9850000  0 10                     
G19  19596420.490   102979699.923       -3457.659          34.000                                                                  
G11  17620806.326    92597958.586        -292.747          43.000    17620813.177    72154383.890        -228.089          44.000  
G20  17107282.302    89899382.196       -1463.765          43.000                                                                  
G05  16394048.370    86151383.953         -90.643          46.000    16394054.274    67131204.306         -70.642          45.000  
G06  19309396.061   101471462.854       -1144.482          35.000    19309414.548    79068798.763        -892.658          38.000  
G12  18624100.438    97870190.227       -2057.783          40.000    18624117.333    76262701.432       -1603.339          38.000  
G25  19038558.437   100048243.809        -863.588          37.000    19038578.979    77959772.427        -673.161          35.000  
G15  18406561.304    96727189.391        3697.974          40.000    18406578.343    75371935.072        2881.428          38.000  
G29  19073049.356   100229590.485        3441.123          38.000    19073059.211    78101096.929        2681.631          36.000  
G13  16578257.899    87119526.189        2565.572          45.000                                                                  
> 2025 04 18 09 33 37.9850000  0 10                     
G19  19597078.568   102983157.930       -3458.179          34.000                                                                  
G11  17620862.103    92598251.594        -293.131          43.000    17620868.868    72154612.202        -228.363          44.000  
G20  17107560.940    89900846.099       -1463.981          43.000                                                                  
G05  16394065.767    86151475.002         -91.382          46.000    16394071.609    67131275.246         -71.069          45.000  
G06  19309613.867   101472607.970       -1145.630          35.000    19309632.450    79069691.037        -892.603          38.000  
G12  18624492.079    97872248.128       -2058.019          40.000    18624508.908    76264304.964       -1603.584          38.000  
G25  19038722.828   100049107.927        -864.071          37.000    19038743.372    77960445.734        -673.252          35.000  
G15  18405857.648    96723491.763        3697.611          40.000    18405874.668    75369053.807        2881.198          38.000  
G29  19072394.528   100226149.279        3441.261          38.000    19072404.362    78098415.471        2681.311          36.000  
G13  16577769.652    87116960.818        2565.057          45.000                                                                  
> 2025 04 18 09 33 38.9850000  0 10                     
G19  19597736.643   102986616.226       -3458.127          35.000                                                                  
G11  17620917.901    92598544.811        -293.227          43.000    17620924.604    72154840.682        -228.485          44.000  
G20  17107839.516    89902310.165       -1464.234          43.000                                                                  
G05  16394083.226    86151566.476         -91.864          46.000    16394088.897    67131346.538         -71.521          45.000  
G06  19309831.857   101473753.282       -1145.184          35.000    19309850.516    79070583.482        -892.383          38.000  
G12  18624883.743    97874306.331       -2058.347          41.000    18624900.562    76265908.758       -1603.868          38.000  
G25  19038887.423   100049972.512        -864.646          37.000    19038907.916    77961119.453        -673.838          35.000  
G15  18405154.088    96719794.425        3697.421          40.000    18405171.004    75366172.763        2881.069          39.000  
G29  19071739.713   100222708.376        3440.635          38.000    19071749.570    78095734.248        2681.004          36.000  
G13  16577281.596    87114395.992        2564.546          45.000                                                                  
> 2025 04 18 09 33 39.9850000  0 10                     
G19  19598394.801   102990074.464       -3457.647          35.000                                                                  
G11  17620973.678    92598837.938        -293.053          43.000    17620980.411    72155069.095        -228.209          44.000  
G20  17108118.056    89903774.077       -1463.594          43.000                                                                  
G05  16394100.744    86151658.057         -91.547          46.000    16394106.298    67131417.896         -71.393          45.000  
G06  19310049.899   101474898.530       -1145.001          35.000    19310068.440    79071475.889        -892.535          38.000  
G12  18625275.476    97876364.531       -2058.087          40.000    18625292.177    76267512.552       -1603.529          38.000  
G25  19039051.920   100050837.270        -864.543          37.000    19039072.502    77961793.256        -673.848          35.000  
G15  18404450.495    96716097.066        3697.462          40.000    18404467.431    75363291.738        2880.793          38.000  
G29  19071084.882   100219267.415        3441.164          38.000    19071094.668    78093052.982        2681.377          36.000  
G13  16576793.542    87111831.403        2564.564          45.000                                                                  
> 2025 04 18 09 33 40.9850000  0 10                     
G19  19599052.950   102993532.892       -3457.965          35.000                                                                  
G11  17621029.539    92599131.129        -293.124          43.000    17621036.246    72155297.557        -228.532          44.000  
G20  17108396.629    89905238.023       -1464.188          43.000                                                                  
G05  16394118.203    86151749.922         -92.017          46.000    16394123.786    67131489.479         -71.674          45.000  
G06  19310267.857   101476043.857       -1145.374          35.000    19310286.291    79072368.313        -892.230          38.000  
G12  18625667.217    97878422.880       -2058.251          40.000    18625683.814    76269116.438       -1603.928          38.000  
G25  19039216.555   100051702.371        -865.146          37.000    19039237.098    77962467.336        -674.299          36.000  
G15  18403746.968    96712399.829        3697.269          40.000    18403763.906    75360410.769        2880.686          38.000  
G29  19070430.083   100215826.591        3440.678          38.000    19070439.916    78090371.844        2680.788          36.000  
G13  16576305.547    87109267.207        2564.029          45.000                                                                  
> 2025 04 18 09 33 41.9850000  0 10                     
G19  19599711.118   102996991.475       -3458.675          35.000                                                                  
G11  17621085.338    92599424.430        -293.119          43.000    17621092.025    72155526.096        -228.373          44.000  
G20  17108675.161    89906701.996       -1463.788          43.000                                                                  
G05  16394135.793    86151842.092         -92.194          46.000    16394141.337    67131561.316         -72.040          45.000  
G06  19310485.973   101477189.309       -1145.471          35.000    19310504.286    79073260.863        -892.432          38.000  
G12  18626058.809    97880481.431       -2058.543          40.000    18626075.594    76270720.493       -1603.933          39.000  
G25  19039381.314   100052567.807        -865.330          37.000    19039401.842    77963141.699        -674.302          36.000  
G15  18403043.481    96708702.772        3696.941          40.000    18403060.306    75357529.949        2880.633          38.000  
G29  19069775.286   100212385.926        3440.946          38.000    19069785.159    78087690.786        2681.543          36.000  
G13  16575817.610    87106703.447        2563.815          45.000                                                                  
> 2025 04 18 09 33 42.9850000  0 10                     
G19  19600369.275   103000450.134       -3458.300          35.000                                                                  
G11  17621141.180    92599717.742        -293.317          43.000    17621147.782    72155754.658        -228.722          44.000  
G20  17108953.774    89908165.950       -1464.117          43.000                                                                  
G05  16394153.349    86151934.488         -92.621          46.000    16394158.903    67131633.307         -72.327          45.000  
G06  19310703.941   101478334.772       -1145.581          35.000    19310722.288    79074153.420        -892.523          38.000  
G12  18626450.545    97882540.059       -2058.471          41.000    18626467.355    76272324.605       -1603.977          39.000  
G25  19039546.149   100053433.539        -866.450          37.000    19039566.672    77963816.278        -674.515          36.000  
G15  18402339.977    96705005.765        3696.773          40.000    18402356.809    75354649.193        2880.405          38.000  
G29  19069120.578   100208945.344        3440.509          38.000    19069130.402    78085009.825        2681.353          36.000  
G13  16575329.887    87104140.033        2563.120          45.000                                                                  
> 2025 04 18 09 33 43.9850000  0 10                     
G19  19601027.583   103003909.217       -3459.212          35.000                                                                  
G11  17621196.987    92600011.395        -293.824          43.000    17621203.670    72155983.475        -229.028          44.000  
G20  17109232.407    89909630.184       -1464.670          43.000                                                                  
G05  16394171.022    86152027.417         -93.268          46.000    16394176.666    67131705.723         -72.675          45.000  
G06  19310921.978   101479480.579       -1146.045          35.000    19310940.439    79075046.244        -892.902          38.000  
G12  18626842.431    97884599.125       -2059.294          41.000    18626859.196    76273929.064       -1604.464          38.000  
G25  19039711.050   100054299.840        -866.628          36.000    19039731.497    77964491.331        -675.638          36.000  
G15  18401636.591    96701309.157        3696.328          40.000    18401653.366    75351768.719        2880.108          38.000  
G29  19068465.945   100205505.154        3439.928          38.000    19068475.693    78082329.171        2680.103          36.000  
G13  16574842.206    87101577.263        2562.465          45.000                                                                  
> 2025 04 18 09 33 44.9850000  0 10                     
G19  19601685.886   103007368.669       -3459.239          34.000                                                                  
G11  17621253.026    92600305.386        -294.172          43.000    17621259.511    72156212.564        -229.366          44.000  
G20  17109511.007    89911094.695       -1464.661          43.000                                                                  
G05  16394188.821    86152120.909         -93.854          46.000    16394194.592    67131778.572         -73.096          45.000  
G06  19311140.159   101480626.749       -1146.167          35.000    19311158.619    79075939.347        -893.030          38.000  
G12  18627234.380    97886658.609       -2059.692          41.000    18627251.051    76275533.855       -1604.883          38.000  
G25  19039875.956   100055166.759        -867.326          36.000    19039896.432    77965166.794        -675.416          36.000  
G15  18400933.272    96697612.959        3696.023          40.000    18400950.007    75348888.563        2880.007          38.000  
G29  19067811.386   100202065.362        3439.524          38.000    19067821.160    78079648.811        2679.999          36.000  
G13  16574354.725    87099015.166        2561.871          45.000                                                                  
> 2025 04 18 09 33 45.9850000  0 10                     
G19  19602344.150   103010828.249       -3459.046          35.000                                                                  
G11  17621308.868    92600599.386        -293.996          43.000    17621315.592    72156441.648        -229.201          44.000  
G20  17109789.712    89912559.168       -1464.336          43.000                                                                  
G05  16394206.636    86152214.609         -93.781          46.000    16394212.389    67131851.578         -72.943          45.000  
G06  19311358.299   101481772.917       -1145.917          35.000    19311376.683    79076832.446        -892.505          38.000  
G12  18627626.335    97888718.171       -2059.145          40.000    18627642.957    76277138.710       -1604.827          38.000  
G25  19040041.035   100056033.917        -866.729          36.000    19040061.558    77965842.524        -675.627          36.000  
G15  18400229.853    96693916.842        3696.002          40.000    18400246.598    75346008.479        2880.225          38.000  
G29  19067156.858   100198625.621        3439.615          38.000    19067166.659    78076968.488        2680.940          36.000  
G13  16573867.295    87096453.422        2561.601          45.000                                                                  
> 2025 04 18 09 33 46.9850000  0 10                     
G19  19603002.581   103014287.794       -3459.794          35.000                                                                  
G11  17621364.846    92600893.265        -293.846          43.000    17621371.590    72156670.648        -229.082          44.000  
G20  17110068.382    89914023.473       -1464.281          43.000                                                                  
G05  16394224.517    86152308.395         -93.890          46.000    16394230.277    67131924.673         -73.181          45.000  
G06  19311576.399   101482919.003       -1146.191          35.000    19311594.789    79077725.506        -893.170          38.000  
G12  18628018.386    97890777.726       -2059.655          40.000    18628034.828    76278743.526       -1604.644          38.000  
G25  19040205.958   100056901.244        -867.118          36.000    19040226.641    77966518.374        -676.174          36.000  
G15  18399526.403    96690220.654        3696.260          40.000    18399543.226    75343128.364        2879.892          39.000  
G29  19066502.289   100195185.844        3439.836          38.000    19066512.132    78074288.181        2680.043          36.000  
G13  16573379.891    87093891.883        2561.322          45.000                                                                  
> 2025 04 18 09 33 47.9850000  0 10                     
G19  19603660.923   103017747.474       -3459.302          35.000                                                                  
G11  17621420.754    92601187.278        -293.940          43.000    17621427.498    72156899.746        -229.222          44.000  
G20  17110347.034    89915487.850       -1464.425          43.000                                                                  
G05  16394242.359    86152402.523         -94.257          46.000    16394248.154    67131998.015         -73.419          45.000  
G06  19311794.596   101484065.216       -1146.210          35.000    19311813.002    79078618.633        -893.140          38.000  
G12  18628410.347    97892837.484       -2059.769          40.000    18628426.839    76280348.532       -1605.186          38.000  
G25  19040371.053   100057768.982        -868.028          36.000    19040391.660    77967194.481        -676.010          36.000  
G15  18398822.993    96686524.644        3696.206          40.000    18398839.782    75340248.381        2879.749          39.000  
G29  19065847.764   100191746.266        3439.483          38.000    19065857.673    78071607.965        2680.200          36.000  
G13  16572892.512    87091330.794        2560.911          45.000                                                                  
> 2025 04 18 09 33 48.9850000  0 10                     
G19  19604319.332   103021207.341       -3460.146          35.000                                                                  
G11  17621476.654    92601481.356        -294.034          44.000    17621483.413    72157128.899        -229.247          44.000  
G20  17110625.686    89916952.241       -1464.255          43.000                                                                  
G05  16394260.361    86152496.910         -94.489          46.000    16394266.104    67132071.573         -73.706          45.000  
G06  19312012.827   101485211.488       -1146.503          35.000    19312031.182    79079511.848        -893.097          38.000  
G12  18628802.262    97894897.391       -2060.026          40.000    18628818.797    76281953.643       -1605.116          39.000  
G25  19040536.300   100058637.014        -868.231          36.000    19040556.838    77967870.871        -676.501          36.000  
G15  18398119.637    96682828.779        3696.118          40.000    18398136.431    75337368.488        2879.876          39.000  
G29  19065193.291   100188306.791        3439.489          38.000    19065203.199    78068927.863        2680.306          36.000  
G13  16572405.264    87088770.087        2560.677          45.000                                                                  
> 2025 04 18 09 33 49.9850000  0 10                     
G19  19604977.712   103024667.387       -3460.465          35.000                                                                  
G11  17621532.646    92601775.549        -294.333          43.000    17621539.440    72157358.125        -229.215          44.000  
G20  17110904.385    89918416.676       -1464.223          43.000                                                                  
G05  16394278.322    86152591.619         -94.775          46.000    16394284.067    67132145.368         -73.901          45.000  
G06  19312231.101   101486357.883       -1146.375          35.000    19312249.321    79080405.126        -893.323          38.000  
G12  18629194.328    97896957.478       -2060.253          40.000    18629210.725    76283558.886       -1605.328          39.000  
G25  19040701.413   100059505.400        -869.353          37.000    19040721.999    77968547.516        -676.790          35.000  
G15  18397416.396    96679133.077        3695.596          40.000    18397433.187    75334488.733        2879.586          39.000  
G29  19064538.828   100184867.481        3439.382          38.000    19064548.674    78066247.879        2680.303          36.000  
G13  16571918.113    87086209.823        2560.117          45.000                                                                  
> 2025 04 18 09 33 50.9850000  0 10                     
G19  19605636.120   103028127.622       -3460.470          35.000                                                                  
G11  17621588.671    92602069.877        -294.487          43.000    17621595.429    72157587.475        -229.385          44.000  
G20  17111183.097    89919881.223       -1464.538          43.000                                                                  
G05  16394296.448    86152686.706         -95.197          46.000    16394302.144    67132219.469         -74.310          45.000  
G06  19312449.183   101487504.452       -1146.375          35.000    19312467.525    79081298.537        -893.103          38.000  
G12  18629586.485    97899017.799       -2060.583          40.000    18629602.736    76285164.338       -1605.747          39.000  
G25  19040866.788   100060374.207        -868.681          36.000    19040887.439    77969224.508        -677.162          35.000  
G15  18396713.154    96675437.599        3695.485          40.000    18396729.930    75331609.152        2879.593          38.000  
G29  19063884.349   100181428.405        3438.890          38.000    19063894.216    78063568.085        2679.786          36.000  
G13  16571430.968    87083650.047        2559.625          45.000                                                                  
> 2025 04 18 09 33 51.9850000  0 10                     
G19  19606294.620   103031587.907       -3460.192          35.000                                                                  
G11  17621644.703    92602364.214        -294.458          43.000    17621651.474    72157816.824        -229.363          44.000  
G20  17111461.836    89921345.717       -1464.661          43.000                                                                  
G05  16394314.516    86152781.982         -95.453          46.000    16394320.221    67132293.703         -74.420          45.000  
G06  19312667.416   101488651.048       -1146.960          35.000    19312685.741    79082191.970        -893.750          38.000  
G12  18629978.610    97901078.202       -2060.584          41.000    18629994.805    76286769.834       -1605.826          39.000  
G25  19041032.068   100061243.268        -869.162          36.000    19041052.777    77969901.678        -677.092          35.000  
G15  18396010.031    96671742.211        3695.212          40.000    18396026.613    75328729.622        2879.469          38.000  
G29  19063230.036   100177989.385        3438.725          38.000    19063239.745    78060888.329        2679.669          36.000  
G13  16570943.860    87081090.600        2559.144          45.000                                                                  
> 2025 04 18 09 33 52.9850000  0 10                     
G19  19606953.117   103035048.428       -3461.061          35.000                                                                  
G11  17621700.767    92602658.663        -294.630          43.000    17621707.493    72158046.270        -229.640          44.000  
G20  17111740.467    89922810.255       -1464.686          43.000                                                                  
G05  16394332.788    86152877.577         -95.801          46.000    16394338.485    67132368.196         -74.664          45.000  
G06  19312885.645   101489797.735       -1146.875          35.000    19312903.995    79083085.476        -893.713          38.000  
G12  18630370.705    97903138.800       -2060.931          41.000    18630386.975    76288375.477       -1606.062          39.000  
G25  19041197.679   100062112.737        -869.630          36.000    19041218.237    77970579.183        -678.230          35.000  
G15  18395306.898    96668046.994        3694.966          40.000    18395323.436    75325850.229        2879.830          38.000  
G29  19062575.661   100174550.528        3438.523          38.000    19062585.372    78058208.704        2679.486          35.000  
G13  16570456.878    87078531.581        2558.848          45.000                                                                  
> 2025 04 18 09 33 53.9850000  0 10                     
G19  19607611.637   103038509.085       -3460.735          35.000                                                                  
G11  17621756.887    92602953.200        -294.541          43.000    17621763.578    72158275.773        -229.315          44.000  
G20  17112019.304    89924274.836       -1464.558          43.000                                                                  
G05  16394350.990    86152973.479         -95.935          46.000    16394356.780    67132442.933         -74.860          45.000  
G06  19313103.831   101490944.540       -1146.857          35.000    19313122.206    79083979.066        -893.481          38.000  
G12  18630762.877    97905199.567       -2060.822          41.000    18630779.135    76289981.236       -1605.479          39.000  
G25  19041363.093   100062982.547        -870.121          37.000    19041383.811    77971256.929        -677.922          35.000  
G15  18394603.702    96664351.922        3694.944          40.000    18394620.311    75322970.976        2879.362          38.000  
G29  19061921.310   100171111.803        3438.961          38.000    19061930.895    78055529.205        2679.332          36.000  
G13  16569970.003    87075972.996        2558.436          45.000                                                                  
> 2025 04 18 09 33 54.9850000  0 10                     
G19  19608270.190   103041969.787       -3461.187          35.000                                                                  
G11  17621813.095    92603247.745        -294.805          43.000    17621819.697    72158505.294        -229.732          44.000  
G20  17112298.026    89925739.371       -1464.814          43.000                                                                  
G05  16394369.327    86153069.580         -96.265          46.000    16394375.026    67132517.822         -75.140          45.000  
G06  19313322.076   101492091.352       -1147.498          35.000    19313340.464    79084872.686        -893.774          38.000  
G12  18631154.892    97907260.434       -2061.246          40.000    18631171.358    76291587.122       -1606.147          38.000  
G25  19041528.671   100063852.578        -870.375          37.000    19041549.372    77971934.868        -678.208          35.000  
G15  18393900.530    96660656.904        3694.799          40.000    18393917.079    75320091.772        2878.746          39.000  
G29  19061266.963   100167673.180        3438.352          38.000    19061276.527    78052849.733        2679.585          36.000  
G13  16569483.202    87073414.741        2557.808          45.000                                                                  
> 2025 04 18 09 33 55.9850000  0 10                     
G19  19608928.806   103045430.655       -3460.155          35.000                                                                  
G11  17621869.142    92603542.369        -294.764          43.000    17621875.728    72158734.879        -229.804          44.000  
G20  17112576.619    89927203.923       -1464.749          43.000                                                                  
G05  16394387.648    86153165.980         -96.570          46.000    16394393.381    67132592.936         -75.299          45.000  
G06  19313540.421   101493238.245       -1146.906          35.000    19313558.700    79085766.358        -893.866          38.000  
G12  18631547.054    97909321.453       -2061.132          40.000    18631563.689    76293193.098       -1606.180          39.000  
G25  19041694.301   100064722.959        -870.570          36.000    19041715.119    77972613.066        -678.407          35.000  
G15  18393197.463    96656962.025        3694.886          40.000    18393214.025    75317212.655        2879.108          39.000  
G29  19060612.645   100164234.660        3438.475          38.000    19060622.193    78050170.404        2679.119          36.000  
G13  16568996.398    87070856.890        2557.690          45.000                                                                  
> 2025 04 18 09 33 56.9850000  0 10                     
G19  19609587.412   103048891.888       -3461.513          35.000                                                                  
G11  17621925.287    92603837.267        -295.175          43.000    17621931.920    72158964.655        -229.810          44.000  
G20  17112855.420    89928668.686       -1464.865          43.000                                                                  
G05  16394406.000    86153262.846         -97.058          46.000    16394411.887    67132668.414         -75.488          45.000  
G06  19313758.830   101494385.420       -1147.192          35.000    19313776.967    79086660.255        -893.805          38.000  
G12  18631939.371    97911382.819       -2061.551          40.000    18631956.022    76294799.351       -1606.153          38.000  
G25  19041860.095   100065593.858        -870.495          36.000    19041880.851    77973291.700        -678.685          36.000  
G15  18392494.442    96653267.506        3694.296          40.000    18392510.973    75314333.814        2878.621          39.000  
G29  19059958.408   100160796.498        3437.920          38.000    19059967.832    78047491.289        2679.027          36.000  
G13  16568509.752    87068299.653        2557.020          45.000                                                                  
> 2025 04 18 09 33 57.9850000  0 10                     
G19  19610245.949   103052353.184       -3460.734          35.000                                                                  
G11  17621981.359    92604132.221        -295.064          43.000    17621988.004    72159194.491        -229.848          44.000  
G20  17113134.156    89930133.474       -1464.847          43.000                                                                  
G05  16394424.443    86153359.997         -97.345          46.000    16394430.337    67132744.121         -75.732          45.000  
G06  19313977.063   101495532.660       -1147.070          35.000    19313995.245    79087554.216        -893.842          38.000  
G12  18632331.747    97913444.338       -2061.549          41.000    18632348.298    76296405.734       -1606.631          38.000  
G25  19042025.870   100066465.120        -871.208          36.000    19042046.612    77973970.579        -679.369          36.000  
G15  18391791.429    96649573.091        3694.365          40.000    18391808.007    75311455.047        2879.012          38.000  
G29  19059304.110   100157358.449        3437.772          38.000    19059313.586    78044812.324        2678.987          36.000  
G13  16568023.188    87065742.806        2556.704          45.000                                                                  
