     3.04           OBSERVATION DATA    G: GPS              RINEX VERSION / TYPE
RTKCONV demo5 b34i                      20250515 182755 UTC PGM / RUN BY / DATE 
format: u-blox UBX                                          COMMENT             
log: D:\20242\NGUYENDS\GNSS_DOA_Spoofing\hai\ngoc\2025-04-18COMMENT             
                                                            MARKER NAME         
                                                            MARKER NUMBER       
                                                            MARKER TYPE         
                                                            OBSERVER / AGENCY   
                                                            REC # / TYPE / VERS 
                                                            ANT # / TYPE        
 -1626587.8347  5730533.6204  2271880.7186                  APPROX POSITION XYZ 
        0.0000        0.0000        0.0000                  ANTENNA: DELTA H/E/N
G    8 C1C L1C D1C S1C C2X L2X D2X S2X                      SYS / # / OBS TYPES 
  2025    04    18    09    30   11.9840000     GPS         TIME OF FIRST OBS   
  2025    04    18    09    55   32.9830000     GPS         TIME OF LAST OBS    
G L1C                                                       SYS / PHASE SHIFT   
G L2X  0.00000                                              SYS / PHASE SHIFT   
  0                                                         GLONASS SLOT / FRQ #
                                                            GLONASS COD/PHS/BIS 
                                                            END OF HEADER       
> 2025 04 18 09 30 11.9840000  0 10                     
G06  18837993.739    98994267.9841       -994.050          34.000    18838011.829    77138468.6911       -774.375          38.000  
G25  18579152.972    97634074.5891       -659.095          33.000    18579174.426    76078585.7021       -513.482          36.000  
G05  15964591.295    83894706.0031        102.808          40.000    15964597.000    65372651.6191         80.151          40.000  
G11  17182605.746    90295308.2551       -144.014          39.000    17182611.985    70360089.4451       -112.314          41.000  
G19  19035070.610   100029704.8211      -3292.255          32.000                                                                  
G20  16623218.177    87355791.1481      -1323.694          40.000                                                                  
G12  18117427.259    95207691.6341      -1888.767          35.000    18117443.627    74188185.7521      -1471.317          37.000  
G13  16252858.372    85409524.8931       2780.019          40.000                                                                  
G15  18124263.616    95243670.0421       3857.750          36.000    18124281.505    74215981.3381       3006.117          36.000  
G29  18780738.638    98693538.7401       3601.110          34.000    18780751.374    76904062.4051       2805.913          35.000  
> 2025 04 18 09 30 12.9840000  0 10                     
G06  18838183.026    98995262.010        -994.391          34.000    18838201.092    77139243.256        -774.448          38.000  
G25  18579278.187    97634733.704        -659.183          33.000    18579299.914    76079099.278        -513.415          36.000  
G05  15964571.717    83894603.145         102.783          40.000    15964577.349    65372571.482          80.072          40.000  
G11  17182633.177    90295452.265        -144.000          39.000    17182639.362    70360201.675        -112.451          41.000  
G19  19035697.028   100032996.627       -3291.748          33.000                                                                  
G20  16623470.064    87357114.888       -1323.688          40.000                                                                  
G12  18117786.514    95209579.982       -1888.531          35.000    18117802.877    74189657.186       -1471.968          36.000  
G13  16252329.402    85406744.887        2779.875          40.000                                                                  
G15  18123529.550    95239812.116        3858.079          36.000    18123547.360    74212975.146        3006.156          36.000  
G29  18780053.337    98689937.646        3600.777          33.000    18780066.252    76901256.360        2806.042          35.000  
> 2025 04 18 09 30 13.9840000  0 10                     
G06  18838372.240    98996256.114        -993.763          34.000    18838390.247    77140017.878        -774.726          38.000  
G25  18579403.712    97635393.168        -659.573          33.000    18579425.396    76079613.144        -514.216          36.000  
G05  15964552.183    83894500.576         102.576          40.000    15964557.830    65372491.569          79.657          40.000  
G11  17182660.609    90295596.333        -143.985          39.000    17182666.840    70360313.935        -112.390          41.000  
G19  19036323.524   100036288.648       -3291.772          32.000                                                                  
G20  16623721.873    87358438.674       -1323.965          40.000                                                                  
G12  18118146.064    95211468.476       -1888.525          35.000    18118162.332    74191128.751       -1471.511          36.000  
G13  16251800.460    85403965.298        2779.010          40.000                                                                  
G15  18122795.414    95235954.300        3857.601          36.000    18122813.261    74209969.066        3006.222          36.000  
G29  18779368.019    98686336.642        3601.707          33.000    18779380.997    76898450.409        2805.878          35.000  
> 2025 04 18 09 30 14.9840000  0 10                     
G06  18838561.396    98997250.193        -994.431          34.000    18838579.500    77140792.457        -774.764          38.000  
G25  18579529.088    97636052.873        -659.855          33.000    18579550.905    76080127.167        -514.559          37.000  
G05  15964532.705    83894398.185         102.411          40.000    15964538.406    65372411.785          79.315          40.000  
G11  17182688.025    90295740.369        -143.928          39.000    17182694.290    70360426.150        -112.208          41.000  
G19  19036949.895   100039580.714       -3292.505          33.000                                                                  
G20  16623973.774    87359762.348       -1323.658          40.000                                                                  
G12  18118505.327    95213357.090       -1888.979          35.000    18118521.759    74192600.382       -1471.830          36.000  
G13  16251271.552    85401185.928        2778.958          40.000                                                                  
G15  18122061.267    95232096.486        3857.452          35.000    18122079.124    74206963.016        3005.899          36.000  
G29  18778682.592    98682735.666        3600.986          33.000    18778695.697    76895644.462        2805.501          35.000  
> 2025 04 18 09 30 15.9840000  0 10                     
G06  18838750.576    98998244.168        -994.326          34.000    18838768.642    77141566.974        -774.714          38.000  
G25  18579654.592    97636712.765        -660.419          33.000    18579676.563    76080641.350        -514.498          36.000  
G05  15964513.286    83894295.926         102.313          40.000    15964518.938    65372332.109          79.559          40.000  
G11  17182715.349    90295884.294        -144.089          39.000    17182721.793    70360538.310        -112.254          41.000  
G19  19037576.273   100042872.732       -3292.096          33.000                                                                  
G20  16624225.656    87361085.923       -1323.912          40.000                                                                  
G12  18118864.758    95215245.738       -1889.170          35.000    18118881.191    74194072.007       -1471.710          36.000  
G13  16250742.620    85398406.791        2778.643          40.000                                                                  
G15  18121327.047    95228238.619        3857.749          36.000    18121344.962    74203956.875        3006.509          36.000  
G29  18777997.311    98679134.653        3600.741          33.000    18778010.357    76892838.448        2805.857          35.000  
> 2025 04 18 09 30 16.9840000  0 10                     
G06  18838939.864    98999238.304        -994.139          35.000    18838957.821    77142341.625        -774.780          39.000  
G25  18579780.114    97637373.077        -660.859          33.000    18579802.286    76081155.861        -514.391          37.000  
G05  15964493.960    83894194.067         101.624          40.000    15964499.529    65372252.727          79.401          41.000  
G11  17182742.857    90296028.381        -144.500          39.000    17182749.139    70360650.575        -112.366          40.000  
G19  19038202.978   100046165.020       -3292.444          32.000                                                                  
G20  16624477.591    87362409.599       -1323.999          40.000                                                                  
G12  18119224.239    95217134.603       -1889.111          35.000    18119240.565    74195543.863       -1471.878          36.000  
G13  16250213.894    85395628.106        2778.286          40.000                                                                  
G15  18120592.839    95224380.979        3857.408          36.000    18120610.756    74200950.916        3005.965          36.000  
G29  18777312.036    98675533.806        3600.489          33.000    18777325.116    76890032.607        2805.849          35.000  
> 2025 04 18 09 30 17.9840000  0 10                     
G06  18839129.057    99000232.760        -994.712          34.000    18839147.129    77143116.490        -774.661          38.000  
G25  18579905.732    97638033.976        -661.115          33.000    18579928.047    76081670.827        -514.848          36.000  
G05  15964474.640    83894092.717         101.337          40.000    15964480.160    65372173.753          79.041          40.000  
G11  17182770.280    90296172.736        -144.335          39.000    17182776.580    70360763.077        -112.625          40.000  
G19  19038829.571   100049457.738       -3293.243          32.000                                                                  
G20  16624729.433    87363733.516       -1323.983          40.000                                                                  
G12  18119583.606    95219023.905       -1889.239          35.000    18119600.121    74197016.046       -1472.318          36.000  
G13  16249685.281    85392850.016        2778.242          40.000                                                                  
G15  18119858.690    95220523.646        3856.920          36.000    18119876.771    74197945.250        3005.144          36.000  
G29  18776626.869    98671933.332        3599.841          33.000    18776639.930    76887227.032        2805.782          35.000  
> 2025 04 18 09 30 18.9840000  0 10                     
G06  18839318.416    99001227.272        -994.388          34.000    18839336.412    77143891.442        -774.865          38.000  
G25  18580031.583    97638695.228        -661.536          33.000    18580053.900    76082186.080        -515.077          36.000  
G05  15964455.394    83893991.660         100.995          40.000    15964460.831    65372095.024          78.601          40.000  
G11  17182797.719    90296317.187        -144.391          39.000    17182804.078    70360875.628        -112.556          40.000  
G19  19039456.199   100052750.566       -3292.914          32.000                                                                  
G20  16624981.459    87365057.486       -1323.956          40.000                                                                  
G12  18119943.238    95220913.377       -1889.416          35.000    18119959.685    74198488.363       -1472.903          36.000  
G13  16249156.746    85390072.337        2777.611          40.000                                                                  
G15  18119124.665    95216666.417        3857.328          35.000    18119142.675    74194939.652        3005.461          36.000  
G29  18775941.713    98668332.938        3600.249          33.000    18775954.870    76884421.571        2804.673          35.000  
> 2025 04 18 09 30 19.9840000  0 10                     
G06  18839507.738    99002221.729        -994.423          34.000    18839525.620    77144666.323        -774.620          38.000  
G25  18580157.458    97639356.697        -661.420          33.000    18580179.786    76082701.508        -515.281          36.000  
G05  15964436.242    83893890.758         100.928          40.000    15964441.657    65372016.408          78.662          41.000  
G11  17182825.203    90296461.543        -144.008          39.000    17182831.501    70360988.098        -112.117          40.000  
G19  19040082.769   100056043.431       -3293.066          32.000                                                                  
G20  16625233.316    87366381.346       -1323.632          40.000                                                                  
G12  18120302.778    95222802.885       -1889.119          36.000    18120319.374    74199960.674       -1471.621          36.000  
G13  16248628.123    85387294.859        2777.868          40.000                                                                  
G15  18118390.677    95212809.216        3856.770          35.000    18118408.640    74191934.001        3005.688          36.000  
G29  18775256.652    98664732.522        3600.511          33.000    18775269.751    76881616.054        2805.302          36.000  
> 2025 04 18 09 30 20.9840000  0 10                     
G06  18839696.959    99003216.221        -994.502          34.000    18839714.952    77145441.259        -774.941          39.000  
G25  18580283.383    97640018.488        -661.823          33.000    18580305.757    76083217.195        -515.845          36.000  
G05  15964417.049    83893790.128         100.262          40.000    15964422.595    65371937.972          78.339          41.000  
G11  17182852.619    90296605.962        -144.622          39.000    17182859.030    70361100.635        -112.629          40.000  
G19  19040709.302   100059336.418       -3293.615          32.000                                                                  
G20  16625485.212    87367705.219       -1323.915          40.000                                                                  
G12  18120662.396    95224692.589       -1890.120          36.000    18120678.936    74201433.168       -1472.724          36.000  
G13  16248099.682    85384517.778        2777.021          40.000                                                                  
G15  18117656.567    95208952.090        3856.582          35.000    18117674.573    74188928.451        3005.587          36.000  
G29  18774571.598    98661132.210        3600.003          34.000    18774584.635    76878810.604        2805.277          36.000  
> 2025 04 18 09 30 21.9840000  0 10                     
G06  18839886.215    99004210.940        -995.235          34.000    18839904.247    77146216.348        -775.645          39.000  
G25  18580409.528    97640680.684        -661.952          33.000    18580431.814    76083733.216        -516.125          36.000  
G05  15964397.902    83893689.870          99.786          40.000    15964403.567    65371859.878          77.649          41.000  
G11  17182879.981    90296750.547        -144.813          39.000    17182886.506    70361213.275        -112.468          40.000  
G19  19041335.988   100062629.727       -3294.208          32.000                                                                  
G20  16625737.202    87369029.223       -1324.301          40.000                                                                  
G12  18121022.033    95226582.533       -1890.356          36.000    18121038.600    74202905.854       -1473.137          36.000  
G13  16247571.196    85381741.172        2776.215          40.000                                                                  
G15  18116922.585    95205095.126        3856.723          35.000    18116940.638    74185923.079        3005.210          36.000  
G29  18773886.499    98657532.097        3599.970          34.000    18773899.590    76876005.324        2805.158          36.000  
> 2025 04 18 09 30 22.9840000  0 10                     
G06  18840075.612    99005206.045        -995.656          34.000    18840093.610    77146991.717        -775.363          39.000  
G25  18580535.554    97641343.631        -662.898          33.000    18580557.986    76084249.760        -516.520          36.000  
G05  15964378.946    83893590.260          99.170          40.000    15964384.574    65371782.251          77.234          41.000  
G11  17182907.507    90296895.505        -145.280          39.000    17182914.138    70361326.248        -113.026          41.000  
G19  19041962.867   100065923.432       -3294.159          32.000                                                                  
G20  16625989.180    87370353.593       -1324.744          40.000                                                                  
G12  18121381.669    95228473.000       -1890.738          35.000    18121398.261    74204378.920       -1473.423          37.000  
G13  16247042.910    85378965.252        2775.559          40.000                                                                  
G15  18116188.633    95201238.664        3856.144          35.000    18116206.749    74182918.052        3004.740          36.000  
G29  18773201.543    98653932.439        3599.742          34.000    18773214.666    76873200.417        2804.712          36.000  
> 2025 04 18 09 30 23.9840000  0 10                     
G06  18840265.020    99006201.551        -994.902          34.000    18840283.176    77147767.471        -775.627          39.000  
G25  18580661.701    97642007.326        -663.728          33.000    18580684.235    76084766.925        -517.603          36.000  
G05  15964360.093    83893491.316          98.773          40.000    15964365.771    65371705.161          76.758          41.000  
G11  17182935.218    90297040.942        -145.729          39.000    17182941.826    70361439.577        -113.553          40.000  
G19  19042589.695   100069217.765       -3294.677          32.000                                                                  
G20  16626241.217    87371678.385       -1325.057          40.000                                                                  
G12  18121741.476    95230364.044       -1891.141          35.000    18121758.074    74205852.465       -1474.022          37.000  
G13  16246514.841    85376190.132        2774.793          40.000                                                                  
G15  18115454.922    95197382.718        3855.639          36.000    18115472.978    74179913.416        3004.532          36.000  
G29  18772516.555    98650333.320        3598.543          34.000    18772529.741    76870395.900        2804.351          36.000  
> 2025 04 18 09 30 24.9840000  0 10                     
G06  18840454.609    99007197.383        -996.116          34.000    18840472.738    77148543.417        -776.327          39.000  
G25  18580788.029    97642671.480        -664.120          33.000    18580810.692    76085284.428        -517.769          36.000  
G05  15964341.323    83893392.810          98.291          40.000    15964347.126    65371628.396          76.813          41.000  
G11  17182962.959    90297186.573        -145.650          39.000    17182969.632    70361553.066        -113.769          40.000  
G19  19043216.564   100072512.342       -3294.751          32.000                                                                  
G20  16626493.274    87373003.333       -1324.968          40.000                                                                  
G12  18122101.364    95232255.419       -1891.437          35.000    18122118.019    74207326.217       -1473.831          37.000  
G13  16245986.948    85373415.509        2774.254          40.000                                                                  
G15  18114721.287    95193527.024        3855.347          36.000    18114739.205    74176908.991        3004.077          36.000  
G29  18771831.665    98646734.433        3598.329          34.000    18771844.885    76867591.572        2804.211          37.000  
> 2025 04 18 09 30 25.9840000  0 10                     
G06  18840644.098    99008193.228        -995.807          34.000    18840662.227    77149319.393        -776.249          39.000  
G25  18580914.341    97643336.020        -664.928          33.000    18580937.107    76085802.207        -517.754          36.000  
G05  15964322.595    83893294.604          98.157          40.000    15964328.518    65371551.886          76.190          41.000  
G11  17182990.687    90297332.275        -145.602          39.000    17182997.296    70361666.595        -113.738          41.000  
G19  19043843.538   100075807.127       -3294.897          33.000                                                                  
G20  16626745.419    87374328.336       -1324.979          41.000                                                                  
G12  18122461.345    95234146.933       -1891.465          35.000    18122478.031    74208800.158       -1474.125          37.000  
G13  16245459.068    85370641.274        2773.875          40.000                                                                  
G15  18113987.574    95189671.405        3855.713          36.000    18114005.567    74173904.625        3004.392          36.000  
G29  18771146.935    98643135.618        3598.901          34.000    18771160.108    76864787.338        2804.107          36.000  
> 2025 04 18 09 30 26.9840000  0 10                     
G06  18840833.760    99009189.331        -995.910          34.000    18840851.853    77150095.555        -776.504          39.000  
G25  18581040.744    97644001.022        -664.995          33.000    18581063.648    76086320.395        -518.395          36.000  
G05  15964303.926    83893196.853          97.308          40.000    15964309.993    65371475.704          75.812          40.000  
G11  17183018.455    90297478.191        -146.414          39.000    17183025.027    70361780.284        -113.710          40.000  
G19  19044470.377   100079102.243       -3295.862          32.000                                                                  
G20  16626997.665    87375653.520       -1325.520          40.000                                                                  
G12  18122821.335    95236038.847       -1892.564          35.000    18122838.017    74210274.300       -1474.239          37.000  
G13  16244931.381    85367867.576        2772.871          40.000                                                                  
G15  18113253.956    95185816.080        3855.340          36.000    18113271.864    74170900.479        3003.952          36.000  
G29  18770462.240    98639537.121        3598.105          34.000    18770475.334    76861983.302        2803.646          37.000  
> 2025 04 18 09 30 27.9840000  0 10                     
G06  18841023.300    99010185.765        -996.802          34.000    18841041.397    77150871.961        -776.373          38.000  
G25  18581167.347    97644666.627        -665.472          33.000    18581190.181    76086839.034        -518.715          36.000  
G05  15964285.437    83893099.639          97.028          40.000    15964291.504    65371399.956          75.671          41.000  
G11  17183046.300    90297624.439        -146.324          39.000    17183052.876    70361894.250        -114.054          40.000  
G19  19045097.654   100082397.747       -3296.161          33.000                                                                  
G20  16627249.996    87376979.022       -1325.864          40.000                                                                  
G12  18123181.357    95237931.124       -1892.616          35.000    18123198.238    74211748.828       -1474.538          37.000  
G13  16244403.639    85365094.501        2772.733          40.000                                                                  
G15  18112520.465    95181961.133        3855.020          36.000    18112538.253    74167896.634        3003.870          36.000  
G29  18769777.616    98635938.967        3598.202          34.000    18769790.573    76859179.534        2803.860          37.000  
> 2025 04 18 09 30 28.9840000  0 10                     
G06  18841213.024    99011182.308        -996.244          34.000    18841231.016    77151648.506        -776.310          38.000  
G25  18581294.070    97645332.686        -666.056          33.000    18581316.921    76087358.033        -519.234          36.000  
G05  15964267.070    83893002.828          96.564          40.000    15964273.070    65371324.524          74.988          41.000  
G11  17183074.150    90297770.835        -146.549          39.000    17183080.737    70362008.318        -114.286          40.000  
G19  19045724.977   100085693.470       -3295.447          32.000                                                                  
G20  16627502.222    87378304.643       -1325.814          40.000                                                                  
G12  18123541.438    95239823.717       -1892.986          35.000    18123558.439    74213223.546       -1474.694          36.000  
G13  16243876.149    85362321.908        2771.954          40.000                                                                  
G15  18111786.803    95178106.378        3854.838          36.000    18111804.660    74164892.941        3003.533          36.000  
G29  18769093.162    98632341.032        3598.092          34.000    18769105.930    76856375.994        2802.862          37.000  
> 2025 04 18 09 30 29.9840000  0 10                     
G06  18841402.713    99012179.055        -997.102          34.000    18841420.805    77152425.144        -776.581          38.000  
G25  18581420.907    97645999.123        -666.063          33.000    18581443.855    76087877.327        -519.733          36.000  
G05  15964248.653    83892906.345          96.350          40.000    15964254.773    65371249.355          75.012          41.000  
G11  17183101.985    90297917.340        -146.646          39.000    17183108.591    70362122.473        -114.203          40.000  
G19  19046352.144   100088989.449       -3296.167          32.000                                                                  
G20  16627754.518    87379630.332       -1326.095          40.000                                                                  
G12  18123901.566    95241716.510       -1892.844          35.000    18123918.634    74214698.440       -1474.679          36.000  
G13  16243348.657    85359549.713        2771.950          40.000                                                                  
G15  18111053.276    95174251.782        3854.704          36.000    18111071.237    74161889.370        3003.708          36.000  
G29  18768408.542    98628743.247        3597.792          34.000    18768421.339    76853572.502        2803.306          37.000  
> 2025 04 18 09 30 30.9840000  0 10                     
G06  18841592.251    99013175.957        -997.127          34.000    18841610.448    77153201.991        -777.107          38.000  
G25  18581547.765    97646666.117        -667.600          33.000    18581570.857    76088397.021        -519.729          36.000  
G05  15964230.352    83892810.308          95.789          40.000    15964236.450    65371174.523          74.493          41.000  
G11  17183129.758    90298064.071        -147.076          39.000    17183136.464    70362236.794        -114.429          40.000  
G19  19046979.409   100092285.705       -3296.338          32.000                                                                  
G20  16628006.750    87380956.184       -1325.959          41.000                                                                  
G12  18124261.824    95243609.642       -1893.343          35.000    18124278.887    74216173.599       -1475.040          36.000  
G13  16242821.277    85356778.060        2771.317          40.000                                                                  
G15  18110319.947    95170397.464        3854.210          35.000    18110337.748    74158886.027        3002.993          36.000  
G29  18767724.129    98625145.747        3597.383          34.000    18767736.737    76850769.259        2802.735          37.000  
> 2025 04 18 09 30 31.9840000  0 10                     
G06  18841782.020    99014173.157        -997.178          34.000    18841800.048    77153979.008        -776.828          38.000  
G25  18581674.735    97647333.582        -667.314          33.000    18581697.950    76088917.132        -520.009          36.000  
G05  15964212.130    83892714.756          95.581          40.000    15964218.269    65371100.080          74.091          41.000  
G11  17183157.608    90298211.042        -146.992          39.000    17183164.519    70362351.336        -114.566          40.000  
G19  19047606.797   100095582.354       -3296.887          32.000                                                                  
G20  16628259.030    87382282.287       -1326.100          41.000                                                                  
G12  18124622.119    95245503.133       -1893.470          35.000    18124639.139    74217649.056       -1475.314          36.000  
G13  16242293.955    85354006.992        2770.982          40.000                                                                  
G15  18109586.587    95166543.437        3854.476          36.000    18109604.351    74155882.912        3002.597          36.000  
G29  18767039.574    98621548.542        3596.905          34.000    18767052.251    76847966.236        2802.832          37.000  
> 2025 04 18 09 30 32.9840000  0 10                     
G06  18841971.858    99015170.349        -997.216          34.000    18841989.822    77154756.036        -777.115          38.000  
G25  18581801.725    97648001.341        -667.556          34.000    18581825.152    76089437.449        -520.238          36.000  
G05  15964193.975    83892619.419          95.355          40.000    15964200.094    65371025.796          73.926          41.000  
G11  17183185.639    90298357.997        -146.824          39.000    17183192.406    70362465.864        -114.642          40.000  
G19  19048234.119   100098879.031       -3296.851          32.000                                                                  
G20  16628511.323    87383608.326       -1325.938          40.000                                                                  
G12  18124982.492    95247396.737       -1893.593          34.000    18124999.484    74219124.577       -1475.543          36.000  
G13  16241766.721    85351236.212        2770.710          40.000                                                                  
G15  18108853.156    95162689.497        3853.703          36.000    18108870.860    74152879.804        3003.173          36.000  
G29  18766355.096    98617951.351        3597.328          34.000    18766367.784    76845163.242        2803.114          37.000  
> 2025 04 18 09 30 33.9840000  0 10                     
G06  18842161.677    99016167.426        -997.119          34.000    18842179.549    77155532.963        -776.638          38.000  
G25  18581928.988    97648669.321        -668.514          33.000    18581952.327    76089957.895        -520.654          36.000  
G05  15964175.852    83892524.177          95.093          40.000    15964181.978    65370951.576          74.017          40.000  
G11  17183213.603    90298504.846        -147.031          39.000    17183220.333    70362580.278        -114.435          40.000  
G19  19048861.521   100102175.718       -3296.857          32.000                                                                  
G20  16628763.622    87384934.210       -1325.909          40.000                                                                  
G12  18125342.802    95249290.340       -1893.945          35.000    18125359.787    74220600.083       -1475.571          36.000  
G13  16241239.490    85348465.653        2770.240          40.000                                                                  
G15  18108119.817    95158835.432        3853.978          36.000    18108137.513    74149876.650        3003.015          36.000  
G29  18765670.317    98614354.101        3596.864          34.000    18765683.269    76842360.198        2802.967          37.000  
> 2025 04 18 09 30 34.9840000  0 10                     
G06  18842351.416    99017164.664        -997.322          34.000    18842369.332    77156310.037        -777.389          38.000  
G25  18582056.044    97649337.656        -669.007          33.000    18582079.595    76090478.705        -521.127          36.000  
G05  15964157.759    83892429.323          94.586          40.000    15964163.879    65370877.652          73.877          41.000  
G11  17183241.617    90298651.842        -147.105          39.000    17183248.361    70362694.826        -114.914          41.000  
G19  19049488.831   100105472.623       -3296.796          33.000                                                                  
G20  16629016.088    87386260.218       -1326.316          40.000                                                                  
G12  18125703.267    95251184.185       -1894.172          35.000    18125720.137    74222075.801       -1476.035          36.000  
G13  16240712.319    85345695.539        2769.614          40.000                                                                  
G15  18107386.486    95154981.578        3853.585          35.000    18107404.141    74146873.677        3003.003          36.000  
G29  18764985.836    98610757.029        3596.619          33.000    18764998.819    76839557.292        2802.731          37.000  
> 2025 04 18 09 30 35.9840000  0 10                     
G06  18842541.230    99018162.167        -997.207          34.000    18842559.165    77157087.304        -777.492          38.000  
G25  18582183.418    97650006.540        -669.377          33.000    18582206.938    76090999.906        -521.279          36.000  
G05  15964139.822    83892334.926          94.257          40.000    15964145.966    65370804.128          73.267          41.000  
G11  17183269.743    90298799.097        -147.289          39.000    17183276.338    70362809.539        -114.610          41.000  
G19  19050116.271   100108769.887       -3297.095          33.000                                                                  
G20  16629268.482    87387586.423       -1326.152          40.000                                                                  
G12  18126063.650    95253078.379       -1894.375          35.000    18126080.688    74223551.784       -1475.564          36.000  
G13  16240185.279    85342925.977        2769.377          40.000                                                                  
G15  18106653.295    95151128.034        3853.192          35.000    18106670.819    74143870.898        3002.941          36.000  
G29  18764301.545    98607160.273        3596.798          33.000    18764314.359    76836754.664        2802.492          37.000  
> 2025 04 18 09 30 36.9840000  0 10                     
G06  18842731.118    99019159.862        -997.290          34.000    18842748.980    77157864.710        -777.546          38.000  
G25  18582310.714    97650675.910        -669.951          33.000    18582334.263    76091521.455        -521.405          36.000  
G05  15964121.875    83892240.952          93.890          40.000    15964128.060    65370730.898          72.998          41.000  
G11  17183297.884    90298946.542        -147.722          39.000    17183304.403    70362924.435        -114.989          41.000  
G19  19050743.719   100112067.462       -3298.517          32.000                                                                  
G20  16629520.762    87388912.766       -1326.273          41.000                                                                  
G12  18126424.199    95254972.899       -1894.600          35.000    18126441.172    74225028.041       -1476.372          37.000  
G13  16239658.276    85340156.935        2768.763          40.000                                                                  
G15  18105919.997    95147274.723        3853.353          35.000    18105937.603    74140868.354        3002.602          36.000  
G29  18763616.857    98603563.766        3596.066          33.000    18763629.976    76833952.170        2802.294          37.000  
> 2025 04 18 09 30 37.9840000  0 10                     
G06  18842921.068    99020157.837        -998.244          33.000    18842938.926    77158642.309        -777.407          38.000  
G25  18582438.296    97651345.781        -670.182          33.000    18582461.657    76092043.414        -521.773          36.000  
G05  15964104.101    83892147.444          93.481          40.000    15964110.281    65370658.041          72.394          40.000  
G11  17183326.039    90299094.198        -147.813          39.000    17183332.495    70363039.493        -115.186          41.000  
G19  19051371.197   100115365.290       -3298.205          33.000                                                                  
G20  16629773.145    87390239.332       -1326.714          40.000                                                                  
G12  18126784.812    95256867.754       -1895.047          35.000    18126801.722    74226504.540       -1476.919          37.000  
G13  16239131.349    85337388.438        2768.043          40.000                                                                  
G15  18105186.751    95143421.668        3853.156          35.000    18105204.346    74137866.025        3001.686          36.000  
G29  18762932.566    98599967.527        3595.914          33.000    18762945.649    76831149.911        2801.975          36.000  
> 2025 04 18 09 30 38.9840000  0 10                     
G06  18843111.085    99021155.875        -997.541          33.000    18843128.842    77159420.051        -778.003          38.000  
G25  18582566.013    97652016.059        -670.456          33.000    18582589.167    76092565.753        -523.097          36.000  
G05  15964086.348    83892054.291          92.834          40.000    15964092.563    65370585.438          72.333          40.000  
G11  17183354.139    90299241.979        -147.792          39.000    17183360.581    70363154.643        -115.099          40.000  
G19  19051998.734   100118663.365       -3298.090          32.000                                                                  
G20  16630025.621    87391565.961       -1326.725          40.000                                                                  
G12  18127145.409    95258762.846       -1895.104          35.000    18127162.430    74227981.227       -1476.998          37.000  
G13  16238604.537    85334620.380        2767.702          40.000                                                                  
G15  18104453.460    95139568.847        3852.486          35.000    18104471.131    74134863.779        3002.479          36.000  
G29  18762248.032    98596371.427        3596.180          33.000    18762261.204    76828347.779        2802.218          36.000  
> 2025 04 18 09 30 39.9840000  0 10                     
G06  18843301.036    99022154.123        -998.307          33.000    18843318.747    77160197.854        -777.708          38.000  
G25  18582693.570    97652686.766        -670.954          33.000    18582716.915    76093088.357        -523.113          36.000  
G05  15964068.699    83891961.474          92.798          40.000    15964074.926    65370513.114          72.345          41.000  
G11  17183382.354    90299389.920        -148.186          39.000    17183388.723    70363269.910        -115.240          40.000  
G19  19052626.384   100121961.731       -3299.164          32.000                                                                  
G20  16630278.029    87392892.703       -1327.002          40.000                                                                  
G12  18127506.078    95260658.200       -1895.985          35.000    18127523.087    74229458.093       -1477.109          36.000  
G13  16238077.848    85331852.758        2767.440          40.000                                                                  
G15  18103720.201    95135716.185        3852.283          36.000    18103738.039    74131861.734        3001.700          36.000  
G29  18761563.619    98592775.574        3595.417          33.000    18761576.966    76825545.809        2801.575          36.000  
> 2025 04 18 09 30 40.9840000  0 10                     
G06  18843491.005    99023152.584        -998.510          33.000    18843508.836    77160975.881        -778.095          38.000  
G25  18582821.230    97653357.971        -671.249          33.000    18582844.627    76093611.363        -523.429          36.000  
G05  15964051.088    83891869.142          92.316          40.000    15964057.304    65370441.171          71.838          41.000  
G11  17183410.506    90299538.063        -148.460          39.000    17183416.877    70363385.348        -115.399          41.000  
G19  19053253.980   100125260.315       -3298.584          32.000                                                                  
G20  16630530.547    87394219.639       -1327.217          40.000                                                                  
G12  18127866.777    95262553.857       -1895.773          34.000    18127883.847    74230935.220       -1477.204          37.000  
G13  16237551.287    85329085.690        2766.951          40.000                                                                  
G15  18102987.104    95131863.788        3852.299          36.000    18103004.992    74128859.876        3001.575          36.000  
G29  18760879.249    98589179.947        3595.934          33.000    18760892.705    76822744.029        2801.901          36.000  
> 2025 04 18 09 30 41.9840000  0 10                     
G06  18843681.002    99024151.069        -998.815          33.000    18843698.789    77161753.923        -778.322          38.000  
G25  18582949.129    97654029.519        -671.979          34.000    18582972.372    76094134.601        -523.399          36.000  
G05  15964033.477    83891777.041          92.023          40.000    15964039.798    65370369.409          71.613          41.000  
G11  17183438.694    90299686.222        -148.469          39.000    17183445.070    70363500.808        -115.554          41.000  
G19  19053881.718   100128559.043       -3298.535          32.000                                                                  
G20  16630783.052    87395546.518       -1326.708          40.000                                                                  
G12  18128227.563    95264449.659       -1895.476          34.000    18128244.646    74232412.469       -1477.199          36.000  
G13  16237024.789    85326318.943        2766.779          40.000                                                                  
G15  18102253.881    95128011.458        3852.555          36.000    18102271.954    74125858.062        3001.895          36.000  
G29  18760194.990    98585584.405        3595.384          34.000    18760208.422    76819942.341        2801.204          36.000  
> 2025 04 18 09 30 42.9840000  0 10                     
G06  18843871.092    99025149.630        -998.479          33.000    18843888.833    77162532.013        -778.668          38.000  
G25  18583076.881    97654701.342        -671.827          33.000    18583100.297    76094658.137        -523.940          36.000  
G05  15964016.093    83891685.254          91.309          40.000    15964022.158    65370297.883          71.320          40.000  
G11  17183466.800    90299834.441        -148.272          39.000    17183473.279    70363616.312        -115.823          40.000  
G19  19054509.432   100131857.930       -3298.877          32.000                                                                  
G20  16631035.622    87396873.468       -1327.144          40.000                                                                  
G12  18128588.452    95266345.662       -1896.295          34.000    18128605.443    74233889.856       -1477.621          36.000  
G13  16236498.434    85323552.589        2765.980          40.000                                                                  
G15  18101520.907    95124159.245        3852.269          36.000    18101538.866    74122856.370        3001.420          36.000  
G29  18759510.800    98581988.989        3595.315          34.000    18759524.292    76817140.681        2801.790          36.000  
> 2025 04 18 09 30 43.9840000  0 10                     
G06  18844061.150    99026148.399        -998.412          33.000    18844078.807    77163310.251        -778.333          38.000  
G25  18583204.927    97655373.700        -672.627          33.000    18583228.278    76095182.012        -524.205          36.000  
G05  15963998.732    83891593.858          91.345          40.000    15964004.823    65370226.682          70.874          41.000  
G11  17183495.060    90299982.882        -148.651          39.000    17183501.552    70363731.965        -115.784          41.000  
G19  19055137.258   100135157.151       -3299.518          32.000                                                                  
G20  16631288.205    87398200.552       -1327.115          40.000                                                                  
G12  18128949.264    95268241.943       -1896.163          35.000    18128966.369    74235367.457       -1477.429          36.000  
G13  16235972.123    85320786.748        2765.453          40.000                                                                  
G15  18100787.926    95120307.309        3851.792          36.000    18100805.814    74119854.852        3001.189          36.000  
G29  18758826.580    98578393.809        3594.945          34.000    18758840.139    76814339.284        2801.038          36.000  
> 2025 04 18 09 30 44.9840000  0 10                     
G06  18844251.161    99027147.389        -999.234          33.000    18844268.942    77164088.653        -778.351          38.000  
G25  18583333.038    97656046.507        -672.972          33.000    18583356.335    76095706.258        -524.260          36.000  
G05  15963981.463    83891502.891          90.753          40.000    15963987.463    65370155.786          70.996          41.000  
G11  17183523.407    90300131.497        -148.889          39.000    17183529.897    70363847.776        -115.812          40.000  
G19  19055765.132   100138456.574       -3298.285          32.000                                                                  
G20  16631540.615    87399527.784       -1327.096          40.000                                                                  
G12  18129310.218    95270138.545       -1897.103          35.000    18129327.237    74236845.333       -1478.249          36.000  
G13  16235445.919    85318021.393        2765.209          40.000                                                                  
G15  18100055.099    95116455.577        3851.675          36.000    18100072.922    74116853.509        3001.507          36.000  
G29  18758142.341    98574798.861        3594.952          34.000    18758155.952    76811538.014        2801.282          36.000  
> 2025 04 18 09 30 45.9840000  0 10                     
G06  18844441.249    99028146.326        -999.290          33.000    18844459.018    77164867.048        -778.480          38.000  
G25  18583460.952    97656719.553        -673.171          33.000    18583484.382    76096230.703        -524.583          36.000  
G05  15963964.097    83891412.110          90.662          40.000    15963970.267    65370085.051          70.752          41.000  
G11  17183551.655    90300280.073        -148.969          39.000    17183558.173    70363963.534        -115.672          40.000  
G19  19056393.109   100141756.160       -3300.067          32.000                                                                  
G20  16631793.228    87400854.967       -1327.057          40.000                                                                  
G12  18129671.093    95272035.211       -1896.875          35.000    18129688.163    74238323.245       -1478.083          36.000  
G13  16234919.741    85315256.338        2764.950          40.000                                                                  
G15  18099322.196    95112603.873        3851.894          36.000    18099339.953    74113852.220        3000.966          36.000  
G29  18757458.126    98571203.917        3594.784          34.000    18757471.782    76808736.739        2801.602          36.000  
> 2025 04 18 09 30 46.9840000  0 10                     
G06  18844631.326    99029145.401        -999.182          33.000    18844649.245    77165645.544        -778.879          38.000  
G25  18583589.051    97657393.027        -674.254          33.000    18583612.500    76096755.466        -524.433          36.000  
G05  15963946.870    83891321.682          90.027          40.000    15963953.059    65370014.593          70.221          41.000  
G11  17183579.908    90300428.765        -148.478          39.000    17183586.471    70364079.405        -115.938          41.000  
G19  19057020.972   100145055.873       -3299.567          32.000                                                                  
G20  16632045.909    87402182.220       -1327.351          40.000                                                                  
G12  18130032.058    95273932.127       -1897.121          35.000    18130049.197    74239801.345       -1478.424          36.000  
G13  16234393.646    85312491.708        2764.438          40.000                                                                  
G15  18098589.139    95108752.337        3851.413          36.000    18098607.112    74110851.032        3000.753          36.000  
G29  18756774.109    98567609.173        3594.889          34.000    18756787.754    76805935.664        2800.803          36.000  
> 2025 04 18 09 30 49.9840000  0 10                     
G06  18845201.800    99032143.419        -999.064          33.000    18845219.827    77167981.627        -778.373          38.000  
G25  18583974.021    97659415.855        -674.638          33.000    18583997.462    76098331.663        -525.554          36.000  
G05  15963895.828    83891052.505          89.282          40.000    15963901.845    65369804.864          69.580          41.000  
G11  17183664.964    90300875.619        -148.781          39.000    17183671.492    70364427.617        -116.208          41.000  
G19  19058904.897   100154956.452       -3300.659          32.000                                                                  
G20  16632803.639    87406164.529       -1327.300          40.000                                                                  
G12  18131114.964    95279624.271       -1897.738          35.000    18131132.466    74244236.741       -1478.706          36.000  
G13  16232815.921    85304200.468        2763.343          40.000                                                                  
G15  18096390.456    95097198.819        3850.829          36.000    18096408.489    74101848.308        3000.501          36.000  
G29  18754722.685    98556825.946        3594.636          34.000    18754735.618    76797533.159        2800.537          36.000  
> 2025 04 18 09 30 50.9840000  0 10                     
G06  18845392.032    99033142.892        -999.466          33.000    18845410.039    77168760.404        -778.612          38.000  
G25  18584102.166    97660090.725        -674.707          33.000    18584125.892    76098857.534        -525.897          36.000  
G05  15963878.776    83890963.271          89.056          40.000    15963884.955    65369735.342          69.409          41.000  
G11  17183693.287    90301024.640        -148.966          39.000    17183699.849    70364543.727        -116.115          41.000  
G19  19059532.974   100158256.842       -3300.116          32.000                                                                  
G20  16633056.223    87407491.933       -1327.151          40.000                                                                  
G12  18131476.115    95281521.922       -1897.501          35.000    18131493.600    74245715.441       -1478.891          36.000  
G13  16232290.042    85301437.425        2762.792          40.000                                                                  
G15  18095657.587    95093347.805        3851.035          36.000    18095675.702    74098847.510        3000.947          36.000  
G29  18754038.643    98553231.698        3594.485          34.000    18754051.798    76794732.426        2801.244          36.000  
> 2025 04 18 09 30 51.9840000  0 10                     
G06  18845582.208    99034142.110        -998.910          33.000    18845600.182    77169539.044        -778.860          38.000  
G25  18584230.821    97660765.734        -675.010          33.000    18584254.348    76099383.517        -526.405          36.000  
G05  15963861.851    83890874.090          89.142          40.000    15963867.930    65369665.862          69.214          40.000  
G11  17183721.613    90301173.484        -148.985          39.000    17183728.165    70364659.709        -116.112          41.000  
G19  19060161.098   100161557.182       -3300.165          32.000                                                                  
G20  16633308.836    87408819.153       -1327.554          40.000                                                                  
G12  18131837.215    95283419.514       -1898.018          35.000    18131854.677    74247194.057       -1478.804          36.000  
G13  16231764.147    85298674.498        2762.784          40.000                                                                  
G15  18094924.710    95089496.670        3850.969          36.000    18094942.796    74095846.649        3000.932          36.000  
G29  18753354.677    98549637.323        3594.360          34.000    18753367.837    76791931.634        2801.108          37.000  
> 2025 04 18 09 30 52.9840000  0 10                     
G06  18845772.315    99035141.470        -999.513          33.000    18845790.435    77170317.734        -778.859          38.000  
G25  18584359.343    97661441.105        -675.632          33.000    18584382.840    76099909.739        -526.343          36.000  
G05  15963844.980    83890785.255          88.568          40.000    15963850.971    65369596.616          69.006          41.000  
G11  17183749.906    90301322.379        -149.081          39.000    17183756.428    70364775.741        -116.323          41.000  
G19  19060789.027   100164857.705       -3300.464          32.000                                                                  
G20  16633561.444    87410146.375       -1327.456          40.000                                                                  
G12  18132198.332    95285317.283       -1898.132          34.000    18132215.876    74248672.823       -1478.583          36.000  
G13  16231238.410    85295911.995        2761.997          40.000                                                                  
G15  18094191.926    95085645.649        3850.513          36.000    18094209.966    74092845.869        3000.706          36.000  
G29  18752670.879    98546043.065        3594.325          34.000    18752683.841    76789130.938        2800.588          37.000  
> 2025 04 18 09 30 53.9840000  0 10                     
G06  18845962.437    99036141.112       -1000.669          33.000    18845980.670    77171096.651        -779.170          38.000  
G25  18584487.910    97662117.025        -676.975          33.000    18584511.420    76100436.406        -526.882          36.000  
G05  15963828.114    83890696.878          87.927          40.000    15963834.165    65369527.758          68.542          41.000  
G11  17183778.246    90301471.561        -149.487          39.000    17183784.862    70364891.978        -116.559          40.000  
G19  19061417.355   100168158.574       -3301.392          32.000                                                                  
G20  16633814.057    87411473.849       -1327.865          40.000                                                                  
G12  18132559.537    95287215.455       -1898.570          34.000    18132577.071    74250151.914       -1479.583          36.000  
G13  16230712.853    85293150.058        2761.434          40.000                                                                  
G15  18093459.268    95081794.954        3850.229          36.000    18093477.122    74089845.338        3000.308          36.000  
G29  18751987.062    98542449.169        3593.084          34.000    18751999.916    76786330.473        2800.170          37.000  
> 2025 04 18 09 30 54.9840000  0 10                     
G06  18846152.771    99037140.928        -999.674          33.000    18846170.959    77171875.763        -779.644          38.000  
G25  18584616.690    97662793.435        -677.007          33.000    18584640.179    76100963.490        -527.038          36.000  
G05  15963811.398    83890608.955          87.225          40.000    15963817.470    65369459.234          68.207          41.000  
G11  17183806.682    90301620.967        -149.579          39.000    17183813.212    70365008.381        -116.419          40.000  
G19  19062045.550   100171459.760       -3301.868          32.000                                                                  
G20  16634066.805    87412801.495       -1327.822          40.000                                                                  
G12  18132920.886    95289113.945       -1898.821          34.000    18132938.428    74251631.229       -1479.392          37.000  
G13  16230187.351    85290388.644        2760.908          40.000                                                                  
G15  18092726.610    95077944.534        3849.935          36.000    18092744.330    74086845.000        3000.493          36.000  
G29  18751303.281    98538855.452        3593.799          34.000    18751316.062    76783530.215        2800.208          37.000  
> 2025 04 18 09 30 55.9840000  0 10                     
G06  18846343.043    99038140.741       -1000.136          33.000    18846361.220    77172654.773        -779.177          38.000  
G25  18584745.367    97663470.016        -677.115          33.000    18584768.916    76101490.688        -527.400          36.000  
G05  15963794.601    83890521.125          87.628          40.000    15963800.830    65369390.831          68.256          41.000  
G11  17183834.985    90301770.264        -149.423          39.000    17183841.549    70365124.743        -116.742          40.000  
G19  19062673.777   100174760.912       -3301.868          32.000                                                                  
G20  16634319.464    87414129.019       -1327.567          40.000                                                                  
G12  18133282.068    95291012.435       -1898.630          34.000    18133299.663    74253110.579       -1479.699          37.000  
G13  16229661.949    85287627.472        2760.749          40.000                                                                  
G15  18091994.052    95074094.064        3850.398          36.000    18092011.546    74083844.681        2999.908          36.000  
G29  18750619.321    98535261.779        3593.319          34.000    18750632.217    76780729.938        2799.891          37.000  
> 2025 04 18 09 30 56.9840000  0 10                     
G06  18846533.322    99039140.641        -999.843          33.000    18846551.536    77173433.907        -779.035          38.000  
G25  18584874.175    97664147.003        -676.796          33.000    18584897.772    76102018.205        -527.971          36.000  
G05  15963777.905    83890433.697          87.238          40.000    15963784.146    65369322.703          67.865          41.000  
G11  17183863.441    90301919.702        -149.415          39.000    17183869.999    70365241.178        -116.762          40.000  
G19  19063301.967   100178062.333       -3302.148          32.000                                                                  
G20  16634572.106    87415456.618       -1327.346          40.000                                                                  
G12  18133643.368    95292911.184       -1898.540          34.000    18133660.950    74254590.122       -1479.829          37.000  
G13  16229136.641    85284866.733        2760.500          40.000                                                                  
G15  18091261.294    95070243.778        3850.210          36.000    18091278.872    74080844.471        2999.946          36.000  
G29  18749935.353    98531668.226        3593.325          34.000    18749948.388    76777929.783        2800.289          37.000  
> 2025 04 18 09 30 57.9840000  0 10                     
G06  18846723.643    99040140.745       -1000.479          33.000    18846741.912    77174213.226        -779.504          38.000  
G25  18585003.132    97664824.451        -677.371          33.000    18585026.662    76102546.101        -528.088          36.000  
G05  15963761.394    83890346.682          86.749          40.000    15963767.556    65369254.904          67.407          41.000  
G11  17183891.994    90302069.331        -149.890          39.000    17183898.494    70365357.763        -116.713          40.000  
G19  19063930.324   100181363.990       -3301.941          32.000                                                                  
G20  16634824.834    87416784.407       -1327.975          40.000                                                                  
G12  18134004.668    95294810.225       -1899.227          34.000    18134022.300    74256069.882       -1480.061          37.000  
G13  16228611.311    85282106.508        2759.693          40.000                                                                  
G15  18090528.585    95066393.751        3850.048          36.000    18090546.243    74077844.432        3000.116          36.000  
G29  18749251.644    98528074.951        3592.751          34.000    18749264.587    76775129.812        2800.037          37.000  
> 2025 04 18 09 30 58.9840000  0 10                     
G06  18846914.033    99041140.912       -1000.173          33.000    18846932.224    77174992.566        -779.346          38.000  
G25  18585132.122    97665502.321        -677.952          34.000    18585155.618    76103074.266        -528.426          36.000  
G05  15963744.877    83890259.945          86.658          40.000    15963751.054    65369187.312          67.755          41.000  
G11  17183920.538    90302219.017        -149.748          39.000    17183926.940    70365474.409        -116.709          40.000  
G19  19064558.655   100184665.808       -3302.057          32.000                                                                  
G20  16635077.470    87418112.184       -1327.645          40.000                                                                  
G12  18134366.093    95296709.452       -1899.556          34.000    18134383.664    74257549.784       -1480.035          37.000  
G13  16228086.067    85279346.665        2759.388          40.000                                                                  
G15  18089796.001    95062543.834        3850.233          36.000    18089813.639    74074844.506        3000.037          36.000  
G29  18748567.877    98524481.741        3593.136          34.000    18748580.825    76772329.930        2800.203          37.000  
> 2025 04 18 09 30 59.9840000  0 10                     
G06  18847104.333    99042141.273       -1001.587          33.000    18847122.477    77175772.032        -779.689          38.000  
G25  18585261.222    97666180.525        -678.977          33.000    18585284.740    76103602.716        -528.798          36.000  
G05  15963728.515    83890173.562          85.950          40.000    15963734.806    65369120.016          66.937          41.000  
G11  17183948.992    90302368.846        -150.311          39.000    17183955.421    70365591.152        -117.026          40.000  
G19  19065187.088   100187967.871       -3302.582          32.000                                                                  
G20  16635330.231    87419440.067       -1328.005          40.000                                                                  
G12  18134727.610    95298608.888       -1899.707          34.000    18134745.153    74259029.843       -1480.592          36.000  
G13  16227560.917    85276587.270        2758.733          40.000                                                                  
G15  18089063.432    95058694.075        3849.837          36.000    18089081.035    74071844.736        2999.179          36.000  
G29  18747884.017    98520888.742        3593.186          34.000    18747897.187    76769530.239        2799.215          37.000  
> 2025 04 18 09 31 00.9840000  0 10                     
G06  18847294.699    99043141.710       -1000.198          33.000    18847312.837    77176551.616        -779.689          38.000  
G25  18585390.449    97666859.200        -678.552          33.000    18585413.943    76104131.557        -529.269          36.000  
G05  15963712.186    83890087.600          85.577          40.000    15963718.397    65369053.013          66.974          41.000  
G11  17183977.479    90302518.806        -149.852          39.000    17183983.967    70365707.998        -116.630          40.000  
G19  19065815.592   100191270.162       -3302.331          32.000                                                                  
G20  16635582.884    87420768.079       -1327.872          40.000                                                                  
G12  18135089.143    95300508.628       -1900.008          34.000    18135106.729    74260510.118       -1480.006          36.000  
G13  16227035.884    85273828.314        2758.884          40.000                                                                  
G15  18088330.831    95054844.546        3849.824          36.000    18088348.373    74068845.082        2999.824          36.000  
G29  18747200.203    98517295.950        3593.284          34.000    18747213.510    76766730.642        2799.689          37.000  
> 2025 04 18 09 31 01.9840000  0 10                     
G06  18847485.126    99044142.347       -1000.917          33.000    18847503.272    77177331.304        -780.100          38.000  
G25  18585519.802    97667538.220        -678.801          33.000    18585543.164    76104660.659        -529.160          36.000  
G05  15963695.926    83890001.932          85.431          40.000    15963702.118    65368986.273          66.608          41.000  
G11  17184006.020    90302668.881        -150.082          39.000    17184012.534    70365824.961        -117.411          40.000  
G19  19066444.087   100194572.638       -3302.478          32.000                                                                  
G20  16635835.438    87422096.145       -1328.092          40.000                                                                  
G12  18135450.593    95302408.534       -1899.810          34.000    18135468.256    74261990.584       -1480.700          36.000  
G13  16226511.001    85271069.812        2758.279          40.000                                                                  
G15  18087598.313    95050995.188        3848.709          36.000    18087615.870    74065845.583        2998.945          36.000  
G29  18746516.663    98513703.329        3592.689          34.000    18746529.934    76763931.204        2799.149          37.000  
> 2025 04 18 09 31 02.9840000  0 10                     
G06  18847675.557    99045143.015       -1000.723          33.000    18847693.673    77178111.029        -780.115          38.000  
G25  18585649.244    97668217.640        -679.880          33.000    18585672.432    76105190.038        -529.612          36.000  
G05  15963679.673    83889916.558          85.028          40.000    15963685.859    65368919.739          66.614          41.000  
G11  17184034.605    90302819.020        -150.222          39.000    17184041.037    70365941.946        -116.997          40.000  
G19  19067072.574   100197875.274       -3302.802          32.000                                                                  
G20  16636088.114    87423424.221       -1327.852          40.000                                                                  
G12  18135812.182    95304308.607       -1899.503          34.000    18135829.692    74263471.183       -1481.006          36.000  
G13  16225986.135    85268311.666        2758.198          40.000                                                                  
G15  18086865.865    95047145.892        3849.452          36.000    18086883.290    74062846.183        2999.067          36.000  
G29  18745833.096    98510110.832        3592.116          34.000    18745846.369    76761131.847        2799.002          37.000  
> 2025 04 18 09 31 03.9840000  0 10                     
G06  18847866.105    99046143.826       -1001.062          33.000    18847884.156    77178890.864        -779.784          38.000  
G25  18585778.652    97668897.390        -679.937          33.000    18585801.711    76105719.711        -529.664          36.000  
G05  15963663.544    83889831.503          84.741          40.000    15963669.720    65368853.474          66.168          41.000  
G11  17184063.133    90302969.276        -150.389          39.000    17184069.673    70366059.002        -117.034          40.000  
G19  19067700.982   100201178.101       -3302.740          32.000                                                                  
G20  16636340.849    87424752.392       -1328.121          40.000                                                                  
G12  18136173.925    95306208.957       -1900.549          34.000    18136191.289    74264951.926       -1481.013          36.000  
G13  16225461.334    85265553.976        2757.405          40.000                                                                  
G15  18086133.360    95043296.773        3849.286          36.000    18086150.776    74059846.861        2999.275          36.000  
G29  18745149.617    98506518.418        3592.641          34.000    18745162.845    76758332.591        2799.052          37.000  
> 2025 04 18 09 31 04.9840000  0 10                     
G06  18848056.562    99047144.646       -1000.868          33.000    18848074.716    77179670.717        -779.414          38.000  
G25  18585908.065    97669577.503        -680.074          33.000    18585931.059    76106249.647        -529.912          36.000  
G05  15963647.418    83889746.733          84.650          40.000    15963653.518    65368787.408          66.144          41.000  
G11  17184091.716    90303119.556        -150.210          39.000    17184098.278    70366176.126        -117.250          40.000  
G19  19068329.513   100204481.075       -3303.235          32.000                                                                  
G20  16636593.600    87426080.547       -1327.911          40.000                                                                  
G12  18136535.437    95308109.413       -1900.397          34.000    18136552.973    74266432.773       -1480.728          36.000  
G13  16224936.537    85262796.604        2757.336          40.000                                                                  
G15  18085400.875    95039447.785        3848.760          35.000    18085418.373    74056847.640        2999.313          35.000  
G29  18744465.965    98502926.154        3592.433          34.000    18744479.339    76755533.431        2798.615          37.000  
> 2025 04 18 09 31 05.9840000  0 10                     
G06  18848247.066    99048145.602       -1001.531          33.000    18848265.313    77180450.675        -780.370          38.000  
G25  18586037.611    97670257.978        -680.928          33.000    18586060.542    76106779.880        -530.313          36.000  
G05  15963631.238    83889662.271          84.326          40.000    15963637.373    65368721.628          65.448          41.000  
G11  17184120.349    90303269.941        -150.809          39.000    17184126.952    70366293.308        -117.583          40.000  
G19  19068958.030   100207784.235       -3303.656          32.000                                                                  
G20  16636846.306    87427408.771       -1328.550          40.000                                                                  
G12  18136897.165    95310010.078       -1901.103          34.000    18136914.645    74267913.796       -1480.821          36.000  
G13  16224411.890    85260039.673        2756.359          40.000                                                                  
G15  18084668.440    95035598.885        3848.681          35.000    18084685.951    74053848.530        2998.705          36.000  
G29  18743782.508    98499334.026        3591.639          34.000    18743795.868    76752734.320        2799.627          37.000  
> 2025 04 18 09 31 06.9840000  0 10                     
G06  18848437.536    99049146.650       -1000.697          33.000    18848455.766    77181230.728        -780.202          38.000  
G25  18586166.904    97670938.854        -681.069          33.000    18586190.148    76107310.412        -530.450          36.000  
G05  15963615.238    83889578.168          83.777          40.000    15963621.359    65368656.077          65.363          40.000  
G11  17184148.938    90303420.425        -150.313          39.000    17184155.529    70366410.572        -117.263          40.000  
G19  19069586.590   100211087.581       -3303.253          32.000                                                                  
G20  16637099.083    87428737.055       -1328.201          40.000                                                                  
G12  18137258.852    95311910.936       -1900.372          35.000    18137276.519    74269395.009       -1481.074          36.000  
G13  16223887.330    85257283.143        2756.304          40.000                                                                  
G15  18083935.864    95031750.229        3848.458          36.000    18083953.574    74050849.565        2998.943          35.000  
G29  18743099.102    98495742.039        3592.214          34.000    18743112.215    76749935.428        2798.853          37.000  
> 2025 04 18 09 31 07.9840000  0 10                     
G06  18848628.054    99050147.949       -1001.555          33.000    18848646.292    77182010.949        -780.700          38.000  
G25  18586296.614    97671620.203        -681.787          33.000    18586319.829    76107841.309        -530.854          36.000  
G05  15963599.295    83889494.491          83.203          40.000    15963605.502    65368590.879          64.838          41.000  
G11  17184177.673    90303571.140        -150.878          39.000    17184184.123    70366528.006        -117.629          40.000  
G19  19070215.092   100214391.273       -3303.864          32.000                                                                  
G20  16637351.899    87430065.508       -1328.363          40.000                                                                  
G12  18137620.558    95313812.128       -1900.944          34.000    18137638.256    74270876.455       -1481.561          36.000  
G13  16223362.912    85254527.156        2755.512          40.000                                                                  
G15  18083203.523    95027901.744        3848.559          36.000    18083221.303    74047850.802        2998.254          35.000  
G29  18742415.587    98492150.316        3591.557          34.000    18742428.783    76747136.686        2798.608          37.000  
> 2025 04 18 09 31 08.9840000  0 10                     
G06  18848818.768    99051149.582       -1001.803          33.000    18848836.877    77182791.417        -780.473          38.000  
G25  18586426.506    97672302.132        -682.326          34.000    18586449.604    76108372.717        -531.975          36.000  
G05  15963583.479    83889411.329          83.014          40.000    15963589.613    65368526.077          64.771          41.000  
G11  17184206.502    90303722.143        -151.028          39.000    17184212.790    70366645.671        -117.977          40.000  
G19  19070843.851   100217695.295       -3303.778          32.000                                                                  
G20  16637604.755    87431394.244       -1328.660          40.000                                                                  
G12  18137982.527    95315713.765       -1901.857          34.000    18138000.075    74272358.207       -1481.691          36.000  
G13  16222838.612    85251771.796        2755.039          40.000                                                                  
G15  18082471.150    95024053.672        3848.245          36.000    18082489.056    74044852.261        2998.592          35.000  
G29  18741732.115    98488558.962        3591.520          34.000    18741745.313    76744338.217        2798.554          37.000  
> 2025 04 18 09 31 09.9840000  0 10                     
G06  18849009.296    99052151.295       -1001.792          33.000    18849027.442    77183571.966        -780.628          38.000  
G25  18586556.463    97672984.445        -682.336          34.000    18586579.506    76108904.383        -531.836          36.000  
G05  15963567.800    83889328.506          82.617          40.000    15963573.845    65368461.550          64.508          41.000  
G11  17184235.193    90303873.259        -151.174          39.000    17184241.570    70366763.413        -117.861          40.000  
G19  19071472.557   100220999.562       -3305.047          32.000                                                                  
G20  16637857.550    87432723.043       -1328.873          40.000                                                                  
G12  18138344.412    95317615.609       -1902.226          34.000    18138362.033    74273840.152       -1482.015          36.000  
G13  16222314.370    85249016.823        2754.931          40.000                                                                  
G15  18081738.897    95020205.747        3847.894          36.000    18081756.782    74041853.877        2998.860          36.000  
G29  18741048.665    98484967.776        3590.781          34.000    18741061.911    76741539.884        2798.383          37.000  
> 2025 04 18 09 31 10.9840000  0 10                     
G06  18849199.901    99053153.259       -1001.732          33.000    18849218.120    77184352.696        -780.424          38.000  
G25  18586686.569    97673667.326        -683.196          34.000    18586709.474    76109436.452        -532.236          36.000  
G05  15963552.187    83889246.169          82.208          40.000    15963558.235    65368397.390          64.105          41.000  
G11  17184263.953    90304024.605        -151.408          39.000    17184270.433    70366881.355        -118.080          40.000  
G19  19072101.330   100224304.142       -3304.803          32.000                                                                  
G20  16638110.555    87434052.029       -1328.843          40.000                                                                  
G12  18138706.246    95319517.736       -1901.377          34.000    18138724.097    74275322.359       -1482.402          36.000  
G13  16221790.238    85246262.431        2754.160          40.000                                                                  
G15  18081006.681    95016358.131        3847.626          36.000    18081024.544    74038855.737        2998.578          36.000  
G29  18740365.275    98481376.869        3590.469          34.000    18740378.650    76738741.773        2798.286          37.000  
> 2025 04 18 09 31 11.9840000  0 10                     
G06  18849390.538    99054155.310       -1002.206          33.000    18849408.836    77185133.477        -780.640          38.000  
G25  18586816.667    97674350.452        -683.369          33.000    18586839.486    76109968.736        -531.567          36.000  
G05  15963536.598    83889164.073          82.220          40.000    15963542.643    65368333.432          63.666          41.000  
G11  17184292.690    90304175.988        -151.344          39.000    17184299.258    70366999.305        -117.839          40.000  
G19  19072730.316   100227608.811       -3304.223          32.000                                                                  
G20  16638363.456    87435381.022       -1328.888          40.000                                                                  
G12  18139068.274    95321420.082       -1902.373          34.000    18139086.161    74276804.661       -1482.312          37.000  
G13  16221266.185    85243508.368        2754.116          40.000                                                                  
G15  18080274.362    95012510.588        3847.142          36.000    18080292.329    74035857.669        2998.461          36.000  
G29  18739681.983    98477786.005        3590.968          34.000    18739695.239    76735943.730        2798.157          37.000  
> 2025 04 18 09 31 12.9840000  0 10                     
G06  18849581.344    99055157.328       -1002.396          33.000    18849599.484    77185914.297        -781.118          38.000  
G25  18586946.671    97675033.834        -682.987          34.000    18586969.532    76110501.279        -532.554          36.000  
G05  15963520.949    83889082.219          82.013          40.000    15963527.067    65368269.656          63.477          41.000  
G11  17184321.548    90304327.380        -151.551          39.000    17184328.081    70367117.278        -118.111          40.000  
G19  19073359.297   100230913.570       -3304.053          32.000                                                                  
G20  16638616.327    87436709.978       -1329.117          40.000                                                                  
G12  18139430.307    95323322.482       -1902.294          34.000    18139448.166    74278287.067       -1482.573          36.000  
G13  16220742.078    85240754.649        2753.401          40.000                                                                  
G15  18079542.271    95008663.087        3847.369          36.000    18079560.195    74032859.648        2998.066          36.000  
G29  18738998.455    98474195.222        3590.832          34.000    18739011.812    76733145.745        2797.943          36.000  
> 2025 04 18 09 31 13.9840000  0 10                     
G06  18849772.091    99056159.499       -1001.798          33.000    18849790.270    77186695.204        -781.286          38.000  
G25  18587076.805    97675717.744        -683.849          34.000    18587099.797    76111034.170        -533.023          36.000  
G05  15963505.408    83889000.754          81.177          40.000    15963511.475    65368206.169          63.251          41.000  
G11  17184350.368    90304478.915        -151.546          39.000    17184356.918    70367235.361        -118.278          40.000  
G19  19073988.311   100234218.619       -3304.608          31.000                                                                  
G20  16638869.201    87438039.047       -1329.082          40.000                                                                  
G12  18139792.391    95325225.183       -1903.051          34.000    18139810.193    74279769.653       -1482.717          36.000  
G13  16220218.040    85238001.391        2752.853          40.000                                                                  
G15  18078810.141    95004815.824        3846.705          36.000    18078828.114    74029861.771        2997.912          36.000  
G29  18738315.164    98470604.672        3590.046          34.000    18738328.525    76730347.894        2797.554          36.000  
> 2025 04 18 09 31 14.9840000  0 10                     
G06  18849962.778    99057161.801       -1002.407          33.000    18849980.923    77187476.209        -781.413          38.000  
G25  18587207.147    97676401.965        -684.172          34.000    18587230.058    76111567.333        -533.760          36.000  
G05  15963489.965    83888919.584          80.853          40.000    15963495.959    65368142.931          62.860          41.000  
G11  17184379.209    90304630.557        -151.767          39.000    17184385.767    70367353.505        -118.136          40.000  
G19  19074617.296   100237523.841       -3305.200          32.000                                                                  
G20  16639122.204    87439368.160       -1329.041          40.000                                                                  
G12  18140154.510    95327128.074       -1903.589          34.000    18140172.410    74281252.384       -1482.229          36.000  
G13  16219694.162    85235248.523        2752.790          40.000                                                                  
G15  18078078.084    95000968.654        3847.230          36.000    18078096.088    74026864.001        2997.927          36.000  
G29  18737631.953    98467014.237        3590.590          34.000    18737645.261    76727550.150        2797.891          36.000  
> 2025 04 18 09 31 15.9840000  0 10                     
G06  18850153.527    99058164.178       -1002.120          33.000    18850171.730    77188257.281        -781.356          38.000  
G25  18587337.438    97677086.596        -685.474          33.000    18587360.467    76112100.759        -533.712          36.000  
G05  15963474.561    83888838.710          80.493          40.000    15963480.534    65368079.913          62.512          41.000  
G11  17184408.019    90304782.260        -151.602          39.000    17184414.682    70367471.732        -118.413          40.000  
G19  19075246.279   100240829.230       -3305.444          31.000                                                                  
G20  16639375.137    87440697.338       -1329.276          40.000                                                                  
G12  18140516.665    95329031.110       -1903.483          35.000    18140534.594    74282735.302       -1482.803          36.000  
G13  16219170.397    85232496.075        2752.038          40.000                                                                  
G15  18077346.076    94997121.652        3846.258          36.000    18077363.955    74023866.346        2997.576          36.000  
G29  18736948.798    98463423.935        3590.061          34.000    18736961.937    76724752.522        2797.521          36.000  
> 2025 04 18 09 31 16.9840000  0 10                     
G06  18850344.395    99059166.910       -1002.920          33.000    18850362.527    77189038.583        -781.261          38.000  
G25  18587468.067    97677771.749        -684.750          34.000    18587490.911    76112634.674        -534.354          36.000  
G05  15963459.263    83888758.381          79.926          40.000    15963465.205    65368017.314          62.286          41.000  
G11  17184436.967    90304934.314        -152.462          39.000    17184443.618    70367590.182        -118.534          40.000  
G19  19075875.403   100244135.031       -3305.798          31.000                                                                  
G20  16639628.184    87442026.795       -1329.784          40.000                                                                  
G12  18140878.921    95330934.607       -1903.886          34.000    18140896.794    74284218.567       -1483.815          36.000  
G13  16218646.759    85229744.262        2751.641          40.000                                                                  
G15  18076614.082    94993274.994        3846.470          36.000    18076631.986    74020868.974        2997.353          36.000  
G29  18736265.717    98459834.014        3590.054          34.000    18736278.778    76721955.178        2797.283          36.000  
> 2025 04 18 09 31 17.9840000  0 10                     
G06  18850535.205    99060169.830       -1003.384          32.000    18850553.430    77189820.061        -781.326          38.000  
G25  18587598.457    97678457.391        -685.366          33.000    18587621.360    76113168.911        -534.185          36.000  
G05  15963444.027    83888678.432          79.779          40.000    15963450.001    65367955.013          62.531          41.000  
G11  17184465.990    90305086.512        -152.286          39.000    17184472.560    70367708.791        -118.469          40.000  
G19  19076504.424   100247441.081       -3305.890          32.000                                                                  
G20  16639881.165    87443356.365       -1329.470          40.000                                                                  
G12  18141241.317    95332838.399       -1904.280          34.000    18141258.963    74285701.977       -1483.264          36.000  
G13  16218123.231    85226992.933        2751.288          40.000                                                                  
G15  18075882.138    94989428.583        3846.272          36.000    18075900.106    74017871.801        2996.962          36.000  
G29  18735582.629    98456244.286        3590.194          34.000    18735595.594    76719158.036        2796.972          37.000  
> 2025 04 18 09 31 18.9840000  0 10                     
G06  18850726.041    99061172.810       -1002.913          33.000    18850744.411    77190601.605        -781.464          38.000  
G25  18587729.117    97679143.435        -686.201          33.000    18587752.007    76113703.484        -535.025          36.000  
G05  15963428.833    83888598.812          79.657          40.000    15963434.875    65367892.990          61.823          41.000  
G11  17184494.922    90305238.811        -152.163          39.000    17184501.536    70367827.480        -118.750          40.000  
G19  19077133.506   100250747.314       -3306.781          32.000                                                                  
G20  16640134.153    87444686.001       -1329.359          40.000                                                                  
G12  18141603.720    95334742.334       -1903.183          34.000    18141621.387    74287185.576       -1482.993          36.000  
G13  16217599.777    85224242.021        2750.764          40.000                                                                  
G15  18075150.146    94985582.322        3846.194          35.000    18075168.157    74014874.704        2997.358          36.000  
G29  18734899.466    98452654.767        3589.409          34.000    18734912.514    76716360.971        2797.218          37.000  
> 2025 04 18 09 31 19.9840000  0 10                     
G06  18850916.861    99062175.959       -1003.315          33.000    18850935.307    77191383.269        -781.677          38.000  
G25  18587859.697    97679829.849        -686.899          34.000    18587882.674    76114238.309        -535.111          36.000  
G05  15963413.826    83888519.550          79.071          40.000    15963419.789    65367831.213          61.719          41.000  
G11  17184523.966    90305391.231        -152.354          39.000    17184530.513    70367946.234        -118.739          40.000  
G19  19077762.634   100254053.716       -3305.963          32.000                                                                  
G20  16640387.237    87446015.730       -1329.800          40.000                                                                  
G12  18141966.058    95336646.556       -1904.246          35.000    18141983.704    74288669.366       -1483.788          36.000  
G13  16217076.458    85221491.556        2750.154          40.000                                                                  
G15  18074418.220    94981736.234        3845.984          35.000    18074436.298    74011877.754        2997.129          36.000  
G29  18734216.198    98449065.384        3589.418          34.000    18734229.382    76713564.046        2797.036          37.000  
> 2025 04 18 09 31 20.9840000  0 10                     
G06  18851107.781    99063179.079       -1003.035          33.000    18851126.113    77192164.920        -781.554          38.000  
G25  18587990.424    97680516.516        -686.335          33.000    18588013.387    76114773.383        -534.879          36.000  
G05  15963398.759    83888440.483          79.193          40.000    15963404.654    65367769.623          61.420          41.000  
G11  17184552.988    90305543.664        -152.656          39.000    17184559.612    70368065.020        -119.205          40.000  
G19  19078391.891   100257360.310       -3307.281          32.000                                                                  
G20  16640640.197    87447345.410       -1329.875          40.000                                                                  
G12  18142328.423    95338550.839       -1904.038          34.000    18142346.165    74290153.246       -1484.196          37.000  
G13  16216553.157    85218741.400        2749.802          40.000                                                                  
G15  18073686.472    94977890.222        3845.543          35.000    18073704.417    74008880.865        2996.865          36.000  
G29  18733533.292    98445476.027        3589.535          35.000    18733546.366    76710767.181        2796.765          37.000  
> 2025 04 18 09 31 21.9840000  0 10                     
G06  18851298.485    99064182.267       -1003.243          33.000    18851316.984    77192946.601        -781.443          38.000  
G25  18588121.167    97681203.526        -687.214          33.000    18588144.123    76115308.696        -535.499          36.000  
G05  15963383.807    83888361.687          78.796          40.000    15963389.733    65367708.235          61.035          41.000  
G11  17184582.028    90305696.093        -152.527          39.000    17184588.636    70368183.780        -118.689          40.000  
G19  19079021.124   100260666.932       -3307.654          32.000                                                                  
G20  16640893.192    87448675.048       -1329.452          40.000                                                                  
G12  18142690.974    95340455.305       -1905.046          34.000    18142708.618    74291637.191       -1484.168          37.000  
G13  16216029.829    85215991.587        2749.342          40.000                                                                  
G15  18072954.580    94974044.219        3845.961          35.000    18072972.607    74005884.030        2996.364          36.000  
G29  18732850.359    98441886.807        3588.791          35.000    18732863.188    76707970.354        2796.819          37.000  
> 2025 04 18 09 31 22.9840000  0 10                     
G06  18851489.379    99065185.390       -1003.236          33.000    18851507.910    77193728.231        -781.189          38.000  
G25  18588251.944    97681890.712        -686.802          34.000    18588274.803    76115844.170        -535.708          36.000  
G05  15963368.870    83888283.039          78.571          40.000    15963374.737    65367646.939          61.359          41.000  
G11  17184611.092    90305848.462        -152.227          39.000    17184617.630    70368302.513        -118.741          40.000  
G19  19079650.536   100263973.569       -3306.689          31.000                                                                  
G20  16641146.230    87450004.610       -1329.487          40.000                                                                  
G12  18143053.330    95342359.745       -1904.447          34.000    18143071.108    74293121.188       -1483.956          37.000  
G13  16215506.611    85213242.017        2749.474          40.000                                                                  
G15  18072222.741    94970198.262        3845.637          36.000    18072240.779    74002887.174        2996.580          36.000  
G29  18732167.472    98438297.508        3589.102          35.000    18732180.187    76705173.514        2797.029          37.000  
> 2025 04 18 09 31 23.9840000  0 10                     
G06  18851680.164    99066188.580       -1003.101          33.000    18851698.794    77194509.953        -781.561          38.000  
G25  18588382.898    97682578.334        -688.317          34.000    18588405.548    76116379.936        -536.308          36.000  
G05  15963354.006    83888204.703          78.168          40.000    15963359.844    65367585.894          61.163          41.000  
G11  17184640.035    90306000.926        -152.302          39.000    17184646.651    70368421.327        -118.995          40.000  
G19  19080279.789   100267280.410       -3306.915          32.000                                                                  
G20  16641399.214    87451334.205       -1329.558          40.000                                                                  
G12  18143415.731    95344264.411       -1904.633          35.000    18143433.615    74294605.315       -1483.918          37.000  
G13  16214983.425    85210492.863        2749.227          40.000                                                                  
G15  18071490.946    94966352.435        3845.743          36.000    18071508.872    73999890.438        2996.488          36.000  
G29  18731484.631    98434708.397        3588.371          35.000    18731497.192    76702376.802        2796.494          37.000  
> 2025 04 18 09 31 24.9840000  0 10                     
G06  18851871.030    99067191.981       -1003.064          33.000    18851889.712    77195291.809        -781.737          38.000  
G25  18588513.934    97683266.276        -687.733          34.000    18588536.491    76116916.046        -536.618          35.000  
G05  15963339.137    83888126.743          77.783          40.000    15963345.044    65367525.161          60.486          41.000  
G11  17184669.187    90306153.553        -152.873          39.000    17184675.678    70368540.244        -118.906          40.000  
G19  19080909.132   100270587.494       -3307.648          32.000                                                                  
G20  16641652.269    87452663.914       -1329.556          40.000                                                                  
G12  18143778.357    95346169.333       -1904.989          34.000    18143796.157    74296089.676       -1484.676          37.000  
G13  16214460.327    85207744.200        2748.340          40.000                                                                  
G15  18070759.173    94962506.818        3845.996          36.000    18070777.024    73996893.859        2996.396          36.000  
G29  18730801.969    98431119.452        3588.818          35.000    18730814.228    76699580.219        2796.614          37.000  
> 2025 04 18 09 31 25.9840000  0 10                     
G06  18852061.965    99068195.716       -1003.789          33.000    18852080.655    77196073.918        -782.277          37.000  
G25  18588644.989    97683954.893        -688.481          34.000    18588667.550    76117452.604        -537.470          35.000  
G05  15963324.460    83888049.324          77.100          40.000    15963330.314    65367464.843          59.937          41.000  
G11  17184698.290    90306306.504        -153.628          39.000    17184704.850    70368659.425        -119.499          40.000  
G19  19081538.591   100273894.975       -3307.996          32.000                                                                  
G20  16641905.251    87453993.920       -1330.225          40.000                                                                  
G12  18144140.920    95348074.716       -1906.329          34.000    18144158.767    74297574.357       -1485.021          37.000  
G13  16213937.251    85204996.142        2747.826          40.000                                                                  
G15  18070027.312    94958661.576        3845.108          36.000    18070045.293    73993897.567        2995.800          36.000  
G29  18730119.367    98427530.903        3588.256          35.000    18730131.366    76696783.968        2795.933          37.000  
> 2025 04 18 09 31 26.9840000  0 10                     
G06  18852253.116    99069199.841       -1004.504          33.000    18852271.745    77196856.351        -782.465          37.000  
G25  18588776.171    97684644.146        -688.743          33.000    18588798.667    76117989.690        -537.615          35.000  
G05  15963309.773    83887972.538          76.508          40.000    15963315.747    65367405.017          59.332          41.000  
G11  17184727.454    90306459.826        -153.136          39.000    17184734.113    70368778.906        -119.626          40.000  
G19  19082168.156   100277202.963       -3307.898          32.000                                                                  
G20  16642158.385    87455324.272       -1330.327          40.000                                                                  
G12  18144503.628    95349980.531       -1905.235          34.000    18144521.465    74299059.439       -1485.336          36.000  
G13  16213414.522    85202248.853        2746.813          40.000                                                                  
G15  18069295.847    94954816.773        3844.800          36.000    18069313.557    73990901.638        2995.921          36.000  
G29  18729436.794    98423942.804        3588.209          35.000    18729448.720    76693988.077        2795.183          37.000  
> 2025 04 18 09 31 27.9840000  0 10                     
G06  18852444.210    99070204.126       -1004.285          33.000    18852462.854    77197638.905        -782.636          38.000  
G25  18588907.732    97685333.874        -690.040          34.000    18588929.905    76118527.077        -537.147          36.000  
G05  15963295.204    83887896.094          76.514          40.000    15963301.161    65367345.450          59.430          41.000  
G11  17184756.657    90306613.330        -153.452          39.000    17184763.328    70368898.529        -120.057          40.000  
G19  19082797.665   100280511.164       -3307.629          32.000                                                                  
G20  16642411.551    87456654.746       -1330.548          40.000                                                                  
G12  18144866.351    95351886.665       -1905.422          34.000    18144884.160    74300544.692       -1484.919          36.000  
G13  16212891.781    85199501.988        2746.490          40.000                                                                  
G15  18068564.386    94950972.191        3844.536          36.000    18068581.929    73987905.859        2995.787          36.000  
G29  18728754.368    98420354.908        3587.754          35.000    18728765.998    76691192.279        2795.714          37.000  
> 2025 04 18 09 31 28.9840000  0 10                     
G06  18852635.427    99071208.700       -1004.509          33.000    18852654.042    77198421.678        -782.971          38.000  
G25  18589039.077    97686024.123        -690.475          34.000    18589061.320    76119064.922        -537.983          36.000  
G05  15963280.747    83887820.163          75.421          40.000    15963286.707    65367286.277          58.923          41.000  
G11  17184785.938    90306767.096        -154.082          39.000    17184792.569    70369018.308        -119.827          41.000  
G19  19083427.263   100283819.726       -3308.630          32.000                                                                  
G20  16642664.762    87457985.421       -1330.553          40.000                                                                  
G12  18145229.061    95353793.150       -1906.676          34.000    18145247.039    74302030.266       -1485.684          36.000  
G13  16212369.097    85196755.714        2746.104          40.000                                                                  
G15  18067832.826    94947127.954        3843.663          36.000    18067850.363    73984910.361        2994.978          36.000  
G29  18728071.786    98416767.333        3587.464          35.000    18728083.297    76688396.768        2795.483          37.000  
> 2025 04 18 09 31 29.9840000  0 10                     
G06  18852826.623    99072213.277       -1004.199          33.000    18852845.326    77199204.489        -783.394          38.000  
G25  18589170.679    97686714.714        -691.446          34.000    18589192.605    76119603.023        -538.271          36.000  
G05  15963266.272    83887744.476          75.531          40.000    15963272.256    65367227.308          58.862          41.000  
G11  17184815.263    90306920.886        -153.898          39.000    17184821.857    70369138.151        -119.723          41.000  
G19  19084056.894   100287128.448       -3308.911          31.000                                                                  
G20  16642918.061    87459316.116       -1330.641          40.000                                                                  
G12  18145591.953    95355699.761       -1906.210          34.000    18145609.945    74303515.938       -1485.550          36.000  
G13  16211846.528    85194009.792        2746.017          40.000                                                                  
G15  18067101.261    94943283.776        3843.842          36.000    18067118.841    73981914.898        2995.625          36.000  
G29  18727389.224    98413179.829        3587.270          35.000    18727400.692    76685601.321        2795.599          37.000  
> 2025 04 18 09 31 30.9840000  0 10                     
G06  18853017.760    99073217.818       -1004.004          33.000    18853036.463    77199987.215        -782.640          37.000  
G25  18589302.127    97687405.456        -691.109          34.000    18589324.153    76120141.245        -538.448          36.000  
G05  15963251.774    83887668.940          75.543          40.000    15963257.908    65367168.457          58.514          41.000  
G11  17184844.510    90307074.600        -153.679          39.000    17184851.118    70369257.942        -119.820          40.000  
G19  19084686.410   100290437.119       -3308.258          31.000                                                                  
G20  16643171.311    87460646.703       -1330.613          40.000                                                                  
G12  18145954.864    95357606.457       -1906.846          34.000    18145972.802    74305001.635       -1486.055          36.000  
G13  16211324.137    85191264.124        2745.496          40.000                                                                  
G15  18066369.634    94939439.559        3844.017          36.000    18066387.261    73978919.431        2995.544          36.000  
G29  18726706.638    98409592.319        3587.656          34.000    18726717.996    76682805.873        2795.552          37.000  
> 2025 04 18 09 31 31.9840000  0 10                     
G06  18853208.910    99074222.274       -1004.406          33.000    18853227.562    77200769.879        -782.710          37.000  
G25  18589433.750    97688096.329        -690.552          34.000    18589455.671    76120679.610        -538.748          36.000  
G05  15963237.370    83887593.489          75.543          40.000    15963243.571    65367109.659          58.862          41.000  
G11  17184873.693    90307228.181        -153.442          39.000    17184880.413    70369377.613        -119.801          40.000  
G19  19085316.009   100293745.805       -3308.612          32.000                                                                  
G20  16643424.430    87461977.107       -1330.599          40.000                                                                  
G12  18146317.691    95359513.037       -1906.506          34.000    18146335.684    74306487.308       -1485.763          36.000  
G13  16210801.678    85188518.637        2745.211          40.000                                                                  
G15  18065638.172    94935595.272        3844.367          36.000    18065655.560    73975923.903        2995.001          36.000  
G29  18726024.236    98406004.690        3587.696          34.000    18726035.374    76680010.340        2795.409          37.000  
> 2025 04 18 09 31 32.9840000  0 10                     
G06  18853400.057    99075226.851       -1005.135          33.000    18853418.806    77201552.660        -783.232          38.000  
G25  18589565.344    97688787.647        -691.560          34.000    18589587.242    76121218.283        -539.263          35.000  
G05  15963223.089    83887518.415          74.750          40.000    15963229.301    65367051.162          58.270          41.000  
G11  17184902.872    90307381.915        -154.150          39.000    17184909.692    70369497.389        -119.933          40.000  
G19  19085945.602   100297054.684       -3308.887          32.000                                                                  
G20  16643677.656    87463307.596       -1330.997          40.000                                                                  
G12  18146680.591    95361419.913       -1906.990          34.000    18146698.506    74307973.173       -1486.602          36.000  
G13  16210279.272    85185773.586        2744.740          40.000                                                                  
G15  18064906.655    94931751.174        3843.795          36.000    18064924.031    73972928.505        2995.002          36.000  
G29  18725341.623    98402417.308        3586.732          34.000    18725352.768    76677214.966        2795.351          37.000  
> 2025 04 18 09 31 33.9840000  0 10                     
G06  18853591.269    99076231.529       -1004.516          33.000    18853609.976    77202335.525        -783.004          38.000  
G25  18589696.770    97689479.362        -691.808          34.000    18589718.818    76121757.288        -539.716          35.000  
G05  15963208.834    83887443.665          74.408          40.000    15963215.089    65366992.913          58.276          41.000  
G11  17184932.135    90307535.756        -153.976          39.000    17184938.941    70369617.273        -120.008          40.000  
G19  19086575.302   100300363.791       -3308.881          32.000                                                                  
G20  16643930.872    87464638.177       -1330.597          40.000                                                                  
G12  18147043.482    95363327.022       -1907.269          34.000    18147061.419    74309459.209       -1486.620          37.000  
G13  16209757.032    85183029.004        2744.407          40.000                                                                  
G15  18064175.089    94927907.222        3844.162          36.000    18064192.426    73969933.255        2995.275          35.000  
G29  18724659.088    98398830.045        3587.168          34.000    18724670.159    76674419.717        2795.234          37.000  
> 2025 04 18 09 31 34.9840000  0 10                     
G06  18853782.387    99077236.203       -1004.431          33.000    18853801.188    77203118.373        -782.511          38.000  
G25  18589828.309    97690171.306        -691.659          34.000    18589850.490    76122296.439        -539.006          35.000  
G05  15963194.628    83887369.087          74.420          40.000    15963200.878    65366934.797          58.337          41.000  
G11  17184961.381    90307689.539        -153.629          39.000    17184968.216    70369737.115        -119.640          40.000  
G19  19087205.029   100303672.970       -3309.888          32.000                                                                  
G20  16644184.059    87465968.651       -1330.183          40.000                                                                  
G12  18147406.196    95365234.130       -1906.619          34.000    18147424.393    74310945.265       -1485.678          36.000  
G13  16209234.771    85180284.677        2744.389          40.000                                                                  
G15  18063443.607    94924063.343        3844.221          36.000    18063460.928    73966938.007        2995.400          36.000  
G29  18723976.503    98395242.823        3587.318          34.000    18723987.670    76671624.472        2795.348          37.000  
> 2025 04 18 09 31 35.9840000  0 10                     
G06  18853973.537    99078240.772       -1004.190          33.000    18853992.286    77203901.124        -782.643          38.000  
G25  18589959.901    97690863.384        -691.733          33.000    18589982.257    76122835.738        -539.553          36.000  
G05  15963180.437    83887294.620          74.359          40.000    15963186.667    65366876.785          57.910          41.000  
G11  17184990.731    90307843.214        -153.367          39.000    17184997.403    70369856.856        -119.545          40.000  
G19  19087834.643   100306982.004       -3308.252          32.000                                                                  
G20  16644437.133    87467298.985       -1330.148          40.000                                                                  
G12  18147768.976    95367141.284       -1907.152          34.000    18147787.273    74312431.359       -1486.520          37.000  
G13  16208712.598    85177540.556        2744.123          40.000                                                                  
G15  18062712.117    94920219.326        3844.677          36.000    18062729.400    73963942.727        2995.148          36.000  
G29  18723293.782    98391655.530        3587.262          34.000    18723305.068    76668829.185        2795.281          37.000  
> 2025 04 18 09 31 36.9840000  0 10                     
G06  18854164.779    99079245.292       -1004.565          33.000    18854183.464    77204683.877        -782.975          38.000  
G25  18590091.789    97691555.785        -693.237          34.000    18590113.984    76123375.198        -539.778          36.000  
G05  15963166.323    83887220.324          74.066          40.000    15963172.585    65366818.900          57.617          41.000  
G11  17185019.984    90307996.867        -153.497          39.000    17185026.685    70369976.583        -119.807          40.000  
G19  19088464.407   100310291.179       -3309.375          32.000                                                                  
G20  16644690.227    87468629.227       -1330.228          40.000                                                                  
G12  18148131.830    95369048.503       -1907.446          34.000    18148150.133    74313917.468       -1486.488          37.000  
G13  16208190.445    85174796.719        2743.504          40.000                                                                  
G15  18061980.611    94916375.411        3843.765          36.000    18061997.845    73960947.432        2995.082          36.000  
G29  18722611.127    98388068.213        3587.143          34.000    18722622.403    76666033.896        2795.108          37.000  
> 2025 04 18 09 31 37.9840000  0 10                     
G06  18854355.898    99080250.150       -1005.030          33.000    18854374.772    77205466.872        -783.352          38.000  
G25  18590223.824    97692248.660        -692.979          34.000    18590245.921    76123915.126        -540.515          36.000  
G05  15963152.256    83887146.542          73.627          40.000    15963158.490    65366761.410          57.446          41.000  
G11  17185049.287    90308150.801        -153.890          39.000    17185055.957    70370096.542        -119.976          40.000  
G19  19089094.142   100313600.717       -3309.497          32.000                                                                  
G20  16644943.504    87469959.726       -1330.348          40.000                                                                  
G12  18148494.862    95370956.091       -1907.900          34.000    18148513.131    74315403.882       -1486.426          37.000  
G13  16207668.405    85172053.489        2742.976          40.000                                                                  
G15  18061249.195    94912531.810        3843.615          36.000    18061266.429    73957952.395        2995.291          36.000  
G29  18721928.663    98384481.267        3587.000          34.000    18721939.805    76663238.890        2794.873          37.000  
> 2025 04 18 09 31 38.9840000  0 10                     
G06  18854547.098    99081255.071       -1004.894          33.000    18854565.990    77206249.905        -783.032          38.000  
G25  18590355.998    97692941.982        -694.197          34.000    18590377.837    76124455.324        -540.264          36.000  
G05  15963138.273    83887073.089          73.267          40.000    15963144.542    65366704.156          57.440          41.000  
G11  17185078.555    90308304.853        -154.292          39.000    17185085.254    70370216.562        -120.068          40.000  
G19  19089723.873   100316910.421       -3308.917          31.000                                                                  
G20  16645196.787    87471290.294       -1330.629          40.000                                                                  
G12  18148857.867    95372863.885       -1907.554          34.000    18148876.214    74316890.470       -1486.830          37.000  
G13  16207146.453    85169310.682        2742.591          40.000                                                                  
G15  18060517.748    94908688.321        3843.511          36.000    18060535.045    73954957.528        2994.775          36.000  
G29  18721246.103    98380894.480        3586.879          34.000    18721257.228    76660443.976        2795.101          37.000  
> 2025 04 18 09 31 39.9840000  0 10                     
G06  18854738.447    99082260.275       -1004.763          33.000    18854757.248    77207033.197        -783.400          38.000  
G25  18590487.969    97693635.790        -694.256          34.000    18590509.843    76124995.949        -540.245          36.000  
G05  15963124.381    83887000.146          72.400          40.000    15963130.622    65366647.329          56.555          41.000  
G11  17185107.957    90308459.145        -154.320          39.000    17185114.639    70370336.803        -120.346          41.000  
G19  19090353.720   100320220.507       -3310.120          32.000                                                                  
G20  16645450.093    87472621.066       -1330.583          40.000                                                                  
G12  18149220.938    95374772.045       -1907.904          34.000    18149239.361    74318377.337       -1486.503          37.000  
G13  16206624.564    85166568.464        2741.932          40.000                                                                  
G15  18059786.427    94904845.239        3842.749          35.000    18059803.658    73951962.889        2994.273          36.000  
G29  18720563.616    98377308.034        3586.169          34.000    18720574.696    76657649.344        2794.500          37.000  
> 2025 04 18 09 31 40.9840000  0 10                     
G06  18854929.718    99083265.677       -1005.630          33.000    18854948.550    77207816.582        -783.577          38.000  
G25  18590620.114    97694329.984        -694.368          34.000    18590641.988    76125536.902        -541.349          36.000  
G05  15963110.489    83886927.510          72.089          40.000    15963116.856    65366590.729          56.335          41.000  
G11  17185137.390    90308613.579        -154.631          39.000    17185143.987    70370457.135        -120.677          41.000  
G19  19090983.733   100323530.783       -3309.918          31.000                                                                  
G20  16645703.250    87473951.952       -1331.182          40.000                                                                  
G12  18149584.177    95376680.492       -1908.755          34.000    18149602.560    74319864.410       -1487.452          37.000  
G13  16206102.789    85163826.684        2741.549          40.000                                                                  
G15  18059055.140    94901002.280        3842.214          36.000    18059072.340    73948968.400        2993.955          36.000  
G29  18719881.117    98373721.728        3585.873          34.000    18719892.227    76654854.845        2793.970          37.000  
> 2025 04 18 09 31 41.9840000  0 10                     
G06  18855121.108    99084271.345       -1004.356          33.000    18855139.972    77208600.244        -783.724          38.000  
G25  18590752.470    97695024.867        -694.531          34.000    18590774.176    76126078.320        -541.153          36.000  
G05  15963096.770    83886855.449          72.064          40.000    15963103.115    65366534.602          55.994          41.000  
G11  17185166.871    90308768.346        -154.486          39.000    17185173.417    70370577.738        -120.582          41.000  
G19  19091613.706   100326841.554       -3310.888          31.000                                                                  
G20  16645956.491    87475283.136       -1331.331          40.000                                                                  
G12  18149947.390    95378589.348       -1908.900          34.000    18149965.788    74321351.843       -1487.766          37.000  
G13  16205581.198    85161085.589        2740.963          40.000                                                                  
G15  18058323.980    94897159.739        3842.511          36.000    18058341.145    73945974.231        2993.956          36.000  
G29  18719198.725    98370135.833        3586.257          35.000    18719209.830    76652060.655        2794.145          37.000  
> 2025 04 18 09 31 42.9840000  0 10                     
G06  18855312.551    99085277.244       -1006.166          33.000    18855331.400    77209384.000        -783.444          38.000  
G25  18590884.650    97695720.092        -695.427          34.000    18590906.391    76126620.059        -542.007          35.000  
G05  15963083.082    83886783.739          71.356          40.000    15963089.446    65366478.727          55.566          41.000  
G11  17185196.421    90308923.249        -154.918          39.000    17185202.867    70370698.435        -120.749          41.000  
G19  19092243.703   100330152.433       -3310.828          31.000                                                                  
G20  16646209.799    87476614.386       -1331.138          40.000                                                                  
G12  18150310.739    95380498.444       -1909.658          33.000    18150329.086    74322839.429       -1487.676          37.000  
G13  16205059.606    85158344.921        2740.210          40.000                                                                  
G15  18057592.616    94893317.358        3842.109          36.000    18057609.957    73942980.168        2994.051          36.000  
G29  18718516.439    98366550.142        3585.423          35.000    18718527.618    76649266.594        2794.002          37.000  
> 2025 04 18 09 31 43.9840000  0 10                     
G06  18855504.057    99086283.437       -1006.719          33.000    18855522.796    77210168.061        -784.328          38.000  
G25  18591017.000    97696415.967        -696.284          34.000    18591038.944    76127162.291        -542.789          35.000  
G05  15963069.493    83886712.584          70.770          40.000    15963075.982    65366423.270          55.273          41.000  
G11  17185225.932    90309078.495        -155.659          39.000    17185232.490    70370819.401        -121.319          41.000  
G19  19092873.826   100333463.788       -3311.639          31.000                                                                  
G20  16646463.077    87477945.947       -1331.892          40.000                                                                  
G12  18150674.268    95382407.963       -1909.839          34.000    18150692.457    74324327.328       -1488.059          37.000  
G13  16204538.131    85155604.900        2739.723          40.000                                                                  
G15  18056861.528    94889475.368        3841.799          36.000    18056878.852    73939986.421        2993.443          36.000  
G29  18717834.237    98362964.804        3585.021          35.000    18717845.324    76646472.824        2793.807          37.000  
> 2025 04 18 09 31 44.9840000  0 10                     
G06  18855695.574    99087290.101       -1007.599          33.000    18855714.318    77210952.425        -784.269          38.000  
G25  18591149.466    97697112.495        -696.771          34.000    18591171.428    76127705.041        -543.183          35.000  
G05  15963056.112    83886642.071          70.331          40.000    15963062.544    65366368.338          54.865          41.000  
G11  17185255.623    90309234.149        -155.860          39.000    17185262.221    70370940.675        -121.410          41.000  
G19  19093504.050   100336775.675       -3312.354          31.000                                                                  
G20  16646716.589    87479277.879       -1332.145          40.000                                                                  
G12  18151037.778    95384317.978       -1910.292          34.000    18151055.924    74325815.659       -1488.108          36.000  
G13  16204016.815    85152865.625        2738.965          40.000                                                                  
G15  18056130.423    94885633.884        3841.104          36.000    18056147.914    73936993.069        2992.890          36.000  
G29  18717152.120    98359379.994        3584.196          35.000    18717163.107    76643679.454        2792.859          37.000  
> 2025 04 18 09 31 45.9840000  0 10                     
G06  18855887.213    99088297.125       -1007.283          33.000    18855905.876    77211737.150        -785.005          38.000  
G25  18591282.283    97697809.761        -697.638          34.000    18591304.129    76128248.312        -543.458          36.000  
G05  15963042.899    83886572.202          69.598          40.000    15963049.258    65366313.895          54.169          41.000  
G11  17185285.330    90309390.223        -156.753          39.000    17185291.891    70371062.282        -121.510          41.000  
G19  19094134.410   100340088.030       -3312.945          31.000                                                                  
G20  16646970.089    87480610.189       -1332.744          40.000                                                                  
G12  18151401.283    95386228.537       -1910.914          34.000    18151419.438    74327304.395       -1489.156          36.000  
G13  16203495.703    85150127.088        2738.251          40.000                                                                  
G15  18055399.548    94881792.828        3840.387          36.000    18055417.025    73934000.031        2993.027          36.000  
G29  18716470.084    98355795.587        3584.118          35.000    18716480.951    76640886.422        2792.642          37.000  
> 2025 04 18 09 31 46.9840000  0 10                     
G06  18856078.967    99089304.568       -1007.744          33.000    18856097.565    77212522.125        -784.932          38.000  
G25  18591414.988    97698507.620        -698.186          34.000    18591436.901    76128792.123        -543.873          36.000  
G05  15963029.757    83886502.920          69.324          40.000    15963036.172    65366259.909          54.004          40.000  
G11  17185315.109    90309546.664        -156.541          39.000    17185321.594    70371184.195        -121.722          41.000  
G19  19094764.808   100343400.799       -3311.792          31.000                                                                  
G20  16647223.656    87481942.805       -1332.219          40.000                                                                  
G12  18151764.964    95388139.558       -1910.661          34.000    18151783.071    74328793.495       -1488.956          36.000  
G13  16202974.806    85147389.238        2737.917          40.000                                                                  
G15  18054668.658    94877952.198        3840.822          36.000    18054686.173    73931007.367        2993.025          36.000  
G29  18715788.046    98352211.629        3583.652          35.000    18715798.949    76638093.736        2792.513          37.000  
> 2025 04 18 09 31 47.9840000  0 10                     
G06  18856270.686    99090311.988       -1008.240          33.000    18856289.299    77213307.115        -784.978          38.000  
G25  18591547.933    97699205.766        -698.392          34.000    18591569.695    76129336.115        -544.462          36.000  
G05  15963016.544    83886433.817          68.787          40.000    15963022.939    65366206.080          53.381          40.000  
G11  17185344.887    90309703.067        -156.497          39.000    17185351.281    70371306.066        -122.000          41.000  
G19  19095395.142   100346713.720       -3313.324          32.000                                                                  
G20  16647477.287    87483275.392       -1333.131          40.000                                                                  
G12  18152128.552    95390050.686       -1911.925          34.000    18152146.752    74330282.657       -1489.133          36.000  
G13  16202453.895    85144651.696        2737.034          40.000                                                                  
G15  18053937.937    94874111.619        3840.234          36.000    18053955.364    73928014.723        2992.236          36.000  
G29  18715106.041    98348627.683        3583.621          35.000    18715116.951    76635301.065        2792.318          37.000  
> 2025 04 18 09 31 48.9840000  0 10                     
G06  18856462.458    99091319.476       -1007.136          33.000    18856481.015    77214092.198        -785.070          38.000  
G25  18591681.044    97699904.296        -698.956          34.000    18591702.672    76129880.394        -544.501          36.000  
G05  15963003.608    83886365.075          68.427          40.000    15963009.817    65366152.506          53.259          41.000  
G11  17185374.713    90309859.588        -156.584          39.000    17185381.081    70371428.033        -121.860          41.000  
G19  19096025.517   100350026.739       -3312.659          31.000                                                                  
G20  16647730.940    87484608.016       -1332.732          40.000                                                                  
G12  18152492.332    95391961.996       -1911.766          34.000    18152510.405    74331772.010       -1489.715          36.000  
G13  16201933.156    85141914.570        2736.838          40.000                                                                  
G15  18053207.162    94870271.222        3840.367          36.000    18053224.543    73925022.204        2992.434          36.000  
G29  18714424.094    98345043.890        3583.980          35.000    18714434.987    76632508.506        2792.530          37.000  
> 2025 04 18 09 31 49.9840000  0 10                     
G06  18856654.236    99092327.164       -1007.822          33.000    18856672.808    77214877.391        -785.391          38.000  
G25  18591814.020    97700603.226        -699.373          34.000    18591835.707    76130424.996        -544.802          36.000  
G05  15962990.721    83886296.655          67.981          40.000    15962996.816    65366099.196          53.210          41.000  
G11  17185404.540    90310016.260        -156.898          39.000    17185410.848    70371550.106        -122.031          41.000  
G19  19096656.044   100353340.027       -3313.226          31.000                                                                  
G20  16647984.516    87485940.719       -1332.572          40.000                                                                  
G12  18152856.045    95393873.556       -1912.321          34.000    18152874.107    74333261.494       -1489.792          36.000  
G13  16201412.371    85139177.895        2736.231          40.000                                                                  
G15  18052476.304    94866430.962        3840.090          36.000    18052493.872    73922029.804        2992.436          36.000  
G29  18713742.240    98341460.317        3583.632          35.000    18713753.066    76629716.112        2792.390          37.000  
> 2025 04 18 09 31 50.9840000  0 10                     
G06  18856846.069    99093335.077       -1008.234          33.000    18856864.641    77215662.755        -785.851          38.000  
G25  18591947.190    97701302.625        -699.949          34.000    18591968.861    76130969.981        -545.265          36.000  
G05  15962977.762    83886228.659          67.401          40.000    15962983.877    65366046.225          52.490          41.000  
G11  17185434.283    90310173.118        -157.378          39.000    17185440.705    70371672.338        -122.475          41.000  
G19  19097286.500   100356653.630       -3314.270          32.000                                                                  
G20  16648238.125    87487273.616       -1333.198          40.000                                                                  
G12  18153219.834    95395785.390       -1912.640          34.000    18153237.926    74334751.213       -1489.732          36.000  
G13  16200891.727    85136441.757        2735.461          40.000                                                                  
G15  18051745.598    94862590.966        3840.043          36.000    18051763.192    73919037.643        2991.572          36.000  
G29  18713060.255    98337877.001        3583.044          35.000    18713071.192    76626923.926        2791.740          37.000  
> 2025 04 18 09 31 51.9840000  0 10                     
G06  18857037.981    99094343.166       -1007.916          33.000    18857056.493    77216448.296        -785.664          38.000  
G25  18592080.466    97702002.548        -700.992          34.000    18592102.016    76131515.343        -545.605          36.000  
G05  15962965.007    83886161.122          67.242          40.000    15962970.925    65365993.582          52.527          41.000  
G11  17185464.178    90310330.187        -157.195          39.000    17185470.683    70371794.730        -122.400          41.000  
G19  19097917.072   100359967.463       -3314.587          32.000                                                                  
G20  16648491.857    87488606.670       -1332.982          40.000                                                                  
G12  18153583.667    95397697.565       -1912.651          34.000    18153601.871    74336241.216       -1489.583          37.000  
G13  16200371.221    85133706.155        2735.204          40.000                                                                  
G15  18051014.991    94858751.292        3839.614          36.000    18051032.474    73916045.679        2991.649          36.000  
G29  18712378.510    98334293.931        3583.273          35.000    18712389.387    76624131.911        2792.049          37.000  
> 2025 04 18 09 31 52.9840000  0 10                     
G06  18857229.830    99095351.256       -1008.242          34.000    18857248.319    77217233.793        -785.424          38.000  
G25  18592213.594    97702702.653        -700.856          34.000    18592235.242    76132060.874        -545.643          36.000  
G05  15962952.272    83886093.724          67.383          40.000    15962958.118    65365941.072          52.557          41.000  
G11  17185494.031    90310487.234        -157.272          39.000    17185500.531    70371917.095        -122.521          41.000  
G19  19098547.575   100363281.345       -3313.428          31.000                                                                  
G20  16648745.590    87489939.649       -1332.915          40.000                                                                  
G12  18153947.554    95399609.760       -1912.102          34.000    18153965.737    74337731.253       -1490.344          37.000  
G13  16199850.731    85130970.817        2734.999          40.000                                                                  
G15  18050284.299    94854911.617        3839.439          36.000    18050301.766    73913053.718        2992.084          36.000  
G29  18711696.784    98330710.877        3583.062          35.000    18711707.515    76621339.942        2791.870          37.000  
> 2025 04 18 09 31 53.9840000  0 10                     
G06  18857421.687    99096359.506       -1008.691          33.000    18857440.224    77218019.438        -785.923          38.000  
G25  18592346.944    97703403.155        -700.116          34.000    18592368.520    76132606.736        -545.923          36.000  
G05  15962939.458    83886026.736          66.278          40.000    15962945.462    65365888.871          52.130          41.000  
G11  17185523.931    90310644.402        -157.376          39.000    17185530.461    70372039.581        -122.674          40.000  
G19  19099178.258   100366595.512       -3314.069          31.000                                                                  
G20  16648999.326    87491272.717       -1333.105          40.000                                                                  
G12  18154311.557    95401522.269       -1913.036          34.000    18154329.679    74339221.497       -1490.515          37.000  
G13  16199330.227    85128235.956        2734.499          40.000                                                                  
G15  18049553.594    94851072.123        3839.409          36.000    18049571.141    73910061.929        2991.591          36.000  
G29  18711015.003    98327128.022        3582.794          35.000    18711025.742    76618548.093        2791.877          37.000  
> 2025 04 18 09 31 54.9840000  0 10                     
G06  18857613.486    99097367.949       -1008.676          33.000    18857632.107    77218805.205        -785.706          38.000  
G25  18592480.267    97704104.194        -701.173          34.000    18592501.945    76133152.990        -546.800          36.000  
G05  15962926.717    83885960.113          66.547          40.000    15962932.818    65365836.970          51.898          41.000  
G11  17185553.879    90310801.773        -157.476          39.000    17185560.507    70372162.192        -122.615          40.000  
G19  19099808.902   100369909.928       -3314.459          31.000                                                                  
G20  16649252.980    87492605.955       -1333.646          40.000                                                                  
G12  18154675.524    95403435.012       -1913.468          34.000    18154693.773    74340711.931       -1490.620          37.000  
G13  16198809.947    85125501.592        2734.100          40.000                                                                  
G15  18048823.005    94847232.880        3839.276          36.000    18048840.607    73907070.326        2991.280          36.000  
G29  18710333.323    98323545.420        3582.309          35.000    18710344.012    76615756.460        2791.583          37.000  
> 2025 04 18 09 31 55.9840000  0 10                     
G06  18857805.586    99098376.617       -1008.832          34.000    18857824.062    77219591.192        -786.486          38.000  
G25  18592613.793    97704805.711        -702.375          34.000    18592635.456    76133699.577        -546.914          36.000  
G05  15962914.201    83885893.941          66.046          40.000    15962920.229    65365785.421          51.385          41.000  
G11  17185583.742    90310959.338        -157.579          39.000    17185590.403    70372284.986        -122.780          41.000  
G19  19100439.757   100373224.632       -3315.063          31.000                                                                  
G20  16649506.747    87493939.324       -1333.428          40.000                                                                  
G12  18155039.504    95405348.042       -1913.322          34.000    18155057.856    74342202.623       -1490.559          37.000  
G13  16198289.658    85122767.747        2733.879          40.000                                                                  
G15  18048092.547    94843393.893        3838.799          36.000    18048110.112    73904078.916        2991.614          36.000  
G29  18709651.550    98319963.039        3582.578          35.000    18709662.190    76612965.010        2791.572          37.000  
> 2025 04 18 09 32 03.9840000  0 10                     
G06  18859341.967    99106450.010       -1009.687          34.000    18859360.240    77225882.038        -786.615          38.000  
G25  18593684.172    97710431.136        -704.658          34.000    18593705.816    76138082.947        -548.758          36.000  
G05  15962815.827    83885376.111          63.177          40.000    15962821.658    65365381.914          49.707          41.000  
G11  17185824.301    90312223.738        -158.990          39.000    17185831.111    70373270.196        -123.382          41.000  
G19  19105487.136   100399749.047       -3316.589          31.000                                                                  
G20  16651536.894    87504608.626       -1333.854          40.000                                                                  
G12  18157953.672    95420659.963       -1915.428          34.000    18157971.703    74354133.886       -1491.689          37.000  
G13  16194130.576    85100912.417        2730.171          40.000                                                                  
G15  18042249.390    94812687.762        3837.531          36.000    18042267.160    73880152.174        2990.249          36.000  
G29  18704199.304    98291309.941        3580.489          34.000    18704209.591    76590637.951        2790.523          38.000  
> 2025 04 18 09 32 04.9840000  0 10                     
G06  18859534.073    99107459.893       -1010.560          34.000    18859552.427    77226668.946        -787.254          38.000  
G25  18593818.411    97711136.223        -705.995          34.000    18593840.148    76138632.346        -549.697          36.000  
G05  15962803.836    83885313.008          62.744          40.000    15962809.671    65365332.761          48.932          41.000  
G11  17185854.479    90312382.414        -158.886          39.000    17185861.257    70373393.878        -124.069          41.000  
G19  19106118.347   100403065.640       -3317.365          31.000                                                                  
G20  16651790.748    87505942.732       -1334.158          40.000                                                                  
G12  18158317.973    95422575.046       -1915.712          35.000    18158336.095    74355626.136       -1492.164          37.000  
G13  16193610.997    85098182.608        2729.396          40.000                                                                  
G15  18041519.118    94808850.406        3837.391          36.000    18041536.876    73877162.022        2989.830          36.000  
G29  18703517.821    98287729.161        3580.671          34.000    18703528.155    76587847.758        2790.502          38.000  
> 2025 04 18 09 32 05.9840000  0 10                     
G06  18859726.276    99108470.101       -1010.137          34.000    18859744.650    77227456.117        -787.183          38.000  
G25  18593952.762    97711841.862        -705.613          34.000    18593974.432    76139182.237        -550.487          36.000  
G05  15962791.783    83885250.462          62.549          40.000    15962797.728    65365284.042          48.535          41.000  
G11  17185884.809    90312541.456        -158.910          39.000    17185891.599    70373517.795        -123.958          41.000  
G19  19106749.478   100406382.612       -3317.309          32.000                                                                  
G20  16652044.723    87507277.145       -1334.429          40.000                                                                  
G12  18158682.395    95424490.558       -1915.403          35.000    18158700.581    74357118.764       -1492.675          37.000  
G13  16193091.596    85095453.446        2728.640          40.000                                                                  
G15  18040788.940    94805013.462        3836.664          36.000    18040806.677    73874172.188        2990.065          35.000  
G29  18702836.402    98284148.798        3580.600          35.000    18702846.889    76585057.910        2789.349          37.000  
> 2025 04 18 09 32 06.9840000  0 10                     
G06  18859918.535    99109480.524       -1010.980          34.000    18859936.991    77228243.451        -787.624          38.000  
G25  18594087.078    97712548.008        -706.775          34.000    18594108.940    76139732.435        -550.527          36.000  
G05  15962779.919    83885188.318          61.780          40.000    15962785.963    65365235.623          47.931          41.000  
G11  17185915.080    90312700.703        -159.789          39.000    17185921.984    70373641.864        -124.182          41.000  
G19  19107380.697   100409699.881       -3317.712          32.000                                                                  
G20  16652298.675    87508611.698       -1334.589          40.000                                                                  
G12  18159047.014    95426406.371       -1916.212          35.000    18159065.162    74358611.599       -1493.470          37.000  
G13  16192572.270    85092724.769        2728.177          40.000                                                                  
G15  18040058.860    94801176.758        3835.904          36.000    18040076.600    73871182.554        2989.275          35.000  
G29  18702155.057    98280568.706        3579.611          34.000    18702165.629    76582268.189        2789.729          37.000  
> 2025 04 18 09 32 07.9840000  0 10                     
G06  18860110.979    99110491.296       -1010.966          34.000    18860129.362    77229031.045        -787.838          38.000  
G25  18594221.690    97713254.777        -707.293          34.000    18594243.424    76140283.107        -550.639          36.000  
G05  15962768.195    83885126.729          61.114          40.000    15962774.117    65365187.623          47.809          41.000  
G11  17185945.392    90312860.241        -159.757          39.000    17185952.297    70373766.194        -124.617          41.000  
G19  19108012.016   100413017.517       -3317.578          31.000                                                                  
G20  16652552.772    87509946.550       -1334.921          40.000                                                                  
G12  18159411.635    95428322.600       -1916.162          34.000    18159429.900    74360104.770       -1493.771          37.000  
G13  16192053.051    85089996.759        2727.868          40.000                                                                  
G15  18039328.886    94797340.394        3836.170          36.000    18039346.615    73868193.205        2989.304          35.000  
G29  18701473.755    98276988.959        3579.602          35.000    18701484.471    76579478.800        2789.004          37.000  
> 2025 04 18 09 32 08.9840000  0 10                     
G06  18860303.418    99111502.431       -1011.458          34.000    18860321.820    77229818.940        -788.156          38.000  
G25  18594356.387    97713962.141        -707.834          34.000    18594378.013    76140834.317        -551.461          36.000  
G05  15962756.707    83885065.723          61.005          40.000    15962762.598    65365140.080          47.675          41.000  
G11  17185975.853    90313020.163        -159.823          39.000    17185982.772    70373890.815        -124.733          41.000  
G19  19108643.505   100416335.725       -3318.945          31.000                                                                  
G20  16652806.810    87511281.724       -1335.189          40.000                                                                  
G12  18159776.465    95430239.325       -1917.069          34.000    18159794.643    74361598.311       -1494.135          37.000  
G13  16191534.060    85087269.472        2726.775          40.000                                                                  
G15  18038598.912    94793504.505        3835.380          36.000    18038616.631    73865204.186        2988.874          36.000  
G29  18700792.648    98273409.682        3578.674          35.000    18700803.346    76576689.758        2788.711          37.000  
> 2025 04 18 09 32 09.9840000  0 10                     
G06  18860495.821    99112513.847       -1011.639          34.000    18860514.313    77230607.035        -788.314          38.000  
G25  18594491.207    97714670.016        -707.836          34.000    18594512.646    76141385.924        -552.013          36.000  
G05  15962745.162    83885005.195          60.144          40.000    15962751.152    65365092.934          46.930          41.000  
G11  17186006.279    90313180.366        -160.277          39.000    17186013.194    70374015.643        -124.876          41.000  
G19  19109274.961   100419654.133       -3319.092          32.000                                                                  
G20  16653060.956    87512617.105       -1335.530          40.000                                                                  
G12  18160141.209    95432156.403       -1917.895          34.000    18160159.478    74363092.088       -1493.768          37.000  
G13  16191015.155    85084542.736        2726.211          40.000                                                                  
G15  18037869.001    94789668.899        3835.517          36.000    18037886.710    73862215.443        2988.407          36.000  
G29  18700111.569    98269830.693        3578.288          35.000    18700122.277    76573900.936        2788.429          37.000  
> 2025 04 18 09 32 10.9840000  0 10                     
G06  18860688.458    99113525.694       -1012.747          34.000    18860706.916    77231395.465        -788.772          38.000  
G25  18594626.063    97715378.656        -709.114          34.000    18594647.520    76141938.067        -552.405          36.000  
G05  15962733.678    83884945.291          59.766          40.000    15962739.761    65365046.260          46.527          41.000  
G11  17186036.792    90313340.958        -160.746          39.000    17186043.750    70374140.775        -125.253          41.000  
G19  19109906.525   100422973.086       -3319.244          32.000                                                                  
G20  16653315.113    87513952.852       -1335.916          40.000                                                                  
G12  18160506.027    95434073.983       -1918.329          34.000    18160524.412    74364586.326       -1494.751          37.000  
G13  16190496.292    85081816.735        2725.529          40.000                                                                  
G15  18037139.182    94785833.774        3835.076          36.000    18037156.884    73859227.038        2988.014          36.000  
G29  18699430.596    98266252.162        3578.116          35.000    18699441.266    76571112.468        2788.429          37.000  
> 2025 04 18 09 32 11.9840000  0 10                     
G06  18860881.018    99114537.978       -1012.329          34.000    18860899.548    77232184.256        -788.893          38.000  
G25  18594761.072    97716087.958        -709.963          34.000    18594782.393    76142490.781        -552.949          36.000  
G05  15962722.415    83884886.060          59.332          40.000    15962728.454    65365000.112          46.143          41.000  
G11  17186067.416    90313502.005        -160.929          39.000    17186074.442    70374266.272        -125.590          40.000  
G19  19110538.240   100426292.610       -3319.891          32.000                                                                  
G20  16653569.460    87515289.018       -1336.078          40.000                                                                  
G12  18160870.971    95435992.093       -1917.860          33.000    18160889.499    74366080.952       -1494.923          37.000  
G13  16189977.689    85079091.513        2724.946          40.000                                                                  
G15  18036409.497    94781999.176        3834.673          36.000    18036427.148    73856239.029        2987.889          36.000  
G29  18698749.833    98262674.143        3577.584          35.000    18698760.362    76568324.415        2787.827          37.000  
> 2025 04 18 09 32 12.9840000  0 10                     
G06  18861073.689    99115550.482       -1012.685          34.000    18861092.206    77232973.212        -789.132          38.000  
G25  18594895.949    97716797.734        -709.741          34.000    18594917.499    76143043.851        -553.279          36.000  
G05  15962711.271    83884827.252          58.752          40.000    15962717.134    65364954.288          45.593          41.000  
G11  17186098.060    90313663.260        -161.035          39.000    17186105.155    70374391.908        -125.631          40.000  
G19  19111169.902   100429612.404       -3320.880          31.000                                                                  
G20  16653823.708    87516625.346       -1336.575          40.000                                                                  
G12  18161235.933    95437910.533       -1918.328          33.000    18161254.598    74367575.805       -1494.958          37.000  
G13  16189459.226    85076366.833        2724.134          40.000                                                                  
G15  18035679.935    94778164.789        3834.897          36.000    18035697.520    73853251.235        2987.777          36.000  
G29  18698068.991    98259096.355        3578.108          35.000    18698079.533    76565536.572        2787.281          37.000  
> 2025 04 18 09 32 13.9840000  0 10                     
G06  18861266.510    99116563.241       -1013.127          34.000    18861284.936    77233762.366        -789.247          38.000  
G25  18595031.095    97717508.044        -710.611          34.000    18595052.738    76143597.328        -553.607          36.000  
G05  15962700.183    83884768.899          58.081          40.000    15962705.916    65364908.814          45.490          41.000  
G11  17186128.765    90313824.772        -161.654          39.000    17186135.853    70374517.757        -125.812          40.000  
G19  19111801.757   100432932.509       -3320.734          31.000                                                                  
G20  16654078.037    87517961.877       -1337.004          40.000                                                                  
G12  18161601.155    95439829.315       -1919.321          34.000    18161619.818    74369070.922       -1495.055          37.000  
G13  16188940.786    85073642.689        2723.597          40.000                                                                  
G15  18034950.295    94774330.769        3833.910          36.000    18034967.967    73850263.676        2987.396          36.000  
G29  18697388.246    98255518.899        3577.821          35.000    18697398.657    76562748.921        2787.714          37.000  
> 2025 04 18 09 32 14.9840000  0 10                     
G06  18861459.373    99117576.390       -1014.075          34.000    18861477.705    77234551.802        -789.927          38.000  
G25  18595166.707    97718218.975        -711.465          34.000    18595188.097    76144151.297        -554.612          36.000  
G05  15962689.262    83884711.111          57.373          40.000    15962694.850    65364863.792          44.788          41.000  
G11  17186159.683    90313986.592        -161.727          39.000    17186166.777    70374643.873        -126.548          40.000  
G19  19112433.687   100436252.987       -3320.276          31.000                                                                  
G20  16654332.350    87519298.682       -1337.104          40.000                                                                  
G12  18161966.376    95441748.507       -1919.219          34.000    18161985.122    74370566.412       -1496.326          37.000  
G13  16188422.664    85070919.220        2723.047          40.000                                                                  
G15  18034220.767    94770497.094        3833.662          36.000    18034238.414    73847276.417        2986.874          36.000  
G29  18696707.607    98251941.860        3576.898          35.000    18696718.035    76559961.614        2786.968          36.000  
> 2025 04 18 09 32 15.9840000  0 10                     
G06  18861652.291    99118589.939       -1014.406          34.000    18861670.705    77235341.557        -789.906          38.000  
G25  18595301.970    97718930.560        -711.231          34.000    18595323.590    76144705.765        -554.592          36.000  
G05  15962678.231    83884653.978          56.702          40.000    15962684.057    65364819.255          44.403          41.000  
G11  17186190.558    90314148.880        -162.578          38.000    17186197.606    70374770.298        -126.318          40.000  
G19  19113065.622   100439574.043       -3321.350          32.000                                                                  
G20  16654586.859    87520635.889       -1337.423          40.000                                                                  
G12  18162331.678    95443668.231       -1919.966          34.000    18162350.486    74372062.289       -1496.143          37.000  
G13  16187904.502    85068196.499        2722.516          40.000                                                                  
G15  18033491.305    94766663.919        3833.271          36.000    18033508.993    73844289.545        2986.764          36.000  
G29  18696026.952    98248365.290        3576.374          35.000    18696037.343    76557174.667        2786.687          36.000  
> 2025 04 18 09 32 16.9840000  0 10                     
G06  18861845.172    99119603.745       -1014.093          34.000    18861863.705    77236131.543        -790.132          38.000  
G25  18595437.602    97719642.734        -713.033          34.000    18595459.122    76145260.684        -555.005          36.000  
G05  15962667.450    83884597.300          56.500          40.000    15962673.319    65364775.103          44.116          41.000  
G11  17186221.420    90314311.405        -162.801          39.000    17186228.482    70374896.949        -126.711          41.000  
G19  19113697.830   100442895.429       -3321.423          32.000                                                                  
G20  16654841.496    87521973.298       -1337.451          40.000                                                                  
G12  18162697.133    95445588.339       -1920.893          34.000    18162715.824    74373558.463       -1496.632          37.000  
G13  16187386.541    85065474.363        2722.040          40.000                                                                  
G15  18032761.879    94762831.051        3832.855          36.000    18032779.590    73841302.914        2986.339          37.000  
G29  18695346.489    98244789.037        3575.808          35.000    18695356.690    76554387.942        2787.020          36.000  
> 2025 04 18 09 32 17.9840000  0 10                     
G06  18862038.202    99120617.782       -1014.243          34.000    18862056.701    77236921.713        -790.345          38.000  
G25  18595573.437    97720355.385        -712.828          34.000    18595594.820    76145815.972        -555.411          36.000  
G05  15962656.729    83884541.077          55.878          40.000    15962662.543    65364731.294          43.829          41.000  
G11  17186252.435    90314474.146        -162.755          39.000    17186259.437    70375023.756        -126.741          41.000  
G19  19114329.958   100446217.089       -3321.027          32.000                                                                  
G20  16655096.062    87523310.892       -1337.479          40.000                                                                  
G12  18163062.568    95447508.746       -1920.854          34.000    18163081.254    74375054.859       -1496.588          37.000  
G13  16186868.645    85062752.783        2721.399          40.000                                                                  
G15  18032032.419    94758998.495        3832.428          36.000    18032050.202    73838316.493        2986.572          37.000  
G29  18694666.119    98241213.026        3576.154          35.000    18694676.195    76551601.486        2786.232          36.000  
> 2025 04 18 09 32 18.9840000  0 10                     
G06  18862231.299    99121631.986       -1014.257          34.000    18862249.710    77237711.975        -790.641          38.000  
G25  18595709.057    97721068.392        -713.337          34.000    18595730.547    76146371.576        -555.649          36.000  
G05  15962645.994    83884485.182          55.438          40.000    15962651.888    65364687.755          43.011          41.000  
G11  17186283.434    90314637.032        -163.236          39.000    17186290.383    70375150.678        -127.125          41.000  
G19  19114962.175   100449538.964       -3321.307          31.000                                                                  
G20  16655350.627    87524648.556       -1337.655          40.000                                                                  
G12  18163427.985    95449429.376       -1920.816          34.000    18163446.731    74376551.456       -1496.881          37.000  
G13  16186350.778    85060031.619        2721.204          40.000                                                                  
G15  18031303.161    94755166.100        3832.049          36.000    18031320.895    73835330.227        2986.657          37.000  
G29  18693985.698    98237637.225        3575.715          35.000    18693995.712    76548815.147        2785.746          36.000  
> 2025 04 18 09 32 19.9840000  0 10                     
G06  18862424.471    99122646.384       -1014.354          34.000    18862442.764    77238502.408        -790.374          38.000  
G25  18595844.809    97721781.937        -714.024          34.000    18595866.341    76146927.579        -556.739          36.000  
G05  15962635.510    83884429.727          55.145          40.000    15962641.270    65364644.532          42.957          41.000  
G11  17186314.459    90314800.126        -163.251          38.000    17186321.399    70375277.760        -127.220          41.000  
G19  19115594.456   100452861.167       -3321.985          31.000                                                                  
G20  16655605.145    87525986.406       -1338.076          40.000                                                                  
G12  18163793.388    95451350.295       -1921.008          34.000    18163812.298    74378048.270       -1496.817          37.000  
G13  16185833.006    85057311.025        2720.447          40.000                                                                  
G15  18030573.757    94751333.956        3832.301          36.000    18030591.645    73832344.163        2986.383          36.000  
G29  18693305.261    98234061.701        3575.045          35.000    18693315.277    76546029.029        2785.757          36.000  
> 2025 04 18 09 32 20.9840000  0 10                     
G06  18862617.490    99123661.014       -1014.408          34.000    18862635.843    77239293.029        -790.582          38.000  
G25  18595980.681    97722495.946        -714.624          34.000    18596002.241    76147483.890        -556.162          36.000  
G05  15962625.064    83884374.682          54.791          40.000    15962630.765    65364601.653          42.657          40.000  
G11  17186345.520    90314963.436        -163.519          38.000    17186352.454    70375405.016        -127.465          40.000  
G19  19116226.601   100456183.666       -3322.925          31.000                                                                  
G20  16655859.801    87527324.395       -1337.767          40.000                                                                  
G12  18164158.987    95453271.567       -1921.114          34.000    18164177.873    74379545.343       -1496.899          37.000  
G13  16185315.497    85054590.955        2719.830          40.000                                                                  
G15  18029844.507    94747502.110        3831.570          36.000    18029862.412    73829358.321        2985.971          36.000  
G29  18692624.909    98230486.415        3575.238          35.000    18692634.972    76543243.117        2785.403          37.000  
> 2025 04 18 09 32 21.9840000  0 10                     
G06  18862810.440    99124675.942       -1015.379          34.000    18862828.965    77240083.857        -791.030          38.000  
G25  18596116.616    97723210.460        -715.068          34.000    18596138.194    76148040.683        -557.463          36.000  
G05  15962614.674    83884320.122          54.346          40.000    15962620.308    65364559.136          42.462          40.000  
G11  17186376.694    90315126.986        -163.816          38.000    17186383.466    70375532.462        -127.482          40.000  
G19  19116858.765   100459506.505       -3323.584          31.000                                                                  
G20  16656114.432    87528662.626       -1338.519          40.000                                                                  
G12  18164524.682    95455193.206       -1922.073          34.000    18164543.522    74381042.695       -1497.281          37.000  
G13  16184798.028    85051871.466        2719.336          40.000                                                                  
G15  18029115.364    94743670.593        3831.479          36.000    18029133.310    73826372.719        2985.811          36.000  
G29  18691944.587    98226911.456        3575.089          35.000    18691954.530    76540457.426        2785.486          37.000  
> 2025 04 18 09 32 22.9840000  0 10                     
G06  18863003.699    99125691.319       -1016.268          34.000    18863022.322    77240875.023        -791.049          38.000  
G25  18596252.706    97723925.705        -715.984          33.000    18596274.223    76148597.951        -557.349          36.000  
G05  15962604.408    83884266.225          53.802          40.000    15962610.044    65364517.155          41.638          40.000  
G11  17186407.870    90315290.978        -163.972          39.000    17186414.721    70375660.255        -128.062          40.000  
G19  19117491.263   100462829.790       -3323.761          31.000                                                                  
G20  16656369.097    87530001.226       -1338.782          40.000                                                                  
G12  18164890.494    95457115.319       -1922.366          34.000    18164909.333    74382540.461       -1498.070          37.000  
G13  16184280.685    85049152.744        2718.262          40.000                                                                  
G15  18028386.242    94739839.523        3830.914          36.000    18028404.325    73823387.522        2984.826          36.000  
G29  18691264.348    98223336.990        3574.489          35.000    18691274.434    76537672.121        2785.255          37.000  
> 2025 04 18 09 32 23.9840000  0 10                     
G06  18863196.856    99126706.855       -1015.492          34.000    18863215.624    77241666.395        -791.620          38.000  
G25  18596388.839    97724641.415        -715.745          34.000    18596410.492    76149155.687        -558.506          36.000  
G05  15962594.359    83884212.787          53.186          40.000    15962599.870    65364475.515          41.443          40.000  
G11  17186439.177    90315455.209        -164.492          39.000    17186445.938    70375788.218        -128.175          40.000  
G19  19118123.715   100466153.430       -3323.987          31.000                                                                  
G20  16656623.831    87531340.030       -1338.994          40.000                                                                  
G12  18165256.452    95459037.786       -1922.500          34.000    18165275.195    74384038.480       -1498.118          37.000  
G13  16183763.478    85046434.551        2717.914          40.000                                                                  
G15  18027657.369    94736008.753        3831.105          36.000    18027675.388    73820402.532        2984.697          36.000  
G29  18690584.247    98219762.802        3574.276          35.000    18690594.253    76534887.060        2784.739          36.000  
> 2025 04 18 09 32 24.9840000  0 10                     
G06  18863390.242    99127722.689       -1015.645          34.000    18863408.888    77242457.911        -791.590          38.000  
G25  18596525.306    97725357.654        -716.455          34.000    18596546.867    76149713.765        -558.252          36.000  
G05  15962584.160    83884159.787          52.649          40.000    15962589.792    65364434.223          40.851          40.000  
G11  17186470.535    90315619.670        -164.753          39.000    17186477.297    70375916.356        -128.174          40.000  
G19  19118756.218   100469477.361       -3324.377          31.000                                                                  
G20  16656878.500    87532678.994       -1339.438          40.000                                                                  
G12  18165622.338    95460960.554       -1922.676          34.000    18165641.109    74385536.730       -1498.196          37.000  
G13  16183246.381    85043716.923        2716.998          40.000                                                                  
G15  18026928.491    94732178.305        3830.600          36.000    18026946.448    73817417.738        2984.914          36.000  
G29  18689904.021    98216188.882        3574.045          35.000    18689914.030    76532102.173        2785.123          36.000  
> 2025 04 18 09 32 25.9840000  0 10                     
G06  18863583.511    99128738.741       -1015.631          33.000    18863602.233    77243249.634        -791.557          38.000  
G25  18596661.633    97726074.357        -716.465          34.000    18596683.249    76150272.215        -558.139          36.000  
G05  15962574.164    83884107.201          52.582          40.000    15962579.841    65364393.253          40.924          40.000  
G11  17186501.810    90315784.318        -164.487          39.000    17186508.714    70376044.666        -128.291          40.000  
G19  19119388.778   100472801.562       -3323.761          31.000                                                                  
G20  16657133.289    87534018.105       -1339.034          40.000                                                                  
G12  18165988.214    95462883.665       -1923.466          34.000    18166007.059    74387035.244       -1498.506          37.000  
G13  16182729.349    85040999.812        2716.852          40.000                                                                  
G15  18026199.647    94728348.086        3830.573          36.000    18026217.520    73814433.190        2984.461          36.000  
G29  18689223.969    98212615.263        3573.671          35.000    18689234.020    76529317.538        2784.520          37.000  
> 2025 04 18 09 32 26.9840000  0 10                     
G06  18863776.832    99129754.888       -1016.201          33.000    18863795.584    77244041.438        -791.667          38.000  
G25  18596798.108    97726791.442        -716.966          34.000    18596819.668    76150830.996        -558.978          36.000  
G05  15962564.215    83884054.948          52.136          40.000    15962569.943    65364352.543          40.356          40.000  
G11  17186533.169    90315949.082        -164.702          39.000    17186540.012    70376173.048        -128.368          40.000  
G19  19120021.256   100476125.995       -3323.962          31.000                                                                  
G20  16657388.061    87535357.297       -1339.261          40.000                                                                  
G12  18166354.253    95464806.973       -1923.697          34.000    18166373.005    74388533.916       -1498.725          37.000  
G13  16182212.465    85038283.130        2716.418          40.000                                                                  
G15  18025470.849    94724518.044        3830.262          36.000    18025488.707    73811448.733        2984.419          36.000  
G29  18688543.922    98209041.779        3573.391          35.000    18688553.992    76526533.028        2784.059          37.000  
> 2025 04 18 09 32 27.9840000  0 10                     
G06  18863970.243    99130771.031       -1016.056          34.000    18863989.000    77244833.200        -791.941          38.000  
G25  18596934.380    97727508.742        -717.652          34.000    18596956.174    76151389.895        -558.644          36.000  
G05  15962554.231    83884002.867          51.733          40.000    15962560.000    65364311.962          40.222          40.000  
G11  17186564.587    90316113.802        -164.901          39.000    17186571.369    70376301.397        -128.225          40.000  
G19  19120653.694   100479450.440       -3324.438          31.000                                                                  
G20  16657642.891    87536696.400       -1339.229          40.000                                                                  
G12  18166720.159    95466730.295       -1923.202          34.000    18166738.884    74390032.600       -1498.861          37.000  
G13  16181695.490    85035566.721        2716.302          40.000                                                                  
G15  18024741.914    94720688.031        3829.588          36.000    18024759.886    73808464.325        2984.127          36.000  
G29  18687863.912    98205468.298        3573.107          34.000    18687873.962    76523748.500        2784.237          37.000  
> 2025 04 18 09 32 28.9840000  0 10                     
G06  18864163.521    99131787.187       -1016.458          34.000    18864182.419    77245625.005        -792.234          38.000  
G25  18597070.978    97728226.382        -718.233          34.000    18597092.664    76151949.059        -559.322          36.000  
G05  15962544.269    83883951.002          51.825          40.000    15962550.138    65364271.559          39.966          40.000  
G11  17186595.899    90316278.540        -165.074          39.000    17186602.770    70376429.764        -128.432          40.000  
G19  19121286.336   100482775.012       -3324.835          31.000                                                                  
G20  16657897.757    87538035.477       -1339.418          40.000                                                                  
G12  18167086.326    95468653.801       -1924.314          34.000    18167104.906    74391531.406       -1499.311          37.000  
G13  16181178.611    85032850.667        2715.527          40.000                                                                  
G15  18024013.056    94716858.073        3829.473          36.000    18024031.024    73805479.957        2983.800          36.000  
G29  18687183.852    98201894.920        3572.667          34.000    18687193.929    76520964.040        2784.152          37.000  
> 2025 04 18 09 32 29.9840000  0 10                     
G06  18864356.908    99132803.520       -1016.251          34.000    18864375.805    77246416.924        -791.702          38.000  
G25  18597207.639    97728944.392        -718.053          34.000    18597229.319    76152508.560        -559.045          36.000  
G05  15962534.502    83883899.576          50.977          40.000    15962540.372    65364231.447          40.381          40.000  
G11  17186627.342    90316443.465        -165.079          39.000    17186634.069    70376558.274        -128.605          40.000  
G19  19121919.126   100486099.777       -3324.432          31.000                                                                  
G20  16658152.606    87539374.670       -1339.103          40.000                                                                  
G12  18167452.541    95470577.527       -1923.579          34.000    18167470.957    74393030.394       -1498.784          37.000  
G13  16180661.823    85030135.114        2715.375          40.000                                                                  
G15  18023284.258    94713028.338        3829.918          36.000    18023302.248    73802495.744        2984.281          36.000  
G29  18686503.806    98198321.731        3573.149          34.000    18686514.038    76518179.736        2784.554          37.000  
> 2025 04 18 09 32 30.9840000  0 10                     
G06  18864550.344    99133819.995       -1016.763          34.000    18864569.206    77247208.988        -792.219          38.000  
G25  18597344.325    97729662.809        -717.726          34.000    18597366.032    76153068.402        -560.276          36.000  
G05  15962524.808    83883848.483          50.757          40.000    15962530.531    65364191.671          39.355          40.000  
G11  17186658.876    90316608.524        -165.486          39.000    17186665.459    70376686.880        -128.674          40.000  
G19  19122552.102   100489424.818       -3324.988          32.000                                                                  
G20  16658407.421    87540713.969       -1339.722          40.000                                                                  
G12  18167818.742    95472501.497       -1924.194          34.000    18167837.125    74394529.616       -1499.631          37.000  
G13  16180145.041    85027420.014        2714.618          40.000                                                                  
G15  18022555.467    94709198.840        3828.927          36.000    18022573.541    73799511.720        2983.632          36.000  
G29  18685823.905    98194748.825        3571.973          34.000    18685834.070    76515395.650        2783.830          37.000  
> 2025 04 18 09 32 31.9840000  0 10                     
G06  18864743.816    99134836.823       -1016.311          33.000    18864762.748    77248001.330        -792.253          38.000  
G25  18597481.439    97730381.938        -719.792          34.000    18597502.897    76153628.675        -560.204          36.000  
G05  15962515.118    83883797.975          49.963          40.000    15962520.914    65364152.292          39.362          41.000  
G11  17186690.266    90316773.938        -165.912          39.000    17186696.877    70376815.767        -128.872          40.000  
G19  19123184.786   100492750.250       -3325.409          32.000                                                                  
G20  16658662.297    87542053.554       -1339.500          40.000                                                                  
G12  18168184.958    95474425.912       -1924.585          34.000    18168203.376    74396029.123       -1499.607          37.000  
G13  16179628.459    85024705.587        2714.252          40.000                                                                  
G15  18021826.702    94705369.702        3829.087          36.000    18021844.792    73796528.000        2983.710          36.000  
G29  18685144.088    98191176.216        3572.322          34.000    18685154.262    76512611.849        2783.309          37.000  
> 2025 04 18 09 32 32.9840000  0 10                     
G06  18864937.415    99135853.812       -1017.095          33.000    18864956.259    77248793.741        -792.277          38.000  
G25  18597618.435    97731101.312        -719.278          34.000    18597639.866    76154189.281        -560.909          36.000  
G05  15962505.538    83883747.706          50.354          40.000    15962511.310    65364113.136          39.288          40.000  
G11  17186721.818    90316939.408        -165.417          39.000    17186728.353    70376944.714        -128.778          40.000  
G19  19123817.646   100496075.890       -3326.446          32.000                                                                  
G20  16658917.326    87543393.188       -1339.746          40.000                                                                  
G12  18168551.296    95476350.484       -1924.514          34.000    18168569.697    74397528.795       -1499.840          37.000  
G13  16179112.060    85021991.579        2713.696          40.000                                                                  
G15  18021098.132    94701540.728        3828.881          36.000    18021116.224    73793544.390        2983.536          36.000  
G29  18684464.217    98187603.804        3572.220          35.000    18684474.512    76509828.151        2783.583          37.000  
> 2025 04 18 09 32 33.9840000  0 10                     
G06  18865130.939    99136871.020       -1017.400          33.000    18865149.806    77249586.356        -792.558          38.000  
G25  18597755.644    97731821.291        -720.183          34.000    18597776.884    76154750.269        -561.353          36.000  
G05  15962496.106    83883697.958          49.249          40.000    15962501.887    65364074.363          38.611          40.000  
G11  17186753.329    90317105.165        -166.109          39.000    17186759.934    70377073.885        -129.532          40.000  
G19  19124450.723   100499401.803       -3326.215          31.000                                                                  
G20  16659172.241    87544733.027       -1339.955          40.000                                                                  
G12  18168917.655    95478275.450       -1925.766          35.000    18168936.014    74399028.742       -1500.276          38.000  
G13  16178595.684    85019278.142        2713.068          40.000                                                                  
G15  18020369.436    94697712.076        3828.089          36.000    18020387.670    73790561.024        2983.359          36.000  
G29  18683784.578    98184031.685        3572.219          35.000    18683794.826    76507044.691        2782.917          37.000  
> 2025 04 18 09 32 34.9840000  0 10                     
G06  18865324.603    99137888.579       -1017.764          34.000    18865343.375    77250379.251        -793.031          38.000  
G25  18597892.846    97732541.786        -720.201          34.000    18597914.010    76155311.728        -562.208          36.000  
G05  15962486.851    83883648.751          48.853          40.000    15962492.511    65364036.029          38.177          40.000  
G11  17186784.996    90317271.245        -166.430          39.000    17186791.533    70377203.283        -129.364          40.000  
G19  19125083.847   100502728.159       -3326.495          32.000                                                                  
G20  16659427.291    87546073.161       -1340.166          40.000                                                                  
G12  18169284.123    95480200.779       -1924.990          35.000    18169302.478    74400529.012       -1500.259          37.000  
G13  16178079.421    85016565.364        2712.347          40.000                                                                  
G15  18019640.948    94693883.809        3828.026          36.000    18019659.243    73787577.960        2983.379          36.000  
G29  18683104.801    98180459.943        3571.942          35.000    18683115.230    76504261.536        2783.044          37.000  
> 2025 04 18 09 32 35.9840000  0 10                     
G06  18865518.198    99138906.262       -1018.007          33.000    18865536.963    77251172.214        -792.839          38.000  
G25  18598030.073    97733262.721        -721.511          34.000    18598051.253    76155873.443        -561.957          36.000  
G05  15962477.561    83883599.844          48.700          40.000    15962483.175    65363997.931          37.769          40.000  
G11  17186816.602    90317437.418        -166.433          39.000    17186823.182    70377332.771        -129.587          40.000  
G19  19125716.809   100506054.736       -3327.319          32.000                                                                  
G20  16659682.324    87547413.336       -1340.403          40.000                                                                  
G12  18169650.658    95482126.344       -1925.792          35.000    18169668.988    74402029.438       -1500.918          37.000  
G13  16177563.289    85013853.005        2711.853          40.000                                                                  
G15  18018912.464    94690055.693        3827.558          36.000    18018930.809    73784595.051        2982.489          36.000  
G29  18682425.049    98176888.399        3571.237          35.000    18682435.621    76501478.499        2782.718          37.000  
> 2025 04 18 09 32 36.9840000  0 10                     
G06  18865711.875    99139923.951       -1017.833          34.000    18865730.784    77251965.238        -792.871          38.000  
G25  18598167.401    97733983.975        -721.528          34.000    18598188.622    76156435.416        -561.735          36.000  
G05  15962468.270    83883551.207          48.944          40.000    15962473.929    65363960.042          37.634          40.000  
G11  17186848.205    90317603.641        -166.044          39.000    17186854.839    70377462.303        -129.509          40.000  
G19  19126349.967   100509381.332       -3326.093          31.000                                                                  
G20  16659937.356    87548753.511       -1340.032          40.000                                                                  
G12  18170017.201    95484052.057       -1926.128          35.000    18170035.466    74403529.957       -1500.305          37.000  
G13  16177047.207    85011140.985        2712.067          40.000                                                                  
G15  18018184.071    94686227.674        3828.387          36.000    18018202.358    73781612.190        2982.965          36.000  
G29  18681745.370    98173316.944        3571.577          35.000    18681756.016    76498695.535        2783.216          37.000  
> 2025 04 18 09 32 37.9840000  0 10                     
G06  18865905.522    99140941.749       -1017.934          34.000    18865924.529    77252758.302        -792.961          38.000  
G25  18598304.713    97734705.488        -721.640          34.000    18598325.968    76156997.643        -561.959          36.000  
G05  15962459.031    83883502.847          48.145          40.000    15962464.760    65363922.347          37.640          41.000  
G11  17186879.950    90317769.923        -166.524          39.000    17186886.493    70377591.866        -129.503          40.000  
G19  19126982.970   100512708.171       -3327.350          31.000                                                                  
G20  16660192.422    87550093.700       -1340.436          40.000                                                                  
G12  18170383.675    95485977.905       -1926.405          35.000    18170402.020    74405030.617       -1500.720          38.000  
G13  16176531.279    85008429.374        2711.346          40.000                                                                  
G15  18017455.617    94682399.763        3828.333          36.000    18017473.973    73778629.422        2982.627          36.000  
G29  18681065.796    98169745.573        3571.726          35.000    18681076.355    76495912.668        2782.836          36.000  
> 2025 04 18 09 32 38.9840000  0 10                     
G06  18866099.353    99141959.741       -1017.502          34.000    18866118.252    77253551.562        -793.656          38.000  
G25  18598441.970    97735427.531        -722.606          34.000    18598463.403    76157560.267        -562.997          36.000  
G05  15962449.907    83883454.879          47.839          40.000    15962455.586    65363884.978          37.360          40.000  
G11  17186911.652    90317936.414        -166.644          39.000    17186918.142    70377721.586        -129.647          40.000  
G19  19127616.194   100516035.265       -3327.209          31.000                                                                  
G20  16660447.509    87551434.031       -1340.221          40.000                                                                  
G12  18170750.260    95487904.025       -1926.240          35.000    18170768.579    74406531.491       -1501.084          37.000  
G13  16176015.354    85005718.290        2710.754          40.000                                                                  
G15  18016727.236    94678572.147        3827.519          36.000    18016745.680    73775646.867        2982.588          36.000  
G29  18680386.219    98166174.469        3571.247          35.000    18680396.774    76493130.009        2782.569          37.000  
> 2025 04 18 09 32 39.9840000  0 10                     
G06  18866293.066    99142977.759       -1018.389          34.000    18866312.010    77254344.792        -793.514          38.000  
G25  18598579.542    97736149.764        -721.432          33.000    18598600.813    76158123.064        -563.131          36.000  
G05  15962440.771    83883407.145          47.491          40.000    15962446.543    65363847.790          36.810          40.000  
G11  17186943.315    90318102.879        -166.766          39.000    17186949.851    70377851.309        -129.671          40.000  
G19  19128249.250   100519362.373       -3326.404          31.000                                                                  
G20  16660702.534    87552774.331       -1340.747          40.000                                                                  
G12  18171116.711    95489830.246       -1926.297          35.000    18171135.021    74408032.422       -1500.884          37.000  
G13  16175499.531    85003007.514        2710.358          40.000                                                                  
G15  18015998.794    94674744.546        3827.438          36.000    18016017.374    73772664.343        2982.341          36.000  
G29  18679706.716    98162603.442        3570.670          35.000    18679717.188    76490347.365        2782.839          36.000  
> 2025 04 18 09 32 40.9840000  0 10                     
G06  18866486.885    99143995.718       -1017.450          34.000    18866505.796    77255138.006        -793.226          38.000  
G25  18598716.896    97736872.323        -722.770          34.000    18598738.253    76158686.033        -562.740          36.000  
G05  15962431.676    83883359.577          47.565          40.000    15962437.445    65363810.734          36.987          40.000  
G11  17186975.050    90318269.315        -166.252          38.000    17186981.537    70377980.995        -129.426          40.000  
G19  19128882.215   100522689.589       -3326.550          31.000                                                                  
G20  16660957.551    87554114.526       -1339.929          40.000                                                                  
G12  18171483.316    95491756.556       -1926.025          34.000    18171501.609    74409533.422       -1500.877          37.000  
G13  16174983.755    85000297.033        2710.498          40.000                                                                  
G15  18015270.282    94670916.992        3827.514          36.000    18015288.934    73769681.836        2982.562          36.000  
G29  18679027.181    98159032.431        3571.120          35.000    18679037.622    76487564.761        2782.751          36.000  
> 2025 04 18 09 32 41.9840000  0 10                     
G06  18866680.649    99145013.648       -1018.355          34.000    18866699.528    77255931.158        -793.058          38.000  
G25  18598854.477    97737595.005        -723.063          34.000    18598875.822    76159249.151        -563.399          36.000  
G05  15962422.629    83883312.144          47.083          40.000    15962428.386    65363773.769          36.768          40.000  
G11  17187006.683    90318435.671        -166.575          38.000    17187013.218    70378110.636        -130.044          40.000  
G19  19129515.192   100526016.795       -3327.093          31.000                                                                  
G20  16661212.546    87555454.598       -1340.189          40.000                                                                  
G12  18171849.872    95493682.850       -1926.407          34.000    18171868.109    74411034.418       -1500.898          37.000  
G13  16174468.065    84997586.790        2710.010          40.000                                                                  
G15  18014541.876    94667089.396        3827.510          36.000    18014560.622    73766699.296        2982.604          36.000  
G29  18678347.678    98155461.322        3571.440          35.000    18678358.087    76484782.109        2782.512          36.000  
> 2025 04 18 09 32 42.9840000  0 10                     
G06  18866874.437    99146031.495       -1017.355          34.000    18866893.268    77256724.296        -793.091          38.000  
G25  18598991.885    97738317.954        -723.577          34.000    18599013.401    76159812.492        -564.175          36.000  
G05  15962413.551    83883264.883          47.552          40.000    15962419.458    65363736.950          36.932          40.000  
G11  17187038.312    90318601.995        -166.198          39.000    17187044.766    70378240.225        -129.401          40.000  
G19  19130148.302   100529344.014       -3326.984          31.000                                                                  
G20  16661467.521    87556794.577       -1339.526          40.000                                                                  
G12  18172216.548    95495609.203       -1926.250          34.000    18172234.719    74412535.472       -1500.753          36.000  
G13  16173952.292    84994876.846        2709.912          40.000                                                                  
G15  18013813.377    94663261.842        3827.555          36.000    18013832.284    73763716.807        2982.616          36.000  
G29  18677668.143    98151890.331        3570.680          35.000    18677678.513    76481999.512        2782.563          36.000  
> 2025 04 18 09 32 43.9840000  0 10                     
G06  18867068.192    99147049.343       -1018.524          34.000    18867086.919    77257517.386        -793.251          38.000  
G25  18599129.509    97739041.046        -723.473          34.000    18599151.008    76160375.925        -563.852          36.000  
G05  15962404.513    83883217.772          46.899          40.000    15962410.423    65363700.235          36.530          40.000  
G11  17187069.920    90318768.238        -166.495          39.000    17187076.330    70378369.770        -129.819          40.000  
G19  19130781.474   100532671.267       -3327.032          31.000                                                                  
G20  16661722.548    87558134.479       -1340.219          40.000                                                                  
G12  18172583.042    95497535.574       -1926.727          34.000    18172601.324    74414036.529       -1501.062          37.000  
G13  16173436.702    84992167.130        2709.650          40.000                                                                  
G15  18013084.960    94659434.247        3827.319          36.000    18013103.830    73760734.279        2982.231          36.000  
G29  18676988.609    98148319.259        3570.588          35.000    18676998.959    76479216.852        2782.400          36.000  
> 2025 04 18 09 32 44.9840000  0 10                     
G06  18867261.903    99148067.166       -1018.366          34.000    18867280.659    77258310.512        -793.337          38.000  
G25  18599267.299    97739764.470        -723.534          34.000    18599288.627    76160939.568        -563.094          36.000  
G05  15962395.617    83883170.894          46.808          40.000    15962401.510    65363663.713          36.591          41.000  
G11  17187101.514    90318934.511        -166.300          39.000    17187108.013    70378499.330        -129.701          40.000  
G19  19131414.355   100535998.592       -3327.435          31.000                                                                  
G20  16661977.624    87559474.310       -1339.775          40.000                                                                  
G12  18172949.651    95499462.041       -1926.455          34.000    18172967.957    74415537.679       -1501.306          37.000  
G13  16172921.229    84989457.809        2708.972          40.000                                                                  
G15  18012356.575    94655606.735        3827.438          36.000    18012375.455    73757751.818        2981.969          36.000  
G29  18676309.136    98144748.266        3571.064          35.000    18676319.437    76476434.293        2782.390          36.000  
> 2025 04 18 09 32 45.9840000  0 10                     
G06  18867455.582    99149085.040       -1018.020          34.000    18867474.304    77259103.636        -793.418          38.000  
G25  18599405.095    97740488.196        -724.091          34.000    18599426.315    76161503.527        -564.107          36.000  
G05  15962386.789    83883124.275          46.124          40.000    15962392.628    65363627.387          35.974          40.000  
G11  17187133.189    90319100.812        -166.622          39.000    17187139.652    70378628.907        -129.711          40.000  
G19  19132047.462   100539326.053       -3327.228          31.000                                                                  
G20  16662232.572    87560814.150       -1340.137          40.000                                                                  
G12  18173316.420    95501388.673       -1926.690          34.000    18173334.581    74417038.919       -1501.274          37.000  
G13  16172405.814    84986748.823        2708.355          40.000                                                                  
G15  18011628.316    94651779.339        3827.035          36.000    18011646.995    73754769.422        2982.264          36.000  
G29  18675629.526    98141177.380        3570.823          35.000    18675639.873    76473651.785        2782.288          36.000  
> 2025 04 18 09 32 46.9840000  0 10                     
G06  18867649.354    99150103.080       -1018.111          34.000    18867668.059    77259896.898        -793.169          38.000  
G25  18599542.909    97741212.278        -724.473          34.000    18599564.067    76162067.749        -564.384          36.000  
G05  15962377.945    83883077.968          46.246          40.000    15962383.782    65363591.315          35.828          40.000  
G11  17187164.878    90319267.256        -166.624          39.000    17187171.258    70378758.603        -129.771          40.000  
G19  19132680.787   100542653.722       -3327.911          31.000                                                                  
G20  16662487.566    87562154.041       -1339.589          40.000                                                                  
G12  18173682.946    95503315.499       -1926.703          35.000    18173701.306    74418540.346       -1501.600          37.000  
G13  16171890.307    84984040.277        2708.557          40.000                                                                  
G15  18010900.020    94647952.110        3827.180          36.000    18010918.631    73751787.167        2982.411          36.000  
G29  18674950.060    98137606.677        3570.947          35.000    18674960.414    76470869.417        2782.224          36.000  
> 2025 04 18 09 32 47.9840000  0 10                     
G06  18867843.034    99151121.144       -1018.213          34.000    18867861.885    77260690.182        -793.452          38.000  
G25  18599680.924    97741936.654        -724.512          34.000    18599701.912    76162632.222        -564.878          36.000  
G05  15962369.216    83883031.912          45.630          40.000    15962374.954    65363555.416          35.730          40.000  
G11  17187196.665    90319433.709        -166.605          39.000    17187202.990    70378888.306        -129.823          41.000  
G19  19133314.001   100545981.436       -3327.203          32.000                                                                  
G20  16662742.628    87563493.936       -1339.919          40.000                                                                  
G12  18174049.705    95505242.464       -1927.416          35.000    18174067.973    74420041.864       -1502.052          37.000  
G13  16171375.043    84981332.101        2707.806          40.000                                                                  
G15  18010171.777    94644124.944        3826.911          36.000    18010190.346    73748805.011        2981.426          36.000  
G29  18674270.679    98134036.060        3570.588          35.000    18674280.903    76468087.129        2782.105          36.000  
> 2025 04 18 09 32 48.9840000  0 10                     
G06  18868036.888    99152139.433       -1018.362          34.000    18868055.853    77261483.642        -793.574          38.000  
G25  18599818.950    97742661.566        -725.504          34.000    18599839.767    76163197.051        -564.869          36.000  
G05  15962360.668    83882986.275          45.367          40.000    15962366.352    65363519.854          35.510          40.000  
G11  17187228.320    90319600.375        -166.969          39.000    17187234.751    70379018.178        -130.045          40.000  
G19  19133947.227   100549309.504       -3328.125          31.000                                                                  
G20  16662997.676    87564834.009       -1340.344          40.000                                                                  
G12  18174416.366    95507169.713       -1927.363          35.000    18174434.802    74421543.597       -1501.581          37.000  
G13  16170859.716    84978624.446        2707.202          40.000                                                                  
G15  18009443.477    94640298.110        3825.932          36.000    18009462.111    73745823.037        2981.423          37.000  
G29  18673591.310    98130465.712        3570.035          35.000    18673601.401    76465305.039        2781.649          37.000  
> 2025 04 18 09 32 49.9840000  0 10                     
G06  18868230.706    99153157.873       -1018.465          34.000    18868249.493    77262277.236        -793.573          38.000  
G25  18599956.789    97743386.842        -724.689          34.000    18599977.855    76163762.218        -565.402          36.000  
G05  15962352.043    83882941.005          45.544          40.000    15962357.708    65363484.609          34.863          40.000  
G11  17187260.108    90319767.187        -166.677          39.000    17187266.644    70379148.162        -129.795          40.000  
G19  19134580.578   100552637.753       -3327.319          31.000                                                                  
G20  16663252.682    87566174.152       -1340.155          40.000                                                                  
G12  18174783.254    95509097.174       -1926.945          35.000    18174801.665    74423045.521       -1501.282          37.000  
G13  16170344.555    84975917.259        2707.025          40.000                                                                  
G15  18008715.351    94636471.418        3826.686          36.000    18008733.889    73742841.212        2981.657          37.000  
G29  18672911.896    98126895.570        3570.289          35.000    18672922.009    76462523.100        2781.672          37.000  
> 2025 04 18 09 32 50.9840000  0 10                     
G06  18868424.490    99154176.270       -1018.493          34.000    18868443.335    77263070.763        -793.563          38.000  
G25  18600094.866    97744112.344        -725.365          34.000    18600115.845    76164327.511        -565.269          36.000  
G05  15962343.314    83882895.889          44.983          40.000    15962349.077    65363449.437          34.784          40.000  
G11  17187291.836    90319933.939        -166.728          39.000    17187298.287    70379278.105        -129.983          40.000  
G19  19135213.958   100555966.057       -3328.302          32.000                                                                  
G20  16663507.677    87567514.208       -1340.492          40.000                                                                  
G12  18175150.085    95511024.729       -1927.762          35.000    18175168.492    74424547.505       -1502.226          37.000  
G13  16169829.531    84973210.341        2706.641          40.000                                                                  
G15  18007987.315    94632644.744        3826.436          36.000    18008005.701    73739859.424        2981.563          36.000  
G29  18672232.346    98123325.404        3569.869          35.000    18672242.524    76459741.167        2781.703          36.000  
> 2025 04 18 09 32 51.9840000  0 10                     
G06  18868618.299    99155194.715       -1018.426          33.000    18868637.117    77263864.358        -793.721          38.000  
G25  18600233.069    97744838.183        -726.000          34.000    18600254.047    76164893.088        -565.907          36.000  
G05  15962334.847    83882851.035          44.672          40.000    15962340.472    65363414.474          34.875          40.000  
G11  17187323.597    90320100.754        -167.266          39.000    17187330.147    70379408.081        -130.219          40.000  
G19  19135847.369   100559294.478       -3328.790          31.000                                                                  
G20  16663762.704    87568854.255       -1340.488          40.000                                                                  
G12  18175516.886    95512952.354       -1927.016          35.000    18175535.313    74426049.554       -1501.862          37.000  
G13  16169314.458    84970503.798        2706.128          40.000                                                                  
G15  18007258.983    94628818.175        3826.501          36.000    18007277.487    73736877.683        2981.397          36.000  
G29  18671553.034    98119755.347        3569.562          34.000    18671563.128    76456959.309        2781.520          36.000  
> 2025 04 18 09 32 52.9840000  0 10                     
G06  18868812.113    99156213.254       -1018.141          34.000    18868830.959    77264658.013        -793.708          38.000  
G25  18600371.321    97745564.299        -726.365          34.000    18600392.177    76165458.877        -565.691          36.000  
G05  15962326.305    83882806.459          44.574          40.000    15962331.953    65363379.758          34.821          40.000  
G11  17187355.326    90320267.633        -167.049          39.000    17187361.785    70379538.111        -130.147          40.000  
G19  19136480.752   100562623.020       -3328.259          31.000                                                                  
G20  16664017.739    87570194.311       -1340.026          40.000                                                                  
G12  18175883.777    95514880.191       -1927.431          35.000    18175902.223    74427551.747       -1502.061          37.000  
G13  16168799.500    84967797.644        2705.963          40.000                                                                  
G15  18006530.858    94624991.719        3826.812          36.000    18006549.322    73733896.046        2981.803          36.000  
G29  18670873.621    98116185.418        3569.859          34.000    18670883.691    76454177.538        2781.905          36.000  
> 2025 04 18 09 32 53.9840000  0 10                     
G06  18869005.933    99157231.846       -1018.641          34.000    18869024.761    77265451.708        -793.980          38.000  
G25  18600509.650    97746290.806        -727.382          34.000    18600530.428    76166024.947        -566.076          36.000  
G05  15962317.834    83882762.170          44.147          40.000    15962323.581    65363345.243          34.192          40.000  
G11  17187387.112    90320434.551        -166.842          39.000    17187393.594    70379668.195        -130.370          40.000  
G19  19137114.006   100565951.703       -3327.783          31.000                                                                  
G20  16664272.889    87571534.391       -1340.389          40.000                                                                  
G12  18176250.654    95516808.204       -1928.407          35.000    18176269.102    74429054.077       -1502.694          38.000  
G13  16168284.571    84965091.869        2705.481          40.000                                                                  
G15  18005802.802    94621165.402        3826.153          36.000    18005821.240    73730914.516        2981.414          36.000  
G29  18670194.305    98112615.622        3569.344          34.000    18670204.424    76451395.893        2781.319          36.000  
> 2025 04 18 09 32 54.9840000  0 10                     
G06  18869199.801    99158250.588       -1018.552          33.000    18869218.608    77266245.519        -793.700          38.000  
G25  18600648.023    97747017.618        -726.294          34.000    18600668.678    76166591.320        -566.182          36.000  
G05  15962309.368    83882718.217          43.463          40.000    15962315.200    65363310.983          34.235          40.000  
G11  17187418.888    90320601.631        -167.410          39.000    17187425.488    70379798.372        -130.477          40.000  
G19  19137747.550   100569280.649       -3329.010          31.000                                                                  
G20  16664527.943    87572874.530       -1340.049          40.000                                                                  
G12  18176617.601    95518736.395       -1928.203          35.000    18176636.132    74430556.547       -1502.897          38.000  
G13  16167769.885    84962386.552        2705.115          40.000                                                                  
G15  18005074.734    94617339.271        3826.088          36.000    18005093.185    73727933.111        2981.666          36.000  
G29  18669514.992    98109045.972        3569.826          34.000    18669525.210    76448614.378        2781.519          36.000  
> 2025 04 18 09 32 55.9840000  0 10                     
G06  18869393.774    99159269.644       -1018.954          33.000    18869412.582    77267039.572        -794.475          38.000  
G25  18600786.734    97747745.056        -727.445          34.000    18600807.171    76167158.128        -567.086          36.000  
G05  15962300.991    83882674.731          43.359          40.000    15962306.838    65363277.127          33.612          40.000  
G11  17187450.759    90320768.953        -167.327          39.000    17187457.395    70379928.771        -130.693          40.000  
G19  19138380.908   100572609.961       -3330.286          32.000                                                                  
G20  16664782.907    87574214.923       -1340.540          40.000                                                                  
G12  18176984.572    95520664.941       -1928.403          35.000    18177003.096    74432059.303       -1502.531          37.000  
G13  16167255.177    84959681.833        2704.468          40.000                                                                  
G15  18004346.786    94613513.462        3825.972          36.000    18004365.268    73724951.988        2981.167          36.000  
G29  18668835.654    98105476.669        3569.812          35.000    18668845.977    76445833.121        2780.961          36.000  
> 2025 04 18 09 32 56.9840000  0 10                     
G06  18869587.560    99160288.757       -1018.899          33.000    18869606.692    77267833.678        -794.278          38.000  
G25  18600925.257    97748472.846        -728.182          34.000    18600945.682    76167725.186        -566.769          36.000  
G05  15962292.837    83882631.587          42.834          40.000    15962298.616    65363243.481          33.893          40.000  
G11  17187482.622    90320936.399        -167.706          39.000    17187489.205    70380059.223        -130.414          40.000  
G19  19139014.585   100575939.330       -3329.529          31.000                                                                  
G20  16665037.991    87575555.350       -1340.416          40.000                                                                  
G12  18177351.647    95522593.719       -1929.105          35.000    18177370.128    74433562.204       -1502.740          37.000  
G13  16166740.526    84956977.534        2704.217          40.000                                                                  
G15  18003618.794    94609687.815        3826.030          36.000    18003637.276    73721970.989        2980.701          37.000  
G29  18668156.431    98101907.560        3568.964          35.000    18668166.844    76443051.986        2780.869          36.000  
> 2025 04 18 09 32 57.9840000  0 10                     
G06  18869781.444    99161307.910       -1019.374          33.000    18869800.705    77268627.785        -793.975          38.000  
G25  18601063.783    97749200.873        -728.217          34.000    18601084.296    76168292.498        -567.753          36.000  
G05  15962284.616    83882588.624          43.030          40.000    15962290.488    65363210.031          33.435          40.000  
G11  17187514.537    90321103.829        -167.656          39.000    17187521.096    70380189.686        -130.473          40.000  
G19  19139648.244   100579268.852       -3329.736          32.000                                                                  
G20  16665293.022    87576895.720       -1339.939          40.000                                                                  
G12  18177718.759    95524522.582       -1929.509          35.000    18177737.269    74435065.187       -1503.186          38.000  
G13  16166226.010    84954273.545        2703.876          40.000                                                                  
G15  18002890.826    94605862.252        3825.376          36.000    18002909.231    73718989.978        2981.425          36.000  
G29  18667477.170    98098338.479        3568.597          35.000    18667487.676    76440270.863        2781.300          36.000  
> 2025 04 18 09 32 58.9840000  0 10                     
G06  18869975.359    99162327.088       -1018.905          34.000    18869994.547    77269421.966        -794.326          38.000  
G25  18601202.439    97749929.203        -728.305          34.000    18601222.967    76168860.014        -567.721          36.000  
G05  15962276.566    83882545.944          42.572          40.000    15962282.478    65363176.758          33.447          40.000  
G11  17187546.455    90321271.298        -167.370          39.000    17187553.101    70380320.186        -130.638          41.000  
G19  19140281.881   100582598.450       -3329.517          31.000                                                                  
G20  16665548.211    87578236.099       -1340.217          40.000                                                                  
G12  18178085.920    95526451.491       -1928.137          34.000    18178104.436    74436568.263       -1503.288          37.000  
G13  16165711.571    84951569.940        2703.735          40.000                                                                  
G15  18002162.837    94602036.738        3825.852          36.000    18002181.311    73716009.114        2981.099          36.000  
G29  18666797.994    98094769.487        3569.315          35.000    18666808.498    76437489.833        2781.445          36.000  
> 2025 04 18 09 32 59.9840000  0 10                     
G06  18870169.311    99163346.394       -1019.465          34.000    18870188.427    77270216.197        -794.504          38.000  
G25  18601340.970    97750657.886        -728.766          34.000    18601361.576    76169427.778        -567.719          36.000  
G05  15962268.365    83882503.546          42.206          40.000    15962274.462    65363143.735          32.794          40.000  
G11  17187578.248    90321438.862        -167.746          39.000    17187584.942    70380450.764        -130.977          41.000  
G19  19140915.660   100585928.213       -3329.571          31.000                                                                  
G20  16665803.363    87579576.541       -1340.887          40.000                                                                  
G12  18178453.123    95528380.698       -1929.864          34.000    18178471.568    74438071.484       -1503.458          37.000  
G13  16165197.135    84948866.737        2703.015          40.000                                                                  
G15  18001434.831    94598211.414        3825.089          36.000    18001453.277    73713028.344        2980.768          36.000  
G29  18666118.927    98091200.653        3568.466          35.000    18666129.392    76434708.952        2780.538          36.000  
> 2025 04 18 09 33 00.9840000  0 10                     
G06  18870363.277    99164365.943       -1019.615          33.000    18870382.527    77271010.646        -794.759          38.000  
G25  18601479.696    97751387.054        -728.459          34.000    18601500.449    76169996.022        -568.699          36.000  
G05  15962260.421    83882461.618          41.980          40.000    15962266.444    65363111.069          32.556          40.000  
G11  17187610.203    90321606.668        -167.749          39.000    17187616.901    70380581.504        -130.746          41.000  
G19  19141549.392   100589258.372       -3330.347          31.000                                                                  
G20  16666058.368    87580917.120       -1340.338          40.000                                                                  
G12  18178820.269    95530310.162       -1929.369          35.000    18178838.706    74439574.981       -1503.736          37.000  
G13  16164682.813    84946164.123        2702.216          40.000                                                                  
G15  18000706.901    94594386.389        3824.814          36.000    18000725.316    73710047.800        2980.895          36.000  
G29  18665439.822    98087632.112        3568.537          35.000    18665450.333    76431928.250        2780.921          36.000  
> 2025 04 18 09 33 01.9840000  0 10                     
G06  18870557.390    99165385.658       -1020.080          33.000    18870576.481    77271805.209        -794.914          38.000  
G25  18601618.584    97752116.728        -730.037          34.000    18601639.330    76170564.531        -568.522          36.000  
G05  15962252.571    83882420.060          41.510          40.000    15962258.500    65363078.689          32.166          40.000  
G11  17187642.206    90321774.641        -168.191          39.000    17187648.814    70380712.388        -131.063          41.000  
G19  19142183.105   100592588.670       -3330.487          31.000                                                                  
G20  16666313.559    87582257.872       -1341.082          40.000                                                                  
G12  18179187.483    95532239.872       -1929.749          35.000    18179206.028    74441078.665       -1503.966          37.000  
G13  16164168.739    84943461.962        2702.032          40.000                                                                  
G15  17999978.976    94590561.550        3824.883          36.000    17999997.533    73707067.439        2980.523          36.000  
G29  18664760.831    98084063.787        3568.058          35.000    18664771.278    76429147.760        2780.358          36.000  
> 2025 04 18 09 33 02.9840000  0 10                     
G06  18870751.527    99166405.460       -1019.745          33.000    18870770.506    77272599.836        -794.542          38.000  
G25  18601757.538    97752846.706        -730.475          34.000    18601778.254    76171133.341        -569.081          36.000  
G05  15962244.660    83882378.783          41.370          40.000    15962250.673    65363046.538          31.915          40.000  
G11  17187674.175    90321942.682        -168.167          39.000    17187680.799    70380843.329        -130.912          41.000  
G19  19142816.872   100595919.173       -3330.609          31.000                                                                  
G20  16666568.643    87583598.603       -1340.508          40.000                                                                  
G12  18179554.856    95534169.778       -1929.519          35.000    18179573.237    74442582.465       -1503.900          37.000  
G13  16163654.586    84940760.222        2701.721          40.000                                                                  
G15  17999251.158    94586736.882        3824.555          36.000    17999269.733    73704087.180        2980.537          36.000  
G29  18664081.871    98080495.579        3568.274          35.000    18664092.191    76426367.348        2780.811          36.000  
> 2025 04 18 09 33 03.9840000  0 10                     
G06  18870945.676    99167425.473       -1020.388          33.000    18870964.607    77273394.640        -794.972          38.000  
G25  18601896.500    97753577.108        -731.006          34.000    18601917.314    76171702.484        -569.442          36.000  
G05  15962236.956    83882337.927          40.631          40.000    15962242.889    65363014.708          31.415          40.000  
G11  17187706.212    90322110.906        -168.202          39.000    17187712.894    70380974.432        -131.321          40.000  
G19  19143450.685   100599249.921       -3330.682          31.000                                                                  
G20  16666823.747    87584939.509       -1341.069          40.000                                                                  
G12  18179922.105    95536099.986       -1930.394          35.000    18179940.473    74444086.491       -1504.109          37.000  
G13  16163140.550    84938059.004        2700.806          40.000                                                                  
G15  17998523.368    94582912.460        3824.082          36.000    17998542.012    73701107.126        2979.967          36.000  
G29  18663402.896    98076927.678        3567.677          35.000    18663413.306    76423587.164        2779.818          36.000  
> 2025 04 18 09 33 04.9840000  0 10                     
G06  18871139.741    99168445.586       -1019.843          33.000    18871158.709    77274189.529        -795.045          38.000  
G25  18602035.661    97754307.905        -730.716          34.000    18602056.446    76172271.927        -569.532          36.000  
G05  15962229.123    83882297.399          40.271          40.000    15962235.231    65362983.112          31.567          40.000  
G11  17187738.214    90322279.266        -168.385          39.000    17187744.783    70381105.594        -130.990          40.000  
G19  19144084.514   100602580.842       -3330.280          31.000                                                                  
G20  16667078.831    87586280.458       -1340.953          40.000                                                                  
G12  18180289.466    95538030.359       -1930.467          35.000    18180307.846    74445590.691       -1504.483          37.000  
G13  16162626.673    84935358.222        2700.165          40.000                                                                  
G15  17997795.639    94579088.192        3824.195          36.000    17997814.296    73698127.185        2980.329          36.000  
G29  18662724.026    98073359.888        3567.842          35.000    18662734.480    76420807.091        2779.771          36.000  
> 2025 04 18 09 33 05.9840000  0 10                     
G06  18871333.985    99169465.773       -1020.379          34.000    18871352.895    77274984.472        -795.439          38.000  
G25  18602174.601    97755039.045        -732.083          34.000    18602195.582    76172841.591        -569.573          36.000  
G05  15962221.539    83882257.110          40.033          40.000    15962227.480    65362951.718          31.421          40.000  
G11  17187770.300    90322447.659        -168.238          39.000    17187776.773    70381236.820        -131.416          40.000  
G19  19144718.304   100605911.949       -3331.567          31.000                                                                  
G20  16667333.972    87587621.418       -1340.912          40.000                                                                  
G12  18180656.823    95539960.889       -1930.846          35.000    18180675.142    74447094.975       -1504.263          37.000  
G13  16162112.742    84932657.807        2699.933          40.000                                                                  
G15  17997068.087    94575264.045        3824.030          36.000    17997086.596    73695147.373        2979.423          36.000  
G29  18662045.056    98069792.242        3567.226          35.000    18662055.523    76418027.063        2780.232          36.000  
> 2025 04 18 09 33 06.9840000  0 10                     
G06  18871528.164    99170486.106       -1020.629          33.000    18871547.129    77275779.491        -794.570          38.000  
G25  18602313.960    97755770.574        -731.618          34.000    18602334.812    76173411.628        -570.291          36.000  
G05  15962213.910    83882217.187          39.526          40.000    15962219.978    65362920.605          31.091          40.000  
G11  17187802.538    90322616.221        -168.848          39.000    17187808.840    70381368.162        -131.560          40.000  
G19  19145352.192   100609243.255       -3331.311          31.000                                                                  
G20  16667589.226    87588962.483       -1341.244          39.000                                                                  
G12  18181024.197    95541891.661       -1930.728          35.000    18181042.586    74448599.476       -1504.596          37.000  
G13  16161598.907    84929957.855        2699.835          40.000                                                                  
G15  17996340.338    94571440.111        3823.730          36.000    17996358.914    73692167.667        2980.094          36.000  
G29  18661366.370    98066224.778        3567.658          35.000    18661376.804    76415247.244        2779.852          36.000  
> 2025 04 18 09 33 07.9840000  0 10                     
G06  18871722.429    99171506.550       -1020.510          33.000    18871741.290    77276574.640        -794.890          38.000  
G25  18602453.207    97756502.449        -731.572          34.000    18602474.089    76173981.919        -570.591          36.000  
G05  15962206.383    83882177.546          39.618          40.000    15962212.472    65362889.724          30.817          40.000  
G11  17187834.662    90322784.821        -168.255          39.000    17187840.849    70381499.541        -131.381          40.000  
G19  19145986.149   100612574.708       -3331.732          31.000                                                                  
G20  16667844.457    87590303.569       -1341.171          39.000                                                                  
G12  18181391.634    95543822.591       -1930.896          35.000    18181409.953    74450104.076       -1504.779          38.000  
G13  16161085.098    84927258.324        2699.402          40.000                                                                  
G15  17995612.596    94567616.307        3823.438          36.000    17995631.250    73689188.081        2979.696          36.000  
G29  18660687.531    98062657.468        3567.587          35.000    18660697.980    76412467.540        2779.829          36.000  
> 2025 04 18 09 33 08.9840000  0 10                     
G06  18871916.492    99172526.961       -1020.422          33.000    18871935.413    77277369.781        -795.394          38.000  
G25  18602592.405    97757234.572        -732.609          34.000    18602613.481    76174552.364        -570.286          36.000  
G05  15962198.832    83882138.121          39.032          40.000    15962204.981    65362858.993          30.798          40.000  
G11  17187866.782    90322953.436        -168.309          39.000    17187872.869    70381630.936        -131.468          40.000  
G19  19146619.948   100615906.225       -3331.781          31.000                                                                  
G20  16668099.624    87591644.585       -1341.180          39.000                                                                  
G12  18181759.118    95545753.607       -1931.470          35.000    18181777.378    74451608.743       -1504.499          38.000  
G13  16160571.449    84924559.097        2698.956          40.000                                                                  
G15  17994884.912    94563792.572        3823.159          36.000    17994903.567    73686208.549        2979.656          36.000  
G29  18660008.800    98059090.216        3567.059          35.000    18660019.257    76409687.869        2779.102          36.000  
> 2025 04 18 09 33 09.9840000  0 10                     
G06  18872110.633    99173547.406       -1020.391          33.000    18872129.653    77278164.906        -795.135          38.000  
G25  18602731.785    97757966.946        -732.634          34.000    18602752.916    76175123.060        -571.073          37.000  
G05  15962191.389    83882098.860          39.246          40.000    15962197.468    65362828.414          30.774          40.000  
G11  17187898.856    90323122.037        -168.247          39.000    17187904.888    70381762.323        -131.368          40.000  
G19  19147253.994   100619237.800       -3331.476          31.000                                                                  
G20  16668354.840    87592985.524       -1340.720          39.000                                                                  
G12  18182126.736    95547684.662       -1930.454          35.000    18182144.904    74453113.470       -1504.375          37.000  
G13  16160057.887    84921860.196        2698.803          40.000                                                                  
G15  17994157.432    94559968.839        3823.806          36.000    17994175.888    73683229.043        2979.429          36.000  
G29  18659330.024    98055522.972        3567.353          35.000    18659340.298    76406908.201        2779.880          36.000  
> 2025 04 18 09 33 10.9840000  0 10                     
G06  18872304.859    99174567.928       -1020.505          33.000    18872323.888    77278960.102        -795.140          38.000  
G25  18602871.188    97758699.678        -733.268          34.000    18602892.325    76175693.997        -570.988          37.000  
G05  15962184.051    83882059.927          38.995          40.000    15962189.965    65362798.094          30.151          40.000  
G11  17187930.949    90323290.755        -168.762          39.000    17187937.028    70381893.777        -131.684          40.000  
G19  19147887.874   100622569.546       -3332.367          31.000                                                                  
G20  16668610.083    87594326.513       -1340.815          40.000                                                                  
G12  18182494.364    95549615.973       -1932.062          35.000    18182512.415    74454618.365       -1505.409          37.000  
G13  16159544.428    84919161.706        2698.334          40.000                                                                  
G15  17993429.759    94556145.301        3822.931          36.000    17993448.281    73680249.668        2979.402          36.000  
G29  18658651.273    98051955.902        3567.110          35.000    18658661.474    76404128.669        2779.023          36.000  
> 2025 04 18 09 33 11.9840000  0 10                     
G06  18872499.116    99175588.656       -1021.264          33.000    18872518.073    77279755.476        -795.553          38.000  
G25  18603010.651    97759432.823        -732.914          34.000    18603031.864    76176265.287        -571.115          37.000  
G05  15962176.737    83882021.424          38.385          40.000    15962182.543    65362768.075          30.103          40.000  
G11  17187962.995    90323459.628        -169.077          39.000    17187969.186    70382025.366        -131.691          40.000  
G19  19148522.033   100625901.570       -3332.898          31.000                                                                  
G20  16668865.287    87595667.658       -1341.007          40.000                                                                  
G12  18182861.910    95551547.488       -1931.434          35.000    18182880.032    74456123.434       -1505.098          37.000  
G13  16159031.009    84916463.729        2697.906          40.000                                                                  
G15  17992702.269    94552321.987        3823.176          36.000    17992720.688    73677270.483        2979.259          36.000  
G29  18657972.579    98048389.095        3566.204          35.000    18657982.706    76401349.333        2779.234          36.000  
> 2025 04 18 09 33 12.9840000  0 10                     
G06  18872693.474    99176609.758       -1021.411          33.000    18872712.341    77280551.116        -795.712          38.000  
G25  18603150.303    97760166.682        -733.890          34.000    18603171.531    76176837.089        -572.025          37.000  
G05  15962169.478    83881983.466          37.958          40.000    15962175.357    65362738.530          29.333          40.000  
G11  17187995.140    90323628.886        -169.197          39.000    17188001.356    70382157.240        -131.673          40.000  
G19  19149156.120   100629233.990       -3332.172          31.000                                                                  
G20  16669120.612    87597009.119       -1341.508          40.000                                                                  
G12  18183229.541    95553479.499       -1932.066          35.000    18183247.662    74457628.899       -1505.668          37.000  
G13  16158517.705    84913766.445        2697.296          40.000                                                                  
G15  17991974.753    94548499.123        3822.415          36.000    17991993.156    73674291.630        2978.837          37.000  
G29  18657293.821    98044822.670        3566.684          35.000    18657303.985    76398570.306        2779.168          36.000  
> 2025 04 18 09 33 13.9840000  0 10                     
G06  18872887.860    99177631.295       -1021.155          33.000    18872906.710    77281347.094        -795.799          38.000  
G25  18603290.032    97760901.188        -735.284          35.000    18603311.389    76177409.409        -572.208          37.000  
G05  15962162.416    83881946.159          37.085          40.000    15962168.328    65362709.448          28.754          40.000  
G11  17188027.443    90323798.538        -169.505          39.000    17188033.545    70382289.463        -132.272          40.000  
G19  19149790.455   100632566.937       -3333.240          31.000                                                                  
G20  16669375.958    87598350.945       -1342.261          40.000                                                                  
G12  18183597.467    95555412.006       -1932.617          35.000    18183615.445    74459134.727       -1505.879          37.000  
G13  16158004.538    84911069.908        2696.417          40.000                                                                  
G15  17991247.488    94544676.714        3822.099          36.000    17991265.757    73671313.147        2978.319          37.000  
G29  18656615.149    98041256.773        3565.060          34.000    18656625.375    76395791.679        2778.465          36.000  
> 2025 04 18 09 33 14.9840000  0 10                     
G06  18873082.414    99178652.867       -1022.211          33.000    18873101.189    77282143.114        -796.372          38.000  
G25  18603429.947    97761635.933        -735.433          34.000    18603451.160    76177981.950        -572.945          37.000  
G05  15962155.238    83881909.044          37.048          40.000    15962161.257    65362680.534          28.540          40.000  
G11  17188059.713    90323968.224        -169.974          39.000    17188065.734    70382421.670        -132.555          40.000  
G19  19150424.680   100635899.956       -3333.661          31.000                                                                  
G20  16669631.295    87599692.680       -1341.725          40.000                                                                  
G12  18183965.271    95557344.602       -1932.616          35.000    18183983.171    74460640.641       -1506.125          37.000  
G13  16157491.423    84908373.685        2695.966          40.000                                                                  
G15  17990520.186    94540854.381        3821.747          36.000    17990538.482    73668334.710        2978.271          37.000  
G29  18655936.431    98037690.886        3566.123          35.000    18655946.817    76393013.080        2778.606          36.000  
> 2025 04 18 09 33 15.9840000  0 10                     
G06  18873276.927    99179674.615       -1021.913          33.000    18873295.547    77282939.259        -795.878          37.000  
G25  18603569.958    97762371.193        -735.503          34.000    18603591.083    76178554.857        -573.547          37.000  
G05  15962148.351    83881872.372          36.450          40.000    15962154.327    65362651.962          28.333          40.000  
G11  17188092.107    90324138.120        -170.197          39.000    17188098.074    70382554.058        -132.733          40.000  
G19  19151059.019   100639233.252       -3333.771          32.000                                                                  
G20  16669886.615    87601034.625       -1342.052          40.000                                                                  
G12  18184333.124    95559277.529       -1933.349          35.000    18184350.978    74462146.791       -1506.543          37.000  
G13  16156978.437    84905678.014        2695.526          40.000                                                                  
G15  17989792.787    94537032.296        3822.170          36.000    17989811.138    73665356.488        2978.405          37.000  
G29  18655257.825    98034125.311        3565.002          34.000    18655268.332    76390234.736        2777.914          36.000  
> 2025 04 18 09 33 16.9840000  0 10                     
G06  18873471.308    99180696.635       -1021.502          33.000    18873490.101    77283735.655        -796.208          38.000  
G25  18603709.732    97763106.962        -736.536          35.000    18603731.204    76179128.141        -573.403          37.000  
G05  15962141.491    83881836.164          36.157          40.000    15962147.441    65362623.747          28.088          40.000  
G11  17188124.567    90324308.264        -170.458          39.000    17188130.568    70382686.628        -132.617          40.000  
G19  19151693.609   100642566.893       -3334.058          31.000                                                                  
G20  16670142.069    87602376.786       -1342.432          40.000                                                                  
G12  18184701.009    95561210.760       -1933.610          35.000    18184718.926    74463653.209       -1506.790          37.000  
G13  16156465.606    84902982.926        2694.904          40.000                                                                  
G15  17989065.544    94533210.553        3821.920          36.000    17989084.001    73662378.549        2977.622          37.000  
G29  18654579.372    98030560.045        3564.993          34.000    18654589.864    76387456.589        2778.355          36.000  
> 2025 04 18 09 33 17.9840000  0 10                     
G06  18873665.897    99181718.848       -1022.198          33.000    18873684.607    77284532.157        -796.168          37.000  
G25  18603849.777    97763843.085        -736.185          34.000    18603871.302    76179701.776        -573.773          37.000  
G05  15962134.651    83881800.308          35.931          40.000    15962140.657    65362595.804          28.119          40.000  
G11  17188156.977    90324478.538        -170.193          39.000    17188163.017    70382819.315        -132.614          40.000  
G19  19152328.258   100645900.699       -3333.746          31.000                                                                  
G20  16670397.446    87603718.989       -1341.996          40.000                                                                  
G12  18185069.073    95563144.227       -1933.501          35.000    18185086.912    74465159.799       -1506.612          37.000  
G13  16155952.915    84900288.317        2694.305          40.000                                                                  
G15  17988338.381    94529389.024        3821.528          36.000    17988356.814    73659400.743        2977.563          37.000  
G29  18653900.917    98026994.946        3565.508          34.000    18653911.379    76384678.622        2777.916          36.000  
> 2025 04 18 09 33 18.9840000  0 10                     
G06  18873860.500    99182740.908       -1021.787          33.000    18873879.105    77285328.573        -796.410          37.000  
G25  18603989.950    97764579.386        -736.360          34.000    18604011.416    76180275.479        -573.683          37.000  
G05  15962127.965    83881764.541          35.718          40.000    15962133.776    65362567.930          27.838          40.000  
G11  17188189.380    90324648.686        -170.155          39.000    17188195.389    70382951.897        -132.349          40.000  
G19  19152962.762   100649234.493       -3333.838          31.000                                                                  
G20  16670652.903    87605061.038       -1341.656          40.000                                                                  
G12  18185437.062    95565077.677       -1934.055          35.000    18185454.839    74466666.353       -1506.536          37.000  
G13  16155440.105    84897593.867        2694.366          40.000                                                                  
G15  17987611.070    94525567.399        3821.611          36.000    17987629.579    73656422.824        2978.159          36.000  
G29  18653222.435    98023429.824        3564.865          34.000    18653232.952    76381900.588        2777.798          36.000  
> 2025 04 18 09 33 19.9840000  0 10                     
G06  18874054.993    99183762.935       -1022.017          33.000    18874073.598    77286124.941        -796.653          37.000  
G25  18604130.059    97765315.867        -736.282          34.000    18604151.626    76180849.383        -574.253          37.000  
G05  15962121.100    83881728.894          35.394          40.000    15962127.035    65362540.160          27.667          40.000  
G11  17188221.741    90324818.769        -170.028          39.000    17188227.684    70383084.421        -132.244          40.000  
G19  19153597.127   100652568.288       -3334.173          31.000                                                                  
G20  16670908.141    87606402.981       -1342.119          40.000                                                                  
G12  18185804.948    95567011.110       -1933.906          35.000    18185822.764    74468172.893       -1506.193          37.000  
G13  16154927.434    84894899.699        2694.104          40.000                                                                  
G15  17986883.912    94521745.786        3821.305          36.000    17986902.342    73653444.972        2977.400          36.000  
G29  18652543.851    98019864.615        3565.270          34.000    18652554.524    76379122.540        2777.735          36.000  
> 2025 04 18 09 33 23.9840000  0 10                     
G06  18874833.112    99187851.816       -1022.050          33.000    18874851.489    77289311.039        -796.759          38.000  
G25  18604691.449    97768265.225        -738.302          34.000    18604713.051    76183147.525        -575.201          37.000  
G05  15962094.800    83881589.228          34.509          40.000    15962100.350    65362431.344          26.764          40.000  
G11  17188351.429    90325499.878        -170.335          39.000    17188357.482    70383615.159        -132.915          40.000  
G19  19156134.847   100665904.917       -3334.601          31.000                                                                  
G20  16671929.507    87611770.917       -1341.986          40.000                                                                  
G12  18187277.049    95574746.504       -1934.225          35.000    18187294.709    74474200.442       -1507.098          37.000  
G13  16152877.214    84884127.054        2692.358          40.000                                                                  
G15  17983975.290    94506460.676        3820.815          36.000    17983993.611    73641534.540        2977.195          37.000  
G29  18649829.942    98005605.291        3564.793          35.000    18649841.256    76368011.413        2777.386          36.000  
> 2025 04 18 09 33 24.9840000  0 10                     
G06  18875027.658    99188874.407       -1023.025          33.000    18875045.962    77290107.829        -796.862          38.000  
G25  18604831.827    97769003.527        -738.570          34.000    18604853.556    76183722.815        -575.691          37.000  
G05  15962088.314    83881555.150          34.082          40.000    15962093.887    65362404.798          26.208          40.000  
G11  17188383.776    90325670.475        -170.631          39.000    17188389.967    70383748.096        -133.078          40.000  
G19  19156769.328   100669239.602       -3335.321          31.000                                                                  
G20  16672184.772    87613113.101       -1342.377          40.000                                                                  
G12  18187645.030    95576680.889       -1934.327          35.000    18187662.813    74475707.754       -1507.410          37.000  
G13  16152365.009    84881435.031        2691.699          40.000                                                                  
G15  17983248.097    94502639.854        3820.907          36.000    17983266.477    73638557.280        2977.245          37.000  
G29  18649151.934    98002040.950        3564.062          34.000    18649163.038    76365234.011        2776.716          36.000  
> 2025 04 18 09 33 25.9840000  0 10                     
G06  18875222.236    99189897.111       -1022.508          33.000    18875240.687    77290904.753        -797.030          38.000  
G25  18604972.367    97769742.235        -738.857          34.000    18604994.163    76184298.423        -575.752          36.000  
G05  15962081.984    83881521.448          33.582          40.000    15962087.529    65362378.533          26.135          40.000  
G11  17188416.257    90325841.229        -170.708          39.000    17188422.398    70383881.141        -133.050          40.000  
G19  19157403.994   100672574.504       -3335.278          31.000                                                                  
G20  16672440.212    87614455.373       -1342.324          40.000                                                                  
G12  18188013.258    95578615.509       -1934.789          35.000    18188030.924    74477215.229       -1507.295          37.000  
G13  16151852.807    84878743.486        2691.028          40.000                                                                  
G15  17982521.040    94498819.258        3820.536          36.000    17982539.393    73635580.213        2977.206          37.000  
G29  18648473.791    97998476.768        3564.491          35.000    18648484.791    76362456.734        2776.907          36.000  
> 2025 04 18 09 33 26.9840000  0 10                     
G06  18875416.889    99190919.925       -1022.801          33.000    18875435.426    77291701.745        -797.083          38.000  
G25  18605113.101    97770481.299        -738.319          34.000    18605134.824    76184874.307        -576.105          36.000  
G05  15962075.615    83881488.024          33.240          40.000    15962081.132    65362352.492          25.891          40.000  
G11  17188448.741    90326012.051        -170.793          39.000    17188454.926    70384014.252        -133.001          40.000  
G19  19158038.589   100675909.507       -3335.022          32.000                                                                  
G20  16672695.566    87615797.699       -1342.594          40.000                                                                  
G12  18188381.503    95580550.310       -1935.067          35.000    18188399.151    74478722.869       -1507.721          37.000  
G13  16151340.753    84876052.331        2690.942          40.000                                                                  
G15  17981794.083    94494998.821        3819.924          36.000    17981812.271    73632603.246        2976.915          36.000  
G29  18647795.691    97994912.789        3563.615          35.000    18647806.558    76359679.571        2776.900          36.000  
> 2025 04 18 09 33 27.9840000  0 10                     
G06  18875611.519    99191942.870       -1022.894          33.000    18875630.058    77292498.833        -797.347          38.000  
G25  18605253.834    97771220.741        -740.046          34.000    18605275.585    76185450.480        -576.553          37.000  
G05  15962069.259    83881454.915          32.605          40.000    15962074.784    65362326.682          25.549          40.000  
G11  17188481.314    90326182.977        -170.906          39.000    17188487.495    70384147.457        -133.596          40.000  
G19  19158673.424   100679244.711       -3334.967          31.000                                                                  
G20  16672951.111    87617140.044       -1342.809          40.000                                                                  
G12  18188749.671    95582485.278       -1935.186          35.000    18188767.392    74480230.630       -1507.776          37.000  
G13  16150828.688    84873361.619        2690.375          40.000                                                                  
G15  17981067.110    94491178.501        3820.030          36.000    17981085.239    73629626.398        2976.714          36.000  
G29  18647117.462    97991348.921        3563.448          35.000    18647128.337    76356902.544        2777.250          36.000  
> 2025 04 18 09 33 28.9840000  0 10                     
G06  18875806.134    99192966.186       -1023.713          33.000    18875824.731    77293296.179        -797.152          38.000  
G25  18605394.717    97771960.768        -740.041          34.000    18605416.497    76186027.110        -576.670          37.000  
G05  15962063.008    83881422.342          32.251          40.000    15962068.633    65362301.303          25.214          40.000  
G11  17188513.900    90326354.266        -171.343          39.000    17188520.064    70384280.902        -133.609          40.000  
G19  19159308.208   100682580.343       -3335.297          31.000                                                                  
G20  16673206.436    87618482.706       -1342.933          40.000                                                                  
G12  18189118.085    95584420.712       -1935.799          35.000    18189135.714    74481738.741       -1507.978          37.000  
G13  16150316.833    84870671.582        2689.661          40.000                                                                  
G15  17980340.105    94487358.610        3819.729          36.000    17980358.312    73626649.861        2976.165          36.000  
G29  18646439.416    97987785.477        3563.048          35.000    18646450.175    76354125.845        2776.546          36.000  
> 2025 04 18 09 33 29.9840000  0 10                     
G06  18876000.912    99193989.871       -1024.025          33.000    18876019.552    77294093.859        -798.199          38.000  
G25  18605535.629    97772701.434        -740.049          34.000    18605557.416    76186604.265        -577.331          37.000  
G05  15962056.851    83881390.361          31.769          40.000    15962062.542    65362276.400          24.683          40.000  
G11  17188546.578    90326525.922        -171.824          39.000    17188552.862    70384414.670        -133.951          40.000  
G19  19159942.923   100685916.469       -3336.292          31.000                                                                  
G20  16673461.944    87619825.672       -1343.020          40.000                                                                  
G12  18189486.541    95586356.570       -1935.948          35.000    18189504.157    74483247.222       -1508.523          37.000  
G13  16149804.994    84867982.234        2689.209          40.000                                                                  
G15  17979613.327    94483539.166        3819.115          36.000    17979631.509    73623673.671        2975.945          36.000  
G29  18645761.448    97984222.493        3562.459          35.000    18645772.133    76351349.483        2776.238          36.000  
> 2025 04 18 09 33 30.9840000  0 10                     
G06  18876195.774    99195013.706       -1023.708          33.000    18876214.458    77294891.647        -798.038          38.000  
G25  18605676.468    97773442.596        -741.528          34.000    18605698.424    76187181.715        -577.756          37.000  
G05  15962050.812    83881358.775          31.152          40.000    15962056.557    65362251.773          24.457          40.000  
G11  17188579.158    90326697.747        -171.897          39.000    17188585.547    70384548.575        -134.395          40.000  
G19  19160577.751   100689252.827       -3337.494          31.000                                                                  
G20  16673717.297    87621168.769       -1343.186          40.000                                                                  
G12  18189855.044    95588292.738       -1936.240          35.000    18189872.533    74484755.892       -1508.741          37.000  
G13  16149293.330    84865293.405        2688.489          40.000                                                                  
G15  17978886.495    94479719.949        3818.993          36.000    17978904.783    73620697.676        2975.702          36.000  
G29  18645083.459    97980659.689        3562.890          35.000    18645094.132    76348573.292        2776.241          36.000  
> 2025 04 18 09 33 31.9840000  0 10                     
G06  18876390.770    99196037.909       -1024.113          33.000    18876409.471    77295689.695        -797.819          38.000  
G25  18605817.679    97774184.249        -741.513          34.000    18605839.632    76187759.645        -577.998          37.000  
G05  15962044.800    83881327.711          30.579          40.000    15962050.684    65362227.560          24.097          40.000  
G11  17188611.895    90326869.882        -171.951          39.000    17188618.331    70384682.695        -134.459          40.000  
G19  19161212.658   100692589.504       -3336.743          31.000                                                                  
G20  16673972.809    87622512.134       -1343.038          40.000                                                                  
G12  18190223.578    95590229.280       -1936.688          35.000    18190241.019    74486264.881       -1509.317          37.000  
G13  16148781.746    84862605.206        2688.049          41.000                                                                  
G15  17978159.795    94475901.088        3818.994          36.000    17978178.109    73617721.977        2975.249          36.000  
G29  18644405.471    97977097.309        3562.164          35.000    18644416.189    76345797.411        2775.416          36.000  
> 2025 04 18 09 33 32.9840000  0 10                     
G06  18876585.695    99197062.274       -1025.056          33.000    18876604.455    77296487.880        -798.155          38.000  
G25  18605958.855    97774926.375        -742.444          33.000    18605980.938    76188337.892        -578.426          37.000  
G05  15962039.120    83881296.989          30.072          40.000    15962044.844    65362203.632          23.785          40.000  
G11  17188644.682    90327042.189        -172.282          39.000    17188651.093    70384816.948        -134.485          40.000  
G19  19161847.647   100695926.438       -3336.834          31.000                                                                  
G20  16674228.473    87623855.599       -1343.706          40.000                                                                  
G12  18190592.143    95592166.064       -1937.074          35.000    18190609.538    74487774.029       -1509.297          37.000  
G13  16148270.353    84859917.491        2687.512          40.000                                                                  
G15  17977433.020    94472082.454        3818.428          36.000    17977451.568    73614746.412        2975.208          37.000  
G29  18643727.649    97973535.105        3561.799          35.000    18643738.205    76343021.644        2775.892          36.000  
> 2025 04 18 09 33 33.9840000  0 10                     
G06  18876780.658    99198086.713       -1024.425          33.000    18876799.453    77297286.147        -798.082          38.000  
G25  18606100.005    97775668.836        -742.936          33.000    18606122.255    76188916.419        -578.260          37.000  
G05  15962033.424    83881266.570          30.170          40.000    15962038.963    65362179.946          23.230          40.000  
G11  17188677.508    90327214.575        -172.387          39.000    17188683.795    70384951.278        -134.438          40.000  
G19  19162482.793   100699263.567       -3337.366          31.000                                                                  
G20  16674484.137    87625199.102       -1343.369          40.000                                                                  
G12  18190960.730    95594103.014       -1936.990          35.000    18190978.179    74489283.346       -1509.446          38.000  
G13  16147759.069    84857230.204        2687.097          40.000                                                                  
G15  17976706.424    94468263.988        3818.323          36.000    17976724.998    73611770.991        2975.495          37.000  
G29  18643049.904    97969973.072        3561.427          34.000    18643060.268    76340246.053        2775.500          35.000  
> 2025 04 18 09 33 34.9840000  0 10                     
G06  18876975.682    99199111.246       -1024.234          33.000    18876994.558    77298084.497        -798.846          38.000  
G25  18606241.312    97776411.661        -743.647          34.000    18606263.554    76189495.244        -579.443          37.000  
G05  15962027.496    83881236.460          29.584          40.000    15962033.175    65362156.480          23.096          40.000  
G11  17188710.240    90327387.066        -172.725          39.000    17188716.580    70385085.682        -134.730          40.000  
G19  19163117.449   100702600.844       -3337.598          31.000                                                                  
G20  16674739.855    87626542.650       -1344.070          40.000                                                                  
G12  18191329.295    95596040.148       -1937.802          36.000    18191346.786    74490792.796       -1509.837          38.000  
G13  16147247.681    84854543.329        2686.560          40.000                                                                  
G15  17975979.909    94464445.627        3818.298          36.000    17975998.354    73608795.693        2974.562          37.000  
G29  18642372.108    97966411.156        3561.667          34.000    18642382.475    76337470.551        2775.124          35.000  
> 2025 04 18 09 33 35.9840000  0 10                     
G06  18877170.712    99200136.077       -1025.705          33.000    18877189.473    77298883.020        -798.936          38.000  
G25  18606382.708    97777154.933        -743.643          34.000    18606404.978    76190074.396        -579.174          36.000  
G05  15962021.842    83881206.777          29.370          40.000    15962027.575    65362133.353          23.029          40.000  
G11  17188743.111    90327559.753        -172.414          39.000    17188749.491    70385220.244        -134.464          40.000  
G19  19163752.436   100705938.404       -3338.489          31.000                                                                  
G20  16674995.559    87627886.358       -1343.870          40.000                                                                  
G12  18191697.917    95597977.581       -1937.557          36.000    18191715.423    74492302.468       -1509.761          38.000  
G13  16146736.486    84851857.009        2685.834          40.000                                                                  
G15  17975253.465    94460627.626        3817.641          36.000    17975271.831    73605820.606        2974.811          37.000  
G29  18641694.394    97962849.563        3561.419          35.000    18641704.619    76334695.301        2774.487          35.000  
> 2025 04 18 09 33 36.9840000  0 10                     
G06  18877365.750    99201161.093       -1025.303          33.000    18877384.540    77299681.737        -799.111          37.000  
G25  18606524.041    97777898.743        -744.696          34.000    18606546.456    76190653.985        -580.253          36.000  
G05  15962016.283    83881177.547          28.760          40.000    15962022.111    65362110.578          22.382          40.000  
G11  17188775.968    90327732.715        -173.280          39.000    17188782.444    70385354.998        -134.846          40.000  
G19  19164387.609   100709276.238       -3337.451          31.000                                                                  
G20  16675251.411    87629230.238       -1343.959          40.000                                                                  
G12  18192066.603    95599915.331       -1937.745          36.000    18192084.159    74493812.414       -1510.027          38.000  
G13  16146225.348    84849171.242        2685.596          40.000                                                                  
G15  17974527.080    94456809.881        3817.449          36.000    17974545.226    73602845.753        2974.568          37.000  
G29  18641016.638    97959288.275        3560.597          35.000    18641026.963    76331920.237        2774.965          35.000  
> 2025 04 18 09 33 37.9840000  0 10                     
G06  18877560.804    99202186.621       -1025.983          33.000    18877579.688    77300480.807        -798.790          37.000  
G25  18606665.792    97778643.236        -744.229          34.000    18606688.065    76191234.110        -580.058          36.000  
G05  15962010.842    83881148.996          28.387          40.000    15962016.607    65362088.339          22.137          40.000  
G11  17188808.959    90327906.117        -173.042          39.000    17188815.523    70385490.149        -135.402          40.000  
G19  19165022.668   100712614.682       -3338.818          31.000                                                                  
G20  16675507.219    87630574.563       -1344.359          40.000                                                                  
G12  18192435.546    95601853.668       -1938.588          35.000    18192453.062    74495322.780       -1510.858          38.000  
G13  16145714.431    84846486.310        2684.540          40.000                                                                  
G15  17973800.667    94452992.681        3816.750          36.000    17973818.933    73599871.323        2974.164          37.000  
G29  18640339.025    97955727.468        3560.736          34.000    18640349.408    76329145.616        2774.788          36.000  
> 2025 04 18 09 33 38.9840000  0 10                     
G06  18877756.042    99203212.318       -1025.344          33.000    18877774.805    77301280.073        -799.239          38.000  
G25  18606807.278    97779388.230        -745.012          34.000    18606829.766    76191814.623        -580.664          36.000  
G05  15962005.510    83881120.876          27.783          40.000    15962011.280    65362066.425          21.680          40.000  
G11  17188842.005    90328079.746        -173.845          39.000    17188848.626    70385625.416        -135.337          40.000  
G19  19165658.124   100715953.359       -3339.020          31.000                                                                  
G20  16675763.082    87631919.025       -1344.226          40.000                                                                  
G12  18192804.325    95603792.269       -1938.604          35.000    18192822.029    74496833.359       -1510.552          38.000  
G13  16145203.481    84843801.864        2684.204          40.000                                                                  
G15  17973074.336    94449175.728        3816.974          36.000    17973092.608    73596897.090        2974.041          37.000  
G29  18639661.274    97952166.951        3560.367          34.000    18639671.940    76326371.202        2774.304          35.000  
> 2025 04 18 09 33 39.9840000  0 10                     
G06  18877951.284    99204238.307       -1026.631          33.000    18877970.162    77302079.520        -799.703          38.000  
G25  18606949.210    97780133.717        -746.035          34.000    18606971.689    76192395.486        -580.943          37.000  
G05  15962000.253    83881093.179          27.148          40.000    15962005.962    65362044.841          21.277          40.000  
G11  17188875.089    90328253.593        -174.044          39.000    17188881.693    70385760.874        -135.588          40.000  
G19  19166293.469   100719292.340       -3339.172          31.000                                                                  
G20  16676018.979    87633263.655       -1344.780          40.000                                                                  
G12  18193173.275    95605731.161       -1938.820          35.000    18193191.128    74498344.184       -1510.802          38.000  
G13  16144692.749    84841117.978        2684.033          40.000                                                                  
G15  17972347.891    94445359.067        3816.599          36.000    17972366.357    73593923.078        2973.828          37.000  
G29  18638983.717    97948606.723        3559.884          34.000    18638994.420    76323596.987        2774.402          36.000  
> 2025 04 18 09 33 40.9840000  0 10                     
G06  18878146.557    99205264.458       -1026.420          33.000    18878165.484    77302879.098        -799.505          38.000  
G25  18607091.350    97780879.662        -747.198          34.000    18607113.686    76192976.695        -581.083          37.000  
G05  15961995.206    83881065.863          27.179          40.000    15962000.700    65362023.561          21.198          40.000  
G11  17188908.264    90328427.600        -173.772          39.000    17188914.802    70385896.478        -135.689          40.000  
G19  19166928.830   100722631.606       -3340.082          31.000                                                                  
G20  16676274.857    87634608.413       -1344.470          40.000                                                                  
G12  18193542.257    95607670.352       -1938.888          35.000    18193560.136    74499855.232       -1511.328          38.000  
G13  16144182.153    84838434.625        2683.221          40.000                                                                  
G15  17971621.571    94441542.651        3816.329          36.000    17971640.158    73590949.290        2973.570          37.000  
G29  18638306.214    97945046.715        3559.829          34.000    18638317.007    76320822.962        2773.931          36.000  
> 2025 04 18 09 33 41.9840000  0 10                     
G06  18878341.727    99206290.684       -1026.276          33.000    18878360.727    77303678.745        -799.645          38.000  
G25  18607233.474    97781625.854        -746.861          34.000    18607255.643    76193558.171        -581.599          37.000  
G05  15961989.823    83881038.818          26.886          40.000    15961995.575    65362002.496          20.972          40.000  
G11  17188941.346    90328601.702        -174.360          39.000    17188948.042    70386032.134        -135.756          40.000  
G19  19167564.353   100725970.952       -3339.203          31.000                                                                  
G20  16676530.606    87635953.195       -1344.968          40.000                                                                  
G12  18193911.337    95609609.707       -1939.851          35.000    18193929.142    74501366.395       -1511.492          37.000  
G13  16143671.624    84835751.659        2682.593          40.000                                                                  
G15  17970895.375    94437726.391        3815.774          36.000    17970913.904    73587975.564        2973.654          37.000  
G29  18637628.898    97941486.840        3559.666          34.000    18637639.521    76318049.036        2774.173          36.000  
> 2025 04 18 09 33 42.9840000  0 10                     
G06  18878537.193    99207317.128       -1025.714          33.000    18878556.081    77304478.606        -800.038          38.000  
G25  18607375.504    97782372.596        -746.986          34.000    18607397.722    76194140.030        -582.002          37.000  
G05  15961984.747    83881012.255          26.392          40.000    15961990.593    65361981.789          20.581          40.000  
G11  17188974.519    90328776.039        -174.549          39.000    17188981.183    70386167.970        -135.665          40.000  
G19  19168199.762   100729310.645       -3339.538          30.000                                                                  
G20  16676786.595    87637298.175       -1344.971          40.000                                                                  
G12  18194280.349    95611549.349       -1939.659          35.000    18194298.255    74502877.785       -1511.012          37.000  
G13  16143161.197    84833069.260        2682.300          40.000                                                                  
G15  17970169.137    94433910.411        3815.807          36.000    17970187.774    73585002.080        2973.269          37.000  
G29  18636951.506    97937927.282        3559.345          34.000    18636962.239    76315275.363        2773.780          36.000  
> 2025 04 18 09 33 43.9840000  0 10                     
G06  18878732.435    99208343.579       -1027.008          33.000    18878751.400    77305278.368        -799.828          38.000  
G25  18607517.597    97783119.522        -747.675          34.000    18607539.754    76194722.006        -581.994          37.000  
G05  15961979.836    83880985.757          26.166          40.000    15961985.615    65361961.163          20.209          40.000  
G11  17189007.740    90328950.268        -174.396          39.000    17189014.393    70386303.750        -136.071          40.000  
G19  19168835.286   100732650.284       -3339.642          31.000                                                                  
G20  16677042.585    87638642.989       -1345.168          40.000                                                                  
G12  18194649.532    95613488.999       -1939.750          35.000    18194667.429    74504389.201       -1511.552          37.000  
G13  16142650.797    84830387.099        2681.366          40.000                                                                  
G15  17969442.956    94430094.415        3815.218          36.000    17969461.727    73582028.565        2973.251          37.000  
G29  18636274.284    97934367.672        3559.224          34.000    18636284.766    76312501.649        2773.489          36.000  
> 2025 04 18 09 33 44.9840000  0 10                     
G06  18878927.879    99209369.963       -1026.940          33.000    18878946.750    77306078.123        -799.788          38.000  
G25  18607659.754    97783866.623        -746.964          34.000    18607682.051    76195304.188        -582.400          37.000  
G05  15961974.801    83880959.469          25.977          40.000    15961980.588    65361940.660          20.288          40.000  
G11  17189040.949    90329124.477        -174.425          39.000    17189047.554    70386439.486        -135.932          40.000  
G19  19169470.869   100735989.992       -3339.313          31.000                                                                  
G20  16677298.591    87639987.722       -1344.690          40.000                                                                  
G12  18195018.606    95615428.705       -1939.608          35.000    18195036.518    74505900.649       -1511.663          38.000  
G13  16142140.405    84827705.214        2681.476          40.000                                                                  
G15  17968716.823    94426278.425        3815.849          36.000    17968735.401    73579055.103        2973.525          37.000  
G29  18635596.800    97930808.090        3559.928          34.000    18635607.350    76309727.960        2773.683          36.000  
> 2025 04 18 09 33 45.9840000  0 10                     
G06  18879123.179    99210396.327       -1026.158          33.000    18879142.086    77306877.902        -799.762          38.000  
G25  18607802.097    97784614.042        -748.615          33.000    18607824.296    76195886.570        -582.858          37.000  
G05  15961969.754    83880933.378          26.044          40.000    15961975.658    65361920.327          20.361          40.000  
G11  17189074.058    90329298.693        -174.385          39.000    17189080.742    70386575.235        -135.858          40.000  
G19  19170106.422   100739329.799       -3340.637          31.000                                                                  
G20  16677554.529    87641332.402       -1344.669          40.000                                                                  
G12  18195387.738    95617368.502       -1939.798          35.000    18195405.658    74507412.176       -1512.072          37.000  
G13  16141630.139    84825023.659        2681.342          41.000                                                                  
G15  17967990.750    94422462.512        3815.508          36.000    17968009.230    73576081.656        2973.398          37.000  
G29  18634919.401    97927248.597        3558.942          35.000    18634929.971    76306954.316        2773.472          36.000  
> 2025 04 18 09 33 46.9840000  0 10                     
G06  18879318.428    99211422.672       -1026.314          33.000    18879337.585    77307677.636        -799.505          38.000  
G25  18607944.250    97785361.578        -746.472          33.000    18607966.613    76196469.095        -582.790          37.000  
G05  15961964.836    83880907.431          26.147          40.000    15961970.684    65361900.126          20.282          41.000  
G11  17189107.088    90329472.844        -174.074          39.000    17189113.750    70386710.937        -135.523          40.000  
G19  19170741.890   100742669.535       -3339.594          31.000                                                                  
G20  16677810.466    87642676.969       -1344.113          40.000                                                                  
G12  18195756.869    95619308.308       -1939.591          35.000    18195774.818    74508923.686       -1511.223          37.000  
G13  16141119.955    84822342.395        2681.281          40.000                                                                  
G15  17967264.649    94418646.583        3816.387          36.000    17967283.034    73573108.229        2973.656          37.000  
G29  18634241.947    97923689.069        3559.542          34.000    18634252.667    76304180.660        2774.056          36.000  
> 2025 04 18 09 33 47.9840000  0 10                     
G06  18879513.651    99212448.901       -1026.554          33.000    18879532.989    77308477.274        -799.752          38.000  
G25  18608086.386    97786109.319        -747.188          33.000    18608108.894    76197051.700        -583.090          36.000  
G05  15961960.138    83880881.578          25.647          40.000    15961965.761    65361879.962          19.830          41.000  
G11  17189140.160    90329646.839        -174.011          39.000    17189146.889    70386846.531        -135.608          40.000  
G19  19171377.425   100746009.271       -3339.661          31.000                                                                  
G20  16678066.288    87644021.360       -1344.589          40.000                                                                  
G12  18196126.094    95621248.057       -1939.898          35.000    18196144.026    74510435.172       -1511.345          37.000  
G13  16140609.859    84819661.296        2681.000          40.000                                                                  
G15  17966538.436    94414830.577        3816.074          36.000    17966556.741    73570134.738        2973.327          37.000  
G29  18633564.737    97920129.459        3559.810          34.000    18633575.444    76301406.974        2773.714          36.000  
> 2025 04 18 09 33 48.9840000  0 10                     
G06  18879708.972    99213475.195       -1026.493          33.000    18879728.247    77309276.977        -799.866          38.000  
G25  18608228.639    97786857.415        -749.195          33.000    18608251.188    76197634.587        -583.000          36.000  
G05  15961955.282    83880855.959          25.305          40.000    15961960.981    65361860.010          19.788          40.000  
G11  17189173.324    90329820.945        -174.310          39.000    17189180.088    70386982.192        -135.983          40.000  
G19  19172012.883   100749349.061       -3338.776          31.000                                                                  
G20  16678322.029    87645365.752       -1344.387          40.000                                                                  
G12  18196495.318    95623187.999       -1940.550          36.000    18196513.180    74511946.786       -1511.885          37.000  
G13  16140099.790    84816980.621        2680.316          41.000                                                                  
G15  17965812.254    94411014.723        3815.937          36.000    17965830.587    73567161.364        2973.328          37.000  
G29  18632887.417    97916570.046        3558.520          34.000    18632898.045    76298633.375        2773.443          36.000  
> 2025 04 18 09 33 49.9840000  0 10                     
G06  18879904.460    99214501.822       -1026.365          33.000    18879923.606    77310076.938        -800.110          38.000  
G25  18608371.164    97787605.984        -748.217          33.000    18608393.633    76198217.945        -583.798          36.000  
G05  15961950.455    83880830.931          24.683          40.000    15961956.204    65361840.513          19.159          40.000  
G11  17189206.528    90329995.361        -174.482          39.000    17189213.292    70387118.087        -135.753          40.000  
G19  19172648.264   100752689.385       -3339.880          31.000                                                                  
G20  16678577.851    87646710.452       -1344.824          39.000                                                                  
G12  18196864.615    95625128.316       -1941.001          36.000    18196882.351    74513458.741       -1512.096          37.000  
G13  16139589.816    84814300.601        2679.596          41.000                                                                  
G15  17965086.199    94407199.278        3815.046          36.000    17965104.546    73564188.290        2973.151          37.000  
G29  18632210.199    97913010.976        3558.623          34.000    18632220.805    76295860.086        2773.144          36.000  
> 2025 04 18 09 33 50.9840000  0 10                     
G06  18880099.903    99215528.571       -1026.624          33.000    18880118.961    77310876.978        -799.971          38.000  
G25  18608513.699    97788355.034        -749.812          33.000    18608536.174    76198801.520        -583.330          36.000  
G05  15961945.776    83880806.178          24.792          40.000    15961951.345    65361821.225          19.489          40.000  
G11  17189239.800    90330169.873        -174.573          39.000    17189246.435    70387254.073        -135.828          40.000  
G19  19173284.071   100756029.801       -3340.338          31.000                                                                  
G20  16678833.757    87648055.172       -1344.871          39.000                                                                  
G12  18197233.847    95627068.796       -1940.427          35.000    18197251.599    74514970.794       -1511.876          37.000  
G13  16139079.916    84811620.991        2679.608          41.000                                                                  
G15  17964360.142    94403383.978        3815.311          36.000    17964378.471    73561215.328        2972.939          37.000  
G29  18631532.924    97909452.050        3558.430          34.000    18631543.625    76293086.912        2772.946          36.000  
> 2025 04 18 09 33 51.9840000  0 10                     
G06  18880295.300    99216555.204       -1026.988          33.000    18880314.326    77311676.942        -800.081          38.000  
G25  18608656.262    97789104.122        -749.285          34.000    18608678.680    76199385.252        -583.833          36.000  
G05  15961941.097    83880781.515          24.347          40.000    15961946.676    65361802.008          19.025          40.000  
G11  17189273.064    90330344.247        -174.556          39.000    17189279.682    70387389.966        -136.103          40.000  
G19  19173919.679   100759370.186       -3340.729          31.000                                                                  
G20  16679089.512    87649399.687       -1344.539          39.000                                                                  
G12  18197603.022    95629009.232       -1940.199          36.000    18197620.855    74516482.816       -1511.829          38.000  
G13  16138569.939    84808941.584        2679.041          40.000                                                                  
G15  17963634.141    94399568.611        3815.547          36.000    17963652.467    73558242.350        2972.858          37.000  
G29  18630855.633    97905893.046        3559.077          34.000    18630866.332    76290313.683        2773.119          36.000  
> 2025 04 18 09 33 52.9840000  0 10                     
G06  18880490.679    99217582.012       -1026.744          33.000    18880509.760    77312477.020        -799.765          38.000  
G25  18608798.964    97789853.643        -749.581          34.000    18608821.448    76199969.308        -584.162          36.000  
G05  15961936.473    83880757.213          24.255          40.000    15961942.034    65361783.088          18.958          40.000  
G11  17189306.282    90330518.819        -174.566          39.000    17189312.880    70387525.987        -135.928          40.000  
G19  19174555.536   100762710.767       -3340.320          31.000                                                                  
G20  16679345.444    87650744.366       -1344.716          40.000                                                                  
G12  18197972.274    95630949.973       -1940.925          36.000    18197990.160    74517995.068       -1512.461          38.000  
G13  16138060.169    84806262.702        2678.516          40.000                                                                  
G15  17962908.090    94395753.523        3815.052          36.000    17962926.529    73555269.549        2973.021          37.000  
G29  18630178.399    97902334.309        3559.014          35.000    18630189.074    76287540.645        2773.233          36.000  
> 2025 04 18 09 33 53.9840000  0 10                     
G06  18880686.137    99218608.943       -1027.180          33.000    18880705.252    77313277.213        -800.028          37.000  
G25  18608941.629    97790603.567        -749.225          34.000    18608964.061    76200553.638        -584.213          36.000  
G05  15961931.790    83880733.256          23.755          40.000    15961937.394    65361764.420          18.262          40.000  
G11  17189339.580    90330693.490        -174.722          39.000    17189346.057    70387662.108        -136.380          40.000  
G19  19175191.213   100766051.594       -3341.198          31.000                                                                  
G20  16679601.328    87652089.062       -1344.767          40.000                                                                  
G12  18198341.638    95632890.859       -1940.746          36.000    18198359.508    74519507.437       -1512.191          38.000  
G13  16137550.416    84803584.240        2678.168          40.000                                                                  
G15  17962182.089    94391938.564        3815.140          36.000    17962200.622    73552296.894        2972.427          37.000  
G29  18629501.252    97898775.735        3558.569          35.000    18629511.779    76284767.733        2772.962          36.000  
> 2025 04 18 09 33 54.9840000  0 10                     
G06  18880881.528    99219635.850       -1027.106          33.000    18880900.697    77314077.410        -800.503          38.000  
G25  18609084.461    97791353.744        -750.999          34.000    18609106.841    76201138.166        -584.347          36.000  
G05  15961927.327    83880709.459          23.468          40.000    15961932.890    65361745.872          18.396          40.000  
G11  17189372.790    90330868.124        -174.715          39.000    17189379.301    70387798.172        -136.035          40.000  
G19  19175827.053   100769392.367       -3340.692          31.000                                                                  
G20  16679857.092    87653433.710       -1345.049          39.000                                                                  
G12  18198711.036    95634831.810       -1940.811          36.000    18198728.873    74521019.888       -1513.143          38.000  
G13  16137040.773    84800906.075        2677.905          40.000                                                                  
G15  17961456.122    94388123.671        3814.569          36.000    17961474.637    73549324.243        2972.461          37.000  
G29  18628824.117    97895217.198        3558.379          35.000    18628834.605    76281994.863        2772.698          36.000  
> 2025 04 18 09 33 55.9840000  0 10                     
G06  18881076.892    99220663.028       -1026.731          33.000    18881096.168    77314877.791        -800.465          38.000  
G25  18609227.239    97792104.418        -751.555          33.000    18609249.689    76201723.102        -585.460          36.000  
G05  15961923.062    83880686.148          23.035          40.000    15961928.456    65361727.717          17.749          40.000  
G11  17189406.063    90331043.041        -175.081          39.000    17189412.606    70387934.460        -136.189          40.000  
G19  19176462.924   100772733.562       -3342.010          31.000                                                                  
G20  16680113.051    87654778.527       -1344.736          39.000                                                                  
G12  18199080.485    95636773.127       -1941.456          36.000    18199098.337    74522532.565       -1512.819          38.000  
G13  16136531.227    84798228.524        2677.350          40.000                                                                  
G15  17960730.216    94384309.067        3814.302          36.000    17960748.799    73546351.820        2972.686          37.000  
G29  18628147.099    97891658.967        3558.729          35.000    18628157.440    76279222.219        2772.520          36.000  
> 2025 04 18 09 33 56.9840000  0 10                     
G06  18881272.275    99221690.331       -1027.470          33.000    18881291.712    77315678.261        -800.267          38.000  
G25  18609369.954    97792855.417        -750.525          33.000    18609392.560    76202308.289        -585.101          36.000  
G05  15961918.739    83880663.130          22.760          40.000    15961924.120    65361709.774          17.792          40.000  
G11  17189439.370    90331218.047        -174.825          39.000    17189445.956    70388070.835        -136.321          40.000  
G19  19177098.806   100776074.857       -3341.492          31.000                                                                  
G20  16680369.075    87656123.405       -1344.714          39.000                                                                  
G12  18199449.980    95638714.592       -1941.188          35.000    18199467.842    74524045.393       -1512.987          38.000  
G13  16136021.806    84795551.383        2677.203          40.000                                                                  
G15  17960004.424    94380494.651        3814.380          36.000    17960022.890    73543379.573        2972.126          37.000  
G29  18627469.982    97888100.913        3557.919          35.000    18627480.367    76276449.724        2772.448          36.000  
> 2025 04 18 09 33 57.9840000  0 10                     
G06  18881467.809    99222717.591       -1026.828          33.000    18881487.257    77316478.723        -800.451          38.000  
G25  18609512.885    97793606.678        -751.550          33.000    18609535.546    76202893.662        -585.129          36.000  
G05  15961914.295    83880640.291          22.437          40.000    15961919.746    65361691.987          17.517          40.000  
G11  17189472.656    90331393.011        -174.888          39.000    17189479.205    70388207.184        -136.555          40.000  
G19  19177734.483   100779416.232       -3341.107          31.000                                                                  
G20  16680625.077    87657468.230       -1345.148          39.000                                                                  
G12  18199819.436    95640656.142       -1941.740          35.000    18199837.297    74525558.264       -1513.052          38.000  
G13  16135512.481    84792874.562        2676.459          40.000                                                                  
G15  17959278.580    94376680.268        3813.919          36.000    17959297.005    73540407.322        2972.107          37.000  
G29  18626792.947    97884542.895        3557.861          35.000    18626803.330    76273677.221        2772.802          35.000  
> 2025 04 18 09 33 58.9840000  0 10                     
G06  18881663.295    99223745.043       -1027.096          33.000    18881682.832    77317279.319        -800.159          38.000  
G25  18609655.991    97794358.362        -751.625          33.000    18609678.603    76203479.406        -585.773          36.000  
G05  15961910.020    83880617.842          22.070          40.000    15961915.535    65361674.471          17.737          40.000  
G11  17189506.067    90331568.182        -175.381          39.000    17189512.527    70388343.660        -136.588          40.000  
G19  19178370.455   100782757.824       -3341.644          31.000                                                                  
G20  16680880.998    87658813.134       -1344.727          39.000                                                                  
G12  18200188.955    95642597.943       -1941.902          35.000    18200206.683    74527071.329       -1513.196          38.000  
G13  16135003.152    84790198.225        2676.141          40.000                                                                  
G15  17958552.787    94372866.088        3814.261          36.000    17958571.159    73537435.241        2972.482          37.000  
G29  18626115.977    97880985.110        3557.547          35.000    18626126.288    76270904.933        2772.116          35.000  
