     3.02           OBSERVATION DATA    M (MIXED)           RINEX VERSION / TYPE
NetR9 5.01          Receiver Operator   13-MAR-25 08:50:54  PGM / RUN BY / DATE
TQBL                                                        MARKER NAME
TQBL                                                        MARKER NUMBER
GEODETIC                                                    MARKER TYPE         
TQBL                TQBL                                    OBSERVER / AGENCY   
5034K69681          Trimble NetR9       5.01                REC # / TYPE / VERS
                    TRM59900.00     NONE                    ANT # / TYPE
 -1626343.5660  5730606.2916  2271881.4271                  APPROX POSITION XYZ
       -0.1300        0.0000        0.0000                  ANTENNA: DELTA H/E/N
G   12 C1C L1C S1C C2W L2W S2W C2X L2X S2X C5X L5X S5X      SYS / # / OBS TYPES
S    6 C1C L1C S1C C5I L5I S5I                              SYS / # / OBS TYPES
R   12 C1C L1C S1C C1P L1P S1P C2C L2C S2C C2P L2P S2P      SYS / # / OBS TYPES
E   12 C1X L1X S1X C5X L5X S5X C7X L7X S7X C8X L8X S8X      SYS / # / OBS TYPES
C    6 C1I L1I S1I C7I L7I S7I                              SYS / # / OBS TYPES
     1.000                                                  INTERVAL
  2025     3    13     8    48   41.0000000     GPS         TIME OF FIRST OBS
G L2X -0.25000                                              SYS / PHASE SHIFT   
R L1P  0.25000                                              SYS / PHASE SHIFT   
R L2C -0.25000                                              SYS / PHASE SHIFT   
J L2X -0.25000                                              SYS / PHASE SHIFT   
GIOVE-A if present is mapped to satellite ID 51             COMMENT             
GIOVE-B if present is mapped to satellite ID 52             COMMENT             
DBHZ                                                        SIGNAL STRENGTH UNIT
                                                            END OF HEADER       
> 2025  3 13  8 48 41.0000000  0 41       0.000200636000
R23  24066759.328 6 128740995.32316        37.100    24066758.688 5 128740947.33515        35.000
R22  21674658.453 7 115700818.38617        47.200    21674658.809 7 115700771.39417        45.800    21674674.016 7  89989499.98217        42.200    21674674.621 7  89989496.99417        42.300
R21  22039339.938 7 117936956.09317        46.600    22039339.277 7 117936927.10117        44.900    22039355.230 7  91728724.44617        43.800    22039355.652 7  91728721.44617        43.900
R12  21426096.352 8 114454367.67918        48.900    21426095.926 7 114454335.68617        47.200    21426112.945 7  89020043.63217        45.700    21426113.074 7  89020040.62517        45.200
R11  20354983.625 8 108770847.08218        52.300    20354984.086 8 108770814.08718        50.400    20354999.844 8  84599522.63618        49.000    20355000.578 7  84599518.63717        47.800
R10  23462202.789 6 125066736.22516        36.900    23462203.258 5 125066697.22615        35.600
R07  21958055.227 7 117543201.22417        46.000    21958055.539 7 117543160.23617        44.300    21958077.418 7  91422470.45617        43.900    21958077.344 7  91422466.46517        42.600
R06  21474588.766 5 114592574.17015        35.900    21474589.707 5 114592501.17315        34.300
G24  25539078.250 4 134208766.82414        28.600    25539112.027 3 104578361.66613        18.300    25539112.301 5 104578357.66915        32.400    25539122.023 6 100220960.52616        37.600
G22  21088934.648 8 110823094.70418        48.000    21088949.742 6  86355706.31616        38.900
G20  21865984.359 7 114906543.55917        45.000    21866003.367 5  89537649.33815        33.600
E33  25193167.984 7 132390992.51417        44.200    25193186.148 7  98863465.04917        47.200    25193181.648 7 101442495.64017        47.300    25193183.750 8 100152934.95218        53.500
E31  23381033.250 8 122868159.96118        49.900    23381052.383 8  91752190.86218        51.300    23381047.863 8  94145703.83818        52.500    23381050.086 9  92948946.95719        58.700
E29  28004025.289 5 147162189.48315        34.700    28004064.508 6 109894007.91616        37.700    28004058.043 6 112760783.31516        38.700
E24  26048662.047 7 136886654.06017        43.400    26048681.902 7 102220554.66717        45.500    26048677.105 7 104887161.06717        46.400    26048679.570 8 103553850.47618        52.200
E23  25503789.273 7 134023308.27017        45.900    25503814.422 7 100082430.79617        45.800    25503809.977 7 102693262.69517        46.700    25503812.230 8 101387846.35318        52.900
E19  27051753.719 5 142157946.86415        32.000    27051787.074 6 106157023.40716        36.100    27051780.844 6 108926313.37116        36.500
E16  28015519.984 6 147222556.96216        36.800    28015544.547 6 109939025.82516        38.500    28015539.168 6 112806979.54816        38.900
E12  24571438.047 7 129123789.62517        45.000    24571454.582 7  96423657.41717        46.300    24571450.563 7  98939047.86917        47.500    24571452.488 8  97681359.75118        53.600
E10  25670349.289 7 134898618.08217        45.700    25670374.563 7 100736067.86817        46.700    25670369.398 7 103363958.60917        47.500    25670371.941 8 102050014.84718        53.300
E04  28803951.875 5 151365791.71015        30.900    28803987.586 5 113033021.52715        35.200    28803980.188 6 115981693.69216        36.000
G19  20911363.063 7 109889959.66317        46.200    20911374.516 6  85628580.03116        37.900
G17  22053035.383 7 115889477.15217        44.300    22053051.234 7  90303548.28317        42.200    22053050.832 7  90303482.28017        44.300
G14  22042818.414 7 115835779.67117        43.300    22042838.266 5  90261720.79915        31.600    22042838.039 7  90261639.79217        45.300    22042848.695 8  86500734.32318        48.900
G12  24311764.078 5 127759188.64915        35.700    24311784.656 4  99552705.04414        26.400    24311785.188 6  99552707.04516        37.600
G11  21995077.141 7 115584931.71517        44.800    21995094.188 5  90066248.18315        34.800    21995094.023 7  90066181.18017        47.800    21995103.387 8  86313421.71918        50.200
G09  23987303.398 5 126054149.14815        34.800    23987333.273 4  98224146.98214        26.900    23987333.129 6  98224142.98216        36.700    23987341.668 7  94131499.33217        42.700
G06  21341156.516 7 112148539.16417        46.400    21341172.566 7  87388534.20017        47.800    21341172.922 8  87388466.19818        48.500    21341177.910 8  83747276.34418        51.900
G05  25335522.367 5 133139100.25515        33.700    25335549.164 3 103744851.74513        22.900    25335548.938 5 103744856.74015        35.400
G04  25274429.195 5 132817991.77915        31.000                                                    25274453.320 6 103494704.07716        36.100    25274464.473 6  99182463.67316        39.200
C30  24121045.727 6 125604608.78616        41.800
C13  36685663.781 7 191031886.93217        45.900    36685678.422 7 147717933.29417        45.700
C06  40090974.414 5 208764222.06815        33.800    40090989.703 5 161429799.03115        35.400
C05  38595651.750 5 200977695.09115        35.700    38595667.473 6 155408769.55916        40.600
C04  39244651.828 5 204357214.19315        34.500    39244667.660 6 158022023.42516        39.400
C03  36101759.961 7 187991345.87617        43.900    36101767.273 7 145366862.83417        47.000
C02  36743442.773 6 191332757.78316        40.100    36743450.027 7 147950654.35117        45.500
C01  37927412.172 6 197497988.95816        40.200    37927424.504 7 152718027.65617        42.400
S27  38821370.063 6 204007678.62116        40.000    38821388.391 7 152343426.91817        43.700
S29  36527780.266 7 191954808.18717        45.800
S37  36807593.422 6 193425239.02916        41.500
> 2025  3 13  8 50 55.0000000  0 41       0.000200602000
R23  24035381.266 6 128573150.346 6        38.400    24035380.516 6 128573102.354 6        36.000
R22  21668848.750 7 115669807.797 7        47.300    21668848.887 7 115669760.796 7        46.600    21668863.961 7  89965381.668 7        42.800    21668864.488 7  89965378.672 7        42.100
R21  22068707.063 7 118094100.098 7        46.400    22068706.164 7 118094071.100 7        44.900    22068722.082 7  91850947.560 7        43.900    22068722.324 7  91850944.561 7        43.400
R12  21382763.953 8 114222898.888 8        49.500    21382764.059 8 114222866.892 8        48.000    21382780.586 7  88840012.973 7        46.000    21382780.797 7  88840009.969 7        44.900
R11  20418530.961 8 109110424.457 8        51.600    20418531.621 8 109110391.463 8        50.200    20418547.426 8  84863637.910 8        48.600    20418548.313 7  84863633.907 7        47.600
R10  23568022.281 6 125630812.892 6        36.300    23568024.684 5 125630773.904 5        35.400
R07  21876923.195 7 117108900.254 7        45.100    21876923.324 7 117108859.264 7        43.800    21876945.797 7  91084681.837 7        44.600    21876946.051 7  91084677.835 7        44.000
R06  21456603.695 5 114496602.745 5        34.700    21456603.480 5 114496529.741 5        34.400
G24  25568653.109 4 134364180.29514        29.100    25568688.121 3 104699461.80413        18.300    25568688.586 5 104699457.80815        33.500    25568697.984 6 100337014.61116        39.200
G22  21133561.047 7 111057607.080 7        47.800    21133576.398 6  86538442.924 6        38.800
G20  21799564.500 7 114557506.674 7        46.000    21799582.316 5  89265673.741 5        34.300
E33  25235879.922 7 132615444.489 7        44.400    25235897.680 7  99031075.420 7        46.800    25235893.316 7 101614478.445 7        47.200    25235895.512 8 100322731.542 8        53.300
E31  23389024.133 8 122910152.769 8        49.700    23389043.039 8  91783549.268 8        51.800    23389038.695 8  94177880.271 8        52.200    23389040.879 9  92980714.378 9        58.800
E29  27975233.688 5 147010892.556 5        35.000    27975271.961 6 109781029.100 6        38.000    27975264.051 6 112644856.875 6        36.200
E24  25995013.391 7 136604731.080 7        44.600    25995032.645 7 102010028.948 7        45.600    25995028.063 7 104671143.238 7        46.500    25995030.445 8 103340578.703 8        52.400
E23  25568171.859 7 134361642.404 7        44.800    25568197.813 7 100335082.532 7        46.300    25568193.199 7 102952505.392 7        47.200    25568195.492 8 101643793.570 8        52.800
E19  27005533.867 5 141915059.23115        32.500    27005565.801 5 105975646.66215        35.300    27005559.305 5 108740205.00615        35.300
E16  27946831.063 6 146861595.026 6        36.800    27946855.516 6 109669476.732 6        38.900    27946850.805 6 112530398.685 6        40.200
E12  24573841.422 7 129136422.705 7        44.600    24573857.836 7  96433091.990 7        47.000    24573853.785 7  98948728.464 7        47.900    24573855.676 8  97690917.336 8        53.500
E10  25652662.563 7 134805678.881 7        46.300    25652687.660 7 100666666.703 7        47.100    25652682.621 7 103292746.803 7        47.300    25652684.820 8 101979708.362 8        53.600
E04  28769624.086 5 151185397.36415        30.900    28769657.766 5 112898312.15115        35.100    28769651.250 6 115843469.97416        36.000
G19  20895724.758 7 109807781.006 7        46.200    20895735.973 6  85564545.021 6        37.900
G17  22064292.813 7 115948634.523 7        44.100    22064309.031 6  90349644.633 6        41.700    22064309.273 7  90349578.633 7        45.200
G14  22123970.633 7 116262238.240 7        42.900    22123991.230 5  90594025.700 5        31.200    22123990.867 7  90593944.696 7        45.800    22124001.457 8  86819193.096 8        48.700
G12  24227604.500 6 127316916.219 6        37.500    24227621.738 4  99208078.496 4        29.100    24227621.340 5  99208080.495 5        35.700
G11  21980292.453 7 115507242.860 7        44.600    21980309.602 5  90005712.429 5        34.400    21980309.500 7  90005645.423 7        47.600    21980318.645 8  86255408.509 8        50.600
G09  23956338.969 5 125891435.29615        33.700    23956369.242 4  98097358.12114        27.000    23956368.680 6  98097354.13016        37.000    23956377.910 7  94009993.65717        44.000
G06  21363989.180 7 112268528.856 7        46.200    21364005.410 8  87482033.035 8        48.100    21364006.102 8  87481965.029 8        48.400    21364010.926 8  83836879.474 8        51.800
G05  25240857.320 5 132641643.893 5        34.200    25240884.863 4 103357224.266 4        24.400    25240885.523 6 103357229.279 6        36.300
G04  25267078.367 5 132779376.70215        30.100                                                    25267103.676 5 103464615.92115        35.700    25267114.746 6  99153629.58216        38.400
C30  24145919.148 7 125734129.453 7        42.500
C13  36667590.500 7 190937778.154 7        45.700    36667605.063 7 147645163.033 7        46.300
C06  40122254.625 5 208927106.748 5        34.300    40122268.789 5 161555751.733 5        34.700
C05  38595472.852 6 200976765.489 6        36.300    38595488.070 6 155408051.269 6        40.900
C04  39243648.133 5 204351989.69215        34.700    39243664.031 6 158017983.94916        39.100
C03  36101196.250 7 187988410.075 7        44.200    36101202.902 7 145364593.011 7        47.300
C02  36742461.625 6 191327651.116 6        40.400    36742468.992 7 147946706.014 7        45.800
C01  37926950.555 6 197495587.843 6        40.600    37926963.223 7 152716171.217 7        42.400
S27  38821572.703 6 204008747.730 6        40.000    38821590.645 7 152344225.912 7        42.100
S29  36527826.672 7 191955036.300 7        45.800
S37  36807690.266 7 193425719.288 7        42.100
> 2025  3 13  8 50 56.0000000  0 41       0.000200602000
R23  24035147.352 6 128571903.755 6        38.300    24035147.348 6 128571855.773 6        36.700
R22  21668805.516 7 115669578.353 7        47.500    21668805.707 7 115669531.359 7        46.200    21668820.773 7  89965203.220 7        42.700    21668821.281 7  89965200.226 7        42.600
R21  22068923.617 7 118095265.266 7        46.000    22068923.422 7 118095236.267 7        44.700    22068939.805 7  91851853.804 7        44.100    22068939.949 7  91851850.805 7        43.300
R12  21382450.719 8 114221223.864 8        49.300    21382450.602 7 114221191.868 7        47.800    21382467.250 7  88838710.180 7        46.000    21382467.508 7  88838707.175 7        45.300
R11  20419013.633 8 109113001.468 8        51.700    20419014.266 8 109112968.475 8        49.700    20419030.348 8  84865642.248 8        48.600    20419030.840 7  84865638.246 7        47.400
R10  23568812.383 6 125635019.737 6        36.500    23568813.523 5 125634980.733 5        35.800
R07  21876321.172 7 117105676.396 7        45.400    21876321.184 7 117105635.406 7        43.700    21876343.480 7  91082174.396 7        44.700    21876343.809 7  91082170.396 7        44.000
R06  21456478.398 5 114495937.020 5        35.300    21456478.258 5 114495864.016 5        34.500
G24  25568877.664 4 134365354.608 4        29.100    25568911.328 3 104700376.837 3        18.600    25568911.688 5 104700372.843 5        33.800    25568921.289 6 100337891.518 6        39.000
G22  21133900.102 7 111059391.014 7        47.800    21133915.762 6  86539832.999 6        38.600
G20  21799073.781 7 114554929.358 7        46.300    21799091.770 5  89263665.450 5        33.800
E33  25236198.289 7 132617117.322 7        44.100    25236215.957 7  99032324.614 7        46.800    25236211.492 7 101615760.227 7        47.200    25236213.742 8 100323997.030 8        53.300
E31  23389089.445 8 122910496.115 8        49.900    23389108.332 8  91783805.663 8        51.800    23389104.008 8  94178143.357 8        52.200    23389106.137 9  92980974.117 9        58.800
E29  27975021.227 5 147009776.400 5        34.900    27975059.547 6 109780195.624 6        37.900    27975051.594 6 112644001.652 6        36.200
E24  25994616.438 7 136602645.225 7        44.600    25994635.813 7 102008471.339 7        45.800    25994631.160 7 104669544.993 7        46.300    25994633.508 8 103339000.775 8        52.300
E23  25568655.391 7 134364182.758 7        44.600    25568681.191 7 100336979.546 7        46.200    25568676.797 7 102954451.895 7        47.300    25568678.891 8 101645715.330 8        52.700
E19  27005188.477 5 141913241.337 5        32.500    27005219.754 5 105974289.152 5        34.500    27005213.328 5 108738812.085 5        34.900
E16  27946319.891 6 146858908.532 6        37.100    27946344.246 6 109667470.584 6        38.700    27946339.492 6 112528340.204 6        40.200
E12  24573861.539 7 129136528.404 7        44.900    24573878.090 7  96433170.927 7        46.900    24573873.965 7  98948809.461 7        47.900    24573875.895 8  97690997.302 8        53.500
E10  25652533.391 7 134804999.093 7        46.000    25652558.223 7 100666159.079 7        47.000    25652553.309 7 103292225.936 7        47.100    25652555.473 8 101979194.117 8        53.600
E04  28769363.789 5 151184029.430 5        31.500    28769397.141 5 112897290.630 5        35.100    28769391.301 5 115842421.814 5        35.800
G19  20895610.219 7 109807180.721 7        46.600    20895621.707 6  85564077.268 6        37.200
G17  22064379.422 7 115949088.999 7        44.100    22064395.539 6  90349998.769 6        41.600    22064395.785 7  90349932.769 7        45.200
G14  22124580.594 7 116265441.761 7        43.000    22124600.738 5  90596521.945 5        30.900    22124600.598 7  90596440.941 7        45.700    22124611.016 8  86821585.329 8        48.600
G12  24226979.859 6 127313632.479 6        37.600    24226996.676 4  99205519.749 4        27.800    24226996.164 5  99205521.743 5        35.500
G11  21980185.453 7 115506680.763 7        44.400    21980202.996 5  90005274.439 5        34.300    21980202.969 7  90005207.435 7        47.800    21980212.074 8  86254988.773 8        50.500
G09  23956110.961 5 125890239.801 5        32.800    23956141.777 4  98096426.572 4        24.700    23956141.188 6  98096422.584 6        36.800    23956150.535 7  94009100.927 7        44.100
G06  21364161.969 7 112269435.379 7        46.100    21364178.164 7  87482739.419 7        47.800    21364178.859 8  87482671.413 8        48.300    21364183.668 8  83837556.426 8        51.700
G05  25240152.398 5 132637934.044 5        34.400    25240179.109 4 103354333.483 4        25.300    25240179.652 6 103354338.495 6        36.100
G04  25267026.664 4 132779114.453 4        28.900                                                    25267053.441 5 103464411.584 5        35.500    25267064.629 6  99153433.760 6        38.400
C30  24146105.063 7 125735096.073 7        42.000
C13  36667457.898 7 190937087.816 7        45.000    36667472.363 7 147644629.224 7        46.100
C06  40122486.648 5 208928313.426 5        34.300    40122500.605 5 161556684.813 5        35.500
C05  38595471.750 5 200976758.499 5        35.900    38595486.820 6 155408045.867 6        41.200
C04  39243641.281 5 204351950.797 5        34.700    39243656.270 6 158017953.878 6        38.800
C03  36101191.781 7 187988388.234 7        43.600    36101198.797 7 145364576.125 7        46.900
C02  36742454.383 6 191327612.886 6        40.000    36742461.480 7 147946676.454 7        45.600
C01  37926947.047 6 197495569.940 6        39.900    37926959.898 7 152716157.375 7        42.300
S27  38821575.672 6 204008755.759 6        39.800    38821592.504 6 152344231.909 6        41.800
S29  36527827.234 7 191955038.030 7        45.900
S37  36807688.750 6 193425722.878 6        41.800
> 2025  3 13  8 50 57.0000000  0 41       0.000200602000
R23  24034914.992 6 128570657.261 6        38.800    24034914.188 6 128570609.263 6        36.800
R22  21668762.227 7 115669348.939 7        47.300    21668762.953 7 115669301.946 7        46.300    21668777.855 7  89965024.795 7        42.800    21668778.551 7  89965021.804 7        42.800
R21  22069141.430 7 118096430.302 7        45.900    22069141.402 7 118096401.305 7        44.900    22069157.363 7  91852759.949 7        43.400    22069157.844 7  91852756.950 7        43.300
R12  21382137.117 8 114219549.606 8        49.300    21382137.512 7 114219517.608 7        47.900    21382154.141 7  88837407.982 7        45.600    21382154.422 7  88837404.980 7        45.100
R11  20419495.914 8 109115579.098 8        51.600    20419496.492 8 109115546.104 8        50.000    20419512.547 8  84867647.069 8        48.800    20419513.094 7  84867643.068 7        47.700
R10  23569602.531 6 125639226.528 6        36.700    23569603.109 5 125639187.528 5        35.400
R07  21875718.805 7 117102452.787 7        45.300    21875718.977 7 117102411.794 7        43.800    21875740.992 7  91079667.150 7        44.100    21875741.645 7  91079663.150 7        44.100
R06  21456353.719 5 114495272.044 5        35.100    21456353.816 5 114495199.045 5        35.000
G24  25569101.516 4 134366529.139 4        28.600    25569134.984 3 104701292.050 3        19.000    25569135.137 5 104701288.049 5        33.800    25569144.699 6 100338768.592 6        39.200
G22  21134240.055 8 111061175.451 8        48.000    21134255.398 6  86541223.467 6        38.900
G20  21798583.109 7 114552352.441 7        45.700    21798601.598 5  89261657.471 5        34.400
E33  25236516.469 7 132618790.124 7        44.400    25236534.238 7  99033573.786 7        46.700    25236529.820 7 101617041.986 7        47.200    25236532.121 8 100325262.494 8        53.200
E31  23389154.984 8 122910839.908 8        49.800    23389173.844 8  91784062.391 8        51.900    23389169.477 8  94178406.783 8        52.300    23389171.555 9  92981234.195 9        58.800
E29  27974808.773 5 147008660.448 5        35.300    27974847.180 6 109779362.301 6        38.000    27974838.891 6 112643146.591 6        36.500
E24  25994219.570 7 136600559.634 7        44.600    25994238.648 7 102006913.926 7        45.600    25994234.082 7 104667946.952 7        46.800    25994236.457 8 103337423.048 8        52.300
E23  25569138.789 7 134366723.341 7        44.700    25569164.703 7 100338876.731 7        46.600    25569160.238 7 102956398.574 7        46.900    25569162.445 8 101647637.261 8        52.800
E19  27004842.984 5 141911423.376 5        32.600    27004874.219 5 105972931.587 5        35.000    27004867.418 5 108737419.103 5        34.500
E16  27945808.805 6 146856222.143 6        37.300    27945833.398 6 109665464.516 6        38.300    27945828.398 6 112526281.800 6        40.000
E12  24573881.789 7 129136634.280 7        45.100    24573898.086 7  96433249.997 7        47.100    24573894.055 7  98948890.595 7        47.700    24573895.965 8  97691077.403 8        53.500
E10  25652403.992 7 134804319.507 7        46.000    25652428.953 7 100665651.608 7        47.300    25652423.957 7 103291705.222 7        47.300    25652426.156 8 101978680.025 8        53.500
E04  28769103.766 5 151182661.146 5        32.600    28769136.535 5 112896268.847 5        34.700    28769131.043 6 115841373.386 6        36.600
G19  20895495.805 7 109806580.631 7        46.700    20895507.508 6  85563609.669 6        37.500
G17  22064466.289 7 115949543.670 7        44.100    22064482.082 7  90350353.059 7        42.000    22064482.141 7  90350287.058 7        45.300
G14  22125190.156 7 116268645.587 7        43.000    22125210.715 5  90599018.431 5        31.100    22125210.777 7  90598937.428 7        46.000    22125220.875 8  86823977.793 8        48.300
G12  24226354.609 6 127310348.995 6        37.900    24226371.965 4  99202961.199 4        27.000    24226371.512 5  99202963.188 5        35.900
G11  21980078.313 7 115506118.925 7        44.600    21980096.129 5  90004836.653 5        34.200    21980096.027 7  90004769.647 7        47.800    21980105.172 8  86254569.229 8        50.500
G09  23955882.836 5 125889044.575 5        33.000    23955913.945 4  98095495.234 4        25.800    23955913.445 6  98095491.242 6        37.500    23955922.813 7  94008208.395 7        44.200
G06  21364334.055 7 112270342.056 7        46.200    21364350.738 7  87483445.925 7        47.600    21364351.266 8  87483377.919 8        48.700    21364356.133 8  83838233.495 8        51.900
G05  25239446.016 5 132634224.229 5        34.300    25239473.430 4 103351442.735 4        25.500    25239473.773 6 103351447.743 6        36.500
G04  25266976.211 5 132778852.586 5        30.300                                                    25267003.453 5 103464207.553 5        35.300    25267014.867 6  99153238.232 6        38.600
C30  24146290.609 6 125736062.690 6        41.700
C13  36667325.492 7 190936397.648 7        45.600    36667339.809 7 147644095.545 7        46.400
C06  40122718.242 5 208929519.970 5        34.600    40122732.242 5 161557617.795 5        35.200
C05  38595470.781 5 200976751.494 5        35.900    38595485.855 6 155408040.453 6        40.800
C04  39243633.586 5 204351911.879 5        34.200    39243649.148 6 158017923.786 6        38.900
C03  36101187.453 7 187988366.399 7        43.900    36101194.434 7 145364559.239 7        46.900
C02  36742447.156 6 191327574.668 6        40.300    36742454.109 7 147946646.907 7        45.600
C01  37926943.633 6 197495552.035 6        40.100    37926956.160 7 152716143.530 7        42.300
S27  38821575.953 6 204008763.726 6        39.800    38821594.023 6 152344237.889 6        41.800
S29  36527826.922 7 191955039.762 7        45.800
S37  36807691.531 6 193425726.464 6        41.700
> 2025  3 13  8 50 58.0000000  0 41       0.000200602000
R23  24034681.305 6 128569410.807 6        38.200    24034681.613 6 128569362.812 6        36.200
R22  21668719.742 7 115669119.528 7        47.400    21668720.051 7 115669072.532 7        46.200    21668734.551 7  89964846.370 7        43.100    21668735.602 7  89964843.381 7        42.800
R21  22069359.102 7 118097595.226 7        45.800    22069358.758 7 118097566.232 7        44.900    22069374.449 7  91853666.005 7        43.600    22069375.121 7  91853663.006 7        43.500
R12  21381824.063 8 114217876.109 8        49.100    21381824.121 8 114217844.115 8        48.100    21381840.715 7  88836106.377 7        46.000    21381841.094 7  88836103.376 7        44.900
R11  20419978.172 8 109118157.350 8        51.600    20419979.012 8 109118124.356 8        50.000    20419995.066 8  84869652.374 8        48.700    20419995.766 8  84869648.370 8        48.100
R10  23570391.648 6 125643433.258 6        37.100    23570392.410 5 125643394.262 5        35.500
R07  21875116.883 7 117099229.448 7        45.700    21875117.008 7 117099188.461 7        43.900    21875138.641 7  91077160.112 7        44.500    21875139.457 7  91077156.114 7        43.800
R06  21456228.742 5 114494607.820 5        35.000    21456229.551 5 114494534.824 5        35.000
G24  25569324.359 4 134367703.862 4        28.300    25569358.695 2 104702207.407 2        17.800    25569359.109 5 104702203.409 5        34.200    25569368.488 6 100339645.813 6        39.300
G22  21134579.789 7 111062960.377 7        47.900    21134594.648 6  86542614.315 6        39.200
G20  21798092.969 7 114549775.925 7        46.100    21798111.484 5  89259649.807 5        34.100
E33  25236834.813 7 132620462.869 7        44.100    25236852.543 7  99034822.915 7        46.700    25236848.129 7 101618323.702 7        47.100    25236850.371 8 100326527.917 8        53.300
E31  23389220.461 8 122911184.131 8        49.900    23389239.273 8  91784319.442 8        52.000    23389234.953 8  94178670.537 8        52.000    23389237.082 9  92981494.599 9        58.800
E29  27974596.766 5 147007544.674 5        35.800    27974634.773 6 109778529.111 6        38.200    27974626.598 6 112642291.660 6        36.200
E24  25993822.852 7 136598474.302 7        44.600    25993842.133 7 102005356.706 7        45.800    25993837.387 7 104666349.106 7        46.800    25993839.652 8 103335845.514 8        52.200
E23  25569622.195 7 134369264.131 7        44.400    25569648.180 7 100340774.072 7        46.800    25569643.742 7 102958345.410 7        47.000    25569645.848 8 101649559.351 8        52.700
E19  27004497.094 5 141909605.318 5        32.600    27004527.996 5 105971573.951 5        35.600    27004521.477 5 108736026.050 5        34.900
E16  27945297.523 6 146853535.843 6        37.300    27945321.898 6 109663458.512 6        38.700    27945316.906 6 112524223.467 6        39.800
E12  24573901.828 7 129136740.302 7        45.000    24573918.328 7  96433329.176 7        47.000    24573914.219 7  98948971.836 7        47.500    24573916.152 8  97691157.614 8        53.500
E10  25652274.711 7 134803640.107 7        46.400    25652299.727 7 100665144.274 7        47.600    25652294.770 7 103291184.653 7        47.100    25652296.949 8 101978166.072 8        53.600
E04  28768843.164 5 151181292.546 5        32.500    28768876.020 5 112895246.836 5        34.600    28768870.672 6 115840324.725 6        37.400
G19  20895381.977 7 109805980.719 7        46.400    20895393.512 6  85563142.207 6        37.600
G17  22064552.375 7 115949998.532 7        44.200    22064568.746 6  90350707.497 6        41.700    22064568.723 7  90350641.495 7        45.000
G14  22125800.023 7 116271849.703 7        43.200    22125820.219 5  90601515.149 5        31.900    22125820.172 7  90601434.141 7        46.100    22125830.281 8  86826370.476 8        48.300
G12  24225729.938 6 127307065.750 6        38.100    24225746.871 4  99200402.837 4        28.300    24225746.527 6  99200404.819 6        36.300
G11  21979971.758 7 115505557.336 7        44.400    21979988.895 5  90004399.064 5        34.800    21979988.773 7  90004332.055 7        47.500    21979998.020 8  86254149.871 8        50.500
G09  23955655.555 5 125887849.629 5        32.400    23955686.922 4  98094564.120 4        25.800    23955686.480 6  98094560.127 6        37.300    23955695.914 7  94007316.080 7        44.500
G06  21364506.742 7 112271248.881 7        46.300    21364522.934 7  87484152.545 7        47.900    21364523.449 8  87484084.538 8        48.300    21364528.434 8  83838910.674 8        51.800
G05  25238740.242 5 132630514.457 5        35.000    25238767.348 4 103348552.026 4        24.900    25238767.543 6 103348557.031 6        36.300
G04  25266927.789 4 132778591.108 4        29.900                                                    25266953.820 5 103464003.831 5        35.300    25266965.207 6  99153042.999 6        38.700
C30  24146476.141 6 125737029.295 6        41.800
C13  36667193.055 7 190935707.616 7        45.700    36667207.395 7 147643561.973 7        46.300
C06  40122950.055 5 208930726.372 5        34.600    40122964.090 5 161558550.655 5        35.400
C05  38595469.133 6 200976744.487 6        36.000    38595484.188 6 155408035.040 6        40.400
C04  39243625.859 5 204351872.964 5        33.900    39243641.453 6 158017893.706 6        38.900
C03  36101183.578 7 187988344.549 7        43.900    36101190.371 7 145364542.346 7        46.700
C02  36742440.008 6 191327536.432 6        40.200    36742446.766 7 147946617.341 7        45.600
C01  37926940.281 6 197495534.115 6        40.100    37926952.875 6 152716129.673 6        41.700
S27  38821577.906 6 204008771.682 6        39.900    38821595.234 6 152344243.848 6        41.700
S29  36527827.516 7 191955041.481 7        45.900
S37  36807689.219 6 193425730.042 6        41.900
> 2025  3 13  8 50 59.0000000  0 41       0.000200602000
R23  24034447.758 6 128568164.424 6        38.500    24034448.676 6 128568116.426 6        36.200
R22  21668676.875 7 115668890.141 7        46.700    21668676.957 7 115668843.146 7        46.100    21668691.559 7  89964667.963 7        43.000    21668692.492 7  89964664.977 7        42.600
R21  22069576.688 7 118098760.043 7        45.600    22069576.934 7 118098731.051 7        45.000    22069592.746 7  91854571.978 7        43.200    22069593.063 7  91854568.979 7        43.600
R12  21381510.273 8 114216203.399 8        49.200    21381510.695 8 114216171.405 8        48.100    21381527.133 7  88834805.386 7        45.600    21381527.586 7  88834802.385 7        44.700
R11  20420460.859 8 109120736.237 8        51.400    20420461.590 8 109120703.244 8        50.000    20420477.691 8  84871658.176 8        48.600    20420478.293 8  84871654.171 8        48.300
R10  23571180.398 6 125647639.947 6        37.000    23571181.820 5 125647600.949 5        35.600
R07  21874514.641 7 117096006.398 7        45.600    21874514.688 7 117095965.410 7        44.500    21874536.336 7  91074653.301 7        44.100    21874537.082 7  91074649.307 7        43.500
R06  21456104.297 5 114493944.346 5        35.000    21456105.402 5 114493871.338 5        34.300
G24  25569546.813 4 134368878.785 4        28.300    25569582.469 2 104703122.931 2        16.900    25569582.820 5 104703118.930 5        34.000    25569592.262 6 100340523.183 6        39.800
G22  21134919.477 7 111064745.791 7        47.400    21134934.523 6  86544005.542 6        38.400
G20  21797602.641 7 114547199.811 7        45.900    21797621.398 5  89257642.456 5        34.000
E33  25237153.102 7 132622135.578 7        44.100    25237170.734 7  99036072.018 7        46.800    25237166.391 7 101619605.387 7        47.200    25237168.688 8 100327793.311 8        53.200
E31  23389285.977 8 122911528.788 8        49.700    23389304.867 8  91784576.818 8        52.000    23389300.332 8  94178934.625 8        51.800    23389302.582 9  92981755.331 9        58.700
E29  27974384.594 5 147006429.079 5        35.300    27974422.594 6 109777696.055 6        37.900    27974414.645 6 112641436.867 6        36.500
E24  25993425.977 7 136596389.225 7        43.800    25993445.324 7 102003799.678 7        46.100    25993440.586 7 104664751.458 7        46.900    25993442.941 8 103334268.177 8        52.400
E23  25570105.813 7 134371805.154 7        44.700    25570131.770 7 100342671.586 7        46.400    25570127.352 7 102960292.424 7        46.800    25570129.391 8 101651481.615 8        52.700
E19  27004150.805 5 141907787.184 5        32.600    27004182.141 5 105970216.256 5        35.100    27004175.566 5 108734632.938 5        34.200
E16  27944786.648 6 146850849.651 6        37.100    27944810.625 6 109661452.591 6        38.700    27944805.695 6 112522165.216 6        40.000
E12  24573922.188 7 129136846.500 7        44.900    24573938.633 7  96433408.485 7        46.900    24573934.586 7  98949053.214 7        47.600    24573936.379 8  97691237.959 8        53.500
E10  25652145.484 7 134802960.901 7        45.700    25652170.383 7 100664637.087 7        47.500    25652165.453 7 103290664.232 7        47.200    25652167.656 8 101977652.271 8        53.500
E04  28768582.203 5 151179923.618 5        33.000    28768615.426 5 112894224.583 5        33.900    28768610.313 6 115839275.813 6        37.800
G19  20895267.781 7 109805380.997 7        46.600    20895279.137 6  85562674.895 6        37.400
G17  22064638.797 7 115950453.580 7        44.100    22064655.203 6  90351062.077 6        41.500    22064655.363 7  90350996.076 7        44.600
G14  22126409.352 7 116275054.124 7        43.400    22126430.109 5  90604012.106 5        31.400    22126430.141 7  90603931.093 7        46.000    22126440.219 8  86828763.388 8        48.200
G12  24225105.203 6 127303782.749 6        37.200    24225122.031 4  99197844.657 4        27.800    24225121.758 5  99197846.646 5        35.900
G11  21979864.586 7 115504995.995 7        44.200    21979882.152 5  90003961.665 5        34.200    21979882.234 7  90003894.657 7        47.600    21979891.258 8  86253730.698 8        50.300
G09  23955427.766 5 125886654.961 5        33.400    23955459.422 4  98093633.221 4        25.300    23955458.840 6  98093629.224 6        37.000    23955468.387 7  94006423.970 7        44.000
G06  21364679.461 7 112272155.866 7        46.100    21364695.828 7  87484859.290 7        47.600    21364696.246 8  87484791.283 8        48.200    21364701.336 8  83839587.971 8        51.700
G05  25238035.219 5 132626804.718 5        34.500    25238061.230 4 103345661.328 4        25.000    25238061.422 6 103345666.334 6        36.100
G04  25266877.711 4 132778329.993 4        29.400                                                    25266904.273 5 103463800.387 5        35.100    25266915.984 6  99152848.031 6        38.600
C30  24146661.789 6 125737995.900 6        41.100
C13  36667060.375 7 190935017.806 7        45.400    36667074.934 7 147643028.571 7        46.200
C06  40123181.922 5 208931932.623 5        33.700    40123195.594 5 161559483.409 5        34.600
C05  38595467.313 5 200976737.458 5        35.200    38595482.871 6 155408029.608 6        40.200
C04  39243618.359 5 204351834.051 5        33.700    39243633.648 6 158017863.622 6        39.100
C03  36101179.320 7 187988322.693 7        43.600    36101186.039 7 145364525.452 7        46.800
C02  36742432.609 6 191327498.190 6        39.500    36742439.387 7 147946587.772 7        45.200
C01  37926936.922 6 197495516.180 6        39.500    37926949.500 7 152716115.807 7        42.200
S27  38821579.234 6 204008779.667 6        40.100    38821596.547 6 152344249.850 6        41.600
S29  36527831.859 7 191955043.191 7        45.700
S37  36807691.891 6 193425733.603 6        41.700
> 2025  3 13  8 51  0.0000000  0 41       0.000200602000
R23  24034216.047 6 128566918.119 6        38.300    24034215.570 6 128566870.117 6        36.300
R22  21668633.266 7 115668660.788 7        46.500    21668634.004 7 115668613.792 7        46.500    21668648.871 7  89964489.588 7        43.200    21668649.551 7  89964486.598 7        42.600
R21  22069794.055 7 118099924.775 7        46.000    22069794.180 7 118099895.785 7        45.100    22069809.516 7  91855477.883 7        43.400    22069810.305 7  91855474.884 7        43.800
R12  21381197.578 8 114214531.490 8        49.000    21381198.070 7 114214499.494 7        47.900    21381214.551 7  88833505.017 7        45.500    21381214.977 7  88833502.016 7        44.700
R11  20420943.813 8 109123315.740 8        51.700    20420944.199 8 109123282.747 8        50.000    20420960.508 8  84873664.455 8        48.700    20420960.813 8  84873660.450 8        48.500
R10  23571969.188 6 125651846.584 6        36.900    23571970.402 5 125651807.589 5        35.800
R07  21873912.336 7 117092783.652 7        45.300    21873912.688 7 117092742.663 7        44.700    21873934.559 7  91072146.733 7        43.800    21873934.957 7  91072142.738 7        43.600
R06  21455979.695 5 114493281.614 5        35.100    21455980.559 5 114493208.628 5        34.200
G24  25569769.578 4 134370053.942 4        28.600    25569805.938 2 104704038.626 2        17.800    25569806.203 5 104704034.633 5        34.000    25569815.625 6 100341400.729 6        39.500
G22  21135259.344 7 111066531.727 7        47.600    21135274.453 6  86545397.177 6        38.900
G20  21797112.727 7 114544624.118 7        45.800    21797131.016 5  89255635.431 5        34.300
E33  25237471.453 7 132623808.267 7        44.400    25237489.121 7  99037321.104 7        46.500    25237484.895 7 101620887.059 7        47.400    25237487.027 8 100329058.690 8        53.300
E31  23389351.656 8 122911873.903 8        49.600    23389370.590 8  91784834.533 8        52.100    23389366.219 8  94179199.065 8        52.000    23389368.410 9  92982016.408 9        58.900
E29  27974171.930 6 147005313.697 6        36.500    27974210.289 6 109776863.163 6        38.200    27974202.270 6 112640582.244 6        37.100
E24  25993029.203 7 136594304.440 7        44.400    25993048.410 7 102002242.867 7        45.900    25993043.738 7 104663154.033 7        46.800    25993046.152 8 103332691.059 8        52.300
E23  25570589.484 7 134374346.407 7        44.900    25570615.383 7 100344569.271 7        46.400    25570610.984 7 102962239.615 7        47.200    25570613.070 8 101653404.054 8        52.800
E19  27003804.789 5 141905969.002 5        32.800    27003836.074 5 105968858.528 5        34.600    27003829.398 5 108733239.784 5        34.400
E16  27944275.328 6 146848163.579 6        37.300    27944299.254 6 109659446.757 6        39.400    27944294.219 6 112520107.058 6        40.200
E12  24573942.320 7 129136952.872 7        45.100    24573958.680 7  96433487.926 7        47.100    24573954.707 8  98949134.726 8        48.000    24573956.566 8  97691318.435 8        53.500
E10  25652016.250 7 134802281.913 7        45.700    25652041.203 7 100664130.062 7        47.400    25652036.211 7 103290143.980 7        47.100    25652038.430 8 101977138.630 8        53.500
E04  28768321.734 5 151178554.355 5        33.800    28768354.867 5 112893202.080 5        34.600    28768349.699 6 115838226.642 6        37.300
G19  20895153.680 7 109804781.481 7        46.400    20895164.957 6  85562207.741 6        37.800
G17  22064725.523 7 115950908.835 7        44.300    22064741.738 6  90351416.818 6        41.700    22064742.078 7  90351350.817 7        44.600
G14  22127019.031 7 116278258.866 7        43.000    22127039.672 5  90606509.301 5        31.400    22127039.316 7  90606428.293 7        46.200    22127049.852 8  86831156.533 8        48.500
G12  24224480.281 6 127300500.004 6        37.300    24224497.594 4  99195286.685 4        27.000    24224497.270 6  99195288.676 6        36.500
G11  21979758.156 7 115504434.933 7        44.300    21979775.477 5  90003524.483 5        34.100    21979775.387 7  90003457.475 7        47.900    21979784.461 8  86253311.733 8        50.300
G09  23955201.422 5 125885460.585 5        33.100    23955232.156 4  98092702.550 4        26.400    23955231.426 6  98092698.548 6        37.300    23955240.957 7  94005532.073 7        44.100
G06  21364851.992 7 112273063.022 7        46.100    21364868.668 7  87485566.170 7        47.700    21364869.266 8  87485498.163 8        48.300    21364874.223 8  83840265.400 8        51.900
G05  25237328.336 5 132623094.993 5        34.600    25237355.383 4 103342770.633 4        25.200    25237355.563 6 103342775.642 6        36.100
G04  25266829.453 4                        29.900
C30  24146847.609 6 125738962.511 6        41.700
C13  36666928.063 7 190934328.171 7        45.800    36666942.777 7 147642495.305 7        46.300
C06  40123412.789 5 208933138.776 5        34.600    40123427.367 5 161560416.086 5        35.100
C05  38595466.148 6 200976730.449 6        36.100    38595481.473 6 155408024.192 6        40.100
C04  39243610.844 5 204351795.137 5        34.400    39243626.488 6 158017833.533 6        38.900
C03  36101175.164 7 187988300.851 7        43.800    36101182.168 7 145364508.566 7        46.600
C02  36742425.281 6 191327459.953 6        40.200    36742432.156 7 147946558.210 7        45.500
C01  37926933.688 6 197495498.274 6        40.200    37926945.953 7 152716101.963 7        42.500
S27  38821580.031 6 204008787.634 6        40.800    38821598.277 6 152344255.813 6        41.800
S29  36527831.719 7 191955044.913 7        46.000
S37  36807690.500 6 193425737.189 6        41.700
> 2025  3 13  8 51  1.0000000  0 41       0.000200602000
R23  24033982.586 6 128565671.878 6        38.700    24033982.176 5 128565623.885 5        35.900
R22  21668590.391 7 115668431.457 7        46.700    21668591.113 7 115668384.460 7        46.900    21668606.109 7  89964311.231 7        42.800    21668606.406 7  89964308.237 7        43.000
R21  22070011.680 7 118101089.371 7        46.000    22070012.320 7 118101060.389 7        45.100    22070027.754 7  91856383.684 7        43.300    22070028.359 7  91856380.686 7        44.000
R12  21380884.898 8 114212860.328 8        48.600    21380884.777 8 114212828.335 8        48.000    21380901.543 7  88832205.228 7        45.900    21380901.746 7  88832202.227 7        44.500
R11  20421426.727 8 109125895.861 8        52.100    20421427.016 8 109125862.865 8        50.300    20421443.262 8  84875671.210 8        48.900    20421443.527 8  84875667.204 8        48.200
R10  23572758.883 6 125656053.175 6        36.700    23572759.914 5 125656014.175 5        35.600
R07  21873310.875 7 117089561.169 7        45.500    21873310.359 7 117089520.181 7        44.300    21873332.438 7  91069640.372 7        43.700    21873332.746 7  91069636.371 7        43.600
R06  21455856.164 5 114492619.632 5        35.000    21455856.230 5 114492546.640 5        34.700
G24  25569993.984 4 134371229.299 4        29.100    25570029.426 3 104704954.484 3        18.600    25570029.949 5 104704950.490 5        33.700    25570039.398 6 100342278.417 6        39.700
G22  21135599.406 7 111068318.152 7        47.800    21135614.188 6  86546789.196 6        38.800
G20  21796622.602 7 114542048.831 7        45.900    21796640.891 5  89253628.721 5        34.600
E33  25237789.719 7 132625480.913 7        44.800    25237807.305 7  99038570.158 7        46.300    25237802.977 7 101622168.697 7        47.600    25237805.313 8 100330324.035 8        53.200
E31  23389417.461 8 122912219.454 8        49.400    23389436.207 8  91785092.576 8        51.900    23389431.719 8  94179463.841 8        51.700    23389433.984 9  92982277.817 9        58.800
E29  27973959.836 6 147004198.503 6        36.400    27973997.996 6 109776030.411 6        38.500    27973990.020 6 112639727.762 6        36.900
E24  25992632.664 7 136592219.901 7        44.800    25992651.957 7 102000686.242 7        45.900    25992647.230 7 104661556.798 7        46.500    25992649.547 8 103331114.129 8        52.300
E23  25571072.977 7 134376887.878 7        45.200    25571099.148 7 100346467.120 7        46.700    25571094.758 7 102964186.975 7        47.400    25571096.832 8 101655326.658 8        52.800
E19  27003458.820 5 141904150.700 5        32.900    27003490.473 5 105967500.709 5        35.200    27003483.582 5 108731846.541 5        34.600
E16  27943764.352 6 146845477.609 6        37.400    27943788.141 6 109657441.001 6        39.100    27943783.219 6 112518048.978 6        40.200
E12  24573962.508 7 129137059.400 7        45.200    24573979.051 7  96433567.481 7        47.100    24573974.914 8  98949216.356 8        48.300    24573976.777 8  97691399.027 8        53.600
E10  25651887.117 7 134801603.123 7        45.700    25651912.102 7 100663623.184 7        47.000    25651907.137 7 103289623.879 7        47.400    25651909.371 8 101976625.141 8        53.600
E04  28768061.477 5 151177184.786 5        34.700    28768094.336 5 112892179.354 5        35.600    28768088.934 6 115837177.242 6        37.300
G19  20895039.523 7 109804182.155 7        46.400    20895051.168 6  85561740.737 6        38.100
G17  22064812.273 7 115951364.284 7        44.000    22064828.449 6  90351771.713 6        41.800    22064828.594 7  90351705.710 7        44.900
G14  22127628.891 7 116281463.904 7        42.900    22127649.813 5  90609006.721 5        31.100    22127649.527 7  90608925.718 7        46.300    22127659.965 8  86833549.901 8        48.400
G12  24223855.961 6 127297217.516 6        38.000    24223872.918 4  99192728.911 4        27.700    24223872.676 6  99192730.909 6        36.100
G11  21979651.344 7 115503874.120 7        44.300    21979669.086 5  90003087.493 5        34.600    21979669.234 8  90003020.487 8        48.000    21979678.125 8  86252892.957 8        50.700
G09  23954974.695 5 125884266.480 5        32.600    23955005.012 4  98091772.079 4        26.700    23955004.047 6  98091768.078 6        37.100    23955013.730 7  94004640.372 7        44.500
G06  21365024.406 7 112273970.327 7        46.000    21365041.039 7  87486273.163 7        47.700    21365041.500 8  87486205.157 8        48.400    21365046.492 8  83840942.936 8        52.100
G05  25236622.398 5 132619385.327 5        34.800    25236649.359 4 103339879.987 4        26.100    25236649.680 6 103339884.996 6        36.300
G04  25266780.398 4 132777809.012 4        29.900                                                    25266804.500 5 103463394.45615        35.500    25266816.199 6  99152459.02016        38.200
C30  24147033.273 6 125739929.119 6        41.600
C13  36666795.773 7 190933638.690 7        45.500    36666810.047 7 147641962.159 7        46.200
C06  40123644.258 5 208934344.781 5        34.200    40123658.980 5 161561348.647 5        35.300
C05  38595465.188 5 200976723.416 5        35.500    38595480.234 6 155408018.754 6        40.100
C04  39243603.820 5 204351756.229 5        34.900    39243619.324 6 158017803.449 6        39.000
C03  36101170.992 7 187988279.002 7        43.700    36101177.680 7 145364491.671 7        46.700
C02  36742417.961 6 191327421.718 6        40.100    36742424.750 7 147946528.646 7        45.800
C01  37926930.242 6 197495480.349 6        40.100    37926942.602 7 152716088.105 7        42.100
S27  38821581.891 6 204008795.632 6        39.800    38821600.152 6 152344261.807 6        41.800
S29  36527831.391 7 191955046.633 7        45.800
S37  36807691.313 7 193425740.758 7        42.100
> 2025  3 13  8 51  2.0000000  0 41       0.000200600000
R23  24033748.898 6 128564425.720 6        38.300    24033749.797 6 128564377.733 6        36.000
R22  21668547.273 7 115668202.158 7        46.700    21668548.250 7 115668155.158 7        46.500    21668563.176 7  89964132.897 7        42.700    21668563.824 7  89964129.902 7        42.700
R21  22070229.211 7 118102253.847 7        46.300    22070229.238 7 118102224.859 7        45.000    22070244.566 7  91857289.390 7        43.400    22070245.438 7  91857286.392 7        43.600
R12  21380571.781 8 114211189.914 8        48.800    21380572.328 8 114211157.919 8        48.100    21380588.766 7  88830906.025 7        45.600    21380589.133 7  88830903.022 7        44.800
R11  20421909.594 8 109128476.609 8        52.000    20421909.945 8 109128443.617 8        49.900    20421926.297 8  84877678.452 8        48.800    20421926.688 8  84877674.448 8        48.300
R10  23573549.375 6 125660259.726 6        36.500    23573548.977 5 125660220.726 5        35.500
R07  21872708.500 7 117086338.925 7        45.600    21872708.598 7 117086297.934 7        44.300    21872730.316 7  91067134.188 7        43.300    21872731.066 7  91067130.188 7        43.900
R06  21455731.930 5 114491958.383 5        35.000    21455732.340 5 114491885.384 5        35.000
G24  25570218.094 4 134372404.848 4        28.300    25570253.273 3 104705870.499 3        18.300    25570253.773 5 104705866.494 5        33.800    25570263.129 6 100343156.255 6        39.800
G22  21135939.461 7 111070105.062 7        47.600    21135954.465 6  86548181.591 6        39.000
G20  21796132.203 7 114539473.943 7        45.400    21796150.977 5  89251622.324 5        34.500
E33  25238108.039 7 132627153.520 7        44.800    25238125.672 7  99039819.182 7        46.200    25238121.266 7 101623450.305 7        47.100    25238123.516 8 100331589.353 8        53.300
E31  23389483.266 8 122912565.444 8        50.100    23389502.133 8  91785350.945 8        51.600    23389497.750 8  94179728.952 8        51.900    23389499.887 9  92982539.558 9        58.800
E29  27973747.453 6 147003083.493 6        36.700    27973785.836 6 109775197.794 6        38.500    27973777.832 6 112638873.421 6        37.500
E24  25992235.984 7 136590135.653 7        44.200    25992255.250 7 101999129.831 7        45.600    25992250.547 7 104659959.786 7        46.800    25992252.891 8 103329537.417 8        52.300
E23  25571556.602 7 134379429.577 7        45.100    25571582.785 7 100348365.140 7        46.400    25571578.352 7 102966134.507 7        47.300    25571580.410 8 101657249.432 8        52.900
E19  27003112.500 5 141902332.324 5        32.600    27003144.152 5 105966142.833 5        34.900    27003137.418 5 108730453.241 5        35.100
E16  27943253.141 6 146842791.752 6        37.500    27943276.957 6 109655435.333 6        39.100    27943272.215 6 112515990.988 6        40.100
E12  24573982.891 7 129137166.099 7        45.100    24573999.266 7  96433647.164 7        47.100    24573995.125 7  98949298.119 7        47.900    24573997.035 8  97691479.749 8        53.500
E10  25651757.875 7 134800924.531 7        45.900    25651782.883 7 100663116.454 7        47.100    25651777.813 7 103289103.928 7        47.400    25651780.074 8 101976111.801 8        53.700
E04  28767800.828 5 151175814.927 5        34.600    28767833.820 5 112891156.416 5        35.400    28767828.203 6 115836127.611 6        37.500
G19  20894925.438 7 109803583.022 7        46.300    20894937.066 6  85561273.881 6        37.500
G17  22064898.719 7 115951819.927 7        43.900    22064915.191 6  90352126.755 6        41.400    22064915.039 7  90352060.754 7        44.600
G14  22128239.406 7 116284669.245 7        43.400    22128259.867 5  90611504.381 5        31.200    22128259.621 7  90611423.383 7        45.800    22128270.008 8  86835943.493 8        48.300
G12  24223231.469 6 127293935.266 6        37.700    24223248.320 4  99190171.322 4        27.200    24223247.957 6  99190173.321 6        36.300
G11  21979544.664 7 115503313.560 7        44.700    21979562.121 5  90002650.701 5        34.600    21979562.098 7  90002583.696 7        47.900    21979571.137 8  86252474.367 8        50.500
G09  23954746.109 5 125883072.657 5        32.200    23954777.887 4  98090841.831 4        24.400    23954777.262 6  98090837.829 6        37.000    23954786.773 7  94003748.888 7        44.000
G06  21365196.758 7 112274877.793 7        46.000    21365213.840 7  87486980.283 7        47.300    21365214.145 8  87486912.275 8        48.500    21365219.152 8  83841620.592 8        51.700
G05  25235916.891 5 132615675.703 5        35.200    25235943.590 4 103336989.382 4        25.400    25235943.980 6 103336994.381 6        36.600
G04  25266731.938 4 132777549.061 4        29.900                                                    25266755.375 5 103463191.909 5        35.800    25266766.742 6  99152264.917 6        38.100
C30  24147218.984 6 125740895.731 6        41.700
C13  36666663.117 7 190932949.388 7        44.900    36666677.387 7 147641429.151 7        46.000
C06  40123876.000 5 208935550.655 5        33.900    40123890.699 5 161562281.103 5        35.000
C05  38595463.453 5 200976716.389 5        35.300    38595479.035 6 155408013.328 6        40.200
C04  39243596.281 5 204351717.326 5        34.300    39243611.793 6 158017773.368 6        38.200
C03  36101166.648 7 187988257.150 7        43.600    36101173.691 7 145364474.776 7        46.600
C02  36742410.547 6 191327383.466 6        39.800    36742417.500 7 147946499.069 7        46.300
C01  37926926.398 6 197495462.429 6        39.800    37926939.086 7 152716074.249 7        42.000
S27  38821583.219 6 204008803.599 6        39.900    38821601.559 7 152344267.773 7        42.200
S29  36527831.906 7 191955048.347 7        45.800
S37  36807700.156 6 193425744.334 6        41.700
> 2025  3 13  8 51  3.0000000  0 42       0.000200600000
R23  24033517.523 6 128563179.615 6        38.000    24033516.723 5 128563131.616 5        35.700
R22  21668504.570 7 115667972.826 7        46.500    21668505.047 7 115667925.829 7        46.600    21668519.688 7  89963954.533 7        42.900    21668520.598 7  89963951.538 7        42.500
R21  22070447.531 7 118103418.150 7        46.200    22070446.996 7 118103389.163 7        45.100    22070462.375 7  91858194.958 7        43.500    22070463.137 7  91858191.960 7        43.700
R12  21380259.352 8 114209520.242 8        48.700    21380259.715 8 114209488.248 8        48.400    21380276.109 7  88829607.396 7        45.600    21380276.594 7  88829604.392 7        44.900
R11  20422392.789 8 109131057.933 8        51.900    20422392.961 8 109131024.938 8        49.600    20422409.289 8  84879686.144 8        49.000    20422409.645 8  84879682.141 8        48.300
R10  23574337.883 5 125664466.193 5        35.500    23574338.191 5 125664427.188 5        35.400
R07  21872106.734 7 117083116.855 7        45.400    21872106.707 7 117083075.865 7        43.900    21872128.723 7  91064628.134 7        43.600    21872129.172 7  91064624.137 7        43.700
R06  21455608.141 5 114491297.829 5        34.600    21455608.934 5 114491224.826 5        34.300
G24  25570441.922 4                        29.100
G22  21136279.836 8 111071892.422 8        48.000    21136294.688 6  86549574.338 6        39.200
G20  21795642.234 7 114536899.411 7        45.600    21795660.836 5  89249616.206 5        34.400
E33  25238426.102 7 132628826.035 7        44.600    25238443.969 7  99041068.140 7        46.100    25238439.559 7 101624731.844 7        46.800    25238441.855 8 100332854.600 8        53.200
E31  23389549.148 8 122912911.825 8        49.700    23389568.023 8  91785609.608 8        51.300    23389563.727 8  94179994.359 8        52.000    23389565.844 9  92982801.593 9        58.800
E29  27973535.352 6 147001968.627 6        37.300    27973573.559 6 109774365.284 6        38.600    27973565.656 6 112638019.190 6        37.500
E24  25991839.406 7 136588051.611 7        44.300    25991858.629 7 101997573.577 7        45.600    25991853.980 7 104658362.933 7        46.900    25991856.246 8 103327960.863 8        52.400
E23  25572040.430 7 134381971.448 7        45.100    25572066.340 7 100350263.291 7        45.700    25572061.879 7 102968082.174 7        47.300    25572063.977 8 101659172.340 8        52.800
E19  27002766.555 5 141900513.849 5        32.200    27002798.250 5 105964784.882 5        35.100    27002791.590 5 108729059.870 5        35.200
E16  27942742.172 6 146840105.946 6        37.300    27942765.680 6 109653429.704 6        39.100    27942761.199 6 112513933.036 6        40.300
E12  24574003.148 7 129137272.903 7        45.300    24574019.430 7  96433726.925 7        47.000    24574015.539 7  98949379.959 7        47.600    24574017.434 8  97691560.549 8        53.500
E10  25651628.758 7 134800246.088 7        45.600    25651653.691 7 100662609.834 7        46.700    25651648.703 7 103288584.090 7        47.700    25651650.957 8 101975598.572 8        53.700
E04  28767540.344 5 151174444.63515        35.100    28767573.188 5 112890133.15615        35.600    28767567.332 6 115835077.65716        37.700
G19  20894811.523 7 109802984.029 7        46.000    20894823.070 6  85560807.136 6        37.800
G17  22064985.422 7 115952275.712 7        44.100    22065002.133 6  90352481.910 6        41.700    22065002.047 7  90352415.909 7        44.700
G14  22128849.305 7 116287874.833 7        42.900    22128869.820 5  90614002.235 5        31.100    22128869.496 7  90613921.238 7        46.000    22128879.934 8  86838337.272 8        48.300
G12  24222606.656 6 127290653.228 6        37.200    24222623.895 4  99187613.894 4        27.200    24222623.746 6  99187615.903 6        36.800
G11  21979438.063 7 115502753.208 7        44.600    21979455.531 5  90002214.073 5        34.500    21979455.598 8  90002147.067 8        48.100    21979464.488 8  86252055.931 8        50.300
G09  23954518.516 5 125881879.040 5        32.500    23954550.438 4  98089911.752 4        24.700    23954549.973 6  98089907.744 6        37.500    23954559.375 7  94002857.559 7        44.000
G06  21365369.867 7 112275785.368 7        45.900    21365386.477 7  87487687.486 7        47.300    21365386.902 8  87487619.480 8        48.300    21365391.871 8  83842298.327 8        51.700
G05  25235211.672 5 132611966.058 5        35.200    25235237.777 4 103334098.756 4        26.000    25235238.047 6 103334103.755 6        36.300
G04  25266681.305 5 132777289.466 5        30.100                                                    25266705.734 6 103462989.637 6        36.300    25266716.703 6  99152071.079 6        37.700
R08  24602650.984 6 131746084.13816        36.100    24602650.371 5 131746035.14915        34.700
C30  24147404.758 6 125741862.283 6        41.600
C13  36666530.969 7 190932260.208 7        44.600    36666545.270 7 147640896.238 7        46.400
C06  40124107.594 5 208936756.335 5        34.000    40124122.430 5 161563213.410 5        35.400
C05  38595462.320 5 200976709.316 5        35.800    38595477.617 6 155408007.863 6        40.200
C04  39243587.992 5 204351678.349 5        34.300    39243604.461 6 158017743.226 6        38.400
C03  36101162.508 7 187988235.244 7        43.500    36101169.230 7 145364457.841 7        46.800
C02  36742403.352 6 191327345.171 6        39.800    36742410.414 7 147946469.464 7        45.800
C01  37926923.180 6 197495444.452 6        39.600    37926935.520 6 152716060.350 6        41.900
S27  38821585.547 6 204008811.445 6        39.700    38821602.898 7 152344273.616 7        42.400
S29  36527833.828 7 191955050.003 7        45.600
S37  36807695.750 6 193425747.857 6        41.800
> 2025  3 13  8 51  4.0000000  0 42       0.000200600000
R23  24033283.516 6 128561933.591 6        37.900    24033284.078 5 128561885.595 5        35.900
R22  21668462.008 7 115667743.524 7        46.800    21668461.949 7 115667696.526 7        46.600    21668476.430 7  89963776.191 7        42.900    21668477.469 7  89963773.199 7        42.800
R21  22070665.086 7 118104582.343 7        46.700    22070664.141 7 118104553.349 7        44.900    22070680.008 7  91859100.438 7        43.900    22070680.766 7  91859097.442 7        43.700
R12  21379946.680 8 114207851.400 8        48.700    21379947.391 8 114207819.410 8        48.100    21379963.648 7  88828309.414 7        45.800    21379964.191 7  88828306.408 7        44.400
R11  20422876.055 8 109133639.891 8        51.800    20422876.340 8 109133606.899 8        49.900    20422892.391 8  84881694.328 8        48.900    20422893.137 8  84881690.325 8        48.500
R10  23575126.742 5 125668672.622 5        35.900    23575126.410 5 125668633.614 5        35.300
R07  21871505.227 7 117079895.028 7        45.300    21871504.781 7 117079854.037 7        43.900    21871526.402 7  91062122.268 7        43.800    21871527.164 7  91062118.273 7        43.400
R06  21455485.336 5 114490638.046 5        35.400    21455485.371 5 114490565.037 5        34.500
G24  25570665.914 4                        29.100
G22  21136619.898 7 111073680.288 7        47.900    21136635.012 6  86550967.480 6        39.300
G20  21795152.406 7 114534325.298 7        45.500    21795171.172 5  89247610.415 5        34.900
E33  25238744.430 7 132630498.526 7        44.600    25238762.215 7  99042317.078 7        46.500    25238757.887 7 101626013.364 7        46.800    25238760.160 8 100334119.829 8        53.200
E31  23389615.156 8 122913258.652 8        50.100    23389633.953 8  91785868.604 8        51.300    23389629.633 8  94180260.112 8        51.800    23389631.781 9  92983063.967 9        58.800
E29  27973323.273 6 147000853.968 6        37.200    27973361.480 6 109773532.930 6        38.500    27973353.543 6 112637165.118 6        37.600
E24  25991442.719 7 136585967.844 7        44.400    25991461.996 7 101996017.523 7        45.500    25991457.535 7 104656766.287 7        47.200    25991459.773 8 103326384.515 8        52.300
E23  25572524.219 7 134384513.552 7        45.500    25572550.094 7 100352161.612 7        45.700    25572545.684 7 102970030.017 7        47.200    25572547.773 8 101661095.423 8        52.700
E19  27002420.359 5 141898695.287 5        31.100    27002452.027 5 105963426.865 5        34.900    27002445.598 5 108727666.425 5        34.600
E16  27942231.297 6 146837420.272 6        37.200    27942254.613 6 109651424.173 6        38.800    27942250.023 6 112511875.186 6        40.000
E12  24574023.516 7 129137379.870 7        45.900    24574040.059 7  96433806.809 7        46.800    24574036.047 7  98949461.926 7        47.700    24574037.914 8  97691641.475 8        53.500
E10  25651499.617 7 134799567.849 7        45.700    25651524.711 7 100662103.365 7        46.700    25651519.656 7 103288064.412 7        47.400    25651521.938 8 101975085.497 8        53.600
E04  28767279.641 5 151173074.038 5        35.100    28767312.434 5 112889109.662 5        35.700    28767306.523 6 115834027.459 6        37.700
G19  20894697.594 7 109802385.243 7        46.600    20894709.184 6  85560340.552 6        38.100
G17  22065072.219 7 115952731.691 7        44.000    22065088.762 6  90352837.215 6        41.100    22065088.727 7  90352771.214 7        44.500
G14  22129459.273 7 116291080.740 7        42.600    22129479.805 5  90616500.340 5        31.400    22129479.656 7  90616419.342 7        45.900    22129489.816 8  86840731.288 8        48.300
G12  24221981.992 6 127287371.437 6        37.100    24221999.281 4  99185056.665 4        27.100    24221999.129 6  99185058.682 6        36.100
G11  21979331.523 7 115502193.122 7        45.200    21979348.699 5  90001777.654 5        34.400    21979348.813 8  90001710.645 8        48.300    21979357.773 8  86251637.697 8        50.500
G09  23954291.859 5 125880685.743 5        32.300    23954323.496 4  98088981.921 4        26.000    23954323.363 6  98088977.918 6        37.100    23954332.297 7  94001966.481 7        43.900
G06  21365542.836 7 112276693.111 7        46.200    21365559.137 7  87488394.819 7        47.600    21365559.641 8  87488326.814 8        48.400    21365564.602 8  83842976.190 8        51.600
G05  25234505.313 5 132608256.469 5        34.900    25234531.785 4 103331208.175 4        25.400    25234531.777 6 103331213.173 6        36.700
G04  25266633.008 4 132777030.261 4        28.900                                                    25266657.094 5 103462787.658 5        35.300    25266667.598 6  99151877.529 6        37.500
R08  24601957.930 6 131742374.027 6        37.900    24601957.469 6 131742325.045 6        36.400
C30  24147590.469 7 125742828.845 7        42.100
C13  36666398.750 7 190931571.199 7        45.000    36666413.027 7 147640363.458 7        45.900
C06  40124339.023 5 208937961.893 5        34.300    40124354.113 5 161564145.621 5        35.100
C05  38595460.703 6 200976702.240 6        36.000    38595476.094 6 155408002.396 6        39.900
C04  39243581.070 5 204351639.406 5        34.700    39243596.680 6 158017713.117 6        38.400
C03  36101158.352 7 187988213.346 7        43.900    36101164.992 7 145364440.908 7        46.600
C02  36742395.883 6 191327306.865 6        40.300    36742402.988 7 147946439.845 7        45.900
C01  37926919.297 6 197495426.468 6        39.900    37926932.430 7 152716046.447 7        42.100
S27  38821585.781 6 204008819.243 6        40.000    38821603.949 7 152344279.401 7        42.300
S29  36527833.266 7 191955051.669 7        45.800
S37  36807700.563 6 193425751.376 6        41.800
> 2025  3 13  8 51  5.0000000  0 42       0.000200600000
R23  24033051.172 6 128560687.754 6        38.200    24033050.941 5 128560639.762 5        35.900
R22  21668418.609 7 115667514.337 7        46.900    21668419.492 7 115667467.341 7        46.700    21668433.957 7  89963597.941 7        43.300    21668435.105 7  89963594.951 7        42.800
R21  22070882.609 7 118105746.506 7        46.700    22070881.949 7 118105717.513 7        44.700    22070897.801 7  91860005.893 7        43.700    22070898.277 7  91860002.898 7        43.600
R12  21379634.305 8 114206183.457 8        49.000    21379635.016 8 114206151.463 8        48.000    21379651.504 7  88827012.133 7        45.800    21379651.992 7  88827009.124 7        44.400
R11  20423359.039 8 109136222.531 8        51.500    20423359.375 8 109136189.540 8        50.000    20423375.887 8  84883703.043 8        48.800    20423376.086 8  84883699.044 8        48.200
R10  23575915.156 5 125672879.084 5        35.900    23575915.523 5 125672840.087 5        35.000
R07  21870901.969 7 117076673.534 7        44.900    21870903.270 7 117076632.548 7        44.000    21870924.969 7  91059616.668 7        44.400    21870925.691 7  91059612.673 7        43.400
R06  21455362.203 5 114489979.100 5        35.500    21455361.855 5 114489906.111 5        34.100
G24  25570889.047 4                        28.900
G22  21136960.102 7 111075468.736 7        47.900    21136975.266 6  86552361.074 6        39.200
G20  21794663.102 7 114531751.682 7        45.500    21794681.121 5  89245605.011 5        34.800
E33  25239062.586 7 132632171.067 7        44.900    25239080.531 7  99043566.054 7        46.400    25239076.195 7 101627294.921 7        46.700    25239078.406 8 100335385.095 8        53.200
E31  23389681.313 8 122913606.017 8        50.000    23389700.207 8  91786128.001 8        51.500    23389695.848 8  94180526.275 8        52.000    23389698.027 9  92983326.746 9        58.800
E29  27973111.172 6 146999739.578 6        37.200    27973149.309 6 109772700.776 6        38.400    27973141.742 6 112636311.251 6        37.800
E24  25991046.320 7 136583884.434 7        44.400    25991065.828 7 101994461.739 7        45.500    25991061.113 7 104655169.917 7        47.000    25991063.398 8 103324808.437 8        52.400
E23  25573007.844 7 134387055.964 7        45.400    25573034.016 7 100354060.163 7        46.100    25573029.547 7 102971978.096 7        47.300    25573031.621 8 101663018.738 8        52.700
E19  27002074.578 5 141896876.743 5        31.800    27002105.887 5 105962068.867 5        34.700    27002099.301 5 108726273.001 5        34.200
E16  27941720.398 6 146834734.782 6        37.600    27941743.484 6 109649418.774 6        39.200    27941739.152 6 112509817.474 6        40.400
E12  24574043.789 7 129137487.089 7        45.600    24574060.332 7  96433886.883 7        46.600    24574056.363 7  98949544.086 7        47.700    24574058.203 8  97691722.592 8        53.500
E10  25651370.727 7 134798889.900 7        45.500    25651395.598 7 100661597.115 7        46.600    25651390.594 7 103287544.952 7        47.200    25651392.797 8 101974572.643 8        53.500
E04  28767018.805 5 151171703.214 5        35.600    28767051.543 5 112888086.003 5        35.800    28767045.723 6 115832977.092 6        37.800
G19  20894583.328 7 109801786.736 7        46.600    20894595.352 6  85559874.185 6        37.800
G17  22065159.125 7 115953187.953 7        44.100    22065176.117 6  90353192.741 6        41.300    22065176.160 7  90353126.738 7        44.700
G14  22130069.625 7 116294287.028 7        42.600    22130090.113 5  90618998.751 5        30.900    22130090.074 7  90618917.744 7        45.900    22130100.258 8  86843125.594 8        48.200
G12  24221357.688 6 127284089.985 6        37.200    24221374.770 4  99182499.702 4        28.000    24221374.598 6  99182501.722 6        36.300
G11  21979225.094 7 115501633.377 7        44.900    21979242.449 5  90001341.495 5        34.600    21979242.273 8  90001274.492 8        48.300    21979251.324 8  86251219.716 8        50.300
G09  23954064.273 5 125879492.777 5        31.800    23954096.711 4  98088052.350 4        25.300    23954096.578 6  98088048.348 6        37.400    23954105.688 7  94001075.645 7        44.300
G06  21365715.625 7 112277601.093 7        46.000    21365731.934 7  87489102.340 7        47.600    21365732.297 8  87489034.334 8        48.000    21365737.430 8  83843654.231 8        51.600
G05  25233800.117 5 132604546.984 5        34.900    25233825.762 4 103328317.674 4        25.000    25233825.633 6 103328322.666 6        36.800
G04  25266584.531 4 132776771.529 4        29.100                                                    25266608.105 5 103462586.057 5        35.500    25266618.320 6  99151684.333 6        36.900
R08  24601266.422 6 131738663.688 6        38.800    24601264.621 6 131738614.706 6        37.800    24601290.789 5                        35.100    24601289.973 5                        34.500
C30  24147775.906 6 125743795.497 6        41.600
C13  36666266.586 7 190930882.463 7        44.600    36666280.613 7 147639830.886 7        45.800
C06  40124570.469 5 208939167.395 5        34.000    40124585.734 5 161565077.787 5        35.400
C05  38595459.461 6 200976695.239 6        36.000    38595474.773 6 155407996.984 6        39.800
C04  39243574.094 5 204351600.529 5        34.700    39243589.375 6 158017683.059 6        38.300
C03  36101154.063 7 187988191.529 7        43.900    36101160.871 7 145364424.037 7        46.300
C02  36742388.469 6 191327268.647 6        40.200    36742395.473 7 147946410.296 7        46.200
C01  37926916.234 6 197495408.576 6        40.100    37926928.723 6 152716032.617 6        41.500
S27  38821587.016 6 204008827.206 6        40.100    38821605.801 7 152344285.327 7        42.100
S29  36527833.797 7 191955053.420 7        46.000
S37  36807696.922 6 193425754.981 6        41.900
> 2025  3 13  8 51  6.0000000  0 42       0.000200600000
R23  24032817.195 6 128559442.008 6        38.100    24032817.648 6 128559394.014 6        36.200
R22  21668375.500 7 115667285.176 7        47.200    21668376.203 7 115667238.182 7        46.800    21668391.180 7  89963419.716 7        43.200    21668391.770 7  89963416.725 7        42.400
R21  22071100.172 7 118106910.575 7        46.300    22071099.301 7 118106881.578 7        45.100    22071115.512 7  91860911.278 7        43.700    22071115.715 7  91860908.282 7        43.600
R12  21379322.727 8 114204516.265 8        49.300    21379323.031 8 114204484.269 8        48.200    21379339.660 7  88825715.433 7        46.200    21379339.980 7  88825712.423 7        44.100
R11  20423842.328 8 109138805.834 8        51.500    20423843.074 8 109138772.843 8        50.000    20423859.555 8  84885712.282 8        48.900    20423859.914 8  84885708.279 8        48.000
R10  23576704.570 6 125677085.529 6        36.100    23576705.004 5 125677046.529 5        35.000
R07  21870301.398 7 117073452.328 7        45.600    21870301.301 7 117073411.339 7        44.000    21870323.367 7  91057111.301 7        44.600    21870323.844 7  91057107.303 7        43.600
R06  21455238.234 5 114489320.909 5        35.800    21455238.551 5 114489247.919 5        34.500
G24  25571112.313 4                        28.900
G22  21137300.117 7 111077257.693 7        47.800    21137315.598 6  86553755.066 6        38.900
G20  21794173.594 7 114529178.481 7        45.800    21794191.465 5  89243599.928 5        34.900
E33  25239380.742 7 132633843.581 7        44.500    25239398.699 7  99044815.010 7        46.600    25239394.289 7 101628576.459 7        47.000    25239396.590 8 100336650.344 8        53.200
E31  23389747.445 8 122913953.824 8        49.700    23389766.391 8  91786387.726 8        51.400    23389762.109 8  94180792.778 8        51.900    23389764.270 9  92983589.861 9        58.800
E29  27972899.352 6 146998625.401 6        37.000    27972937.172 6 109771868.781 6        38.700    27972929.773 6 112635457.552 6        37.300
E24  25990649.938 7 136581801.296 7        44.700    25990669.309 7 101992906.157 7        45.400    25990664.586 7 104653573.754 7        46.900    25990666.891 8 103323232.565 8        52.400
E23  25573491.719 7 134389598.610 7        45.000    25573517.820 7 100355958.889 7        45.900    25573513.398 7 102973926.354 7        47.300    25573515.426 8 101664942.232 8        52.700
E19  27001728.766 5 141895058.103 5        32.000    27001759.793 5 105960710.796 5        34.800    27001753.328 5 108724879.504 5        34.600
E16  27941209.148 6 146832049.414 6        37.000    27941232.703 6 109647413.460 6        39.400    27941228.426 6 112507759.853 6        40.400
E12  24574064.438 7 129137594.491 7        45.500    24574080.773 7  96433967.090 7        46.700    24574076.746 7  98949626.387 7        47.400    24574078.578 8  97691803.848 8        53.500
E10  25651241.781 7 134798212.151 7        45.900    25651266.797 7 100661091.013 7        46.800    25651261.906 7 103287025.648 7        47.000    25651264.000 8 101974059.939 8        53.500
E04  28766757.891 5 151170332.109 5        35.800    28766790.645 6 112887062.131 6        36.400    28766784.754 6 115831926.514 6        37.900
G19  20894469.859 7 109801188.431 7        46.400    20894481.172 6  85559407.973 6        38.400
G17  22065245.734 7 115953644.416 7        43.900    22065262.336 6  90353548.424 6        41.300    22065262.477 7  90353482.422 7        44.600
G14  22130679.102 7 116297493.638 7        42.500    22130700.270 5  90621497.409 5        30.600    22130700.305 7  90621416.400 7        45.800    22130710.449 8  86845520.137 8        48.400
G12  24220733.938 6 127280808.794 6        37.500    24220750.473 4  99179942.937 4        28.400    24220750.301 6  99179944.953 6        36.300
G11  21979118.703 7 115501073.900 7        45.500    21979135.832 5  90000905.546 5        34.700    21979135.559 8  90000838.544 8        48.100    21979144.613 8  86250801.936 8        50.300
G09  23953836.727 5 125878300.131 5        31.600    23953869.566 4  98087123.020 4        25.300    23953869.492 6  98087119.031 6        36.900    23953878.473 7  94000185.049 7        43.900
G06  21365888.289 7 112278509.241 7        46.100    21365904.605 7  87489809.992 7        47.700    21365905.113 8  87489741.986 8        48.100    21365910.004 8  83844332.398 8        51.700
G05  25233093.586 5 132600837.558 5        34.800    25233119.730 3 103325427.215 3        22.600    25233119.648 6 103325432.209 6        36.800
G04  25266534.328 4                        28.000
R08  24600574.008 6 131734953.044 6        38.900    24600571.707 6 131734904.053 6        37.100    24600597.949 5                        35.000    24600597.309 5                        34.300
C30  24147961.570 6 125744762.150 6        41.800
C13  36666134.336 7 190930193.920 7        45.200    36666148.422 7 147639298.466 7        45.700
C06  40124802.391 5 208940372.774 5        34.500    40124817.156 5 161566009.860 5        35.200
C05  38595458.344 6 200976688.255 6        36.300    38595473.477 6 155407991.587 6        39.900
C04  39243565.992 5 204351561.666 5        34.900    39243581.566 6 158017653.015 6        38.600
C03  36101149.734 7 187988169.727 7        44.100    36101156.691 7 145364407.184 7        46.300
C02  36742381.031 6 191327230.434 6        40.400    36742387.922 7 147946380.752 7        45.800
C01  37926912.727 6 197495390.688 6        40.400    37926925.277 6 152716018.785 6        41.700
S27  38821589.828 6 204008835.238 6        40.200    38821607.141 7 152344291.336 7        42.000
S29  36527833.453 7 191955055.175 7        46.100
S37  36807703.859 6 193425758.595 6        41.800
> 2025  3 13  8 51  7.0000000  0 42       0.000200600000
R23  24032585.797 6 128558196.318 6        38.300    24032584.828 5 128558148.315 5        35.600
R22  21668332.977 7 115667056.009 7        47.600    21668332.977 7 115667009.010 7        46.400    21668347.969 7  89963241.482 7        42.800    21668348.777 7  89963238.490 7        42.400
R21  22071317.500 7 118108074.497 7        46.300    22071316.797 7 118108045.502 7        44.900    22071333.277 7  91861816.546 7        44.000    22071333.215 7  91861813.552 7        43.400
R12  21379010.461 8 114202849.763 8        49.000    21379011.031 7 114202817.770 7        47.900    21379027.570 7  88824419.267 7        46.000    21379027.836 7  88824416.259 7        44.200
R11  20424325.758 8 109141389.721 8        51.300    20424326.223 8 109141356.723 8        50.300    20424342.613 8  84887721.966 8        49.300    20424343.098 8  84887717.963 8        48.200
R10  23577493.938 5 125681291.874 5        35.300    23577493.652 5 125681252.873 5        35.000
R07  21869698.953 7 117070231.372 7        45.500    21869699.293 7 117070190.386 7        43.900    21869721.867 7  91054606.128 7        44.200    21869722.152 7  91054602.127 7        43.500
R06  21455114.477 5 114488663.434 5        35.200    21455115.156 5 114488590.440 5        34.100
G24  25571337.023 5 134378285.817 5        30.300    25571372.301 3 104710453.01213        19.000    25571372.422 5 104710449.00615        34.300    25571382.215 6 100347547.82516        39.600
G22  21137640.461 7 111079047.102 7        47.600    21137656.496 6  86555149.406 6        38.800
G20  21793683.805 7 114526605.648 7        46.000    21793701.883 5  89241595.131 5        34.100
E33  25239699.102 7 132635516.013 7        44.400    25239716.930 7  99046063.905 7        46.600    25239712.629 7 101629857.932 7        47.200    25239714.879 8 100337915.528 8        53.300
E31  23389813.680 8 122914302.032 8        49.700    23389832.664 8  91786647.752 8        51.400    23389828.324 8  94181059.586 8        52.100    23389830.449 9  92983853.278 9        58.800
E29  27972687.688 6 146997511.372 6        36.000    27972725.031 6 109771036.892 6        38.700    27972717.777 6 112634603.962 6        37.300
E24  25990253.477 7 136579718.388 7        44.700    25990272.887 7 101991350.749 7        45.800    25990268.078 7 104651977.766 7        46.500    25990270.496 8 103321656.867 8        52.400
E23  25573975.688 7 134392141.429 7        45.000    25574001.777 7 100357857.743 7        45.700    25573997.285 7 102975874.745 7        46.900    25573999.387 8 101666865.853 8        52.800
E19  27001382.273 5 141893239.366 5        30.900    27001413.781 5 105959352.651 5        34.000    27001407.250 5 108723485.930 5        34.600
E16  27940698.250 6 146829364.112 6        36.600    27940721.766 6 109645408.201 6        39.400    27940717.359 6 112505702.286 6        40.200
E12  24574084.789 7 129137702.017 7        44.600    24574101.211 7  96434047.392 7        46.800    24574097.195 7  98949708.782 7        47.300    24574099.070 8  97691885.196 8        53.600
E10  25651112.805 7 134797534.570 7        45.600    25651137.785 7 100660585.041 7        47.000    25651132.660 7 103286506.474 7        47.300    25651134.910 8 101973547.366 8        53.500
E04  28766497.094 5 151168960.592 5        35.800    28766529.777 6 112886037.947 6        36.100    28766523.770 6 115830875.617 6        37.500
G19  20894356.117 7 109800590.268 7        46.300    20894367.586 6  85558941.872 6        38.100
G17  22065332.508 7 115954101.029 7        44.100    22065349.461 6  90353904.222 6        40.800    22065349.652 7  90353838.221 7        45.000
G14  22131289.422 7 116300700.508 7        42.700    22131310.434 5  90623996.263 5        30.900    22131310.281 7  90623915.255 7        46.000    22131320.582 8  86847914.872 8        48.500
G12  24220108.805 6 127277527.823 6        37.300    24220125.957 4  99177386.344 4        28.100    24220125.527 6  99177388.348 6        36.100
G11  21979012.414 7 115500514.639 7        45.900    21979029.320 5  90000469.767 5        34.900    21979029.082 8  90000402.763 8        48.000    21979038.273 8  86250384.314 8        50.300
G09  23953609.938 5 125877107.707 5        31.500    23953642.871 4  98086193.878 4        24.400    23953642.926 6  98086189.882 6        37.100    23953651.723 7  93999294.613 7        43.900
G06  21366061.539 7 112279417.500 7        46.000    21366077.688 7  87490517.730 7        47.700    21366078.137 8  87490449.724 8        48.500    21366083.168 8  83845010.647 8        51.800
G05  25232388.328 5 132597128.133 5        34.400    25232414.148 4 103322536.762 4        26.200    25232414.379 6 103322541.754 6        36.400
G04  25266484.789 4 132776255.168 4        27.600                                                    25266509.758 5 103462183.73215        35.500    25266519.441 6  99151298.77516        37.200
R08  24599881.578 6 131731242.050 6        39.400    24599878.750 6 131731193.063 6        37.800    24599905.133 6 102457732.82716        36.500    24599904.559 5 102457727.83615        35.500
C30  24148146.992 6 125745728.770 6        40.700
C13  36666002.258 7 190929505.507 7        44.700    36666016.465 7 147638766.146 7        45.900
C06  40125033.703 5 208941577.988 5        33.200    40125048.633 5 161566941.813 5        35.200
C05  38595456.773 5 200976681.209 5        35.100    38595472.164 6 155407986.145 6        39.800
C04  39243558.469 5 204351522.767 5        34.300    39243574.172 6 158017622.943 6        39.100
C03  36101145.594 7 187988147.880 7        43.200    36101152.543 7 145364390.293 7        46.300
C02  36742373.875 6 191327192.177 6        39.000    36742380.895 7 147946351.174 7        46.100
C01  37926909.188 6 197495372.758 6        39.200    37926921.840 6 152716004.922 6        41.600
S27  38821590.656 6 204008843.220 6        39.700    38821609.105 6 152344297.319 6        41.800
S29  36527831.781 7 191955056.889 7        45.800
S37  36807698.781 6 193425762.157 6        41.900
> 2025  3 13  8 51  8.0000000  0 42       0.000200600000
R23  24032351.742 6 128556950.716 6        38.400    24032352.281 6 128556902.724 6        36.100
R22  21668290.133 7 115666826.866 7        47.600    21668290.434 7 115666779.871 7        46.700    21668305.219 7  89963063.266 7        42.600    21668306.230 7  89963060.276 7        42.400
R21  22071535.336 7 118109238.315 7        46.400    22071534.402 7 118109209.317 7        45.100    22071550.816 7  91862721.742 7        44.000    22071550.926 7  91862718.746 7        43.200
R12  21378698.641 8 114201184.033 8        49.400    21378699.309 8 114201152.036 8        48.200    21378715.922 7  88823123.702 7        46.200    21378716.070 7  88823120.693 7        44.400
R11  20424809.523 8 109143974.228 8        52.000    20424810.520 8 109143941.230 8        50.300    20424826.891 8  84889732.129 8        49.300    20424827.316 7  84889728.126 7        47.900
R10  23578282.406 6 125685498.177 6        36.000    23578282.461 5 125685459.177 5        34.500
R07  21869097.719 7 117067010.706 7        45.900    21869098.035 7 117066969.721 7        44.100    21869120.352 7  91052101.177 7        43.600    21869120.781 7  91052097.173 7        43.500
R06  21454991.141 5 114488006.710 5        35.300    21454992.156 5 114487933.710 5        34.000
G24  25571560.336 4                        29.600
G22  21137980.984 7 111080837.013 7        47.600    21137996.531 6  86556544.132 6        38.800
G20  21793194.039 7 114524033.222 7        45.900    21793212.695 5  89239590.650 5        34.600
E33  25240017.289 7 132637188.409 7        44.600    25240035.293 7  99047312.772 7        46.800    25240030.766 7 101631139.380 7        46.900    25240033.191 8 100339180.684 8        53.300
E31  23389880.008 8 122914650.685 8        49.600    23389899.000 8  91786908.112 8        51.300    23389894.449 8  94181326.738 8        51.900    23389896.668 9  92984117.032 9        58.800
E29  27972475.344 6 146996397.532 6        37.300    27972512.992 6 109770205.148 6        39.100    27972505.945 6 112633750.518 6        37.200
E24  25989857.094 7 136577635.736 7        44.500    25989876.453 7 101989795.532 7        45.600    25989871.746 7 104650381.975 7        46.500    25989874.121 8 103320081.361 8        52.300
E23  25574459.883 7 134394684.485 7        45.300    25574485.688 7 100359756.776 7        45.500    25574481.238 7 102977823.319 7        46.900    25574483.316 8 101668789.658 8        52.800
E19  27001036.055 5 141891420.54315        31.700    27001067.668 5 105957994.44615        34.400    27001061.223 5 108722092.29315        33.800
E16  27940187.164 6 146826678.910 6        36.600    27940210.863 6 109643403.020 6        39.800    27940206.309 6 112503644.796 6        40.000
E12  24574105.148 7 129137809.713 7        44.200    24574121.824 7  96434127.821 7        46.900    24574117.762 7  98949791.308 7        47.000    24574119.637 8  97691966.672 8        53.400
E10  25650983.891 7 134796857.188 7        45.500    25651008.813 7 100660079.216 7        47.300    25651003.824 7 103285987.452 7        47.100    25651006.023 8 101973034.943 8        53.600
E04  28766235.805 6 151167588.779 6        36.500    28766269.035 6 112885013.548 6        36.400    28766262.758 6 115829824.494 6        37.900
G19  20894242.453 7 109799992.307 7        46.300    20894253.840 6  85558475.933 6        37.900
G17  22065419.555 7 115954557.833 7        44.500    22065436.320 6  90354260.169 6        41.300    22065436.566 7  90354194.170 7        45.200
G14  22131900.711 7 116303907.675 7        42.900    22131920.977 5  90626495.340 5        31.900    22131920.965 7  90626414.340 7        46.100    22131931.117 8  86850309.826 8        48.300
G12  24219483.930 6 127274247.100 6        37.400    24219501.902 4  99174829.948 4        28.300    24219501.641 6  99174831.943 6        36.200
G11  21978906.133 7 115499955.637 7        46.400    21978923.055 5  90000034.189 5        34.600    21978922.980 7  89999967.184 7        47.900    21978932.219 8  86249966.887 8        50.300
G09  23953382.438 5 125875915.559 5        32.400    23953415.410 4  98085264.937 4        24.600    23953415.617 6  98085260.945 6        37.200    23953424.148 7  93998404.387 7        43.900
G06  21366234.227 7 112280325.930 7        46.100    21366250.375 7  87491225.600 7        47.600    21366250.754 8  87491157.594 8        48.500    21366255.832 8  83845689.025 8        51.600
G05  25231681.781 5 132593418.752 5        34.400    25231707.996 4 103319646.334 4        24.000    25231708.387 6 103319651.333 6        36.300
G04  25266434.094 4 132775997.557 4        29.400                                                    25266460.578 5 103461983.014 5        35.300    25266470.344 6  99151106.415 6        36.800
R08  24599187.039 6 131727530.765 6        39.200    24599185.699 6 131727481.789 6        37.800    24599212.492 6 102454846.325 6        38.200    24599211.906 6 102454841.337 6        37.000
C30  24148332.547 6 125746695.382 6        41.300
C13  36665869.992 7 190928817.259 7        46.000    36665883.883 7 147638233.954 7        45.800
C06  40125264.430 5 208942783.056 5        34.400    40125280.223 5 161567873.650 5        35.100
C05  38595455.688 5 200976674.169 5        35.800    38595470.715 6 155407980.708 6        39.500
C04  39243550.898 5 204351483.873 5        35.200    39243566.613 6 158017592.873 6        39.000
C03  36101141.617 7 187988126.037 7        44.100    36101148.305 7 145364373.405 7        46.200
C02  36742366.266 6 191327153.921 6        40.200    36742373.379 7 147946321.594 7        45.600
C01  37926906.016 6 197495354.842 6        40.200    37926918.508 6 152715991.069 6        41.800
S27  38821592.938 6 204008851.219 6        40.000    38821610.344 7 152344303.331 7        42.300
S29  36527832.063 7 191955058.602 7        46.200
S37  36807699.359 6 193425765.730 6        41.800
> 2025  3 13  8 51  9.0000000  0 42       0.000200600000
R23  24032119.008 6 128555705.209 6        38.200    24032119.141 6 128555657.221 6        36.000
R22  21668246.570 7 115666597.768 7        47.400    21668247.520 7 115666550.771 7        46.400    21668262.055 7  89962885.083 7        42.800    21668263.047 7  89962882.093 7        42.300
R21  22071752.477 7 118110402.031 7        46.600    22071751.887 7 118110373.034 7        45.100    22071767.945 7  91863626.858 7        44.000    22071768.188 7  91863623.860 7        43.500
R12  21378387.609 8 114199519.125 8        49.100    21378387.719 8 114199487.130 8        48.000    21378404.629 7  88821828.772 7        46.400    21378404.609 7  88821825.768 7        44.800
R11  20425293.617 8 109146559.389 8        52.000    20425293.832 8 109146526.393 8        50.300    20425310.266 8  84891742.805 8        49.300    20425310.641 8  84891738.802 8        48.200
R10  23579072.047 5 125689704.456 5        35.700    23579071.922 5 125689665.459 5        34.000
R07  21868496.352 7 117063790.349 7        45.900    21868495.707 7 117063749.361 7        44.000    21868518.324 7  91049596.459 7        44.000    21868518.617 7  91049592.457 7        43.800
R06  21454868.133 5 114487350.746 5        35.500    21454869.188 5 114487277.762 5        33.900
G24  25571785.453 4 134380639.688 4        29.600    25571819.855 3 104712287.17913        19.300    25571820.418 5 104712283.17115        34.000    25571829.977 6 100349305.56916        39.900
G22  21138321.992 8 111082627.450 8        48.100    21138337.539 6  86557939.274 6        39.000
G20  21792705.055 7 114521461.229 7        46.000    21792722.887 5  89237586.506 5        33.700
E33  25240335.523 7 132638860.795 7        44.300    25240353.402 7  99048561.633 7        46.900    25240349.117 7 101632420.818 7        47.100    25240351.355 8 100340445.834 8        53.300
E31  23389946.531 8 122914999.801 8        49.500    23389965.375 8  91787168.817 8        51.300    23389961.000 8  94181594.242 8        51.900    23389963.164 9  92984381.138 9        58.800
E29  27972263.297 6 146995283.903 6        36.400    27972301.047 6 109769373.566 6        38.500    27972294.117 6 112632897.237 6        37.200
E24  25989460.727 7 136575553.405 7        44.600    25989480.441 7 101988240.552 7        45.700    25989475.676 7 104648786.431 7        46.900    25989478.004 8 103318506.099 8        52.400
E23  25574943.680 7 134397227.786 7        45.300    25574969.719 7 100361655.992 7        45.600    25574965.215 7 102979772.079 7        46.900    25574967.254 8 101670713.646 8        52.800
E19  27000689.664 5 141889601.645 5        31.100    27000721.484 5 105956636.182 5        34.600    27000714.973 5 108720698.595 5        34.600
E16  27939675.727 6 146823993.852 6        36.500    27939699.977 6 109641397.949 6        39.700    27939695.500 6 112501587.419 6        40.100
E12  24574125.742 7 129137917.590 7        44.700    24574142.387 7  96434208.384 7        47.000    24574138.152 7  98949873.973 7        47.300    24574140.117 8  97692048.286 8        53.500
E10  25650855.125 7 134796180.038 7        45.600    25650879.930 7 100659573.564 7        47.200    25650874.949 7 103285468.607 7        46.800    25650877.184 8 101972522.694 8        53.500
E04  28765974.469 6 151166216.657 6        36.100    28766008.168 6 112883988.917 6        37.100    28766001.488 6 115828773.133 6        37.900
G19  20894128.219 7 109799394.566 7        46.100    20894140.355 6  85558010.161 6        37.600
G17  22065506.344 7 115955014.857 7        44.100    22065523.578 6  90354616.288 6        41.000    22065523.688 7  90354550.289 7        45.200
G14  22132510.781 7 116307115.173 7        43.100    22132531.137 5  90628994.687 5        31.300    22132531.105 7  90628913.683 7        46.000    22132541.281 8  86852705.032 8        48.500
G12  24218860.711 6 127270966.646 6        37.400    24218877.566 4  99172273.758 4        27.900    24218877.289 6  99172275.755 6        36.200
G11  21978799.656 7 115499396.914 7        46.100    21978816.543 5  89999598.830 5        34.900    21978816.305 7  89999531.823 7        47.700    21978825.543 8  86249549.667 8        50.400
G09  23953156.320 5                        32.300
G06  21366406.742 7 112281234.540 7        46.000    21366423.262 7  87491933.610 7        47.600    21366423.605 8  87491865.605 8        48.200    21366428.750 8  83846367.535 8        51.700
G05  25230975.297 5 132589709.418 5        33.700    25231002.621 3 103316755.951 3        22.000    25231002.949 6 103316760.946 6        36.500
G04  25266385.922 4                        28.600
R08  24598493.289 6 131723819.249 6        40.600    24598492.516 6 131723770.269 6        39.600    24598518.875 6 102451959.607 6        38.400    24598518.770 6 102451954.616 6        38.100
C30  24148518.133 6 125747662.024 6        41.600
C13  36665738.164 7 190928129.220 7        46.800    36665751.758 7 147637701.920 7        45.600
C06  40125497.008 5 208943988.018 5        34.300    40125511.492 5 161568805.405 5        35.200
C05  38595454.352 6 200976667.163 6        36.000    38595469.375 6 155407975.296 6        40.000
C04  39243543.570 5 204351444.987 5        35.500    39243559.293 6 158017562.806 6        39.200
C03  36101137.250 7 187988104.206 7        44.200    36101144.164 7 145364356.527 7        46.600
C02  36742359.234 6 191327115.695 6        40.400    36742366.172 7 147946292.038 7        45.800
C01  37926902.602 6 197495336.938 6        40.500    37926914.938 7 152715977.227 7        42.200
S27  38821594.422 6 204008859.143 6        40.100    38821611.535 7 152344309.293 7        42.300
S29  36527833.047 7 191955060.340 7        46.400
S37  36807701.688 7 193425769.326 7        42.100
> 2025  3 13  8 51 10.0000000  0 42       0.000200600000
R23  24031886.008 6 128554459.745 6        38.900    24031886.352 6 128554411.755 6        36.000
R22  21668203.625 7 115666368.678 7        47.200    21668204.777 7 115666321.681 7        46.400    21668219.496 7  89962706.910 7        42.800    21668220.371 7  89962703.921 7        42.200
R21  22071969.313 7 118111565.624 7        46.400    22071969.129 7 118111536.627 7        45.200    22071984.828 7  91864531.876 7        44.300    22071985.500 7  91864528.876 7        43.500
R12  21378075.992 8 114197854.994 8        49.000    21378076.238 7 114197822.999 7        47.700    21378093.164 7  88820534.449 7        46.400    21378093.051 7  88820531.448 7        44.500
R11  20425777.516 8 109149145.173 8        51.800    20425777.813 8 109149112.181 8        50.000    20425794.277 8  84893753.968 8        49.300    20425794.402 8  84893749.965 8        48.400
R10  23579859.844 5 125693910.660 5        35.800    23579860.855 5 125693871.669 5        34.700
R07  21867894.859 7 117060570.217 7        45.500    21867894.391 7 117060529.232 7        44.100    21867916.723 7  91047091.911 7        43.900    21867917.203 7  91047087.916 7        43.700
R06  21454746.938 5 114486695.513 5        35.000    21454746.645 5 114486622.518 5        34.600
G24  25572008.766 4 134381816.883 4        28.300    25572044.180 3 104713204.475 3        19.300    25572044.828 5 104713200.471 5        33.700    25572054.145 6 100350184.643 6        39.800
G22  21138663.266 8 111084418.354 8        48.100    21138678.215 6  86559334.780 6        39.200
G20  21792215.734 7 114518889.627 7        45.900    21792233.711 5  89235582.670 5        34.500
E33  25240653.727 7 132640533.131 7        44.700    25240671.691 7  99049810.454 7        47.000    25240667.438 7 101633702.219 7        47.100    25240669.633 8 100341710.946 8        53.300
E31  23390012.969 8 122915349.351 8        49.500    23390031.953 8  91787429.845 8        51.300    23390027.539 8  94181862.081 8        51.900    23390029.711 9  92984645.572 9        58.800
E29  27972051.313 6 146994170.463 6        36.500    27972089.199 6 109768542.125 6        37.700    27972082.371 6 112632044.101 6        37.200
E24  25989064.508 7 136573471.312 7        44.600    25989084.008 7 101986685.751 7        45.600    25989079.242 7 104647191.068 7        46.400    25989081.602 8 103316931.018 8        52.300
E23  25575427.805 7 134399771.298 7        45.100    25575453.773 7 100363555.366 7        45.900    25575449.207 7 102981721.002 7        47.000    25575451.258 8 101672637.793 8        52.700
E19  27000343.594 5 141887782.650 5        31.800    27000375.215 5 105955277.847 5        35.000    27000368.715 5 108719304.823 5        34.700
E16  27939164.750 6 146821308.886 6        36.900    27939189.082 6 109639392.946 6        39.500    27939184.449 6 112499530.110 6        40.000
E12  24574146.367 7 129138025.617 7        44.900    24574162.789 7  96434289.061 7        47.000    24574158.742 7  98949956.753 7        47.000    24574160.648 8  97692130.015 8        53.400
E10  25650726.250 7 134795503.067 7        45.400    25650750.980 7 100659068.045 7        46.900    25650746.098 7 103284949.897 7        47.100    25650748.336 8 101972010.579 8        53.600
E04  28765713.313 6 151164844.207 6        36.000    28765747.281 6 112882964.044 6        36.400    28765740.078 6 115827721.524 6        37.900
G19  20894014.820 7 109798797.005 7        45.800    20894026.598 6  85557544.532 6        37.500
G17  22065593.477 7 115955472.059 7        44.500    22065610.547 6  90354972.547 6        41.100    22065610.699 7  90354906.546 7        45.500
G14  22133121.477 7 116310322.956 7        43.000    22133141.758 5  90631494.260 5        31.200    22133141.754 7  90631413.251 7        45.900    22133151.777 8  86855100.450 8        48.400
G12  24218236.508 6 127267686.437 6        37.400    24218253.316 4  99169717.766 4        27.500    24218253.086 6  99169719.764 6        36.700
G11  21978693.164 7 115498838.433 7        45.400    21978710.246 5  89999163.659 5        34.900    21978709.949 7  89999096.650 7        47.900    21978719.172 8  86249132.629 8        50.500
G09  23952930.422 5 125873532.184 5        32.300    23952962.258 4  98083407.77814        25.300    23952962.387 6  98083403.78516        37.100    23952971.043 7  93996624.61417        43.900
G06  21366579.766 7 112282143.293 7        46.100    21366596.094 7  87492641.733 7        47.600    21366596.426 8  87492573.728 8        48.000    21366601.621 8  83847046.156 8        51.700
G05  25230269.383 5 132586000.100 5        33.200    25230296.781 3 103313865.577 3        22.900    25230297.105 5 103313870.580 5        35.800
G04  25266337.500 4 132775483.557 4        27.600                                                    25266363.422 5 103461582.51715        35.500    25266372.684 6  99150722.61016        36.500
R08  24597800.789 6 131720107.469 6        41.800    24597799.406 6 131720058.486 6        40.300    24597825.324 6 102449072.636 6        38.100    24597825.789 6 102449067.643 6        38.100
C30  24148703.836 6 125748628.650 6        41.700
C13  36665605.789 7 190927441.358 7        46.700    36665619.777 7 147637170.026 7        45.700
C06  40125727.984 5 208945192.826 5        34.000    40125743.094 5 161569737.039 5        35.200
C05  38595453.039 6 200976660.116 6        36.100    38595468.113 6 155407969.849 6        39.800
C04  39243536.133 5 204351406.104 5        35.400    39243551.676 6 158017532.749 6        38.800
C03  36101133.141 7 187988082.367 7        44.100    36101140.035 7 145364339.642 7        46.600
C02  36742351.883 6 191327077.432 6        40.500    36742358.793 7 147946262.454 7        45.700
C01  37926898.852 6 197495319.005 6        40.400    37926911.367 6 152715963.361 6        41.700
S27  38821595.969 6 204008867.041 6        40.000    38821613.711 7 152344315.184 7        42.400
S29  36527833.141 7 191955062.058 7        46.500
S37  36807702.125 6 193425772.900 6        41.800
> 2025  3 13  8 51 11.0000000  0 42       0.000200598000
R23  24031654.234 6 128553214.302 6        38.700    24031653.227 6 128553166.318 6        36.000
R22  21668161.063 7 115666139.543 7        47.800    21668161.258 7 115666092.550 7        46.300    21668176.020 7  89962528.704 7        42.900    21668177.078 7  89962525.713 7        42.000
R21  22072187.195 7 118112729.018 7        46.100    22072187.359 7 118112700.019 7        45.000    22072203.238 7  91865436.736 7        44.100    22072203.719 7  91865433.737 7        43.600
R12  21377764.078 8 114196191.561 8        49.100    21377764.551 8 114196159.567 8        48.100    21377781.398 7  88819240.672 7        46.500    21377781.469 7  88819237.672 7        44.400
R11  20426261.055 8 109151731.511 8        51.400    20426262.250 8 109151698.516 8        50.100    20426278.441 8  84895765.562 8        49.100    20426278.898 8  84895761.560 8        48.300
R10  23580650.086 5 125698116.770 5        35.700    23580649.676 5 125698077.755 5        35.000
R07  21867293.617 7 117057350.259 7        45.500    21867292.781 7 117057309.268 7        44.000    21867315.047 7  91044587.507 7        43.900    21867315.566 7  91044583.512 7        43.500
R06  21454622.984 5 114486040.966 5        35.400    21454623.973 5 114485967.969 5        34.200
G24  25572234.297 4                        28.300
G22  21139004.219 8 111086209.684 8        48.200    21139018.957 6  86560730.621 6        38.900
G20  21791726.398 7 114516318.376 7        45.700    21791744.262 5  89233579.108 5        34.600
E33  25240972.141 7 132642205.354 7        44.800    25240989.973 7  99051059.194 7        46.200    25240985.574 7 101634983.533 7        46.900    25240987.867 8 100342975.972 8        53.200
E31  23390079.594 8 122915699.275 8        49.800    23390098.406 8  91787691.154 8        51.600    23390094.047 8  94182130.206 8        51.900    23390096.219 9  92984910.289 9        58.900
E29  27971839.414 6 146993057.147 6        36.200    27971877.344 6 109767710.774 6        38.500    27971870.516 6 112631191.061 6        37.200
E24  25988668.531 7 136571389.423 7        44.700    25988687.703 7 101985131.102 7        45.400    25988682.949 7 104645595.865 7        46.200    25988685.355 8 103315356.092 8        52.300
E23  25575911.773 7 134402314.966 7        45.400    25575937.844 7 100365454.856 7        46.000    25575933.328 7 102983670.044 7        47.000    25575935.367 8 101674562.059 8        52.700
E19  26999997.719 5 141885963.570 5        31.300    27000029.313 5 105953919.446 5        34.500    27000022.844 5 108717910.981 5        34.500
E16  27938653.914 6 146818623.955 6        36.800    27938678.281 6 109637387.971 6        39.900    27938673.473 6 112497472.831 6        40.200
E12  24574166.914 7 129138133.756 7        45.100    24574183.441 7  96434369.819 7        46.700    24574179.387 7  98950039.618 7        47.200    24574181.293 8  97692211.827 8        53.400
E10  25650597.594 7 134794826.232 7        45.700    25650622.242 7 100658562.625 7        47.000    25650617.227 7 103284431.292 7        47.400    25650619.445 8 101971498.568 8        53.600
E04  28765451.906 6 151163471.373 6        36.400    28765485.867 6 112881938.888 6        36.400    28765478.617 6 115826669.618 6        38.100
G19  20893900.953 7 109798199.570 7        45.700    20893912.852 6  85557079.000 6        37.400
G17  22065680.070 7 115955929.386 7        44.600    22065697.504 6  90355328.904 6        41.700    22065697.539 7  90355262.903 7        44.700
G14  22133731.578 7 116313530.980 7        43.100    22133752.098 5  90633994.016 5        31.200    22133751.621 7  90633913.008 7        45.800    22133761.984 8  86857496.050 8        48.300
G12  24217612.609 6 127264406.411 6        37.900    24217628.988 4  99167161.911 4        27.700    24217628.902 6  99167163.912 6        36.100
G11  21978586.906 7 115498280.137 7        45.500    21978603.793 5  89998728.631 5        34.700    21978603.738 7  89998661.621 7        47.300    21978612.871 8  86248715.730 8        50.300
G09  23952704.195 5 125872340.849 5        32.800    23952735.551 4  98082479.475 4        24.700    23952735.594 6  98082475.482 6        37.100    23952744.355 7  93995734.989 7        43.900
G06  21366752.992 7 112283052.136 7        46.200    21366769.027 7  87493349.925 7        47.800    21366769.336 8  87493281.918 8        48.000    21366774.531 8  83847724.838 8        51.800
G05  25229563.320 5 132582290.775 5        33.000    25229590.613 3 103310975.222 3        22.600    25229590.852 5 103310980.217 5        35.500
G04  25266288.328 4 132775227.029 4        29.100                                                    25266314.398 5 103461382.628 5        35.000    25266323.816 6  99150531.056 6        36.700
R08  24597108.445 7 131716395.307 7        42.000    24597106.082 6 131716346.315 6        40.800    24597132.176 6 102446185.346 6        38.100    24597132.836 6 102446180.346 6        37.500
C30  24148889.211 6 125749595.214 6        41.700
C13  36665473.805 7 190926753.586 7        46.000    36665487.895 7 147636638.201 7        45.600
C06  40125958.344 5 208946397.444 5        34.200    40125974.047 5 161570668.526 5        35.100
C05  38595451.383 5 200976653.024 5        35.900    38595466.758 6 155407964.370 6        39.700
C04  39243528.734 5 204351367.132 5        35.500    39243544.457 6 158017502.614 6        38.800
C03  36101128.836 7 187988060.462 7        44.000    36101135.820 7 145364322.707 7        46.500
C02  36742344.398 6 191327039.120 6        40.500    36742351.203 7 147946232.833 7        45.700
C01  37926895.617 6 197495301.014 6        40.200    37926907.992 7 152715949.450 7        42.000
S27  38821597.859 6 204008874.923 6        40.200    38821614.434 7 152344321.034 7        42.000
S29  36527833.844 7 191955063.712 7        46.800
S37  36807703.766 7 193425776.408 7        42.100
> 2025  3 13  8 51 12.0000000  0 42       0.000200598000
R23  24031420.297 6 128551968.949 6        38.700    24031420.871 6 128551920.945 6        36.000
R22  21668118.227 7 115665910.435 7        47.700    21668118.836 7 115665863.441 7        46.700    21668133.859 7  89962350.518 7        42.600    21668134.441 7  89962347.525 7        42.300
R21  22072404.391 7 118113892.293 7        45.900    22072404.238 7 118113863.300 7        45.400    22072419.973 7  91866341.512 7        43.900    22072420.680 7  91866338.509 7        43.500
R12  21377453.094 8 114194528.920 8        48.700    21377453.332 7 114194496.920 7        47.800    21377470.063 7  88817947.515 7        46.000    21377470.309 7  88817944.512 7        44.700
R11  20426745.242 8 109154318.474 8        51.900    20426746.020 8 109154285.476 8        50.000    20426762.391 8  84897777.642 8        49.000    20426762.723 8  84897773.640 8        48.300
R10  23581439.133 6 125702322.795 6        36.200    23581438.941 5 125702283.794 5        34.800
R07  21866691.930 7 117054130.567 7        46.000    21866691.762 7 117054089.574 7        44.100    21866713.789 7  91042083.312 7        44.200    21866714.281 7  91042079.314 7        43.700
R06  21454501.539 5 114485387.183 5        35.400    21454501.621 5 114485314.181 5        34.400
G24  25572458.563 4 134384171.902 4        29.400    25572492.410 3 104715039.53413        19.900    25572492.773 5 104715035.54415        34.300    25572502.379 6 100351943.24616        39.700
G22  21139345.492 8 111088001.518 8        48.300    21139360.039 6  86562126.855 6        39.100
G20  21791236.906 7 114513747.529 7        46.100    21791255.266 5  89231575.856 5        34.100
E33  25241290.344 7 132643877.550 7        44.400    25241308.172 7  99052307.914 7        46.600    25241303.746 7 101636264.829 7        47.100    25241306.055 8 100344240.982 8        53.300
E31  23390146.289 8 122916049.646 8        49.800    23390165.266 8  91787952.794 8        51.600    23390160.965 8  94182398.672 8        52.100    23390163.125 9  92985175.342 9        58.800
E29  27971627.477 6 146991944.029 6        36.700    27971665.371 6 109766879.573 6        38.500    27971658.707 6 112630338.174 6        37.500
E24  25988272.453 7 136569307.808 7        44.600    25988291.656 7 101983576.658 7        45.500    25988286.879 7 104644000.869 7        46.600    25988289.328 8 103313781.373 8        52.400
E23  25576395.570 7 134404858.864 7        45.500    25576421.863 7 100367354.517 7        46.000    25576417.391 7 102985619.263 7        47.000    25576419.418 8 101676486.496 8        52.800
E19  26999651.320 5 141884144.427 5        32.900    26999683.012 5 105952561.004 5        34.900    26999676.453 5 108716517.10615        34.400
E16  27938143.008 6 146815939.139 6        37.100    27938167.523 6 109635383.081 6        39.700    27938162.402 6 112495415.639 6        40.200
E12  24574187.555 7 129138242.058 7        44.900    24574204.051 7  96434450.699 7        46.800    24574200.078 7  98950122.607 7        47.600    24574201.992 8  97692293.761 8        53.500
E10  25650468.672 7 134794149.597 7        46.000    25650493.605 7 100658057.355 7        47.000    25650488.551 7 103283912.841 7        47.700    25650490.773 8 101970986.708 8        53.600
E04  28765191.063 6 151162098.205 6        36.000    28765224.547 6 112880913.479 6        36.400    28765217.359 6 115825617.457 6        37.200
G19  20893787.531 7 109797602.340 7        45.700    20893799.137 6  85556613.630 6        37.400
G17  22065767.313 7 115956386.916 7        44.500    22065784.441 6  90355685.420 6        41.800    22065784.434 7  90355619.416 7        45.100
G14  22134341.656 7 116316739.304 7        43.100    22134362.625 5  90636494.009 5        31.000    22134362.074 7  90636413.000 7        45.600    22134372.539 8  86859891.875 8        48.600
G12  24216988.383 6 127261126.657 6        37.900    24217004.844 4  99164606.257 4        28.900    24217004.742 6  99164608.267 6        36.400
G11  21978480.742 7 115497722.106 7        45.800    21978497.719 5  89998293.811 5        34.000    21978497.754 7  89998226.800 7        47.600    21978506.758 8  86248299.030 8        50.300
G09  23952478.102 5 125871149.793 5        33.000    23952508.824 4  98081551.387 4        26.200    23952509.016 6  98081547.394 6        37.100    23952517.652 7  93994845.574 7        44.000
G06  21366925.664 7 112283961.139 7        46.300    21366942.270 7  87494058.242 7        47.800    21366942.617 8  87493990.235 8        48.200    21366947.688 8  83848403.643 8        51.700
G05  25228857.461 5 132578581.479 5        33.100    25228884.762 3 103308084.884 3        22.600    25228884.930 5 103308089.873 5        35.100
G04  25266239.906 4 132774970.896 4        28.600                                                    25266265.168 5 103461183.053 5        35.100    25266275.000 6  99150339.802 6        36.500
R08  24596414.680 6 131712682.806 6        41.300    24596412.715 6 131712633.819 6        40.600    24596438.996 6 102443297.809 6        37.900    24596439.484 6 102443292.806 6        37.100
C30  24149074.984 7 125750561.778 7        42.100
C13  36665341.648 7 190926066.010 7        45.900    36665355.914 7 147636106.529 7        45.500
C06  40126190.102 5 208947601.915 5        34.600    40126205.457 5 161571599.899 5        35.600
C05  38595450.305 6 200976645.923 6        36.100    38595465.285 6 155407958.883 6        39.700
C04  39243520.922 5 204351328.167 5        35.600    39243536.996 6 158017472.485 6        39.200
C03  36101124.734 7 187988038.556 7        44.300    36101131.680 7 145364305.773 7        46.600
C02  36742337.313 6 191327000.797 6        40.600    36742344.070 7 147946203.203 7        45.500
C01  37926891.859 6 197495283.027 6        40.400    37926904.285 7 152715935.543 7        42.000
S27  38821598.484 6 204008882.799 6        40.600    38821616.344 7 152344326.899 7        42.400
S29  36527835.328 7 191955065.363 7        46.800
S37  36807701.563 6 193425779.921 6        41.800
> 2025  3 13  8 51 13.0000000  0 42       0.000200598000
R23  24031187.805 6 128550723.764 6        38.600    24031187.441 6 128550675.757 6        36.600
R22  21668075.773 7 115665681.445 7        47.600    21668075.867 7 115665634.451 7        46.400    21668091.188 7  89962172.423 7        42.600    21668091.598 7  89962169.431 7        42.600
R21  22072621.539 7 118115055.536 7        46.000    22072621.430 7 118115026.552 7        45.000    22072637.371 7  91867246.263 7        44.000    22072638.051 7  91867243.260 7        43.500
R12  21377141.734 8 114192867.170 8        48.900    21377142.645 7 114192835.174 7        47.800    21377159.281 7  88816655.048 7        45.900    21377159.527 7  88816652.042 7        44.900
R11  20427229.844 8 109156906.158 8        51.800    20427230.406 8 109156873.163 8        49.800    20427246.602 8  84899790.281 8        48.900    20427246.957 7  84899786.278 7        47.800
R10  23582228.109 6 125706528.856 6        36.500    23582227.902 5 125706489.865 5        35.000
R07  21866089.703 7 117050911.232 7        45.600    21866090.184 7 117050870.242 7        44.000    21866112.117 7  91039579.393 7        44.100    21866112.598 7  91039575.391 7        43.500
R06  21454379.164 5 114484734.243 5        35.600    21454378.797 5 114484661.233 5        33.900
G24  25572682.508 5 134385349.826 5        30.500    25572716.406 3 104715957.399 3        19.900    25572716.680 5 104715953.395 5        34.000    25572726.301 6 100352822.857 6        39.200
G22  21139686.414 8 111089793.937 8        48.200    21139701.168 6  86563523.547 6        39.200
G20  21790747.633 7 114511177.191 7        45.800    21790766.008 5  89229573.008 5        34.200
E33  25241608.664 7 132645549.809 7        44.500    25241626.285 7  99053556.681 7        46.000    25241621.992 7 101637546.172 7        47.000    25241624.184 8 100345506.035 8        53.100
E31  23390212.977 8 122916400.552 8        49.800    23390231.914 8  91788214.836 8        51.200    23390227.555 8  94182667.551 8        51.300    23390229.742 9  92985440.801 9        58.700
E29  27971415.813 6 146990831.205 6        36.500    27971453.383 6 109766048.586 6        38.100    27971446.984 6 112629485.508 6        37.600
E24  25987876.391 7 136567226.556 7        44.600    25987895.828 7 101982022.487 7        45.300    25987891.098 7 104642406.151 7        46.100    25987893.445 8 103312206.927 8        52.100
E23  25576879.836 7 134407403.081 7        45.600    25576906.063 7 100369254.416 7        46.100    25576901.613 7 102987568.724 7        46.800    25576903.598 8 101678411.180 8        52.600
E19  26999305.102 5 141882325.267 5        32.500    26999336.777 5 105951202.545 5        34.900    26999330.227 5 108715123.207 5        34.000
E16  27937632.414 6 146813254.532 6        37.200    27937656.727 6 109633378.347 6        39.400    27937651.449 6 112493358.606 6        39.900
E12  24574208.258 7 129138350.613 7        44.700    24574224.699 7  96434531.768 7        46.200    24574220.574 7  98950205.789 7        47.000    24574222.461 8  97692375.886 8        53.300
E10  25650339.938 7 134793473.264 7        45.800    25650364.711 7 100657552.313 7        46.800    25650359.840 7 103283394.622 7        47.500    25650362.055 8 101970475.077 8        53.400
E04  28764929.492 5 151160724.826 5        35.800    28764963.434 5 112879887.909 5        35.800    28764956.242 6 115824565.129 6        36.900
G19  20893673.703 7 109797005.391 7        45.700    20893685.617 6  85556148.478 6        37.500
G17  22065854.805 7 115956844.734 7        44.500    22065871.648 6  90356042.160 6        41.100    22065871.848 7  90355976.156 7        44.900
G14  22134952.078 7 116319948.039 7        42.800    22134973.453 5  90638994.323 5        31.000    22134972.809 7  90638913.316 7        45.400    22134983.539 8  86862288.009 8        48.300
G12  24216363.836 6 127257847.238 6        37.900    24216381.246 4  99162050.867 4        29.000    24216380.848 6  99162052.880 6        36.200
G11  21978374.461 7 115497164.432 7        45.700    21978391.605 5  89997859.268 5        33.900    21978391.559 7  89997792.259 7        47.500    21978400.523 8  86247882.596 8        50.200
G09  23952251.055 5 125869959.114 5        33.500    23952282.164 4  98080623.600 4        24.800    23952282.125 6  98080619.602 6        37.000    23952290.980 7  93993956.442 7        43.700
G06  21367098.570 7 112284870.405 7        46.200    21367115.359 7  87494766.764 7        47.500    21367115.648 8  87494698.760 8        48.200    21367120.738 8  83849082.645 8        51.500
G05  25228151.227 5 132574872.323 5        32.800    25228178.922 3 103305194.636 3        21.800    25228179.105 5 103305199.629 5        34.900
G04  25266191.898 4 132774715.260 4        28.300                                                    25266216.766 5 103460983.860 5        34.800    25266226.809 6  99150148.916 6        37.000
R08  24595720.102 6 131708970.064 6        40.100    24595719.922 6 131708921.089 6        38.400    24595745.715 6 102440410.130 6        37.600    24595746.152 6 102440405.128 6        37.100
C30  24149260.570 6 125751528.439 6        41.700
C13  36665209.828 7 190925378.705 7        45.800    36665223.648 7 147635575.065 7        45.200
C06  40126420.727 5 208948806.358 5        34.300    40126436.824 5 161572531.251 5        35.500
C05  38595448.922 6 200976638.906 6        36.300    38595463.953 6 155407953.462 6        39.400
C04  39243513.984 5 204351289.311 5        35.400    39243529.242 6 158017442.445 6        38.900
C03  36101120.664 7 187988016.745 7        44.300    36101127.344 7 145364288.911 7        46.000
C02  36742330.023 6 191326962.558 6        40.700    36742336.746 7 147946173.635 7        45.100
C01  37926888.711 6 197495265.147 6        40.200    37926901.168 7 152715921.720 7        42.100
S27  38821600.453 6 204008890.757 6        40.000    38821617.945 7 152344332.836 7        42.500
S29  36527834.250 7 191955067.109 7        47.000
S37  36807703.203 6 193425783.525 6        41.700
> 2025  3 13  8 51 14.0000000  0 42       0.000200598000
R23  24030955.133 6 128549478.658 6        38.300    24030954.660 6 128549430.659 6        36.300
R22  21668032.727 7 115665452.486 7        47.200    21668032.418 7 115665405.494 7        46.200    21668047.996 7  89961994.353 7        42.600    21668048.367 7  89961991.363 7        42.700
R21  22072839.453 7 118116218.671 7        45.900    22072838.938 7 118116189.681 7        44.900    22072855.180 7  91868150.929 7        43.900    22072855.680 7  91868147.927 7        43.200
R12  21376830.367 8 114191206.218 8        48.300    21376830.980 7 114191174.220 7        47.500    21376847.594 7  88815363.202 7        45.800    21376848.055 7  88815360.197 7        45.000
R11  20427713.672 8 109159494.447 8        51.000    20427714.750 8 109159461.448 8        49.500    20427730.852 8  84901803.393 8        48.800    20427731.301 7  84901799.390 7        47.900
R10  23583016.906 5 125710734.886 5        35.600    23583017.410 5 125710695.891 5        35.000
R07  21865489.227 7 117047692.179 7        45.500    21865489.098 7 117047651.190 7        43.900    21865510.543 7  91037075.695 7        43.700    21865511.367 7  91037071.694 7        43.500
R06  21454255.695 5 114484082.050 5        35.000    21454256.773 5 114484009.060 5        34.100
G24  25572906.594 4 134386527.936 4        29.900    25572940.898 3 104716875.385 3        20.600    25572941.398 5 104716871.384 5        34.300    25572950.973 6 100353702.591 6        39.200
G22  21140027.297 8 111091586.859 8        48.000    21140042.387 6  86564920.628 6        38.600
G20  21790258.891 7 114508607.262 7        45.800    21790276.750 5  89227570.479 5        33.900
E33  25241926.891 7 132647222.036 7        43.900    25241944.516 7  99054805.424 7        46.100    25241940.137 7 101638827.489 7        47.300    25241942.488 8 100346771.064 8        53.200
E31  23390279.906 8 122916751.899 8        49.500    23390298.699 8  91788477.207 8        51.300    23390294.422 8  94182936.763 8        51.500    23390296.527 9  92985706.594 9        58.800
E29  27971204.008 5 146989718.571 5        35.900    27971241.777 6 109765217.743 6        37.800    27971235.438 6 112628632.992 6        38.000
E24  25987480.297 7 136565145.573 7        44.300    25987499.766 7 101980468.513 7        45.600    25987495.000 7 104640811.639 7        46.400    25987497.340 8 103310632.684 8        52.300
E23  25577364.063 7 134409947.521 7        44.900    25577390.180 7 100371154.481 7        46.100    25577385.660 7 102989518.357 7        46.800    25577387.684 8 101680336.028 8        52.700
E19  26998959.219 5 141880506.045 5        32.600    26998990.723 5 105949844.031 5        35.000    26998984.086 5 108713729.255 5        34.400
E16  27937121.539 6 146810570.032 6        37.200    27937145.691 6 109631373.691 6        39.300    27937140.504 6 112491301.651 6        39.900
E12  24574229.031 7 129138459.332 7        44.000    24574245.223 7  96434612.958 7        46.200    24574241.242 7  98950289.097 7        47.300    24574243.160 8  97692458.138 8        53.300
E10  25650211.250 7 134792797.124 7        45.700    25650236.191 7 100657047.415 7        46.800    25650231.203 7 103282876.551 7        47.300    25650233.410 8 101969963.593 8        53.400
E04  28764668.102 5 151159351.117 5        35.600    28764701.766 6 112878862.089 6        36.000    28764694.621 6 115823512.546 6        37.000
G19  20893560.008 7 109796408.638 7        45.500    20893572.051 6  85555683.476 6        37.100
G17  22065942.297 7 115957302.744 7        44.600    22065958.770 6  90356399.049 6        41.100    22065958.883 7  90356333.045 7        44.500
G14  22135562.477 7 116323157.072 7        42.300    22135583.820 5  90641494.865 5        31.200    22135583.543 7  90641413.859 7        45.500    22135594.020 8  86864684.359 8        48.400
G12  24215739.328 6 127254568.065 6        37.400    24215756.961 4  99159495.675 4        28.300    24215756.480 6  99159497.684 6        36.200
G11  21978268.344 7 115496607.012 7        45.600    21978285.504 5  89997424.922 5        33.400    21978285.426 7  89997357.915 7        47.600    21978294.504 8  86247466.352 8        50.500
G09  23952025.336 5 125868768.717 5        33.300    23952055.832 4  98079696.040 4        25.900    23952055.773 6  98079692.036 6        36.900    23952064.527 7  93993067.525 7        44.000
G06  21367271.859 7 112285779.824 7        46.000    21367288.172 7  87495475.407 7        47.500    21367288.527 7  87495407.400 7        47.900    21367293.707 8  83849761.760 8        51.600
G05  25227446.047 5 132571163.208 5        33.000    25227473.000 3 103302304.416 3        22.900    25227473.074 5 103302309.417 5        35.400
G04  25266144.109 4 132774460.030 4        29.600                                                    25266168.133 5 103460784.989 5        35.200    25266178.102 6  99149958.334 6        36.500
R08  24595026.930 6 131705257.030 6        36.900    24595026.348 5 131705208.042 5        35.200    24595052.383 6 102437522.250 6        36.000    24595052.492 5 102437517.247 5        35.600
C30  24149445.945 6 125752495.102 6        40.600
C13  36665077.852 7 190924691.569 7        44.400    36665091.797 7 147635043.733 7        45.200
C06  40126651.656 5 208950010.684 5        33.100    40126668.051 5 161573462.513 5        35.400
C05  38595447.609 5 200976631.891 5        35.300    38595462.289 6 155407948.041 6        39.800
C04  39243506.172 5 204351250.447 5        34.800    39243521.941 6 158017412.394 6        38.700
C03  36101116.570 7 187987994.933 7        43.100    36101123.430 7 145364272.044 7        46.600
C02  36742322.383 6 191326924.316 6        39.700    36742329.598 7 147946144.065 7        45.400
C01  37926885.266 6 197495247.241 6        39.400    37926898.105 6 152715907.875 6        41.700
S27  38821602.125 6 204008898.699 6        39.800    38821619.453 7 152344338.770 7        42.600
S29  36527834.781 7 191955068.858 7        46.300
S37  36807706.938 6 193425787.123 6        41.800
> 2025  3 13  8 51 15.0000000  0 42       0.000200598000
R23  24030722.875 6 128548233.584 6        37.700    24030721.609 5 128548185.589 5        35.300
R22  21667989.633 7 115665223.493 7        47.000    21667989.617 7 115665176.499 7        46.400    21668005.055 7  89961816.257 7        42.500    21668005.672 7  89961813.268 7        42.400
R21  22073056.516 7 118117381.645 7        46.000    22073056.141 7 118117352.656 7        44.600    22073072.215 7  91869055.465 7        44.400    22073072.684 7  91869052.462 7        43.600
R12  21376519.938 8 114189545.974 8        48.800    21376520.063 7 114189513.977 7        47.900    21376536.410 7  88814071.908 7        45.800    21376537.090 7  88814068.901 7        45.100
R11  20428198.555 8 109162083.319 8        51.600    20428199.352 8 109162050.326 8        50.100    20428215.344 8  84903816.957 8        48.900    20428215.918 7  84903812.953 7        47.800
R10  23583806.445 6 125714940.804 6        36.300    23583806.336 5 125714901.803 5        34.300
R07  21864887.844 7 117044473.334 7        45.800    21864887.820 7 117044432.345 7        44.300    21864909.293 7  91034572.155 7        43.800    21864909.926 7  91034568.155 7        43.200
R06  21454134.070 5 114483430.573 5        35.000    21454134.004 5 114483357.575 5        33.800
G24  25573131.445 4 134387706.194 4        29.900    25573165.086 3 104717793.492 3        19.300    25573165.715 5 104717789.489 5        34.900    25573174.930 6 100354582.440 6        39.500
G22  21140368.398 8 111093380.227 8        48.300    21140383.527 6  86566318.056 6        38.500
G20  21789770.219 7 114506037.692 7        45.900    21789787.645 5  89225568.227 5        34.600
E33  25242244.953 7 132648894.166 7        44.200    25242262.859 7  99056054.092 7        46.200    25242258.555 7 101640108.732 7        47.200    25242260.813 8 100348036.020 8        53.300
E31  23390346.898 8 122917103.636 8        49.800    23390365.648 8  91788739.868 8        51.400    23390361.363 8  94183206.277 8        51.700    23390363.414 9  92985972.680 9        58.800
E29  27970992.367 6 146988606.073 6        36.000    27971030.035 6 109764387.000 6        38.100    27971023.824 6 112627780.578 6        37.600
E24  25987084.250 7 136563064.805 7        44.400    25987103.617 7 101978914.703 7        45.600    25987098.867 7 104639217.293 7        46.700    25987101.266 8 103309058.606 8        52.400
E23  25577848.336 7 134412492.133 7        44.900    25577874.633 7 100373054.675 7        46.500    25577870.047 7 102991468.121 7        46.800    25577872.086 8 101682261.006 8        52.700
E19  26998613.234 5 141878686.700 5        32.000    26998644.461 5 105948485.428 5        35.200    26998637.660 5 108712335.211 5        35.000
E16  27936611.031 6 146807885.595 6        37.100    27936634.648 6 109629369.081 6        39.600    27936629.703 6 112489244.744 6        40.200
E12  24574249.664 7 129138568.169 7        44.300    24574265.910 7  96434694.238 7        46.500    24574262.020 7  98950372.498 7        47.500    24574263.813 8  97692540.477 8        53.500
E10  25650082.570 7 134792121.137 7        45.700    25650107.430 7 100656542.631 7        47.400    25650102.336 7 103282358.598 7        47.600    25650104.664 8 101969452.224 8        53.600
E04  28764406.836 5 151157977.043 5        35.500    28764440.211 5 112877835.998 5        35.800    28764433.172 6 115822459.684 6        37.200
G19  20893446.688 7 109795812.036 7        45.600    20893458.195 6  85555218.595 6        37.600
G17  22066029.547 7 115957760.901 7        44.900    22066046.070 6  90356756.053 6        41.400    22066046.203 7  90356690.050 7        44.700
G14  22136173.586 7 116326366.360 7        42.800    22136194.340 5  90643995.607 5        30.400    22136194.156 7  90643914.604 7        45.900    22136204.711 8  86867080.901 8        48.300
G12  24215115.930 6 127251289.105 6        37.300    24215133.199 4  99156940.657 4        28.900    24215132.949 6  99156942.657 6        36.400
G11  21978163.188 7 115496049.793 7        45.200    21978179.813 5  89996990.731 5        34.600    21978179.629 8  89996923.727 8        48.000    21978188.766 8  86247050.254 8        50.600
G09  23951799.547 5 125867578.556 5        33.600    23951829.414 4  98078768.650 4        26.700    23951829.301 6  98078764.647 6        37.300    23951837.922 7  93992178.778 7        44.000
G06  21367444.789 7 112286689.348 7        46.100    21367461.273 7  87496184.128 7        47.600    21367461.449 8  87496116.121 8        48.000    21367466.742 8  83850440.953 8        51.900
G05  25226740.930 5 132567454.093 5        33.600    25226767.430 3 103299414.186 3        22.600    25226767.391 5 103299419.206 5        35.300
G04  25266095.695 4                        29.400
R08  24594334.602 5 131701543.659 5        33.700    24594332.508 5 131701494.663 5        32.000    24594358.867 5 102434634.123 5        34.000    24594358.965 5 102434629.114 5        33.600
C30  24149631.781 6 125753461.708 6        41.600
C13  36664945.656 7 190924004.570 7        45.000    36664959.773 7 147634512.507 7        45.800
C06  40126883.180 5 208951214.804 5        33.500    40126899.098 5 161574393.613 5        35.400
C05  38595446.078 6 200976624.822 6        36.200    38595461.004 6 155407942.581 6        40.000
C04  39243499.102 5 204351211.533 5        35.500    39243514.344 6 158017382.304 6        38.700
C03  36101112.281 7 187987973.080 7        43.900    36101119.004 7 145364255.143 7        46.500
C02  36742314.914 6 191326886.016 6        40.300    36742321.926 7 147946114.455 7        45.700
C01  37926881.336 6 197495229.296 6        40.000    37926894.504 7 152715894.000 7        42.000
S27  38821603.688 6 204008906.633 6        39.900    38821620.906 7 152344344.729 7        42.700
S29  36527835.891 7 191955070.553 7        46.400
S37  36807703.719 7 193425790.677 7        42.000
> 2025  3 13  8 51 16.0000000  0 42       0.000200598000
R23  24030489.297 6 128546988.623 6        37.600    24030488.844 5 128546940.630 5        35.400
R22  21667946.805 7 115664994.557 7        47.200    21667946.637 7 115664947.562 7        46.000    21667961.832 7  89961638.204 7        42.300    21667962.324 7  89961635.215 7        42.700
R21  22073273.844 7 118118544.563 7        45.900    22073273.477 7 118118515.565 7        44.900    22073289.566 7  91869959.953 7        44.600    22073290.055 7  91869956.950 7        43.600
R12  21376209.117 8 114187886.512 8        49.100    21376209.512 7 114187854.512 7        47.700    21376226.098 7  88812781.218 7        45.900    21376226.590 7  88812778.211 7        45.100
R11  20428683.000 8 109164672.851 8        51.300    20428683.773 8 109164639.857 8        50.000    20428700.102 8  84905831.033 8        48.900    20428700.301 7  84905827.029 7        47.700
R10  23584596.539 6 125719146.701 6        36.700    23584595.020 5 125719107.713 5        34.700
R07  21864286.391 7 117041254.774 7        45.900    21864286.707 7 117041213.785 7        44.500    21864308.219 7  91032068.834 7        44.000    21864308.746 7  91032064.837 7        42.700
R06  21454012.531 5 114482779.874 5        34.900    21454012.898 5 114482706.885 5        34.500
G24  25573354.227 4 134388884.694 4        29.400    25573389.621 3 104718711.792 3        19.300    25573390.285 5 104718707.788 5        35.300    25573399.203 6 100355462.475 6        39.600
G22  21140709.867 8 111095174.118 8        48.200    21140725.070 6  86567715.892 6        38.800
G20  21789280.906 7 114503468.560 7        45.500    21789299.293 5  89223566.315 5        34.500
E33  25242563.273 7 132650566.295 7        44.000    25242581.180 7  99057302.762 7        46.400    25242576.750 7 101641389.976 7        47.100    25242578.988 8 100349300.977 8        53.300
E31  23390413.922 8 122917455.851 8        49.800    23390432.793 8  91789002.887 8        51.500    23390428.465 8  94183476.157 8        51.500    23390430.594 9  92986239.131 9        58.800
E29  27970781.008 6 146987493.802 6        36.400    27970818.254 6 109763556.431 6        38.000    27970812.016 6 112626928.337 6        37.500
E24  25986688.242 7 136560984.346 7        44.300    25986707.793 7 101977361.121 7        46.000    25986703.121 7 104637623.184 7        46.500    25986705.480 8 103307484.760 8        52.400
E23  25578332.609 7 134415036.995 7        44.900    25578358.820 7 100374955.056 7        46.000    25578354.277 7 102993418.078 7        46.700    25578356.273 8 101684186.176 8        52.700
E19  26998266.664 5 141876867.309 5        32.300    26998298.309 5 105947126.793 5        35.100    26998291.422 5 108710941.131 5        34.900
E16  27936100.172 6 146805201.302 6        37.300    27936123.699 6 109627364.573 6        39.200    27936118.871 6 112487187.949 6        40.500
E12  24574270.367 7 129138677.189 7        44.600    24574286.668 7  96434775.657 7        46.300    24574282.633 7  98950456.039 7        47.400    24574284.543 8  97692622.956 8        53.400
E10  25649953.906 7 134791445.382 7        46.000    25649978.734 7 100656038.020 7        47.400    25649973.793 7 103281840.822 7        47.400    25649976.055 8 101968941.029 8        53.500
E04  28764145.266 5 151156602.678 5        35.600    28764178.730 6 112876809.690 6        36.100    28764171.773 6 115821406.600 6        37.600
G19  20893333.188 7 109795215.652 7        45.600    20893344.891 6  85554753.881 6        37.400
G17  22066116.727 7 115958219.277 7        45.500    22066133.074 6  90357113.225 6        41.400    22066133.156 7  90357047.221 7        44.200
G14  22136784.266 7 116329575.984 7        42.400    22136805.063 5  90646496.600 5        31.200    22136804.855 7  90646415.599 7        45.800    22136815.309 8  86869477.689 8        48.300
G12  24214491.781 6 127248010.420 6        37.600    24214509.102 4  99154385.848 4        28.500    24214509.047 6  99154387.848 6        36.700
G11  21978056.688 7 115495492.867 7        45.200    21978073.523 5  89996556.774 5        34.700    21978073.563 7  89996489.768 7        47.900    21978082.555 8  86246634.378 8        50.300
G09  23951572.117 5 125866388.703 5        33.400    23951603.098 4  98077841.498 4        24.400    23951603.063 6  98077837.499 6        37.200    23951611.828 7  93991290.264 7        44.200
G06  21367618.125 7 112287599.055 7        46.200    21367634.215 7  87496892.993 7        47.600    21367634.754 8  87496824.987 8        48.200    21367639.715 8  83851120.283 8        52.200
G05  25226035.273 5 132563745.065 5        33.500    25226061.438 3 103296524.041 3        22.600    25226061.582 5 103296529.067 5        34.900
G04  25266046.148 4 132773950.565 4        29.100                                                    25266071.352 5 103460388.01315        35.500    25266081.203 6  99149577.90616        36.900
R08  24593640.898 4 131697829.969 4        29.600    24593639.004 4 131697780.92814        28.300    24593664.961 5 102431745.757 5        32.100    24593665.496 5 102431740.748 5        32.000
C30  24149817.438 6 125754428.353 6        41.900
C13  36664813.984 7 190923317.751 7        45.400    36664828.031 7 147633981.422 7        45.300
C06  40127114.109 5 208952418.820 5        33.900    40127130.398 5 161575324.630 5        35.100
C05  38595444.766 6 200976617.795 6        36.300    38595459.660 6 155407937.154 6        40.000
C04  39243491.305 5 204351172.618 5        35.300    39243506.859 6 158017352.216 6        38.900
C03  36101108.047 7 187987951.245 7        43.900    36101114.832 7 145364238.257 7        46.300
C02  36742307.992 6 191326847.750 6        40.300    36742314.305 7 147946084.871 7        45.400
C01  37926878.180 6 197495211.372 6        40.000    37926890.777 7 152715880.141 7        42.200
S27  38821605.063 6 204008914.565 6        39.900    38821622.660 7 152344350.693 7        42.500
S29  36527834.625 7 191955072.273 7        46.100
S37  36807705.063 7 193425794.251 7        42.000
> 2025  3 13  8 51 17.0000000  0 41       0.000200596000
R23  24030257.102 6 128545743.740 6        37.600    24030256.754 6 128545695.756 6        36.100
R22  21667903.516 7 115664765.645 7        47.300    21667904.172 7 115664718.646 7        46.300    21667919.145 7  89961460.168 7        42.500    21667920.059 7  89961457.176 7        42.500
R21  22073491.656 7 118119707.361 7        46.400    22073490.641 7 118119678.363 7        44.600    22073506.734 7  91870864.347 7        44.200    22073507.379 7  91870861.342 7        43.300
R12  21375898.625 8 114186227.806 8        49.100    21375899.066 7 114186195.809 7        47.400    21375915.281 7  88811491.117 7        46.300    21375915.879 7  88811488.110 7        45.200
R11  20429168.297 8 109167262.998 8        51.700    20429168.422 8 109167230.005 8        50.100    20429184.926 8  84907845.590 8        49.000    20429185.238 7  84907841.586 7        47.300
R10  23585385.055 6 125723352.552 6        36.300    23585384.633 5 125723313.551 5        35.100
R07  21863685.703 7 117038036.474 7        46.000    21863685.500 7 117037995.488 7        44.500    21863707.176 7  91029565.720 7        44.400    21863707.703 7  91029561.723 7        43.200
R06  21453890.336 5 114482129.934 5        34.900    21453890.801 5 114482056.943 5        34.600
G24  25573579.063 4 134390063.387 4        29.100    25573614.129 3 104719630.257 3        19.900    25573614.676 5 104719626.248 5        35.000    25573623.359 6 100356342.661 6        39.400
G22  21141051.305 8 111096968.501 8        48.100    21141066.320 6  86569114.106 6        38.800
G20  21788792.008 7 114500899.829 7        45.500    21788810.516 5  89221564.711 5        34.800
E33  25242881.461 7 132652238.378 7        44.300    25242899.176 7  99058551.396 7        46.300    25242894.848 7 101642671.181 7        47.100    25242897.082 8 100350565.898 8        53.300
E31  23390481.055 8 122917808.504 8        49.900    23390499.707 8  91789266.232 8        51.400    23390495.367 8  94183746.375 8        51.900    23390497.535 9  92986505.913 9        58.800
E29  27970569.133 5 146986381.724 5        35.900    27970606.574 6 109762726.004 6        38.300    27970600.426 6 112626076.245 6        37.500
E24  25986292.445 7 136558904.157 7        44.400    25986311.793 7 101975807.741 7        45.800    25986307.070 7 104636029.280 7        46.300    25986309.492 8 103305911.119 8        52.400
E23  25578816.891 7 134417582.086 7        44.700    25578843.145 7 100376855.608 7        46.000    25578838.613 7 102995368.210 7        46.500    25578840.602 8 101686111.518 8        52.700
E19  26997920.516 5 141875047.833 5        32.500    26997952.059 5 105945768.099 5        35.400    26997945.254 5 108709546.991 5        34.900
E16  27935589.391 6 146802517.109 6        37.000    27935612.789 6 109625360.137 6        39.200    27935608.121 6 112485131.226 6        40.000
E12  24574291.250 7 129138786.378 7        45.100    24574307.559 7  96434857.203 7        46.300    24574303.566 7  98950539.710 7        47.700    24574305.355 8  97692705.565 8        53.500
E10  25649825.266 7 134790769.820 7        46.500    25649850.293 7 100655533.553 7        47.500    25649845.352 7 103281323.194 7        47.600    25649847.551 8 101968429.982 8        53.600
E04  28763884.180 5 151155227.994 5        35.600    28763917.105 6 112875783.143 6        36.200    28763910.363 6 115820353.272 6        37.000
G19  20893219.695 7 109794619.463 7        45.700    20893231.531 6  85554289.318 6        37.300
G17  22066204.344 7 115958677.849 7        45.400    22066220.617 6  90357470.550 6        41.600    22066220.449 7  90357404.547 7        44.100
G14  22137395.250 7 116332785.899 7        42.500    22137416.223 5  90648997.825 5        31.200    22137416.008 7  90648916.824 7        45.700    22137426.359 8  86871874.696 8        48.300
G12  24213867.719 6 127244731.992 6        38.000    24213885.332 4  99151831.244 4        28.700    24213885.363 6  99151833.238 6        36.900
G11  21977951.063 7 115494936.200 7        45.100    21977967.555 5  89996123.014 5        35.000    21977967.414 8  89996056.009 8        48.200    21977976.441 8  86246218.694 8        50.300
G09  23951346.539 5                        34.000
G06  21367791.016 7 112288508.923 7        46.100    21367807.578 7  87497601.986 7        47.400    21367808.043 8  87497533.979 8        48.200    21367812.992 8  83851799.734 8        51.900
G05  25225328.945 5 132560036.074 5        33.700    25225355.594 3 103293633.931 3        22.500    25225355.672 5 103293638.950 5        35.200
G04  25265998.195 4                        29.400
R08  24592946.266 5 131694115.985 5        32.900    24592945.531 5 131694066.999 5        31.800    24592971.332 4 102428857.211 4        29.700    24592971.809 4 102428852.198 4        29.300
C30  24150003.266 7 125755394.992 7        42.100
C13  36664682.039 7 190922631.115 7        45.700    36664696.031 7 147633450.474 7        45.600
C06  40127345.953 5 208953622.707 5        33.400    40127361.832 5 161576255.546 5        35.500
C05  38595443.469 6 200976610.754 6        36.300    38595458.504 6 155407931.711 6        40.400
C03  36101103.742 7 187987929.410 7        44.100    36101110.344 7 145364221.372 7        46.200
C02  36742300.820 6 191326809.463 6        40.300    36742307.383 7 147946055.268 7        45.300
C01  37926874.680 6 197495193.447 6        40.200    37926887.590 7 152715866.284 7        42.200
S27  38821606.172 6 204008922.548 6        39.600    38821623.648 7 152344356.656 7        42.300
S29  36527835.516 7 191955073.994 7        46.500
S37  36807707.500 7 193425797.832 7        42.000
> 2025  3 13  8 51 18.0000000  0 41       0.000200596000
R23  24030024.125 6 128544498.940 6        38.100    24030023.844 6 128544450.955 6        36.100
R22  21667860.406 7 115664536.747 7        47.400    21667861.121 7 115664489.747 7        46.300    21667875.949 7  89961282.143 7        42.800    21667876.590 7  89961279.150 7        42.700
R21  22073708.547 7 118120870.024 7        46.700    22073707.863 7 118120841.027 7        44.500    22073723.941 7  91871768.638 7        44.100    22073724.461 7  91871765.632 7        43.600
R12  21375588.688 8 114184569.891 8        49.100    21375589.070 7 114184537.892 7        47.400    21375605.594 7  88810201.632 7        46.300    21375606.035 7  88810198.624 7        45.100
R11  20429652.836 8 109169853.739 8        51.800    20429653.156 8 109169820.749 8        50.000    20429669.605 8  84909860.608 8        49.100    20429669.848 7  84909856.604 7        47.700
R10  23586172.875 6 125727558.333 6        36.800    23586173.492 5 125727519.338 5        35.500
R07  21863084.672 7 117034818.442 7        46.000    21863084.531 7 117034777.456 7        44.500    21863106.367 7  91027062.814 7        44.500    21863106.520 7  91027058.817 7        43.700
R06  21453769.484 5 114481480.744 5        35.400    21453769.340 5 114481407.734 5        34.100
G24  25573802.805 5 134391242.310 5        30.300    25573838.438 3 104720548.891 3        20.100    25573838.902 5 104720544.893 5        35.200    25573847.691 6 100357223.024 6        39.400
G22  21141392.766 8 111098763.367 8        48.200    21141408.086 6  86570512.699 6        38.600
G20  21788303.070 7 114498331.500 7        45.300    21788321.383 5  89219563.424 5        34.700
E33  25243199.508 7 132653910.426 7        44.400    25243217.184 7  99059800.002 7        46.300    25243212.918 7 101643952.363 7        47.400    25243215.125 8 100351830.793 8        53.300
E31  23390548.195 8 122918161.593 8        50.000    23390566.949 8  91789529.905 8        51.300    23390562.629 8  94184016.924 8        51.500    23390564.805 9  92986773.023 9        58.900
E29  27970357.648 6 146985269.829 6        36.800    27970394.820 6 109761895.710 6        38.000    27970388.738 6 112625224.294 6        37.200
E24  25985896.727 7 136556824.225 7        44.200    25985916.246 7 101974254.552 7        45.800    25985911.449 7 104634435.573 7        46.200    25985913.828 8 103304337.671 8        52.500
E23  25579301.188 7 134420127.389 7        44.600    25579327.430 7 100378756.318 7        46.400    25579322.824 7 102997318.503 7        46.600    25579324.945 8 101688037.020 8        52.800
E19  26997573.781 5 141873228.263 5        32.600    26997605.809 5 105944409.334 5        35.600    26997599.078 5 108708152.776 5        34.600
E16  27935078.805 6 146799833.022 6        36.800    27935101.992 6 109623355.782 6        39.100    27935097.418 6 112483074.584 6        39.900
E12  24574311.977 7 129138895.734 7        45.100    24574328.219 7  96434938.871 7        46.200    24574324.242 7  98950623.509 7        47.700    24574326.145 8  97692788.298 8        53.400
E10  25649696.953 7 134790094.448 7        46.400    25649721.832 7 100655029.225 7        47.200    25649716.848 7 103280805.710 7        47.600    25649719.105 8 101967919.076 8        53.700
E04  28763622.742 5 151153852.965 5        35.400    28763655.492 6 112874756.339 6        36.200    28763648.855 6 115819299.684 6        36.900
G19  20893106.086 7 109794023.463 7        45.600    20893118.086 6  85553824.905 6        37.400
G17  22066291.289 7 115959136.603 7        45.300    22066307.785 6  90357828.016 6        41.700    22066307.730 7  90357762.013 7        44.500
G14  22138006.102 7 116335996.108 7        42.600    22138027.078 5  90651499.284 5        32.400    22138026.906 7  90651418.281 7        45.800    22138037.250 8  86874271.926 8        48.500
G12  24213244.344 6 127241453.817 6        37.800    24213261.418 4  99149276.829 4        28.200    24213261.406 6  99149278.822 6        37.000
G11  21977845.250 7 115494379.771 7        45.100    21977862.035 5  89995689.443 5        35.100    21977861.633 7  89995622.437 7        47.900    21977870.750 8  86245803.188 8        50.400
G09  23951120.516 5 125864009.845 5        33.600    23951149.684 4  98075987.85214        27.100    23951150.078 6  98075983.85216        37.700    23951158.641 7  93989513.85717        44.400
G06  21367964.258 7 112289418.943 7        46.200    21367980.656 7  87498311.097 7        47.600    21367980.820 8  87498243.089 8        48.300    21367985.953 8  83852479.299 8        52.000
G05  25224623.516 5 132556327.119 5        33.800    25224649.848 4 103290743.849 4        24.400    25224649.859 5 103290748.852 5        35.200
G04  25265949.664 4 132773442.740 4        29.600                                                    25265975.211 5 103459992.33915        34.800    25265984.887 6  99149198.71416        36.900
R08  24592252.508 6 131690401.836 6        37.100    24592252.410 5 131690352.856 5        35.500    24592277.605 4 102425968.467 4        28.400    24592278.109 4 102425963.447 4        28.700
C30  24150188.625 6 125756361.624 6        41.600
C13  36664549.953 7 190921944.654 7        45.700    36664564.355 7 147632919.661 7        45.600
C06  40127576.781 5 208954826.446 5        33.700    40127593.105 6 161577186.350 6        36.000
C05  38595441.820 6 200976603.698 6        36.000    38595457.332 6 155407926.258 6        40.600
C03  36101099.445 7 187987907.567 7        43.900    36101106.379 7 145364204.484 7        46.100
C02  36742292.852 6 191326771.184 6        40.400    36742299.969 7 147946025.671 7        45.400
C01  37926871.297 6 197495175.518 6        40.300    37926884.055 7 152715852.426 7        42.000
S27  38821607.984 6 204008930.497 6        40.000    38821625.598 7 152344362.608 7        42.600
S29  36527836.547 7 191955075.701 7        46.200
S37  36807708.516 7 193425801.384 7        42.100
> 2025  3 13  8 51 19.0000000  0 42       0.000200596000
R23  24029791.703 6 128543254.277 6        38.300    24029791.938 6 128543206.291 6        36.200
R22  21667817.961 7 115664307.902 7        47.200    21667818.086 7 115664260.905 7        46.200    21667833.328 7  89961104.159 7        42.500    21667833.875 7  89961101.168 7        42.100
R21  22073924.781 7 118122032.625 7        46.400    22073925.648 7 118122003.623 7        44.100    22073941.875 7  91872672.881 7        44.500    22073942.121 7  91872669.876 7        43.500
R12  21375278.492 8 114182912.831 8        48.800    21375278.613 7 114182880.831 7        47.300    21375295.598 7  88808912.809 7        46.300    21375295.719 7  88808909.804 7        45.000
R11  20430137.672 8 109172445.169 8        51.600    20430138.199 8 109172412.176 8        49.900    20430154.516 8  84911876.164 8        49.100    20430154.984 8  84911872.161 8        48.000
R10  23586962.453 6 125731764.100 6        37.000    23586962.383 5 125731725.102 5        34.900
R07  21862482.570 7 117031600.728 7        45.700    21862483.141 7 117031559.741 7        44.100    21862505.230 7  91024560.155 7        44.300    21862505.305 7  91024556.158 7        43.400
R06  21453646.719 5 114480832.328 5        34.900    21453647.684 5 114480759.342 5        34.300
G24  25574027.344 5 134392421.469 5        30.700    25574062.852 3 104721467.718 3        19.900    25574063.582 5 104721463.705 5        34.800    25574072.246 6 100358103.550 6        38.800
G22  21141734.453 8 111100558.771 8        48.400    21141749.797 6  86571911.715 6        38.600
G20  21787814.570 7 114495763.627 7        45.500    21787832.738 5  89217562.494 5        34.800
E33  25243517.742 7 132655582.473 7        44.400    25243535.559 7  99061048.611 7        46.300    25243531.055 7 101645233.543 7        47.600    25243533.340 8 100353095.684 8        53.200
E31  23390615.570 8 122918515.166 8        49.800    23390634.363 8  91789793.938 8        51.700    23390629.992 8  94184287.845 8        51.900    23390632.129 9  92987040.500 9        58.800
E29  27970146.242 6 146984158.171 6        36.800    27970183.316 6 109761065.597 6        37.500    27970177.105 6 112624372.524 6        37.400
E24  25985500.898 7 136554744.606 7        44.200    25985520.391 7 101972701.600 7        45.900    25985515.613 7 104632842.107 7        46.400    25985518.039 8 103302764.463 8        52.500
E23  25579785.609 7 134422672.961 7        44.600    25579811.840 7 100380657.228 7        46.400    25579807.301 7 102999269.002 7        46.700    25579809.359 8 101689962.725 8        52.900
E19  26997227.781 5 141871408.653 5        32.600    26997259.379 5 105943050.539 5        34.800    26997252.648 5 108706758.536 5        34.300
E16  27934567.688 6 146797149.078 6        36.900    27934591.508 6 109621351.536 6        39.100    27934586.723 6 112481018.057 6        40.100
E12  24574332.734 7 129139005.299 7        45.400    24574349.156 7  96435020.696 7        46.500    24574345.078 7  98950707.468 7        47.700    24574346.984 8  97692871.190 8        53.500
E10  25649568.328 7 134789419.330 7        46.100    25649593.328 7 100654525.091 7        47.200    25649588.375 7 103280288.423 7        47.600    25649590.598 8 101967408.366 8        53.600
E04  28763360.766 5 151152477.655 5        35.300    28763393.559 5 112873729.333 5        35.600    28763387.090 6 115818245.882 6        36.900
G19  20892992.563 7 109793427.690 7        45.500    20893004.680 6  85553360.670 6        37.500
G17  22066379.023 7 115959595.606 7        45.200    22066395.203 7  90358185.679 7        42.100    22066395.160 7  90358119.676 7        44.700
G14  22138616.844 7 116339206.672 7        42.800    22138638.117 5  90654001.022 5        31.800    22138637.809 7  90653920.016 7        45.800    22138648.164 8  86876669.422 8        48.400
G12  24212620.781 6 127238175.935 6        37.900    24212637.715 4  99146722.641 4        27.900    24212637.848 6  99146724.634 6        36.800
G11  21977739.242 7 115493823.653 7        44.900    21977755.816 5  89995256.110 5        34.700    21977755.672 8  89995189.106 8        48.000    21977764.762 8  86245387.913 8        50.400
G09  23950894.445 5 125862820.883 5        33.200    23950923.836 4  98075061.392 4        27.300    23950924.258 6  98075057.393 6        37.600    23950932.789 7  93988626.002 7        44.300
G06  21368137.414 7 112290329.161 7        46.200    21368153.750 7  87499020.360 7        47.600    21368154.000 8  87498952.353 8        48.300    21368159.176 8  83853159.009 8        51.700
G05  25223917.219 5 132552618.220 5        33.700    25223943.918 3 103287853.799 3        22.200    25223943.844 6 103287858.806 6        36.100
G04  25265900.469 4                        29.600
R08  24591559.344 6 131686687.478 6        37.900    24591559.289 6 131686638.488 6        36.100    24591584.047 5 102423079.461 5        31.800    24591584.543 5 102423074.446 5        31.600
C30  24150374.336 6 125757328.297 6        41.300
C13  36664418.320 7 190921258.397 7        44.900    36664432.559 7 147632389.008 7        45.800
C06  40127807.359 5 208956030.093 5        33.400    40127824.250 5 161578117.085 5        35.500
C05  38595440.352 5 200976596.697 5        35.800    38595455.836 6 155407920.849 6        40.600
C04  39243468.828 5 204351056.01315        34.400    39243484.203 6 158017262.09316        38.600
C03  36101095.328 7 187987885.765 7        43.600    36101102.070 7 145364187.629 7        46.100
C02  36742285.383 6 191326732.938 6        39.900    36742292.383 7 147945996.099 7        45.500
C01  37926868.016 6 197495157.624 6        39.700    37926880.367 6 152715838.590 6        41.400
S27  38821610.047 6 204008938.419 6        39.800    38821626.902 7 152344368.526 7        42.400
S29  36527838.563 7 191955077.455 7        46.400
S37  36807711.094 7 193425804.989 7        42.000
> 2025  3 13  8 51 20.0000000  0 42       0.000200596000
R23  24029558.906 6 128542009.692 6        37.900    24029558.133 5 128541961.695 5        35.600
R22  21667775.250 7 115664079.090 7        47.100    21667775.320 7 115664032.094 7        46.500    21667790.754 7  89960926.203 7        42.400    21667791.074 7  89960923.211 7        42.300
R21  22074141.930 7 118123195.126 7        46.000    22074142.398 7 118123166.127 7        43.900    22074158.750 7  91873577.048 7        44.300    22074159.297 7  91873574.044 7        43.600
R12  21374968.086 8 114181256.545 8        48.900    21374968.695 7 114181224.549 7        47.600    21374985.504 7  88807624.590 7        46.000    21374985.758 7  88807621.586 7        45.000
R11  20430622.594 8 109175037.228 8        51.600    20430623.148 8 109175004.238 8        50.100    20430639.668 8  84913892.209 8        48.900    20430639.973 8  84913888.205 8        48.400
R10  23587752.234 6 125735969.809 6        36.800    23587751.504 5 125735930.807 5        35.400
R07  21861882.289 7 117028383.265 7        45.400    21861882.047 7 117028342.273 7        44.000    21861903.730 7  91022057.692 7        44.500    21861904.148 7  91022053.695 7        43.400
R06  21453526.633 5 114480184.666 5        35.000    21453526.320 5 114480111.662 5        34.300
G24  25574251.805 4 134393600.849 4        29.400    25574286.883 3 104722386.716 3        19.600    25574287.602 5 104722382.693 5        34.900    25574296.176 6 100358984.243 6        39.200
G22  21142076.227 7 111102354.679 7        47.600    21142091.512 6  86573311.122 6        38.300
G20  21787326.117 7 114493196.162 7        45.800    21787344.250 5  89215561.880 5        34.400
E33  25243835.805 7 132657254.482 7        44.200    25243853.652 7  99062297.188 7        46.500    25243849.246 7 101646514.690 7        47.100    25243851.531 8 100354360.549 8        53.300
E31  23390683.031 8 122918869.179 8        49.800    23390701.719 8  91790058.299 8        51.900    23390697.332 8  94184559.103 8        52.000    23390699.504 9  92987308.309 9        58.900
E29  27969934.789 6 146983046.721 6        36.700    27969972.047 6 109760235.639 6        37.700    27969965.719 6 112623520.913 6        37.800
E24  25985105.234 7 136552665.235 7        44.700    25985124.547 7 101971148.833 7        45.600    25985119.938 7 104631248.831 7        46.500    25985122.297 8 103301191.440 8        52.400
E23  25580270.055 7 134425218.753 7        44.600    25580296.238 7 100382558.306 7        46.400    25580291.719 7 103001219.673 7        46.800    25580293.758 8 101691888.600 8        52.800
E19  26996881.227 5 141869588.980 5        31.100    26996913.242 5 105941691.695 5        34.800    26996906.348 5 108705364.243 5        34.300
E16  27934056.539 6 146794465.244 6        37.000    27934080.848 6 109619347.381 6        39.000    27934075.863 6 112478961.617 6        40.000
E12  24574353.680 7 129139115.026 7        45.100    24574370.188 7  96435102.640 7        46.600    24574366.020 7  98950791.548 7        47.700    24574367.922 8  97692954.203 8        53.500
E10  25649439.945 7 134788744.405 7        46.200    25649464.832 7 100654021.099 7        47.300    25649459.918 7 103279771.280 7        47.600    25649462.168 8 101966897.800 8        53.600
E04  28763098.664 5 151151102.034 5        34.700    28763131.793 6 112872702.090 6        36.000    28763125.297 6 115817191.846 6        37.000
G19  20892879.563 7 109792832.122 7        45.600    20892891.273 6  85552896.589 6        37.400
G17  22066466.211 7 115960054.797 7        44.500    22066482.406 6  90358543.485 6        41.400    22066482.328 7  90358477.483 7        44.800
G14  22139228.039 7 116342417.535 7        43.100    22139248.902 5  90656502.988 5        31.300    22139248.816 7  90656421.985 7        45.700    22139258.852 8  86879067.140 8        48.300
G12  24211997.492 6 127234898.306 6        37.700    24212014.184 4  99144168.648 4        28.500    24212014.188 6  99144170.650 6        36.700
G11  21977633.617 7 115493267.787 7        45.100    21977650.066 5  89994822.972 5        35.000    21977649.875 7  89994755.969 7        47.800    21977659.098 8  86244972.825 8        50.500
G09  23950668.617 5 125861632.192 5        33.300    23950697.691 4  98074135.147 4        25.300    23950698.191 6  98074131.152 6        36.900    23950706.609 7  93987738.355 7        44.000
G06  21368310.922 7 112291239.540 7        46.000    21368327.098 7  87499729.751 7        47.500    21368327.418 8  87499661.744 8        48.100    21368332.539 8  83853838.844 8        51.800
G05  25223211.938 5 132548909.385 5        33.000    25223238.133 3 103284963.791 3        23.000    25223238.410 5 103284968.815 5        35.100
G04  25265853.016 4 132772936.518 4        29.100                                                    25265878.711 5 103459597.91415        34.800    25265887.777 6  99148820.72716        37.000
R08  24590866.461 6 131682972.791 6        38.800    24590865.652 6 131682923.804 6        37.000    24590890.453 5 102420190.154 5        32.900    24590890.941 5 102420185.150 5        32.900
C30  24150559.813 6 125758294.974 6        41.000
C13  36664286.352 7 190920572.318 7        44.500    36664300.707 7 147631858.494 7        45.400
C06  40128038.430 5 208957233.605 5        32.900    40128055.480 5 161579047.712 5        35.700
C05  38595439.266 5 200976589.674 5        35.800    38595454.246 6 155407915.420 6        40.500
C04  39243460.773 5 204351017.149 5        34.300    39243477.258 6 158017232.050 6        38.100
C03  36101091.336 7 187987863.960 7        43.300    36101097.949 7 145364170.768 7        45.900
C02  36742278.484 6 191326694.687 6        39.600    36742285.117 7 147945966.524 7        45.400
C01  37926864.250 6 197495139.722 6        39.600    37926877.055 6 152715824.750 6        41.300
S27  38821610.031 6 204008946.360 6        39.800    38821628.336 7 152344374.424 7        42.400
S29  36527837.156 7 191955079.205 7        46.100
S37  36807707.078 6 193425808.590 6        41.800
> 2025  3 13  8 51 21.0000000  0 42       0.000200596000
R23  24029326.289 6 128540765.149 6        37.600    24029325.672 5 128540717.151 5        35.800
R22  21667732.273 7 115663850.257 7        47.500    21667732.453 7 115663803.267 7        46.300    21667747.828 7  89960748.230 7        42.400    21667748.270 7  89960745.240 7        42.100
R21  22074359.766 7 118124357.469 7        46.200    22074359.852 7 118124328.471 7        44.500    22074375.867 7  91874481.091 7        43.800    22074376.598 7  91874478.090 7        43.300
R12  21374658.406 8 114179600.963 8        48.900    21374658.832 7 114179568.966 7        47.700    21374675.402 7  88806336.923 7        46.000    21374675.840 7  88806333.918 7        44.800
R11  20431108.234 8 109177629.872 8        51.800    20431108.148 8 109177596.881 8        49.400    20431124.332 8  84915908.705 8        49.100    20431124.891 8  84915904.702 8        48.500
R10  23588540.523 6 125740175.427 6        36.900    23588540.969 5 125740136.425 5        35.000
R07  21861280.945 7 117025165.992 7        45.400    21861280.918 7 117025125.000 7        44.200    21861302.754 7  91019555.376 7        44.100    21861303.293 7  91019551.376 7        43.300
R06  21453404.422 5 114479537.705 5        34.900    21453405.379 5 114479464.710 5        34.200
G24  25574476.961 4 134394780.375 4        29.600    25574511.699 3 104723305.800 3        19.600    25574512.121 5 104723301.800 5        33.800    25574520.727 6 100359865.044 6        39.000
G22  21142417.969 7 111104151.040 7        47.900    21142432.973 6  86574710.879 6        38.200
G20  21786837.523 7 114490629.070 7        45.500    21786855.902 5  89213561.559 5        35.000
E33  25244154.234 7 132658926.414 7        44.200    25244171.922 7  99063545.712 7        46.700    25244167.426 7 101647795.783 7        47.000    25244169.781 8 100355625.355 8        53.300
E31  23390750.367 8 122919223.597 8        49.700    23390769.195 8  91790322.964 8        51.300    23390764.797 8  94184830.670 8        51.800    23390767.000 9  92987576.426 9        58.800
E29  27969723.016 6 146981935.415 6        36.700    27969760.484 6 109759405.788 6        37.700    27969754.180 6 112622669.410 6        38.100
E24  25984709.563 7 136550586.127 7        44.400    25984729.008 7 101969596.263 7        45.300    25984724.355 7 104629655.757 7        46.200    25984726.742 8 103299618.618 8        52.400
E23  25580754.617 7 134427764.729 7        44.700    25580780.730 7 100384459.519 7        45.700    25580776.016 7 103003170.485 7        46.800    25580778.203 8 101693814.611 8        52.600
E19  26996535.500 5 141867769.206 5        31.300    26996567.047 5 105940332.779 5        35.000    26996560.227 5 108703969.880 5        34.400
E16  27933545.992 6 146791781.487 6        37.100    27933570.160 6 109617343.285 6        39.200    27933565.145 6 112476905.239 6        40.000
E12  24574374.477 7 129139224.866 7        45.100    24574390.918 7  96435184.669 7        46.300    24574386.898 7  98950875.718 7        47.500    24574388.824 8  97693037.302 8        53.400
E10  25649311.477 7 134788069.641 7        46.100    25649336.563 7 100653517.231 7        47.200    25649331.531 7 103279254.266 7        47.200    25649333.777 8 101966387.357 8        53.600
E04  28762836.758 5 151149726.040 5        34.500    28762869.988 5 112871674.568 5        35.800    28762863.566 6 115816137.521 6        36.500
G19  20892766.320 7 109792236.705 7        45.700    20892778.191 6  85552432.630 6        37.300
G17  22066553.484 7 115960514.146 7        44.300    22066569.969 6  90358901.419 6        41.300    22066569.926 7  90358835.417 7        44.700
G14  22139839.359 7 116345628.653 7        43.300    22139860.020 5  90659005.152 5        31.900    22139860.043 7  90658924.151 7        45.700    22139869.973 8  86881465.047 8        48.200
G12  24211373.000 6 127231620.889 6        37.600    24211390.426 4  99141614.822 4        28.900    24211390.270 6  99141616.828 6        36.500
G11  21977528.125 7 115492712.136 7        45.000    21977544.605 5  89994390.005 5        34.400    21977544.375 7  89994322.999 7        47.500    21977553.605 8  86244557.899 8        50.400
G09  23950440.789 5 125860443.747 5        34.000    23950471.344 4  98073209.095 4        24.700    23950471.938 6  98073205.101 6        36.900    23950480.195 7  93986850.888 7        43.800
G06  21368484.383 7 112292150.032 7        46.200    21368500.406 7  87500439.229 7        47.600    21368500.652 8  87500371.223 8        48.300    21368505.828 8  83854518.761 8        51.700
G05  25222505.531 5 132545200.534 5        32.900    25222532.656 4 103282073.781 4        24.400    25222532.879 5 103282078.810 5        35.400
G04  25265804.625 4 132772683.961 4        29.600                                                    25265830.543 5 103459401.118 5        33.900    25265839.676 6  99148632.145 6        36.700
R08  24590171.703 6 131679257.686 6        37.500    24590171.996 5 131679208.698 5        35.900    24590196.625 5 102417300.538 5        33.800    24590197.191 5 102417295.536 5        33.800
C30  24150745.461 6 125759261.605 6        40.900
C13  36664154.945 7 190919886.371 7        44.400    36664168.754 7 147631328.083 7        45.200
C06  40128269.523 5 208958436.938 5        32.900    40128286.414 5 161579978.202 5        35.200
C05  38595438.164 6 200976582.613 6        36.200    38595452.879 6 155407909.965 6        40.900
C04  39243453.820 5 204350978.256 5        34.300    39243469.680 6 158017201.964 6        38.400
C03  36101087.000 7 187987842.116 7        43.500    36101093.832 7 145364153.882 7        46.100
C02  36742271.188 6 191326656.389 6        39.700    36742277.848 7 147945936.915 7        45.500
C01  37926861.133 6 197495121.793 6        39.500    37926873.605 6 152715810.890 6        41.700
S27  38821611.969 6 204008954.244 6        39.800    38821629.875 7 152344380.304 7        42.500
S29  36527838.469 7 191955080.912 7        45.900
S37  36807707.000 6 193425812.157 6        41.700
> 2025  3 13  8 51 22.0000000  0 43       0.000200598000
R23  24029093.883 6 128539520.675 6        37.200    24029093.148 6 128539472.681 6        36.000
R22  21667689.180 7 115663621.454 7        47.200    21667689.738 7 115663574.456 7        46.300    21667704.902 7  89960570.283 7        42.300    21667705.504 6  89960567.292 6        41.400
R21  22074577.414 7 118125519.681 7        46.200    22074576.793 7 118125490.679 7        44.400    22074592.887 7  91875385.030 7        43.600    22074593.309 7  91875382.032 7        43.500
R12  21374348.023 8 114177946.133 8        48.500    21374348.684 7 114177914.141 7        47.600    21374365.609 7  88805049.837 7        46.100    21374365.719 7  88805046.833 7        44.600
R11  20431593.023 8 109180223.127 8        51.700    20431593.512 8 109180190.133 8        49.500    20431609.832 8  84917925.677 8        48.800    20431610.363 8  84917921.672 8        48.100
R10  23589329.273 6 125744380.995 6        36.300    23589329.895 5 125744342.001 5        35.500
R07  21860679.203 7 117021948.974 7        45.300    21860679.926 7 117021907.986 7        44.000    21860702.090 7  91017053.259 7        44.300    21860702.445 7  91017049.258 7        43.300
R06  21453282.734 5 114478891.500 5        34.300    21453284.066 5 114478818.498 5        33.800
G24  25574701.227 4 134395960.123 4        28.900    25574736.242 3 104724225.067 3        19.300    25574736.352 5 104724221.080 5        34.500    25574745.195 6 100360746.014 6        38.800
G22  21142759.984 7 111105947.896 7        47.100    21142775.281 6  86576111.025 6        38.100
G20  21786349.000 7 114488062.379 7        45.400    21786367.473 5  89211561.551 5        34.400
E33  25244472.250 7 132660598.308 7        44.200    25244490.078 7  99064794.205 7        46.700    25244485.668 7 101649076.846 7        46.800    25244487.902 8 100356890.135 8        53.300
E31  23390817.938 8 122919578.451 8        49.800    23390836.688 8  91790587.952 8        51.500    23390832.434 8  94185102.571 8        51.800    23390834.551 9  92987844.871 9        58.900
E29  27969511.766 6 146980824.304 6        36.900    27969549.027 6 109758576.082 6        37.700    27969542.586 6 112621818.056 6        38.100
E26  28960348.859 5 152187656.27515        32.900
E24  25984314.000 7 136548507.266 7        44.400    25984333.277 7 101968043.876 7        45.500    25984328.594 7 104628062.872 7        46.000    25984331.012 8 103298045.983 8        52.400
E23  25581238.945 7 134430310.927 7        44.700    25581265.395 7 100386360.899 7        45.900    25581260.793 7 103005121.465 7        46.400    25581262.895 8 101695740.790 8        52.700
E19  26996188.805 5 141865949.348 5        31.700    26996220.879 5 105938973.799 5        34.500    26996213.996 5 108702575.447 5        34.200
E16  27933035.289 6 146789097.829 6        37.200    27933059.496 6 109615339.259 6        38.900    27933054.313 6 112474848.936 6        40.000
E12  24574395.453 7 129139334.873 7        45.000    24574411.828 7  96435266.823 7        46.800    24574407.719 7  98950960.015 7        47.600    24574409.707 8  97693120.528 8        53.400
E10  25649183.148 7 134787395.074 7        45.800    25649208.000 7 100653013.508 7        47.200    25649203.063 7 103278737.399 7        47.000    25649205.242 8 101965877.062 8        53.600
E04  28762574.570 5 151148349.733 5        34.200    28762608.047 5 112870646.815 5        35.200    28762601.695 6 115815082.961 6        36.600
G19  20892653.039 7 109791641.484 7        45.700    20892664.797 6  85551968.828 6        37.300
G17  22066640.656 7 115960973.683 7        43.800    22066657.078 6  90359259.497 6        41.700    22066656.914 7  90359193.496 7        44.500
G14  22140450.461 7 116348840.075 7        43.000    22140471.340 5  90661507.560 5        31.200    22140471.180 7  90661426.555 7        45.800    22140481.152 8  86883863.184 8        48.400
G12  24210748.969 6 127228343.730 6        37.600    24210766.773 4  99139061.206 4        29.400    24210766.457 6  99139063.207 6        36.300
G11  21977421.992 7 115492156.740 7        44.900    21977438.902 5  89993957.238 5        34.500    21977438.570 7  89993890.229 7        47.800    21977447.910 8  86244143.164 8        50.300
G09  23950214.445 5 125859255.585 5        32.800    23950245.367 4  98072283.261 4        25.400    23950245.664 6  98072279.270 6        36.400    23950254.262 7  93985963.633 7        43.800
G06  21368657.359 7 112293060.686 7        46.000    21368673.910 7  87501148.835 7        47.500    21368674.262 8  87501080.827 8        48.400    21368679.332 8  83855198.801 8        51.900
G05  25221798.961 5 132541491.735 5        32.900    25221826.500 3 103279183.814 3        20.900    25221826.535 5 103279188.843 5        35.000
G04  25265757.055 5                        30.300
R08  24589478.820 6 131675542.251 6        36.900    24589477.656 5 131675493.281 5        35.500    24589502.652 5 102414410.733 5        33.400    24589503.117 5 102414405.735 5        33.500
C30  24150931.281 6 125760228.237 6        40.900
C13  36664023.141 7 190919200.606 7        44.500    36664037.195 7 147630797.811 7        44.600
C06  40128500.836 5 208959640.132 5        33.600    40128517.598 5 161580908.584 5        34.800
C05  38595436.648 5 200976575.550 5        35.900    38595451.719 6 155407904.507 6        40.800
C04  39243446.391 5 204350939.345 5        34.800    39243462.531 6 158017171.859 6        39.000
C03  36101082.742 7 187987820.271 7        43.600    36101089.719 7 145364136.996 7        46.100
C02  36742263.789 6 191326618.092 6        40.000    36742270.406 7 147945907.308 7        45.300
C01  37926857.625 6 197495103.853 6        39.700    37926870.293 6 152715797.019 6        41.700
S27  38821614.219 6 204008962.117 6        39.900    38821631.664 7 152344386.177 7        42.400
S29  36527837.469 7 191955082.615 7        46.100
S37  36807707.781 6 193425815.713 6        41.700
> 2025  3 13  8 51 23.0000000  0 43       0.000200596000
R23  24028859.430 6 128538276.268 6        37.100    24028860.758 5 128538228.277 5        35.700
R22  21667645.961 7 115663392.664 7        47.300    21667646.945 7 115663345.665 7        46.300    21667662.164 7  89960392.342 7        42.500    21667662.668 7  89960389.354 7        42.000
R21  22074794.148 7 118126681.758 7        45.600    22074794.301 7 118126652.756 7        44.400    22074810.531 7  91876288.866 7        43.600    22074810.906 7  91876285.868 7        43.500
R12  21374038.453 8 114176292.084 8        48.300    21374039.074 7 114176260.092 7        47.500    21374056.078 7  88803763.362 7        45.800    21374055.996 7  88803760.357 7        44.800
R11  20432078.773 8 109182816.993 8        51.500    20432079.215 8 109182784.001 8        49.300    20432095.855 8  84919943.127 8        48.900    20432096.180 7  84919939.120 7        47.700
R10  23590117.578 6 125748586.523 6        36.100    23590118.660 5 125748547.515 5        35.300
R07  21860078.523 7 117018732.209 7        45.100    21860078.836 7 117018691.220 7        43.800    21860100.668 7  91014551.341 7        43.900    21860101.098 7  91014547.337 7        43.200
R06  21453163.023 5 114478246.035 5        35.000    21453162.660 5 114478173.035 5        34.200
G24  25574923.922 4                        28.000
G22  21143101.859 7 111107745.228 7        47.300    21143117.238 6  86577511.538 6        38.200
G20  21785860.633 7 114485496.091 7        45.400    21785879.320 5  89209561.856 5        34.800
E33  25244790.500 7 132662270.153 7        44.000    25244808.188 7  99066042.662 7        46.600    25244803.719 7 101650357.870 7        46.800    25244806.055 8 100358154.876 8        53.200
E31  23390885.500 8 122919933.736 8        49.700    23390904.238 8  91790853.263 8        51.200    23390899.898 8  94185374.804 8        51.800    23390902.012 9  92988113.642 9        58.700
E29  27969300.484 6 146979713.361 6        36.200    27969337.602 6 109757746.498 6        37.800    27969331.098 6 112620966.828 6        38.100
E26  28960709.438 5 152189549.536 5        32.900
E24  25983918.594 7 136546428.671 7        44.400    25983937.668 7 101966491.688 7        45.300    25983933.121 7 104626470.191 7        46.200    25983935.570 8 103296473.548 8        52.400
E23  25581723.664 7 134432857.336 7        44.500    25581749.941 7 100388262.435 7        45.900    25581745.313 7 103007072.608 7        46.500    25581747.398 8 101697667.130 8        52.700
E19  26995842.625 5 141864129.381 5        31.300    26995874.332 5 105937614.733 5        34.600    26995867.641 5 108701180.929 5        34.300
E16  27932524.617 6 146786414.274 6        37.300    27932549.043 6 109613335.310 6        39.000    27932543.520 6 112472792.710 6        39.700
E12  24574416.383 7 129139445.029 7        45.100    24574432.906 7  96435349.089 7        46.500    24574428.859 7  98951044.425 7        47.600    24574430.727 8  97693203.865 8        53.400
E10  25649054.727 7 134786720.695 7        45.900    25649079.641 7 100652509.923 7        47.000    25649074.641 7 103278220.677 7        47.300    25649076.984 8 101965366.909 8        53.500
E04  28762312.648 5 151146973.087 5        33.900    28762346.020 5 112869618.802 5        35.200    28762339.594 6 115814028.130 6        36.000
G19  20892539.891 7 109791046.441 7        45.600    20892551.340 6  85551505.162 6        37.600
G17  22066728.039 7 115961433.404 7        43.800    22066744.664 6  90359617.720 6        41.500    22066744.855 7  90359551.718 7        44.100
G14  22141061.789 7 116352051.781 7        42.800    22141082.059 5  90664010.186 5        31.100    22141081.672 7  90663929.180 7        45.600    22141092.047 8  86886261.534 8        48.100
G12  24210126.375 6 127225066.808 6        38.400    24210143.184 4  99136507.770 4        28.700    24210142.797 6  99136509.771 6        36.100
G11  21977316.281 7 115491601.582 7        44.700    21977333.176 5  89993524.652 5        33.900    21977332.813 7  89993457.645 7        47.500    21977342.004 8  86243728.606 8        50.200
G09  23949988.977 5 125858067.678 5        33.300    23950019.137 4  98071357.627 4        25.600    23950019.031 6  98071353.630 6        36.200    23950027.910 7  93985076.563 7        43.900
G06  21368830.406 7 112293971.474 7        46.000    21368846.918 7  87501858.543 7        47.200    21368847.441 8  87501790.534 8        48.100    21368852.469 8  83855878.938 8        51.700
G05  25221093.195 5 132537782.937 5        32.600    25221120.750 3 103276293.864 3        22.500    25221120.559 5 103276298.884 5        34.600
G04  25265710.531 5                        30.500
R08  24588784.867 5 131671826.562 5        35.800    24588784.488 5 131671777.584 5        34.000    24588809.586 5 102411520.791 5        35.400    24588809.836 5 102411515.789 5        35.200
C30  24151117.063 6 125761194.858 6        41.400
C13  36663891.477 7 190918515.022 7        44.500    36663905.660 7 147630267.678 7        44.800
C06  40128731.695 5 208960843.185 5        33.600    40128748.324 5 161581838.856 5        34.900
C05  38595434.781 6 200976568.473 6        36.000    38595450.352 6 155407899.042 6        40.900
C04  39243439.242 5 204350900.433 5        34.400    39243454.758 6 158017141.764 6        39.200
C03  36101078.836 7 187987798.410 7        43.400    36101085.379 7 145364120.096 7        46.300
C02  36742256.164 6 191326579.791 6        39.800    36742262.992 7 147945877.695 7        45.400
C01  37926854.305 6 197495085.898 6        39.500    37926866.727 6 152715783.137 6        41.700
S27  38821616.203 6 204008970.012 6        39.300    38821632.656 6 152344392.056 6        41.900
S29  36527835.250 7 191955084.305 7        45.700
S37  36807711.219 6 193425819.251 6        41.700
> 2025  3 13  8 51 24.0000000  0 43       0.000200596000
R23  24028627.766 6 128537032.018 6        37.100    24028627.957 6 128536984.016 6        36.000
R22  21667603.242 7 115663163.944 7        47.400    21667603.992 7 115663116.949 7        46.600    21667619.066 7  89960214.454 7        42.500    21667619.563 7  89960211.465 7        42.100
R21  22075011.453 7 118127843.774 7        45.600    22075011.328 7 118127814.773 7        44.600    22075027.676 7  91877192.658 7        43.900    22075027.832 7  91877189.659 7        43.400
R12  21373729.234 8 114174638.891 8        48.800    21373729.773 7 114174606.900 7        47.800    21373746.508 7  88802477.548 7        46.300    21373746.852 7  88802474.545 7        44.900
R11  20432564.008 8 109185411.527 8        51.800    20432564.711 8 109185378.530 8        49.600    20432581.336 8  84921961.094 8        49.100    20432581.609 7  84921957.082 7        47.600
R10  23590907.695 6 125752792.052 6        36.800    23590907.613 5 125752753.051 5        35.500
R07  21859477.711 7 117015515.784 7        45.700    21859478.172 7 117015474.793 7        43.900    21859500.121 7  91012049.687 7        44.400    21859500.492 7  91012045.683 7        43.600
R06  21453042.148 5 114477601.372 5        34.800    21453041.715 5 114477528.369 5        34.400
G24  25575149.852 4                        29.400
G22  21143444.234 7 111109543.118 7        47.600    21143459.578 6  86578912.491 6        38.200
G20  21785372.164 7 114482930.260 7        45.700    21785390.715 5  89207562.518 5        34.300
E33  25245108.773 7 132663942.019 7        44.200    25245126.359 7  99067291.133 7        46.800    25245121.891 7 101651638.911 7        46.600    25245124.195 8 100359419.632 8        53.200
E31  23390953.094 8 122920289.511 8        50.100    23390972.102 8  91791118.939 8        51.500    23390967.727 8  94185647.410 8        51.600    23390969.863 9  92988382.784 9        58.800
E29  27969089.453 6 146978602.678 6        36.500    27969126.449 6 109756917.112 6        38.100    27969119.758 6 112620115.804 6        37.900
E26  28961069.773 5 152191442.692 5        34.700
E24  25983523.023 7 136544350.398 7        44.800    25983542.293 7 101964939.739 7        45.000    25983537.711 7 104624877.757 7        46.200    25983540.063 8 103294901.357 8        52.300
E23  25582208.453 7 134435404.021 7        44.300    25582234.441 7 100390164.177 7        45.900    25582229.793 7 103009023.960 7        46.700    25582231.938 8 101699593.677 8        52.800
E19  26995495.914 5 141862309.382 5        31.300    26995527.832 5 105936255.646 5        35.100    26995521.227 5 108699786.387 5        34.400
E16  27932014.266 6 146783730.885 6        36.800    27932038.477 6 109611331.486 6        39.400    27932032.781 6 112470736.609 6        39.800
E12  24574437.195 7 129139555.394 7        45.500    24574453.789 7  96435431.511 7        46.400    24574449.781 7  98951128.996 7        47.400    24574451.707 8  97693287.360 8        53.500
E10  25648926.383 7 134786046.569 7        46.200    25648951.438 7 100652006.528 7        46.700    25648946.449 7 103277704.148 7        47.500    25648948.672 8 101964856.948 8        53.500
E04  28762050.539 5 151145596.166 5        34.100    28762084.066 5 112868590.584 5        34.400    28762077.734 5 115812973.088 5        35.700
G19  20892426.961 7 109790451.650 7        45.900    20892438.508 6  85551041.691 6        37.700
G17  22066815.742 7 115961893.368 7        43.900    22066832.328 6  90359976.133 6        41.600    22066832.453 7  90359910.130 7        44.500
G14  22141673.086 7 116355263.844 7        42.500    22141693.512 5  90666513.087 5        31.300    22141693.195 7  90666432.085 7        45.500    22141703.438 8  86888660.151 8        48.300
G12  24209502.484 6 127221790.196 6        38.100    24209519.453 4  99133954.575 4        28.100    24209519.070 6  99133956.574 6        36.600
G11  21977210.797 7 115491046.739 7        44.700    21977227.719 5  89993092.315 5        34.700    21977227.613 7  89993025.307 7        47.600    21977236.484 8  86243314.284 8        50.300
G09  23949763.555 5 125856880.132 5        33.300    23949793.402 4  98070432.277 4        26.700    23949793.012 6  98070428.283 6        36.900    23949802.246 7  93984189.772 7        43.900
G06  21369003.828 7 112294882.471 7        46.000    21369020.328 7  87502568.412 7        47.500    21369020.641 8  87502500.405 8        48.500    21369025.789 8  83856559.231 8        51.600
G05  25220387.305 5 132534074.258 5        33.100    25220414.617 3 103273404.006 3        21.800    25220414.465 5 103273409.017 5        34.800
G04  25265661.641 4                        29.900
R08  24588090.703 5 131668110.685 5        35.100    24588090.383 5 131668061.704 5        33.700    24588115.480 5 102408630.742 5        35.900    24588115.984 5 102408625.738 5        35.300
C30  24151302.703 6 125762161.536 6        41.600
C13  36663759.805 7 190917829.666 7        45.200    36663773.813 7 147629737.722 7        44.300
C06  40128962.609 5 208962046.170 5        33.800    40128979.434 5 161582769.082 5        34.800
C05  38595433.758 6 200976561.444 6        36.400    38595448.949 6 155407893.609 6        41.100
C04  39243431.367 5 204350861.580 5        34.600    39243447.566 6 158017111.718 6        39.200
C03  36101074.453 7 187987776.601 7        43.900    36101081.074 7 145364103.236 7        46.300
C02  36742249.000 6 191326541.535 6        40.200    36742255.699 7 147945848.116 7        44.900
C01  37926850.523 6 197495067.989 6        40.000    37926863.332 7 152715769.292 7        42.100
S27  38821616.219 6 204008977.990 6        40.600    38821634.383 6 152344397.988 6        41.800
S29  36527838.188 7 191955086.049 7        46.100
S37  36807709.250 6 193425822.838 6        41.700
> 2025  3 13  8 51 25.0000000  0 43       0.000200596000
R23  24028394.648 6 128535787.807 6        37.300    24028395.109 5 128535739.813 5        35.900
R22  21667560.563 7 115662935.221 7        47.400    21667561.293 7 115662888.225 7        46.400    21667576.535 7  89960036.564 7        42.300    21667576.992 7  89960033.573 7        42.300
R21  22075228.102 7 118129005.673 7        45.300    22075228.582 7 118128976.671 7        44.500    22075244.734 7  91878096.361 7        43.900    22075244.941 7  91878093.358 7        43.200
R12  21373420.078 8 114172986.462 8        48.700    21373420.473 7 114172954.463 7        47.900    21373437.105 7  88801192.325 7        46.300    21373437.613 7  88801189.323 7        44.900
R11  20433049.516 8 109188006.669 8        51.500    20433050.035 8 109187973.672 8        49.200    20433066.539 8  84923979.529 8        49.200    20433066.906 7  84923975.518 7        47.600
R10  23591697.094 6 125756997.495 6        36.900    23591696.680 5 125756958.494 5        34.900
R07  21858877.313 7 117012299.613 7        45.700    21858877.340 7 117012258.620 7        44.000    21858899.398 7  91009548.225 7        44.300    21858899.875 7  91009544.225 7        43.600
R06  21452919.734 5 114476957.429 5        34.900    21452921.590 5 114476884.430 5        34.700
G24  25575375.359 4 134399500.628 4        28.900    25575409.938 3 104726983.87613        19.900    25575409.996 5 104726979.87115        33.700    25575419.266 6 100363389.86016        38.900
G22  21143786.570 7 111111341.476 7        47.600    21143801.629 6  86580313.806 6        38.400
G20  21784884.531 7 114480364.816 7        46.100    21784902.746 5  89205563.479 5        34.400
E33  25245426.875 7 132665613.816 7        44.000    25245444.504 7  99068539.551 7        46.600    25245440.027 7 101652919.898 7        46.800    25245442.340 8 100360684.334 8        53.200
E31  23391020.820 8 122920645.710 8        49.400    23391039.746 8  91791384.933 8        51.300    23391035.441 8  94185920.345 8        52.000    23391037.520 9  92988652.247 9        58.800
E29  27968877.328 6 146977492.158 6        36.600    27968915.129 6 109756087.848 6        38.300    27968908.406 6 112619264.906 6        38.000
E26  28961429.773 5 152193335.655 5        34.700
E24  25983127.711 7 136542272.364 7        44.800    25983146.824 7 101963387.967 7        45.400    25983142.305 7 104623285.504 7        46.400    25983144.637 8 103293329.344 8        52.400
E23  25582693.023 7 134437950.905 7        44.600    25582719.102 7 100392066.066 7        46.200    25582714.488 7 103010975.465 7        46.700    25582716.605 8 101701520.374 8        52.700
E19  26995149.883 5 141860489.295 5        31.700    26995181.688 5 105934896.491 5        35.300    26995174.887 5 108698391.773 5        34.100
E16  27931503.750 6 146781047.581 6        36.700    27931527.797 6 109609327.721 6        39.100    27931522.078 6 112468680.570 6        39.600
E12  24574458.422 7 129139665.904 7        45.600    24574474.836 7  96435514.041 7        46.200    24574470.758 7  98951213.678 7        47.400    24574472.703 8  97693370.968 8        53.300
E10  25648798.250 7 134785372.622 7        45.800    25648823.266 7 100651503.267 7        46.700    25648818.211 7 103277187.759 7        47.400    25648820.492 8 101964347.122 8        53.600
E04  28761788.617 5 151144218.912 5        33.900    28761821.750 5 112867562.120 5        34.300    28761815.586 5 115811917.792 5        35.900
G19  20892313.758 7 109789857.026 7        45.700    20892325.266 6  85550578.347 6        37.900
G17  22066903.367 7 115962353.508 7        43.900    22066919.965 6  90360334.681 6        41.400    22066919.934 7  90360268.676 7        44.500
G14  22142284.164 7 116358476.197 7        42.700    22142304.926 5  90669016.212 5        31.300    22142304.766 7  90668935.213 7        45.500    22142314.930 8  86891058.979 8        48.400
G12  24208879.063 6 127218513.816 6        38.100    24208895.801 4  99131401.557 4        29.300    24208895.492 6  99131403.556 6        37.100
G11  21977104.969 7 115490492.128 7        44.600    21977122.008 5  89992660.158 5        34.600    21977121.781 7  89992593.151 7        47.600    21977130.824 8  86242900.136 8        50.300
G09  23949536.859 5 125855692.832 5        33.300    23949567.379 4  98069507.127 4        25.500    23949566.852 6  98069503.126 6        36.900    23949576.203 7  93983303.168 7        43.800
G06  21369177.344 7 112295793.614 7        45.900    21369193.883 7  87503278.397 7        47.500    21369194.539 8  87503210.390 8        48.400    21369199.316 8  83857239.635 8        51.700
G05  25219682.258 5 132530365.591 5        33.700    25219709.102 3 103270514.148 3        22.600    25219709.047 5 103270519.158 5        34.800
G04  25265614.266 4 132771677.521 4        29.900                                                    25265637.426 5 103458616.92515        33.500    25265647.680 6  99147880.64616        36.200
R08  24587395.719 5 131664394.475 5        34.800    24587396.348 5 131664345.470 5        33.700    24587421.813 5 102405740.425 5        35.500    24587422.262 5 102405735.418 5        35.100
C30  24151488.398 6 125763128.192 6        41.800
C13  36663628.258 7 190917144.464 7        45.100    36663642.195 7 147629207.885 7        44.600
C06  40129194.172 5 208963248.990 5        34.200    40129210.336 5 161583699.184 5        34.900
C05  38595432.578 6 200976554.384 6        36.300    38595447.715 6 155407888.155 6        41.000
C04  39243423.617 5 204350822.688 5        35.100    39243439.848 6 158017081.645 6        39.400
C03  36101070.078 7 187987754.768 7        43.900    36101077.047 7 145364086.353 7        46.400
C02  36742241.586 6 191326503.238 6        40.400    36742248.180 7 147945818.508 7        45.200
C01  37926847.203 6 197495050.065 6        40.200    37926859.801 7 152715755.434 7        42.200
S27  38821618.344 6 204008985.985 6        40.200    38821636.188 7 152344403.963 7        42.200
S29  36527837.766 7 191955087.768 7        46.500
S37  36807711.797 7 193425826.405 7        42.000
> 2025  3 13  8 51 26.0000000  0 43       0.000200596000
R23  24028163.203 6 128534543.663 6        37.300    24028162.090 5 128534495.669 5        35.900
R22  21667518.031 7 115662706.517 7        47.500    21667517.953 7 115662659.522 7        46.400    21667533.395 7  89959858.692 7        42.100    21667533.633 7  89959855.702 7        42.400
R21  22075445.352 7 118130167.453 7        45.500    22075445.328 7 118130138.457 7        44.500    22075461.070 7  91878999.971 7        44.100    22075461.789 7  91878996.966 7        43.400
R12  21373110.711 8 114171334.787 8        48.900    21373110.957 7 114171302.789 7        47.900    21373127.578 7  88799907.689 7        46.300    21373128.172 7  88799904.688 7        44.900
R11  20433535.484 8 109190602.405 8        51.500    20433535.906 8 109190569.411 8        49.200    20433552.602 8  84925998.425 8        48.900    20433552.688 7  84925994.416 7        47.700
R10  23592486.211 6 125761202.857 6        36.600    23592485.996 5 125761163.876 5        34.700
R07  21858276.781 7 117009083.705 7        44.900    21858276.418 7 117009042.715 7        43.900    21858298.176 7  91007046.967 7        44.300    21858298.926 7  91007042.968 7        43.600
R06  21452798.938 5 114476314.233 5        35.000    21452800.832 5 114476241.242 5        34.500
G24  25575600.258 4                        28.900
G22  21144128.844 7 111113140.316 7        47.400    21144143.695 6  86581715.496 6        38.600
G20  21784396.359 7 114477799.769 7        46.300    21784414.668 5  89203564.751 5        34.600
E33  25245744.813 7 132667285.558 7        44.300    25245762.613 7  99069787.932 7        46.500    25245758.188 7 101654200.845 7        46.900    25245760.406 8 100361948.997 8        53.200
E31  23391088.703 8 122921002.340 8        49.400    23391107.648 8  91791651.248 8        51.500    23391103.324 8  94186193.607 8        51.800    23391105.477 9  92988922.037 9        58.900
E29  27968665.938 6 146976381.831 6        36.700    27968703.742 6 109755258.725 6        38.200    27968697.031 6 112618414.156 6        37.000
E26  28961789.906 5 152195228.440 5        34.700
E24  25982732.242 7 136540194.589 7        45.000    25982751.465 7 101961836.391 7        45.500    25982746.859 7 104621693.452 7        46.700    25982749.230 8 103291757.530 8        52.400
E23  25583177.633 7 134440497.998 7        44.800    25583203.820 7 100393968.111 7        45.700    25583199.348 7 103012927.129 7        46.900    25583201.406 8 101703447.229 8        52.800
E19  26994803.469 5 141858669.144 5        32.000    26994835.313 5 105933537.295 5        35.000    26994828.688 5 108696997.116 5        34.600
E16  27930993.273 6 146778364.378 6        36.900    27931017.418 6 109607324.031 6        39.600    27931011.805 6 112466624.606 6        39.300
E12  24574479.430 7 129139776.563 7        45.200    24574495.859 7  96435596.681 7        46.600    24574491.664 7  98951298.475 7        47.600    24574493.641 8  97693454.687 8        53.700
E10  25648670.148 7 134784698.854 7        45.500    25648695.016 7 100651000.138 7        46.800    25648689.945 7 103276671.504 7        47.300    25648692.305 8 101963837.431 8        53.500
E04  28761527.023 5 151142841.316 5        34.100    28761559.375 5 112866533.399 5        33.800    28761553.566 6 115810862.233 6        36.000
G19  20892200.555 7 109789262.578 7        45.800    20892212.215 6  85550115.142 6        37.900
G17  22066990.883 7 115962813.819 7        43.900    22067007.422 6  90360693.362 6        41.400    22067007.332 7  90360627.360 7        44.300
G14  22142895.375 7 116361688.827 7        42.600    22142916.332 5  90671519.554 5        31.900    22142916.301 7  90671438.555 7        45.400    22142926.313 8  86893458.018 8        48.400
G12  24208254.992 6 127215237.671 6        38.300    24208272.402 4  99128848.724 4        28.500    24208272.266 6  99128850.726 6        37.100
G11  21976999.953 7 115489937.759 7        44.900    21977016.371 5  89992228.189 5        35.200    21977016.238 7  89992161.184 7        47.800    21977025.336 8  86242486.169 8        50.400
G09  23949309.883 5 125854505.791 5        32.800    23949341.184 4  98068582.174 4        26.500    23949340.703 6  98068578.174 6        37.500    23949350.055 7  93982416.758 7        43.900
G06  21369350.250 7 112296704.887 7        45.900    21369366.992 7  87503988.480 7        47.200    21369367.465 8  87503920.473 8        48.200    21369372.422 8  83857920.133 8        51.800
G05  25218976.383 5 132526656.938 5        33.800    25219003.156 3 103267624.292 3        22.300    25219003.102 5 103267629.305 5        35.100
G04  25265566.133 4 132771426.875 4        29.600                                                    25265589.488 5 103458421.620 5        32.200    25265600.027 6  99147693.488 6        36.400
R08  24586702.000 6 131660677.932 6        36.700    24586701.859 5 131660628.952 5        35.500    24586727.332 5 102402849.807 5        35.600    24586728.133 5 102402844.804 5        35.600
C30  24151673.961 6 125764094.824 6        41.300
C13  36663496.867 7 190916459.409 7        45.100    36663510.699 7 147628678.162 7        44.600
C06  40129425.148 5 208964451.653 5        33.100    40129441.352 5 161584629.159 5        35.200
C05  38595431.008 5 200976547.303 5        35.900    38595446.168 6 155407882.687 6        41.100
C04  39243417.125 5 204350783.790 5        34.900    39243432.172 6 158017051.574 6        39.400
C03  36101066.047 7 187987732.917 7        43.600    36101072.809 7 145364069.461 7        46.800
C02  36742233.898 6 191326464.930 6        39.800    36742240.816 7 147945788.886 7        45.300
C01  37926843.594 6 197495032.125 6        39.600    37926856.426 6 152715741.560 6        41.800
S27  38821619.031 6 204008993.944 6        39.900    38821637.273 7 152344409.933 7        42.200
S29  36527838.250 7 191955089.471 7        45.900
S37  36807711.656 6 193425829.953 6        41.800
> 2025  3 13  8 51 27.0000000  0 43       0.000200596000
R23  24027930.133 6 128533299.644 6        37.700    24027929.629 6 128533251.649 6        36.200
R22  21667475.109 7 115662477.847 7        47.600    21667475.465 7 115662430.853 7        45.900    21667491.059 7  89959680.844 7        42.300    21667491.156 7  89959677.854 7        42.100
R21  22075663.219 7 118131329.155 7        45.800    22075662.648 7 118131300.155 7        44.500    22075678.465 7  91879903.517 7        43.600    22075679.082 7  91879900.513 7        43.300
R12  21372801.813 8 114169683.912 8        48.400    21372802.188 7 114169651.912 7        47.800    21372818.652 7  88798623.678 7        46.300    21372819.246 7  88798620.676 7        45.000
R11  20434021.258 8 109193198.805 8        51.800    20434021.922 8 109193165.811 8        49.300    20434038.473 8  84928017.842 8        49.100    20434038.801 7  84928013.840 7        47.700
R10  23593275.461 6 125765408.186 6        36.700    23593275.145 5 125765369.191 5        34.300
R07  21857675.719 7 117005868.090 7        44.800    21857675.496 7 117005827.106 7        43.600    21857697.355 7  91004545.939 7        44.500    21857697.938 7  91004541.943 7        43.700
R06  21452680.258 5 114475671.819 5        35.400    21452680.621 5 114475598.816 5        34.300
G24  25575823.375 4                        28.900
G22  21144471.109 7 111114939.678 7        47.700    21144486.297 6  86583117.594 6        38.600
G20  21783908.313 7 114475235.148 7        46.000    21783926.430 5  89201566.349 5        34.300
E33  25246063.000 7 132668957.303 7        44.200    25246080.668 7  99071036.313 7        46.700    25246076.285 7 101655481.793 7        47.000    25246078.566 8 100363213.662 8        53.100
E31  23391156.672 8 122921359.434 8        49.700    23391175.633 8  91791917.908 8        51.400    23391171.293 8  94186467.225 8        51.500    23391173.438 9  92989192.175 9        58.800
E29  27968454.766 6 146975271.712 6        36.300    27968492.746 6 109754429.757 6        38.000    27968485.902 6 112617563.562 6        37.400
E26  28962149.914 5 152197121.087 5        34.500
E24  25982337.039 7 136538117.086 7        45.000    25982356.012 7 101960285.017 7        45.600    25982351.422 7 104620101.606 7        46.200    25982353.828 8 103290185.921 8        52.300
E23  25583662.461 7 134443045.342 7        45.000    25583688.535 7 100395870.344 7        45.600    25583683.969 7 103014878.986 7        46.700    25583686.082 8 101705374.273 8        52.700
E19  26994456.977 5 141856848.916 5        31.800    26994488.984 5 105932178.032 5        35.400    26994482.414 5 108695602.394 5        34.600
E16  27930482.219 6 146775681.298 6        36.800    27930506.531 6 109605320.433 6        39.600    27930500.984 6 112464568.736 6        39.100
E12  24574500.500 7 129139887.406 7        45.100    24574517.047 7  96435679.459 7        46.600    24574513.027 7  98951383.412 7        47.700    24574514.941 8  97693538.544 8        53.500
E10  25648542.000 7 134784025.311 7        45.300    25648566.828 7 100650497.180 7        47.000    25648561.777 7 103276155.424 7        47.200    25648563.996 8 101963327.911 8        53.500
E04  28761265.063 5 151141463.416 5        33.400    28761297.102 5 112865504.448 5        33.300    28761291.605 6 115809806.439 6        36.000
G19  20892087.266 7 109788668.353 7        45.600    20892098.961 6  85549652.113 6        37.900
G17  22067078.633 7 115963274.357 7        43.700    22067095.258 6  90361052.223 6        41.600    22067095.137 7  90360986.221 7        44.900
G14  22143506.945 7 116364901.779 7        42.700    22143527.863 5  90674023.153 5        31.400    22143527.742 7  90673942.149 7        45.600    22143537.734 8  86895857.295 8        48.200
G12  24207632.125 6 127211961.810 6        37.900    24207649.129 4  99126296.125 4        27.600    24207648.734 6  99126298.119 6        37.400
G11  21976894.445 7 115489383.667 7        44.700    21976910.980 5  89991796.436 5        34.300    21976910.984 7  89991729.430 7        47.800    21976919.891 8  86242072.406 8        50.300
G09  23949083.852 5 125853319.062 5        33.100    23949115.094 4  98067657.458 4        26.000    23949114.813 6  98067653.455 6        36.900    23949124.039 7  93981530.576 7        43.800
G06  21369524.000 7 112297616.346 7        46.000    21369540.449 7  87504698.713 7        47.300    21369541.074 8  87504630.707 8        48.300    21369545.906 8  83858600.772 8        51.900
G05  25218270.813 5 132522948.347 5        33.800    25218297.023 3 103264734.478 3        22.600    25218297.074 5 103264739.493 5        34.700
G04  25265519.094 5 132771176.628 5        30.800                                                    25265541.836 5 103458226.639 5        32.100    25265552.336 6  99147506.632 6        36.200
R08  24586007.109 6 131656961.102 6        37.600    24586007.961 6 131656912.109 6        36.100    24586033.141 5 102399958.929 5        35.900    24586034.203 5 102399953.927 5        35.300
C30  24151859.648 6 125765061.489 6        40.800
C13  36663365.266 7 190915774.569 7        44.800    36663379.066 7 147628148.605 7        44.600
C06  40129656.320 5 208965654.191 5        33.800    40129672.227 5 161585559.040 5        34.500
C05  38595429.938 6 200976540.243 6        36.200    38595444.891 6 155407877.231 6        40.900
C04  39243409.180 5 204350744.914 5        35.000    39243424.910 6 158017021.520 6        39.400
C03  36101061.766 7 187987711.092 7        43.500    36101068.570 7 145364052.588 7        46.600
C02  36742226.492 6 191326426.648 6        39.900    36742233.438 7 147945759.285 7        45.300
C01  37926840.516 6 197495014.197 6        39.900    37926852.992 7 152715727.698 7        42.000
S27  38821621.797 6 204009001.924 6        40.000    38821638.617 7 152344415.916 7        42.400
S29  36527840.109 7 191955091.193 7        46.200
S37  36807711.641 6 193425833.528 6        41.700
> 2025  3 13  8 51 28.0000000  0 43       0.000200596000
R23  24027698.852 6 128532055.717 6        38.100    24027697.461 6 128532007.718 6        36.300
R22  21667431.484 7 115662249.204 7        47.500    21667432.582 7 115662202.218 7        45.900    21667447.664 7  89959503.024 7        42.600    21667448.137 7  89959500.031 7        42.300
R21  22075880.609 7 118132490.728 7        45.700    22075879.973 7 118132461.733 7        44.400    22075895.645 7  91880806.962 7        43.900    22075896.395 7  91880803.959 7        43.300
R12  21372492.305 8 114168033.804 8        48.700    21372492.895 7 114168001.811 7        47.400    21372509.641 7  88797340.264 7        46.100    21372510.031 7  88797337.262 7        44.900
R11  20434507.516 8 109195795.818 8        51.100    20434507.605 8 109195762.825 8        49.600    20434524.332 8  84930037.741 8        49.100    20434524.586 7  84930033.740 7        47.600
R10  23594063.008 6 125769613.472 6        36.400    23594063.688 5 125769574.489 5        34.400
R07  21857074.555 7 117002652.742 7        45.100    21857075.023 7 117002611.760 7        43.500    21857097.488 7  91002045.123 7        44.500    21857097.621 7  91002041.127 7        43.400
R06  21452560.961 5 114475030.164 5        35.300    21452560.102 5 114474957.156 5        34.300
G24  25576047.070 4                        28.600
G22  21144813.773 7 111116739.536 7        47.600    21144828.516 6  86584520.079 6        38.700
G20  21783420.219 7 114472670.943 7        45.800    21783438.480 5  89199568.277 5        33.800
E33  25246381.188 7 132670628.995 7        44.500    25246398.707 7  99072284.657 7        47.100    25246394.262 7 101656762.700 7        47.300    25246396.629 8 100364478.288 8        53.300
E31  23391224.664 8 122921716.969 8        49.900    23391243.707 8  91792184.901 8        51.700    23391239.336 8  94186741.180 8        52.100    23391241.469 9  92989462.649 9        58.800
E29  27968243.305 6 146974161.790 6        36.200    27968281.348 6 109753600.940 6        38.100    27968274.738 6 112616713.120 6        37.900
E26  28962510.328 5 152199013.557 5        34.000
E24  25981941.664 7 136536039.902 7        44.700    25981960.699 7 101958733.883 7        45.700    25981956.125 7 104618510.005 7        46.700    25981958.461 8 103288614.554 8        52.300
E23  25584147.164 7 134445592.903 7        44.700    25584173.305 7 100397772.739 7        46.200    25584168.770 7 103016831.010 7        47.000    25584170.898 8 101707301.485 8        52.800
E19  26994110.523 5 141855028.640 5        31.500    26994142.703 5 105930818.737 5        34.900    26994136.172 5 108694207.645 5        34.000
E16  27929971.930 6 146772998.331 6        37.000    27929995.848 6 109603316.920 6        39.500    27929990.273 6 112462512.957 6        39.800
E12  24574521.555 7 129139998.423 7        44.800    24574538.043 7  96435762.369 7        46.300    24574533.992 8  98951468.486 8        48.000    24574535.957 8  97693622.534 8        53.500
E10  25648413.953 7 134783351.973 7        45.300    25648438.629 7 100649994.374 7        47.300    25648433.703 7 103275639.500 7        47.400    25648435.941 8 101962818.546 8        53.400
E04  28761002.000 5 151140085.215 5        32.900    28761034.727 5 112864475.270 5        33.300    28761029.543 6 115808750.415 6        36.100
G19  20891974.383 7 109788074.325 7        45.700    20891985.953 6  85549189.235 6        37.800
G17  22067166.266 7 115963735.086 7        44.200    22067182.969 6  90361411.232 6        41.500    22067182.992 7  90361345.230 7        45.000
G14  22144118.094 7 116368115.045 7        42.700    22144139.449 5  90676527.000 5        30.100    22144139.336 7  90676445.991 7        45.700    22144149.406 8  86898256.809 8        48.300
G12  24207009.188 6 127208686.206 6        37.900    24207025.621 4  99123743.715 4        28.600    24207025.070 6  99123745.711 6        37.200
G11  21976789.086 7 115488829.839 7        44.700    21976805.430 5  89991364.888 5        35.000    21976805.340 7  89991297.882 7        47.900    21976814.227 8  86241658.841 8        50.300
G09  23948858.422 5 125852132.632 5        33.100    23948889.668 4  98066732.968 4        26.100    23948889.219 6  98066728.970 6        37.200    23948898.656 7  93980644.614 7        43.800
G06  21369697.797 7 112298527.968 7        46.200    21369714.074 7  87505409.071 7        47.500    21369714.578 8  87505341.064 8        48.000    21369719.645 8  83859281.532 8        51.700
G05  25217565.727 5 132519239.817 5        33.500    25217591.004 3 103261844.715 3        22.500    25217590.906 5 103261849.734 5        34.200
G04  25265471.547 5 132770926.792 5        31.200                                                    25265494.270 5 103458031.981 5        32.000    25265504.898 6  99147320.087 6        36.500
R08  24585313.023 6 131653243.968 6        38.300    24585313.465 6 131653194.979 6        37.600    24585338.586 6 102397067.799 6        37.200    24585339.910 5 102397062.798 5        35.600
C30  24152045.523 6 125766028.152 6        41.100
C13  36663233.883 7 190915089.878 7        44.900    36663247.832 7 147627619.161 7        44.700
C06  40129887.242 5 208966856.629 5        33.700    40129902.684 5 161586488.842 5        34.900
C05  38595428.414 6 200976533.193 6        36.200    38595443.586 6 155407871.781 6        40.900
C04  39243401.898 5 204350706.037 5        35.200    39243417.227 6 158016991.465 6        39.600
C03  36101057.859 7 187987689.267 7        43.800    36101064.664 7 145364035.714 7        46.600
C02  36742219.227 6 191326388.344 6        40.400    36742225.957 7 147945729.670 7        45.500
C01  37926836.711 6 197494996.273 6        40.000    37926849.547 7 152715713.842 7        42.500
S27  38821623.453 6 204009009.861 6        39.400    38821640.555 7 152344421.846 7        42.700
S29  36527838.031 7 191955092.920 7        46.200
S37  36807710.344 6 193425837.104 6        41.700
> 2025  3 13  8 51 29.0000000  0 43       0.000200596000
R23  24027467.109 6 128530811.849 6        38.400    24027465.863 6 128530763.844 6        36.900
R22  21667388.555 7 115662020.571 7        47.300    21667390.035 7 115661973.584 7        45.900    21667405.023 7  89959325.211 7        42.800    21667405.359 7  89959322.214 7        42.400
R21  22076097.523 7 118133652.146 7        46.000    22076096.883 7 118133623.148 7        44.300    22076112.852 7  91881710.286 7        43.900    22076113.563 7  91881707.286 7        43.300
R12  21372184.055 8 114166384.479 8        49.100    21372184.324 7 114166352.482 7        47.100    21372201.055 7  88796057.461 7        45.800    21372201.309 7  88796054.458 7        44.800
R11  20434993.250 8 109198393.430 8        51.300    20434994.121 8 109198360.433 8        49.600    20435010.422 8  84932058.102 8        49.000    20435010.949 7  84932054.104 7        47.800
R10  23594851.500 6 125773818.701 6        36.500    23594852.641 5 125773779.708 5        34.600
R07  21856474.195 7 116999437.628 7        45.600    21856474.434 7 116999396.639 7        43.900    21856496.625 7  90999544.495 7        44.300    21856496.891 7  90999540.495 7        43.300
R06  21452439.906 5 114474389.238 5        35.700    21452440.582 5 114474316.246 5        34.300
G24  25576272.633 4                        28.900
G22  21145156.539 7 111118539.865 7        47.700    21145171.496 6  86585922.928 6        38.500
G20  21782932.609 7 114470107.127 7        45.700    21782950.320 5  89197570.508 5        33.700
E33  25246699.273 7 132672300.643 7        44.300    25246716.934 7  99073532.967 7        47.400    25246712.445 7 101658043.574 7        47.500    25246714.707 8 100365742.879 8        53.200
E31  23391292.797 8 122922074.933 8        49.900    23391311.754 8  91792452.213 8        51.800    23391307.375 8  94187015.466 8        52.100    23391309.520 9  92989733.448 9        58.800
E29  27968032.078 5 146973052.057 5        35.800    27968070.230 6 109752772.265 6        37.800    27968063.523 6 112615862.823 6        37.900
E26  28962870.477 5 152200905.860 5        33.000                                                    28962886.152 6 116621535.22316        38.600    28962890.328 7 115139078.81917        43.800
E24  25981546.602 7 136533962.947 7        44.200    25981565.418 7 101957182.920 7        45.800    25981560.965 7 104616918.581 7        46.700    25981563.336 8 103287043.358 8        52.400
E23  25584632.047 7 134448140.679 7        44.700    25584658.219 7 100399675.296 7        46.500    25584653.574 7 103018783.198 7        47.000    25584655.734 8 101709228.858 8        52.800
E19  26993763.828 5 141853208.261 5        31.700    26993796.238 5 105929459.372 5        34.400    26993789.629 5 108692812.815 5        34.300
E16  27929461.195 6 146770315.459 6        36.700    27929485.309 6 109601313.478 6        38.900    27929479.797 6 112460457.250 6        39.800
E12  24574542.695 7 129140109.589 7        45.000    24574559.203 7  96435845.390 7        46.500    24574555.184 8  98951553.670 8        48.000    24574557.078 8  97693706.638 8        53.500
E10  25648285.773 7 134782678.820 7        45.400    25648310.352 7 100649491.705 7        47.300    25648305.371 7 103275123.717 7        47.400    25648307.668 8 101962309.321 8        53.500
E04  28760739.563 5 151138706.647 5        32.300    28760772.359 5 112863445.818 5        33.300    28760767.227 6 115807694.112 6        36.000
G19  20891861.344 7 109787480.477 7        45.600    20891873.012 6  85548726.498 6        37.700
G17  22067253.742 7 115964195.999 7        43.800    22067270.434 6  90361770.386 6        41.400    22067270.434 7  90361704.383 7        45.100
G14  22144730.125 7 116371328.593 7        42.700    22144750.766 5  90679031.056 5        30.700    22144751.004 7  90678950.049 7        45.700    22144760.781 8  86900656.532 8        48.700
G12  24206385.469 6 127205410.831 6        38.100    24206402.527 4  99121191.479 4        28.300    24206402.242 6  99121193.477 6        37.100
G11  21976684.102 7 115488276.247 7        44.700    21976700.344 5  89990933.523 5        34.600    21976700.215 7  89990866.518 7        47.700    21976709.172 8  86241245.454 8        50.300
G09  23948632.859 5 125850946.454 5        33.600    23948663.852 4  98065808.673 4        25.500    23948663.301 6  98065804.676 6        37.100    23948672.707 7  93979758.836 7        43.800
G06  21369870.945 7 112299439.724 7        46.100    21369887.746 7  87506119.535 7        47.300    21369888.230 7  87506051.528 7        47.600    21369893.129 8  83859962.394 8        51.700
G05  25216861.063 5 132515531.311 5        33.900    25216885.402 3 103258954.972 3        22.800    25216885.543 5 103258959.988 5        35.000
G04  25265422.977 5 132770677.297 5        30.100                                                    25265446.633 5 103457837.594 5        30.800    25265457.570 6  99147133.797 6        36.400
R08  24584619.234 6 131649526.531 6        38.900    24584619.367 6 131649477.547 6        37.900    24584644.711 6 102394176.449 6        36.900    24584645.527 6 102394171.447 6        36.600
C30  24152231.016 6 125766994.799 6        41.300
C13  36663102.328 7 190914405.366 7        44.500    36663116.410 7 147627089.858 7        45.100
C06  40130118.805 5 208968058.899 5        32.900    40130133.699 5 161587418.512 5        34.600
C05  38595427.344 5 200976526.123 5        35.900    38595442.289 6 155407866.318 6        40.900
C04  39243394.172 5 204350667.140 5        35.200    39243409.664 6 158016961.393 6        39.500
C03  36101053.547 7 187987667.425 7        43.700    36101060.328 7 145364018.828 7        46.500
C02  36742212.422 6 191326350.052 6        39.900    36742218.906 7 147945700.063 7        45.600
C01  37926833.281 6 197494978.325 6        39.800    37926846.102 7 152715699.967 7        42.500
S27  38821624.922 6 204009017.792 6        40.100    38821641.656 7 152344427.753 7        42.300
S29  36527838.656 7 191955094.627 7        46.100
S37  36807712.297 6 193425840.658 6        41.700
> 2025  3 13  8 51 30.0000000  0 43       0.000200594000
R23  24027234.266 6 128529568.052 6        37.700    24027232.605 6 128529520.067 6        36.300
R22  21667346.375 7 115661791.955 7        47.700    21667346.867 7 115661744.962 7        45.800    21667361.992 7  89959147.407 7        43.200    21667362.414 7  89959144.413 7        42.600
R21  22076314.250 7 118134813.452 7        45.900    22076313.813 7 118134784.456 7        44.600    22076329.824 7  91882613.527 7        43.700    22076330.336 7  91882610.527 7        43.500
R12  21371875.211 8 114164735.942 8        49.200    21371875.898 7 114164703.943 7        47.400    21371892.691 7  88794775.270 7        46.200    21371893.000 7  88794772.267 7        44.700
R11  20435479.164 8 109200991.652 8        51.600    20435479.730 8 109200958.658 8        49.500    20435496.148 8  84934078.941 8        49.100    20435496.648 8  84934074.940 8        48.000
R10  23595641.320 5 125778023.885 5        35.900    23595640.813 5 125777984.889 5        34.800
R07  21855874.281 7 116996222.749 7        45.600    21855873.832 7 116996181.762 7        44.200    21855895.926 7  90997044.045 7        44.300    21855896.121 7  90997040.040 7        43.300
R06  21452319.055 5 114473749.066 5        35.000    21452320.230 5 114473676.059 5        35.000
G24  25576498.273 4 134405405.552 4        28.900    25576533.465 3 104731585.08913        19.000    25576532.996 5 104731581.07315        32.800    25576543.000 6 100367799.32816        38.900
G22  21145499.156 7 111120340.690 7        47.800    21145513.984 6  86587326.168 6        38.600
G20  21782444.617 7 114467543.716 7        45.800    21782462.676 5  89195573.057 5        34.000
E33  25247017.500 7 132673972.252 7        44.400    25247034.965 7  99074781.248 7        46.800    25247030.449 7 101659324.421 7        47.100    25247032.797 8 100367007.444 8        53.200
E31  23391360.992 8 122922433.331 8        50.100    23391379.906 8  91792719.852 8        51.400    23391375.633 8  94187290.085 8        51.300    23391377.746 9  92990004.576 9        58.800
E29  27967821.102 6 146971942.499 6        36.200    27967859.043 6 109751943.719 6        38.100    27967852.156 6 112615012.656 6        37.900
E26  28963230.578 5 152202797.984 5        31.700    28963251.172 6 113658016.66516        37.400    28963247.000 6 116622985.062 6        38.100    28963250.313 7 115140510.155 7        43.400
E24  25981151.367 7 136531886.246 7        44.500    25981170.332 7 101955632.148 7        45.200    25981165.695 7 104615327.352 7        46.600    25981168.141 8 103285472.358 8        52.300
E23  25585116.883 7 134450688.663 7        44.600    25585142.949 7 100401578.010 7        46.200    25585138.332 7 103020735.548 7        46.800    25585140.559 8 101711156.389 8        52.700
E19  26993417.891 5 141851387.784 5        32.000    26993449.852 5 105928099.933 5        35.000    26993443.441 5 108691417.906 5        34.100
E16  27928950.688 6 146767632.696 6        37.000    27928974.656 6 109599310.119 6        38.900    27928969.453 6 112458401.630 6        39.800
E12  24574563.977 7 129140220.910 7        45.100    24574580.371 7  96435928.527 7        46.100    24574576.512 7  98951638.975 7        47.500    24574578.316 8  97693790.858 8        53.500
E10  25648157.539 7 134782005.850 7        45.500    25648182.211 7 100648989.173 7        47.100    25648177.273 7 103274608.075 7        47.400    25648179.594 8 101961800.233 8        53.500
E04  28760477.078 5 151137327.778 5        32.300    28760509.813 5 112862416.148 5        33.700    28760504.363 5 115806637.585 5        35.800
G19  20891748.297 7 109786886.812 7        45.700    20891759.988 6  85548263.905 6        37.600
G17  22067341.508 7 115964657.103 7        44.600    22067358.148 6  90362129.687 6        41.700    22067358.266 7  90362063.685 7        45.100
G14  22145341.477 7 116374542.431 7        42.300    22145362.391 5  90681535.343 5        31.200    22145362.508 7  90681454.334 7        45.900    22145372.383 8  86903056.472 8        48.300
G12  24205762.148 6 127202135.705 6        38.400    24205779.203 4  99118639.435 4        29.000    24205778.867 6  99118641.435 6        37.000
G11  21976578.438 7 115487722.902 7        44.900    21976595.227 5  89990502.352 5        34.100    21976594.895 8  89990435.349 8        48.000    21976603.926 8  86240832.250 8        50.200
G09  23948407.297 5 125849760.550 5        33.300    23948437.871 4  98064884.597 4        25.800    23948437.426 6  98064880.602 6        37.400    23948446.777 7  93978873.271 7        43.700
G06  21370044.445 7 112300351.629 7        46.100    21370061.250 7  87506830.113 7        47.300    21370061.516 7  87506762.105 7        47.900    21370066.738 8  83860643.365 8        51.700
G05  25216154.883 5 132511822.862 5        34.000    25216179.801 3 103256065.277 3        22.300    25216180.027 5 103256070.287 5        34.600
G04  25265374.898 5 132770428.210 5        30.500                                                    25265398.609 5 103457643.518 5        32.300    25265409.746 6  99146947.811 6        36.600
R08  24583924.664 6 131645808.830 6        38.500    24583925.504 6 131645759.844 6        38.000    24583950.484 6 102391284.914 6        36.800    24583951.266 6 102391279.913 6        36.500
C30  24152416.852 6 125767961.445 6        41.700
C13  36662971.008 7 190913721.011 7        44.900    36662984.703 7 147626560.673 7        45.300
C06  40130349.375 5 208969261.029 5        33.900    40130364.477 5 161588348.071 5        34.700
C05  38595425.805 6 200976519.030 6        36.200    38595440.926 6 155407860.837 6        41.300
C04  39243387.305 5 204350628.248 5        34.300    39243402.281 6 158016931.320 6        39.600
C03  36101049.438 7 187987645.576 7        43.900    36101056.031 7 145364001.936 7        46.400
C02  36742204.695 6 191326311.738 6        40.500    36742211.418 7 147945670.441 7        45.500
C01  37926830.102 6 197494960.382 6        40.200    37926842.449 7 152715686.096 7        42.600
S27  38821626.328 6 204009025.755 6        39.800    38821643.051 7 152344433.708 7        42.600
S29  36527840.203 7 191955096.320 7        46.000
S37  36807716.625 7 193425844.196 7        42.000
> 2025  3 13  8 51 31.0000000  0 43       0.000200594000
R23  24027000.445 6 128528324.359 6        38.100    24027000.648 6 128528276.366 6        36.000
R22  21667304.164 7 115661563.376 7        47.600    21667304.207 7 115661516.379 7        46.200    21667319.391 7  89958969.624 7        42.700    21667319.699 7  89958966.630 7        42.600
R21  22076531.945 7 118135974.670 7        46.300    22076531.164 7 118135945.678 7        44.400    22076546.867 7  91883516.698 7        43.100    22076547.418 7  91883513.697 7        43.700
R12  21371566.648 8 114163088.175 8        48.700    21371567.199 7 114163056.178 7        47.900    21371584.156 7  88793493.680 7        46.100    21371584.250 7  88793490.675 7        44.800
R11  20435965.969 8 109203590.526 8        51.400    20435966.363 8 109203557.530 8        49.700    20435982.820 8  84936100.286 8        49.300    20435983.328 7  84936096.285 7        47.800
R10  23596429.906 5 125782229.049 5        35.900    23596429.605 5 125782190.036 5        34.700
R07  21855273.273 7 116993008.167 7        45.300    21855274.293 7 116992967.174 7        43.900    21855296.035 7  90994543.818 7        43.900    21855296.422 7  90994539.814 7        43.400
R06  21452199.727 5 114473109.653 5        35.000    21452200.219 5 114473036.642 5        34.700
G24  25576723.102 4 134406587.152 4        29.100    25576758.398 3 104732505.785 3        19.300    25576757.648 5 104732501.803 5        33.300    25576767.930 6 100368681.687 6        38.800
G22  21145841.758 8 111122142.026 8        48.100    21145857.012 6  86588729.809 6        38.500
G20  21781956.938 7 114464980.726 7        46.100    21781974.914 5  89193575.932 5        34.200
E33  25247335.477 7 132675643.827 7        44.800    25247353.148 7  99076029.504 7        46.600    25247348.797 7 101660605.238 7        46.600    25247351.012 8 100368271.980 8        53.200
E31  23391429.250 8 122922792.187 8        50.400    23391448.238 8  91792987.829 8        51.500    23391443.828 8  94187565.053 8        51.900    23391446.031 9  92990276.049 9        58.800
E29  27967610.039 6 146970833.142 6        36.500    27967648.055 6 109751115.318 6        38.400    27967641.141 6 112614162.645 6        37.900
E26  28963590.023 4 152204690.011 4        28.600    28963611.844 6 113659429.565 6        36.200    28963607.258 6 116624434.806 6        37.100    28963610.145 7 115141941.388 7        42.600
E24  25980756.078 7 136529809.832 7        44.900    25980775.043 7 101954081.587 7        45.000    25980770.688 7 104613736.341 7        46.200    25980772.926 8 103283901.572 8        52.400
E23  25585601.922 7 134453236.886 7        44.600    25585627.906 7 100403480.902 7        45.900    25585623.273 7 103022688.080 7        47.000    25585625.414 8 101713084.101 8        52.800
E19  26993071.563 5 141849567.247 5        31.700    26993103.367 5 105926740.441 5        34.700    26993096.945 5 108690022.956 5        34.400
E16  27928440.156 6 146764950.057 6        36.500    27928463.977 6 109597306.852 6        39.300    27928458.980 6 112456346.104 6        40.300
E12  24574585.328 7 129140332.405 7        45.100    24574601.707 7  96436011.788 7        46.300    24574597.770 7  98951724.409 7        47.600    24574599.605 8  97693875.208 8        53.500
E10  25648029.672 7 134781333.104 7        45.900    25648054.293 7 100648486.809 7        46.900    25648049.391 7 103274092.604 7        47.500    25648051.582 8 101961291.314 8        53.700
E04  28760214.750 5 151135948.606 5        32.500    28760247.098 5 112861386.249 5        34.300    28760241.488 6 115805580.821 6        36.500
G19  20891635.516 7 109786293.352 7        45.700    20891646.844 6  85547801.470 6        37.900
G17  22067429.500 7 115965118.419 7        44.300    22067445.738 6  90362489.152 6        41.700    22067445.922 7  90362423.150 7        44.900
G14  22145952.891 7 116377756.589 7        42.700    22145974.211 5  90684039.875 5        31.200    22145974.000 7  90683958.868 7        45.800    22145984.035 8  86905456.651 8        48.400
G12  24205139.648 6 127198860.858 6        38.100    24205156.141 4  99116087.617 4        28.900    24205155.996 6  99116089.616 6        37.400
G11  21976473.227 7 115487169.832 7        44.900    21976489.625 5  89990071.397 5        34.400    21976489.516 7  89990004.391 7        47.900    21976498.520 8  86240419.252 8        50.300
G09  23948182.688 5 125848574.961 5        33.800    23948212.402 4  98063960.785 4        26.100    23948211.977 6  98063956.777 6        37.100    23948221.215 7  93977987.943 7        43.800
G06  21370217.906 7 112301263.709 7        46.000    21370234.828 7  87507540.829 7        47.500    21370235.152 7  87507472.823 7        47.900    21370240.301 8  83861324.468 8        51.800
G05  25215449.594 5 132508114.443 5        34.400    25215474.340 3 103253175.603 3        23.000    25215474.508 5 103253180.613 5        34.700
G04  25265327.656 5 132770179.509 5        31.200                                                    25265351.230 5 103457449.732 5        33.100    25265362.492 6  99146762.110 6        36.400
R08  24583229.984 6 131642090.880 6        39.500    24583230.496 6 131642041.891 6        38.300    24583255.496 6 102388393.201 6        36.100    24583256.602 5 102388388.201 5        35.900
C30  24152602.672 7 125768928.103 7        42.000
C13  36662839.625 7 190913036.866 7        45.500    36662853.727 7 147626031.652 7        45.700
C06  40130580.602 5 208970463.044 5        33.900    40130595.332 5 161589277.545 5        34.600
C05  38595424.188 6 200976511.954 6        36.300    38595439.531 6 155407855.372 6        41.600
C04  39243380.031 5 204350589.354 5        35.300    39243394.773 6 158016901.244 6        40.100
C03  36101045.188 7 187987623.736 7        44.200    36101051.859 7 145363985.051 7        46.600
C02  36742197.297 6 191326273.427 6        40.400    36742204.063 7 147945640.820 7        45.700
C01  37926826.781 6 197494942.443 6        40.200    37926839.191 7 152715672.226 7        42.500
S27  38821628.078 6 204009033.643 6        39.800    38821644.922 7 152344439.596 7        42.400
S29  36527840.766 7 191955098.032 7        46.200
S37  36807711.531 6 193425847.757 6        41.800
> 2025  3 13  8 51 32.0000000  0 43       0.000200594000
R23  24026767.641 6 128527080.727 6        37.900    24026767.563 6 128527032.734 6        36.600
R22  21667260.961 7 115661334.802 7        47.200    21667261.699 7 115661287.806 7        45.800    21667276.797 7  89958791.835 7        42.600    21667277.023 7  89958788.844 7        42.500
R21  22076748.461 7 118137135.771 7        46.600    22076748.109 7 118137106.777 7        44.300    22076763.828 7  91884419.781 7        43.100    22076764.488 7  91884416.776 7        43.800
R12  21371257.648 8 114161441.147 8        48.700    21371258.820 8 114161409.151 8        48.000    21371275.914 7  88792212.663 7        46.600    21371276.031 7  88792209.659 7        44.700
R11  20436452.469 8 109206189.995 8        51.400    20436452.871 8 109206157.007 8        49.700    20436469.688 8  84938122.091 8        49.300    20436469.789 7  84938118.089 7        47.900
R10  23597218.922 5 125786434.109 5        35.800    23597218.555 5 125786395.115 5        35.100
R07  21854672.063 7 116989793.839 7        44.900    21854673.445 7 116989752.855 7        44.000    21854694.848 7  90992043.788 7        44.300    21854695.527 7  90992039.787 7        43.200
R06  21452080.406 5 114472470.975 5        35.100    21452080.746 5 114472397.969 5        34.500
G24  25576948.367 4 134407768.930 4        28.900    25576983.461 3 104733426.642 3        19.300    25576982.785 5 104733422.668 5        33.300    25576992.922 6 100369564.184 6        38.700
G22  21146184.555 7 111123943.834 7        47.700    21146199.574 6  86590133.815 6        38.600
G20  21781469.297 7 114462418.133 7        46.300    21781487.453 5  89191579.113 5        34.400
E33  25247653.578 7 132677315.357 7        44.600    25247671.043 7  99077277.726 7        46.500    25247666.625 7 101661886.023 7        46.800    25247668.992 8 100369536.483 8        53.200
E31  23391497.648 8 122923151.465 8        49.800    23391516.461 8  91793256.120 8        51.500    23391512.090 8  94187840.344 8        51.800    23391514.250 9  92990547.841 9        58.900
E29  27967398.766 6 146969723.988 6        36.500    27967436.789 6 109750287.074 6        38.200    27967429.930 6 112613312.791 6        37.500
E26  28963950.078 4                        25.600
E24  25980361.094 7 136527733.692 7        44.700    25980380.164 7 101952531.229 7        45.400    25980375.680 7 104612145.538 7        46.600    25980377.984 8 103282330.991 8        52.400
E23  25586087.086 7 134455785.321 7        44.500    25586112.930 7 100405383.953 7        45.900    25586108.180 7 103024640.773 7        47.100    25586110.422 8 101715011.972 8        52.800
E19  26992724.836 5 141847746.656 5        31.500    26992757.074 5 105925380.905 5        34.700    26992750.516 5 108688627.959 5        34.900
E16  27927929.531 6 146762267.501 6        36.500    27927953.512 6 109595303.647 6        39.300    27927948.543 6 112454290.643 6        40.200
E12  24574606.414 7 129140444.048 7        44.900    24574623.070 7  96436095.163 7        46.500    24574618.859 7  98951809.957 7        47.800    24574620.852 8  97693959.669 8        53.500
E10  25647901.539 7 134780660.541 7        45.600    25647926.352 7 100647984.582 7        47.200    25647921.477 7 103273577.273 7        47.300    25647923.664 8 101960782.535 8        53.500
E04  28759952.383 5 151134569.06115        32.500    28759984.770 5 112860356.06315        35.000    28759978.809 5 115804523.77015        35.800
G19  20891522.422 7 109785700.071 7        45.500    20891533.766 6  85547339.177 6        37.700
G17  22067517.289 7 115965579.906 7        44.200    22067533.773 6  90362848.749 6        41.500    22067533.793 7  90362782.746 7        45.100
G14  22146565.219 7 116380971.030 7        42.700    22146585.727 5  90686544.625 5        31.100    22146585.141 7  90686463.623 7        45.900    22146595.570 8  86907857.039 8        48.400
G12  24204516.203 6 127195586.236 6        38.000    24204532.832 4  99113535.968 4        28.600    24204533.000 6  99113537.970 6        37.400
G11  21976368.227 7 115486617.001 7        44.700    21976384.344 5  89989640.625 5        34.300    21976384.418 8  89989573.619 8        48.000    21976393.371 8  86240006.430 8        50.300
G09  23947956.477 5 125847389.643 5        32.600    23947987.258 4  98063037.166 4        26.500    23947987.254 6  98063033.161 6        37.500    23947996.027 7  93977102.811 7        43.800
G06  21370391.711 7 112302175.930 7        46.000    21370408.172 7  87508251.651 7        47.400    21370408.590 8  87508183.646 8        48.100    21370413.695 8  83862005.673 8        51.800
G05  25214743.531 5 132504406.077 5        33.400    25214768.715 3 103250285.965 3        22.800    25214768.434 5 103250290.975 5        34.700
G04  25265280.453 5                        30.100
R08  24582536.766 6 131638372.608 6        39.900    24582535.953 6 131638323.630 6        38.700    24582560.758 5 102385501.235 5        35.400    24582562.125 5 102385496.237 5        35.200
C30  24152788.219 6 125769894.746 6        41.600
C13  36662708.148 7 190912352.874 7        44.900    36662722.242 7 147625502.752 7        45.800
C06  40130810.203 5 208971664.884 5        33.400    40130825.828 5 161590206.883 5        34.700
C05  38595423.070 5 200976504.868 5        35.900    38595438.043 6 155407849.896 6        41.600
C04  39243372.445 5 204350550.457 5        34.300    39243387.656 6 158016871.167 6        39.700
C03  36101041.039 7 187987601.882 7        43.600    36101047.742 7 145363968.152 7        46.900
C02  36742189.977 6 191326235.091 6        39.700    36742196.578 7 147945611.179 7        45.400
C01  37926822.992 6 197494924.491 6        39.800    37926835.855 7 152715658.343 7        42.200
S27  38821629.406 6 204009041.532 6        40.000    38821646.555 7 152344445.491 7        42.500
S29  36527841.625 7 191955099.724 7        45.900
S37  36807722.031 7 193425851.297 7        42.100
> 2025  3 13  8 51 33.0000000  0 42       0.000200594000
R23  24026535.234 6 128525837.219 6        38.000    24026535.172 6 128525789.230 6        36.000
R22  21667218.164 7 115661106.295 7        47.100    21667218.328 7 115661059.297 7        46.500    21667233.496 7  89958614.108 7        42.500    21667233.902 7  89958611.119 7        42.900
R21  22076965.016 7 118138296.801 7        46.600    22076964.973 7 118138267.803 7        44.700    22076980.867 7  91885322.805 7        43.300    22076981.445 7  91885319.800 7        43.900
R12  21370950.086 8 114159794.930 8        49.000    21370950.555 8 114159762.932 8        48.000    21370967.395 7  88790932.276 7        46.300    21370967.645 7  88790929.271 7        44.300
R11  20436938.906 8 109208790.131 8        51.500    20436939.414 8 109208757.141 8        49.800    20436955.781 8  84940144.414 8        48.800    20436956.520 8  84940140.409 8        48.300
R10  23598008.094 5 125790639.166 5        35.900    23598007.309 5 125790600.193 5        34.700
R07  21854072.133 7 116986579.807 7        45.400    21854072.801 7 116986538.828 7        44.200    21854094.398 7  90989543.990 7        44.200    21854094.738 7  90989539.995 7        43.300
R06  21451960.477 5 114471833.072 5        34.600    21451961.355 5 114471760.067 5        34.100
G24  25577172.203 4 134408950.979 4        29.400    25577208.570 3 104734347.725 3        19.300    25577207.664 5 104734343.742 5        33.800    25577217.969 6 100370446.877 6        38.800
G22  21146527.477 7 111125746.187 7        47.200    21146542.664 6  86591538.242 6        38.500
G20  21780981.703 7 114459855.993 7        46.400    21780999.699 5  89189582.648 5        34.900
E33  25247971.711 7 132678986.886 7        44.500    25247989.266 7  99078525.945 7        46.700    25247984.789 7 101663166.806 7        46.900    25247987.016 8 100370800.984 8        53.200
E31  23391566.016 8 122923511.235 8        50.100    23391585.109 8  91793524.780 8        51.700    23391580.660 8  94188116.014 8        51.700    23391582.867 9  92990820.007 9        58.900
E29  27967187.734 5 146968615.049 5        35.900    27967225.977 6 109749458.988 6        37.800    27967219.109 6 112612463.105 6        37.700
E24  25979966.125 7 136525657.857 7        44.400    25979985.195 7 101950981.099 7        45.700    25979980.664 7 104610554.971 7        46.800    25979982.961 8 103280760.643 8        52.400
E23  25586572.242 7 134458334.020 7        44.500    25586597.918 7 100407287.199 7        46.000    25586593.133 7 103026593.673 7        47.000    25586595.430 8 101716940.046 8        52.700
E19  26992378.656 5 141845926.027 5        31.500    26992410.602 5 105924021.350 5        35.300    26992404.133 5 108687232.936 5        34.700
E16  27927419.281 6 146759585.114 6        36.800    27927443.012 6 109593300.571 6        39.800    27927438.207 6 112452235.313 6        40.000
E12  24574627.727 7 129140555.900 7        45.500    24574644.121 7  96436178.695 7        46.600    24574640.113 8  98951895.667 8        48.100    24574642.027 8  97694044.289 8        53.500
E10  25647773.625 7 134779988.216 7        46.000    25647798.430 7 100647482.531 7        47.200    25647793.410 7 103273062.124 7        47.100    25647795.719 8 101960273.937 8        53.500
E04  28759689.961 5 151133189.261 5        32.900    28759722.141 5 112859325.693 5        34.400    28759716.086 6 115803466.520 6        36.700
G19  20891409.664 7 109785107.042 7        45.700    20891421.309 6  85546877.076 6        38.000
G17  22067605.273 7 115966041.639 7        44.400    22067621.402 6  90363208.539 6        41.200    22067621.754 7  90363142.534 7        45.200
G14  22147176.672 7 116384185.814 7        43.100    22147197.430 5  90689049.654 5        31.200    22147197.043 7  90688968.648 7        46.200    22147207.359 8  86910257.685 8        48.300
G12  24203892.250 6 127192311.909 6        38.100    24203909.848 4  99110984.551 4        28.500    24203910.270 6  99110986.558 6        37.600
G11  21976262.711 7 115486064.467 7        44.700    21976279.473 5  89989210.089 5        34.400    21976279.457 8  89989143.080 8        48.000    21976288.367 8  86239593.830 8        50.300
G09  23947730.250 5 125846204.613 5        32.300    23947761.645 4  98062113.773 4        26.200    23947761.527 6  98062109.769 6        37.700    23947770.402 7  93976217.893 7        43.800
G06  21370565.445 7 112303088.353 7        46.100    21370581.910 7  87508962.632 7        47.500    21370582.426 8  87508894.628 8        48.000    21370587.355 8  83862687.030 8        51.700
G05  25214037.344 5 132500697.778 5        33.100    25214063.055 4 103247396.385 4        24.500    25214062.719 5 103247401.394 5        34.200
G04  25265233.617 5                        30.800
R08  24581842.602 6 131634654.073 6        38.800    24581841.703 6 131634605.085 6        37.700    24581866.008 5 102382609.057 5        33.500    24581867.621 5 102382604.061 5        33.900
C30  24152973.766 6 125770861.428 6        41.800
C13  36662577.023 7 190911669.092 7        45.200    36662591.031 7 147624974.012 7        45.000
C06  40131041.531 5 208972866.669 5        33.800    40131056.973 5 161591136.185 5        35.100
C05  38595421.734 5 200976497.813 5        35.800    38595436.684 6 155407844.446 6        40.800
C04  39243364.656 5 204350511.591 5        34.800    39243380.082 6 158016841.118 6        39.900
C03  36101036.781 7 187987580.070 7        43.800    36101043.289 7 145363951.285 7        46.900
C02  36742182.172 6 191326196.806 6        40.100    36742189.301 7 147945581.579 7        45.500
C01  37926819.656 6 197494906.576 6        40.200    37926832.445 7 152715644.492 7        42.700
S27  38821631.063 6 204009049.520 6        40.200    38821648.316 7 152344451.484 7        42.600
S29  36527841.078 7 191955101.456 7        45.600
S37  36807716.531 6 193425854.875 6        41.600
> 2025  3 13  8 51 34.0000000  0 42       0.000200594000
R23  24026303.305 6 128524593.823 6        37.800    24026302.816 6 128524545.835 6        36.000
R22  21667175.164 7 115660877.838 7        47.000    21667175.824 7 115660830.844 7        46.100    21667191.227 7  89958436.424 7        42.400    21667191.234 7  89958433.437 7        42.700
R21  22077182.250 7 118139457.741 7        46.400    22077182.141 7 118139428.744 7        44.600    22077197.867 7  91886225.758 7        43.700    22077198.711 7  91886222.753 7        44.000
R12  21370642.469 8 114158149.554 8        48.900    21370643.156 8 114158117.557 8        48.000    21370659.988 7  88789652.543 7        46.400    21370660.109 7  88789649.538 7        44.700
R11  20437425.344 8 109211390.926 8        51.200    20437425.898 8 109211357.932 8        49.800    20437442.109 8  84942167.250 8        49.000    20437442.813 8  84942163.246 8        48.200
R10  23598795.484 5 125794844.226 5        35.100    23598795.977 5 125794805.232 5        34.500
R07  21853473.000 7 116983366.100 7        45.800    21853472.328 7 116983325.110 7        44.100    21853494.074 7  90987044.451 7        44.000    21853494.199 7  90987040.455 7        43.400
R06  21451841.414 5 114471195.957 5        35.200    21451841.465 5 114471122.956 5        34.200
G24  25577398.406 5 134410133.246 5        30.100    25577433.555 3 104735268.975 3        19.300    25577432.535 5 104735264.964 5        33.600    25577442.898 6 100371329.720 6        38.900
G22  21146870.234 7 111127549.065 7        47.200    21146885.684 6  86592943.077 6        38.600
G20  21780494.172 7 114457294.296 7        45.600    21780512.293 5  89187586.528 5        34.800
E33  25248289.813 7 132680658.415 7        44.000    25248307.543 7  99079774.166 7        46.500    25248303.000 7 101664447.589 7        47.000    25248305.277 8 100372065.486 8        53.300
E31  23391634.750 8 122923871.473 8        49.800    23391653.637 8  91793793.790 8        51.700    23391649.234 8  94188392.041 8        52.100    23391651.418 9  92991092.523 9        58.900
E29  27966976.609 6 146967506.345 6        36.400    27967014.859 6 109748631.082 6        37.900    27967008.012 6 112611613.602 6        37.800
E24  25979571.063 7 136523582.321 7        44.400    25979590.277 7 101949431.194 7        45.300    25979585.645 7 104608964.635 7        46.600    25979587.965 8 103279190.523 8        52.300
E23  25587057.320 7 134460882.964 7        44.900    25587083.102 7 100409190.628 7        46.000    25587078.363 7 103028546.757 7        47.100    25587080.613 8 101718868.302 8        52.800
E19  26992032.180 5 141844105.336 5        31.700    26992064.230 5 105922661.743 5        35.200    26992057.809 5 108685837.863 5        34.700
E16  27926909.055 6 146756902.856 6        36.700    27926932.801 6 109591297.590 6        39.800    27926928.035 6 112450180.079 6        40.000
E12  24574649.055 7 129140667.944 7        45.500    24574665.473 7  96436262.370 7        47.000    24574661.441 8  98951981.524 8        48.100    24574663.355 8  97694129.055 8        53.500
E10  25647645.758 7 134779316.121 7        45.600    25647670.383 7 100646980.653 7        47.300    25647665.500 7 103272547.151 7        47.300    25647667.754 8 101959765.511 8        53.600
E04  28759427.367 5 151131809.155 5        32.500    28759459.648 5 112858295.095 5        34.400    28759453.703 6 115802409.035 6        36.400
G19  20891297.016 7 109784514.225 7        45.600    20891308.664 6  85546415.143 6        37.800
G17  22067693.195 7 115966503.594 7        44.400    22067709.230 6  90363568.499 6        41.000    22067709.500 7  90363502.494 7        45.200
G14  22147788.680 7 116387400.934 7        43.000    22147809.141 5  90691554.938 5        31.600    22147809.137 7  90691473.937 7        46.100    22147819.176 8  86912658.582 8        48.500
G12  24203270.328 6 127189037.876 6        38.200    24203286.633 4  99108433.370 4        29.000    24203286.930 6  99108435.382 6        37.500
G11  21976157.578 7 115485512.220 7        44.700    21976174.391 5  89988779.772 5        34.600    21976174.285 8  89988712.764 8        48.000    21976183.223 8  86239181.445 8        50.300
G09  23947505.438 5 125845019.942 5        32.900    23947536.246 4  98061190.660 4        26.100    23947536.066 6  98061186.663 6        37.400    23947544.992 7  93975333.247 7        43.900
G06  21370739.398 7 112304000.955 7        45.900    21370755.301 7  87509673.755 7        47.700    21370755.648 7  87509605.748 7        47.700    21370760.805 8  83863368.523 8        51.800
G05  25213332.016 5 132496989.562 5        32.900    25213357.316 3 103244506.870 3        21.800    25213356.957 5 103244511.880 5        34.400
G04  25265185.555 5                        31.200
R08  24581147.992 6 131630935.247 6        36.100    24581147.508 5 131630886.262 5        35.100    24581171.703 5 102379716.643 5        33.600    24581173.414 5 102379711.638 5        34.100
C30  24153159.180 6 125771828.139 6        41.200
C13  36662445.563 7 190910985.491 7        45.100    36662459.457 7 147624445.414 7        45.400
C06  40131272.414 5 208974068.333 5        33.500    40131287.879 5 161592065.391 5        35.400
C05  38595420.586 5 200976490.785 5        35.500    38595435.563 6 155407839.017 6        41.100
C04  39243356.594 5 204350472.766 5        34.700    39243372.484 6 158016811.103 6        39.700
C03  36101032.539 7 187987558.290 7        43.600    36101039.305 7 145363934.441 7        46.600
C02  36742175.695 6 191326158.538 6        39.900    36742182.090 7 147945551.990 7        45.500
C01  37926816.438 6 197494888.696 6        39.800    37926828.773 7 152715630.668 7        42.500
S27  38821632.266 6 204009057.482 6        39.500    38821649.281 7 152344457.460 7        42.500
S29  36527840.797 7 191955103.216 7        45.700
S37  36807715.984 6 193425858.489 6        41.700
> 2025  3 13  8 51 35.0000000  0 42       0.000200594000
R23  24026071.664 6 128523350.471 6        37.900    24026070.355 5 128523302.478 5        35.800
R22  21667132.344 7 115660649.368 7        47.000    21667132.773 7 115660602.375 7        46.200    21667148.094 7  89958258.734 7        42.600    21667148.344 7  89958255.748 7        42.100
R21  22077399.180 7 118140618.531 7        46.400    22077398.953 7 118140589.529 7        44.700    22077414.453 7  91887128.594 7        43.700    22077415.387 7  91887125.589 7        43.800
R12  21370334.680 8 114156504.962 8        49.000    21370335.160 7 114156472.964 7        47.800    21370351.941 7  88788373.419 7        46.100    21370352.055 7  88788370.414 7        44.900
R11  20437912.234 8 109213992.284 8        51.300    20437913.016 8 109213959.291 8        49.600    20437929.391 8  84944190.522 8        48.900    20437930.000 8  84944186.519 8        48.200
R10  23599584.977 5 125799049.186 5        35.800    23599584.180 5 125799010.195 5        34.300
R07  21852872.383 7 116980152.620 7        45.400    21852872.336 7 116980111.630 7        44.400    21852893.590 7  90984545.085 7        43.600    21852894.246 7  90984541.086 7        43.200
R06  21451724.656 5 114470559.558 5        35.300    21451722.211 5 114470486.570 5        34.000
G24  25577622.297 4                        29.100
G22  21147213.859 7 111129352.399 7        47.200    21147228.949 6  86594348.267 6        38.600
G20  21780006.672 7 114454732.973 7        45.700    21780024.816 5  89185590.697 5        34.600
E33  25248607.703 7 132682329.864 7        44.200    25248625.469 7  99081022.328 7        46.600    25248620.973 7 101665728.311 7        47.300    25248623.309 8 100373329.929 8        53.300
E31  23391703.375 8 122924232.115 8        49.700    23391722.258 8  91794063.100 8        51.800    23391717.871 8  94188668.377 8        52.000    23391720.035 9  92991365.347 9        58.900
E29  27966765.570 6 146966397.797 6        37.000    27966803.875 6 109747803.289 6        38.100    27966797.031 6 112610764.215 6        37.800
E24  25979175.945 7 136521507.016 7        44.600    25979195.320 7 101947881.464 7        45.100    25979190.730 7 104607374.475 7        46.800    25979193.078 8 103277620.577 8        52.400
E23  25587542.234 7 134463432.106 7        44.800    25587568.121 7 100411094.207 7        45.800    25587563.410 7 103030499.995 7        47.200    25587565.633 8 101720796.711 8        52.800
E19  26991685.313 5 141842284.560 5        32.200    26991717.676 5 105921302.075 5        35.500    26991711.039 5 108684442.723 5        34.700
E16  27926398.242 6 146754220.673 6        37.100    27926422.324 6 109589294.662 6        40.000    27926417.613 6 112448124.903 6        40.200
E12  24574670.367 7 129140780.122 7        45.800    24574686.859 7  96436346.145 7        47.400    24574682.848 7  98952067.484 7        47.500    24574684.711 8  97694213.923 8        53.600
E10  25647517.813 7 134778644.191 7        45.500    25647542.645 7 100646478.899 7        47.400    25647537.688 7 103272032.307 7        47.400    25647539.973 8 101959257.212 8        53.600
E04  28759164.188 5 151130428.691 5        33.000    28759197.102 5 112857264.236 5        34.100    28759190.973 6 115801351.286 6        36.700
G19  20891184.250 7 109783921.574 7        45.700    20891195.715 6  85545953.338 6        37.500
G17  22067781.500 7 115966965.711 7        44.700    22067797.387 6  90363928.585 6        41.300    22067797.484 7  90363862.584 7        45.600
G14  22148400.883 7 116390616.313 7        42.700    22148421.078 5  90694060.425 5        31.400    22148420.871 7  90693979.422 7        46.000    22148431.152 8  86915059.673 8        48.300
G12  24202646.914 6 127185764.058 6        38.500    24202663.844 4  99105882.351 4        28.800    24202664.043 6  99105884.368 6        36.900
G11  21976052.648 7 115484960.195 7        44.600    21976069.074 5  89988349.631 5        34.500    21976068.938 7  89988282.621 7        47.800    21976077.883 8  86238769.226 8        50.400
G09  23947279.883 5 125843835.502 5        33.500    23947310.660 4  98060267.731 4        25.800    23947310.555 6  98060263.732 6        36.700    23947319.574 7  93974448.770 7        43.800
G06  21370913.109 7 112304913.686 7        46.200    21370929.336 7  87510384.977 7        47.600    21370929.758 8  87510316.971 8        48.000    21370934.852 8  83864050.112 8        51.700
G05  25212625.023 5 132493281.335 5        32.900    25212651.852 3 103241617.355 3        22.200    25212651.457 5 103241622.355 5        34.700
G04  25265139.391 4                        29.600
R08  24580452.344 5 131627216.096 5        34.500    24580452.609 5 131627167.121 5        33.400    24580477.012 5 102376823.974 5        33.900    24580478.852 5 102376818.962 5        33.800
C30  24153344.578 6 125772794.824 6        41.300
C13  36662314.266 7 190910302.055 7        45.300    36662328.457 7 147623916.944 7        45.500
C06  40131502.734 5 208975269.820 5        33.300    40131518.789 5 161592994.459 5        35.400
C05  38595418.797 6 200976483.732 6        36.600    38595434.410 6 155407833.565 6        41.000
C04  39243349.781 5 204350433.896 5        34.700    39243365.000 6 158016781.051 6        39.900
C03  36101028.414 7 187987536.476 7        43.900    36101035.387 7 145363917.575 7        46.200
C02  36742168.438 6 191326120.242 6        40.200    36742174.648 7 147945522.380 7        45.500
C01  37926812.820 6 197494870.765 6        40.100    37926825.477 7 152715616.805 7        42.700
S27  38821633.141 6 204009065.420 6        40.400    38821651.008 7 152344463.408 7        42.900
S29  36527840.609 7 191955104.942 7        46.100
S37  36807719.063 6 193425862.065 6        41.700
> 2025  3 13  8 51 36.0000000  0 42       0.000200594000
R23  24025838.969 6 128522107.184 6        37.600    24025838.305 6 128522059.187 6        36.000
R22  21667088.992 7 115660420.892 7        46.800    21667090.137 7 115660373.899 7        46.100    21667105.230 7  89958081.042 7        42.600    21667105.633 7  89958078.056 7        42.600
R21  22077616.344 7 118141779.165 7        46.000    22077615.754 7 118141750.166 7        44.600    22077631.148 7  91888031.304 7        43.900    22077632.070 7  91888028.302 7        43.900
R12  21370026.734 8 114154861.116 8        49.100    21370027.645 7 114154829.118 7        47.600    21370044.602 7  88787094.879 7        46.000    21370044.465 7  88787091.872 7        45.000
R11  20438399.328 8 109216594.245 8        51.400    20438399.980 8 109216561.249 8        49.300    20438416.266 8  84946214.262 8        48.600    20438416.914 8  84946210.262 8        48.300
R10  23600373.578 5 125803254.070 5        35.700    23600372.938 5 125803215.075 5        35.000
R07  21852272.773 7 116976939.380 7        45.400    21852272.574 7 116976898.385 7        44.700    21852293.570 7  90982045.902 7        44.000    21852294.352 7  90982041.902 7        43.300
R06  21451604.281 5 114469923.897 5        35.400    21451603.316 5 114469850.894 5        33.900
G24  25577847.875 4                        29.100
G22  21147556.969 7 111131156.208 7        47.200    21147572.078 6  86595753.829 6        38.600
G20  21779519.250 7 114452172.044 7        45.800    21779537.578 5  89183595.179 5        34.600
E33  25248925.820 7 132684001.242 7        44.200    25248943.488 7  99082270.436 7        46.500    25248939.156 7 101667008.978 7        47.600    25248941.320 8 100374594.316 8        53.200
E31  23391772.094 8 122924593.180 8        49.200    23391790.852 8  91794332.727 8        51.700    23391786.602 8  94188945.037 8        51.700    23391788.699 9  92991638.490 9        58.800
E29  27966554.648 6 146965289.427 6        37.000    27966592.758 6 109746975.635 6        37.900    27966585.848 6 112609914.969 6        37.800
E24  25978781.141 7 136519431.947 7        44.600    25978800.414 7 101946331.908 7        45.300    25978795.930 7 104605784.493 7        46.900    25978798.230 8 103276050.809 8        52.400
E23  25588027.305 7 134465981.439 7        44.800    25588053.199 7 100412997.929 7        45.800    25588048.473 7 103032453.379 7        47.000    25588050.695 8 101722725.263 8        52.700
E19  26991339.117 5 141840463.689 5        32.000    26991371.156 5 105919942.337 5        35.200    26991364.531 5 108683047.512 5        34.900
E16  27925887.883 6 146751538.584 6        36.300    27925912.113 6 109587291.804 6        39.600    27925907.203 6 112446069.796 6        39.600
E12  24574691.797 7 129140892.440 7        46.000    24574708.266 7  96436430.025 7        47.200    24574704.156 7  98952153.552 7        47.700    24574706.164 8  97694298.897 8        53.500
E10  25647389.883 7 134777972.441 7        45.700    25647414.734 7 100645977.278 7        47.700    25647409.707 7 103271517.600 7        47.100    25647411.992 8 101958749.049 8        53.600
E04  28758901.836 5 151129047.917 5        31.800    28758934.238 5 112856233.141 5        34.800    28758928.188 6 115800293.299 6        37.400
G19  20891071.367 7 109783329.090 7        45.800    20891082.988 6  85545491.666 6        37.800
G17  22067869.414 7 115967427.996 7        44.500    22067885.297 6  90364288.807 6        41.700    22067885.445 7  90364222.808 7        45.600
G14  22149012.016 7 116393831.969 7        42.800    22149033.082 5  90696566.131 5        30.500    22149032.984 7  90696485.127 7        46.200    22149043.070 8  86917460.973 8        48.400
G12  24202024.289 6 127182490.477 6        38.100    24202040.734 4  99103331.516 4        28.000    24202041.109 6  99103333.539 6        36.600
G11  21975947.422 7 115484408.403 7        44.600    21975963.973 5  89987919.666 5        34.500    21975963.957 7  89987852.661 7        47.800    21975972.879 8  86238357.181 8        50.500
G09  23947054.992 5 125842651.320 5        33.100    23947085.516 4  98059344.997 4        25.600    23947085.188 6  98059341.002 6        37.100    23947094.090 7  93973564.485 7        43.800
G06  21371086.570 7 112305826.550 7        46.000    21371102.785 7  87511096.305 7        47.500    21371103.285 7  87511028.299 7        47.900    21371108.234 8  83864731.800 8        51.800
G05  25211919.258 5 132489573.120 5        32.800    25211945.918 3 103238727.852 3        22.200    25211945.824 5 103238732.844 5        34.600
G04  25265091.930 4                        28.900
R08  24579758.422 5 131623496.646 5        33.700    24579758.059 5 131623447.664 5        32.500    24579782.457 5 102373931.075 5        34.000    24579784.461 5 102373926.064 5        34.100
C30  24153530.375 6 125773761.491 6        41.100
C13  36662182.883 7 190909618.780 7        44.900    36662197.336 7 147623388.595 7        45.900
C06  40131733.672 5 208976471.155 5        33.500    40131749.422 5 161593923.402 5        35.000
C05  38595417.500 6 200976476.650 6        36.000    38595432.859 6 155407828.092 6        40.900
C04  39243341.805 5 204350395.000 5        34.600    39243357.758 6 158016750.975 6        39.800
C03  36101023.969 7 187987514.629 7        43.700    36101030.898 7 145363900.687 7        46.400
C02  36742160.430 6 191326081.917 6        39.800    36742167.148 7 147945492.748 7        45.800
C01  37926809.461 6 197494852.817 6        39.700    37926821.949 7 152715602.926 7        42.300
S27  38821635.266 6 204009073.454 6        39.700    38821652.711 7 152344469.431 7        43.300
S29  36527841.469 7 191955106.642 7        45.500
S37  36807718.281 6 193425865.610 6        41.600
> 2025  3 13  8 51 37.0000000  0 42       0.000200592000
R23  24025605.680 6 128520863.956 6        37.200    24025605.387 5 128520815.959 5        35.500
R22  21667046.914 7 115660192.439 7        46.800    21667047.461 7 115660145.442 7        46.100    21667062.438 7  89957903.368 7        42.700    21667062.969 7  89957900.382 7        42.700
R21  22077832.414 7 118142939.678 7        46.000    22077832.738 7 118142910.674 7        44.500    22077848.164 7  91888933.921 7        44.300    22077849.129 7  91888930.921 7        43.600
R12  21369719.227 8 114153217.998 8        49.300    21369719.594 7 114153186.002 7        47.500    21369736.410 7  88785816.906 7        46.000    21369736.695 7  88785813.896 7        44.700
R11  20438886.195 8 109219196.810 8        51.400    20438887.336 8 109219163.818 8        49.200    20438903.449 8  84948238.477 8        48.500    20438904.215 8  84948234.475 8        48.000
R10  23601163.242 5 125807458.893 5        35.400    23601162.523 5 125807419.923 5        34.000
R07  21851672.109 7 116973726.406 7        44.700    21851671.867 7 116973685.415 7        44.100    21851693.082 7  90979546.926 7        44.400    21851693.523 7  90979542.926 7        43.300
R06  21451484.344 5 114469288.983 5        34.900    21451484.313 5 114469215.980 5        32.800
G24  25578072.602 4 134413681.17514        28.900    25578108.828 3 104738033.54313        19.300    25578108.254 5 104738029.55015        33.200    25578117.813 6 100373979.11216        38.900
G22  21147900.344 7 111132960.501 7        47.300    21147915.469 6  86597159.768 6        38.900
G20  21779031.703 7 114449611.513 7        45.900    21779050.113 5  89181599.968 5        34.200
E33  25249243.781 7 132685672.587 7        43.800    25249261.578 7  99083518.521 7        46.400    25249257.148 7 101668289.621 7        47.300    25249259.336 8 100375858.679 8        53.200
E31  23391841.000 8 122924954.678 8        49.500    23391859.750 8  91794602.678 8        51.800    23391855.387 8  94189222.029 8        52.100    23391857.527 9  92991911.963 9        58.800
E29  27966343.711 6 146964181.238 6        36.300    27966381.910 6 109746148.114 6        37.800    27966375.035 6 112609065.859 6        37.800
E24  25978386.445 7 136517357.154 7        44.500    25978405.543 7 101944782.559 7        45.900    25978400.961 7 104604194.724 7        47.300    25978403.234 8 103274481.251 8        52.400
E23  25588512.328 7 134468530.995 7        45.000    25588538.363 7 100414901.814 7        45.900    25588533.625 7 103034406.932 7        47.000    25588535.926 8 101724653.982 8        52.700
E19  26990993.148 5 141838642.706 5        30.900    26991024.566 5 105918582.522 5        35.300    26991017.887 5 108681652.223 5        34.800
E16  27925377.602 6 146748856.601 6        36.500    27925401.727 6 109585289.027 6        40.000    27925396.688 6 112444014.771 6        39.600
E12  24574713.320 7 129141004.915 7        45.600    24574729.656 7  96436514.025 7        47.300    24574725.637 8  98952239.740 8        48.100    24574727.520 8  97694383.990 8        53.500
E10  25647262.281 7 134777300.870 7        45.300    25647286.887 7 100645475.791 7        47.900    25647281.973 7 103271003.029 7        47.500    25647284.219 8 101958241.019 8        53.500
E04  28758638.758 5 151127666.776 5        32.200    28758671.563 5 112855201.764 5        35.400    28758665.609 6 115799235.020 6        37.900
G19  20890958.609 7 109782736.789 7        45.500    20890970.414 6  85545030.137 6        37.500
G17  22067957.617 7 115967890.471 7        44.100    22067973.574 6  90364649.176 6        41.600    22067973.773 7  90364583.176 7        45.700
G14  22149624.016 7 116397047.919 7        42.800    22149645.121 5  90699072.064 5        30.800    22149644.945 7  90698991.061 7        46.200    22149655.188 8  86919862.492 8        48.700
G12  24201401.000 6 127179217.137 6        37.600    24201418.168 4  99100780.866 4        27.900    24201418.297 6  99100782.887 6        36.100
G11  21975842.438 7 115483856.857 7        44.600    21975859.012 5  89987489.894 5        34.500    21975859.219 7  89987422.892 7        47.900    21975867.934 8  86237945.321 8        50.300
G09  23946829.203 5 125841467.433 5        33.400    23946860.102 4  98058422.498 4        25.100    23946859.578 6  98058418.503 6        36.800    23946868.695 7  93972680.428 7        43.700
G06  21371260.227 7 112306739.561 7        45.800    21371276.344 7  87511807.745 7        47.300    21371276.813 7  87511739.738 7        47.900    21371281.766 8  83865413.598 8        51.800
G05  25211214.938 5 132485864.957 5        32.500    25211240.309 3 103235838.382 3        22.600    25211240.402 5 103235843.378 5        35.300
G04  25265044.039 4 132768695.497 4        29.600                                                    25265070.207 5 103456293.43715        34.000    25265080.285 6  99145653.99716        36.500
R08  24579062.195 5 131619776.867 5        33.600    24579062.883 5 131619727.891 5        32.500    24579087.586 5 102371037.912 5        34.300    24579089.320 5 102371032.906 5        33.400
C30  24153715.766 6 125774728.142 6        40.400
C13  36662051.852 7 190908935.663 7        44.500    36662065.910 7 147622860.368 7        45.800
C06  40131964.781 5 208977672.342 5        32.500    40131980.289 5 161594852.232 5        35.100
C05  38595416.391 5 200976469.542 5        35.200    38595431.383 6 155407822.600 6        41.600
C04  39243334.164 5 204350356.112 5        34.200    39243350.063 6 158016720.908 6        39.600
C03  36101019.883 7 187987492.778 7        42.800    36101026.645 7 145363883.792 7        46.100
C02  36742153.453 6 191326043.584 6        39.400    36742159.969 7 147945463.111 7        45.200
C01  37926805.750 6 197494834.860 6        39.200    37926818.402 7 152715589.046 7        42.300
S27  38821636.781 6 204009081.451 6        39.900    38821653.984 7 152344475.422 7        43.400
S29  36527840.297 7 191955108.330 7        45.800
S37  36807718.719 6 193425869.146 6        41.700
> 2025  3 13  8 51 38.0000000  0 42       0.000200592000
R23  24025371.797 6 128519620.818 6        37.100    24025372.328 5 128519572.825 5        35.600
R22  21667004.313 7 115659964.019 7        46.400    21667004.578 7 115659917.021 7        45.800    21667019.852 7  89957725.717 7        42.900    21667020.082 7  89957722.731 7        42.600
R21  22078050.133 7 118144100.075 7        46.100    22078049.637 7 118144071.076 7        44.400    22078064.672 7  91889836.451 7        44.200    22078065.965 7  91889833.452 7        43.400
R12  21369411.898 8 114151575.652 8        49.100    21369412.441 7 114151543.655 7        47.800    21369429.016 7  88784539.526 7        45.900    21369429.344 7  88784536.520 7        45.100
R11  20439373.469 8 109221800.023 8        51.500    20439374.059 8 109221767.024 8        49.100    20439390.570 8  84950263.198 8        48.600    20439391.141 7  84950259.193 7        47.900
R10  23601951.992 5 125811663.688 5        35.400    23601951.172 5 125811624.706 5        33.800
R07  21851070.414 7 116970513.709 7        44.300    21851071.352 7 116970472.724 7        44.100    21851092.738 7  90977048.170 7        44.100    21851093.168 7  90977044.168 7        43.100
R06  21451364.836 5 114468654.856 5        35.000    21451365.449 5 114468581.855 5        33.700
G24  25578298.703 4 134414864.237 4        28.900    25578334.066 3 104738955.410 3        19.300    25578333.594 5 104738951.410 5        33.300    25578343.047 6 100374862.558 6        38.900
G22  21148243.508 7 111134765.302 7        47.300    21148258.941 6  86598566.105 6        38.600
G20  21778544.242 7 114447051.404 7        45.800    21778563.168 5  89179605.091 5        34.600
E33  25249561.781 7 132687343.906 7        43.800    25249579.625 7  99084766.586 7        46.400    25249575.242 7 101669570.243 7        47.600    25249577.430 8 100377123.023 8        53.200
E31  23391909.859 8 122925316.632 8        49.300    23391928.520 8  91794872.971 8        51.300    23391924.160 8  94189499.373 8        52.200    23391926.328 9  92992185.780 9        58.800
E29  27966132.813 6 146963073.259 6        36.600    27966171.180 6 109745320.744 6        38.400    27966164.055 6 112608216.904 6        37.700
E24  25977991.711 7 136515282.661 7        44.200    25978010.871 7 101943233.432 7        45.900    25978006.367 7 104602605.184 7        47.100    25978008.629 8 103272911.917 8        52.300
E23  25588997.523 7 134471080.783 7        44.600    25589023.605 7 100416805.875 7        45.600    25589018.914 7 103036360.662 7        47.000    25589021.164 8 101726582.878 8        52.600
E19  26990646.023 5 141836821.686 5        31.800    26990678.191 5 105917222.677 5        35.800    26990671.535 5 108680256.898 5        34.600
E16  27924867.273 6 146746174.737 6        36.400    27924891.633 6 109583286.337 6        39.900    27924886.371 6 112441959.839 6        39.500
E12  24574734.625 7 129141117.566 7        45.800    24574751.000 7  96436598.154 7        47.000    24574746.957 7  98952326.064 7        47.800    24574748.945 8  97694469.217 8        53.500
E10  25647134.523 7 134776629.522 7        45.700    25647159.184 7 100644974.472 7        47.300    25647154.172 7 103270488.630 7        47.500    25647156.512 8 101957733.161 8        53.500
E04  28758376.242 5 151126285.338 5        32.000    28758408.926 5 112854170.167 5        35.000    28758402.801 6 115798176.513 6        37.700
G19  20890845.898 7 109782144.700 7        45.600    20890857.414 6  85544568.771 6        37.700
G17  22068045.656 7 115968353.148 7        44.000    22068061.453 6  90365009.701 6        41.300    22068061.668 7  90364943.705 7        45.500
G14  22150236.297 7 116400264.188 7        42.900    22150257.098 4  90701578.240 4        29.800    22150256.785 7  90701497.238 7        45.500    22150266.992 8  86922264.246 8        48.400
G12  24200777.563 6 127175944.069 6        37.900    24200794.820 4  99098230.426 4        28.300    24200794.906 6  99098232.448 6        36.100
G11  21975737.688 7 115483305.574 7        44.600    21975754.066 5  89987060.332 5        35.200    21975754.078 7  89986993.328 7        47.800    21975763.074 8  86237533.657 8        50.600
G09  23946604.438 5 125840283.829 5        33.200    23946634.949 4  98057500.224 4        26.200    23946634.500 6  98057496.219 6        36.700    23946643.426 7  93971796.577 7        43.500
G06  21371433.969 7 112307652.742 7        45.800    21371450.145 7  87512519.315 7        47.300    21371450.730 8  87512451.310 8        48.100    21371455.652 8  83866095.520 8        51.800
G05  25210507.734 5 132482156.839 5        32.200    25210535.195 3 103232948.956 3        22.500    25210535.438 5 103232953.955 5        34.800
G04  25264997.758 4 132768449.57914        29.100                                                    25265023.539 5 103456101.83315        33.800    25265033.324 6  99145470.37816        36.800
R08  24578367.000 5 131616056.799 5        35.200    24578368.016 5 131616007.837 5        34.100    24578393.367 5 102368144.516 5        33.100    24578394.711 5 102368139.513 5        32.900
C30  24153901.219 6 125775694.806 6        40.000
C13  36661920.523 7 190908252.725 7        44.100    36661934.816 7 147622332.279 7        45.600
C06  40132194.813 5 208978873.411 5        33.100    40132210.977 5 161595780.975 5        35.200
C05  38595414.961 5 200976462.452 5        35.100    38595429.949 6 155407817.122 6        41.100
C04  39243326.406 5 204350317.221 5        34.300    39243342.598 6 158016690.839 6        39.900
C03  36101015.758 7 187987470.935 7        42.700    36101022.488 7 145363866.905 7        46.300
C02  36742146.164 6 191326005.262 6        38.700    36742152.770 7 147945433.480 7        44.900
C01  37926802.508 6 197494816.911 6        38.700    37926815.207 7 152715575.168 7        42.300
S27  38821638.859 6 204009089.346 6        39.900    38821655.477 7 152344481.347 7        42.900
S29  36527839.234 7 191955110.033 7        45.700
S37  36807715.125 6 193425872.712 6        41.800
> 2025  3 13  8 51 39.0000000  0 42       0.000200592000
R23  24025139.133 6 128518377.819 6        37.000    24025139.582 5 128518329.836 5        35.400
R22  21666961.055 7 115659735.673 7        46.500    21666961.641 7 115659688.675 7        46.100    21666976.570 7  89957548.122 7        42.800    21666977.254 7  89957545.134 7        42.100
R21  22078266.367 7 118145260.408 7        45.700    22078266.441 7 118145231.415 7        44.600    22078281.656 7  91890738.934 7        44.300    22078282.703 7  91890735.937 7        43.300
R12  21369104.891 8 114149934.143 8        48.700    21369104.789 7 114149902.146 7        47.600    21369121.418 7  88783262.798 7        46.400    21369121.758 7  88783259.793 7        44.800
R11  20439861.258 8 109224403.900 8        51.500    20439861.105 8 109224370.905 8        49.100    20439877.645 8  84952288.433 8        48.600    20439878.125 8  84952284.427 8        48.000
R10  23602740.242 5 125815868.476 5        35.200    23602739.738 5 125815829.477 5        34.100
R07  21850470.563 7 116967301.340 7        44.900    21850471.387 7 116967260.349 7        44.100    21850492.848 7  90974549.672 7        44.100    21850493.219 7  90974545.673 7        43.100
R06  21451245.930 5 114468021.520 5        35.200    21451246.488 5 114467948.522 5        33.300
G24  25578522.828 4 134416047.548 4        29.400    25578558.746 3 104739877.470 3        18.600    25578558.258 5 104739873.459 5        33.000    25578567.820 6 100375746.192 6        39.000
G22  21148587.438 7 111136570.643 7        47.500    21148602.633 6  86599972.862 6        38.800
G20  21778057.289 7 114444491.749 7        45.700    21778076.188 5  89177610.569 5        34.500
E33  25249879.883 7 132689015.232 7        44.100    25249897.609 7  99086014.656 7        46.800    25249893.133 7 101670850.871 7        47.500    25249895.375 8 100378387.372 8        53.300
E31  23391978.898 8 122925679.069 8        49.500    23391997.617 8  91795143.623 8        51.500    23391993.207 8  94189777.085 8        52.100    23391995.402 9  92992459.963 9        58.900
E29  27965921.938 5 146961965.523 5        35.800    27965960.059 6 109744493.559 6        38.500    27965953.094 6 112607368.138 6        37.400
E24  25977596.805 7 136513208.465 7        44.100    25977616.242 7 101941684.530 7        45.900    25977611.625 7 104601015.874 7        47.000    25977613.902 8 103271342.810 8        52.400
E23  25589482.695 7 134473630.838 7        44.600    25589508.992 7 100418710.135 7        45.500    25589504.242 7 103038314.601 7        47.100    25589506.504 8 101728511.977 8        52.600
E19  26990299.813 5 141835000.58715        30.600    26990331.676 5 105915862.77115        34.900    26990324.902 5 108678861.51715        35.400
E16  27924356.867 6 146743493.026 6        36.400    27924381.285 6 109581283.762 6        40.400    27924376.023 6 112439905.023 6        39.800
E12  24574756.156 7 129141230.425 7        44.900    24574772.301 7  96436682.437 7        47.200    24574768.309 7  98952412.544 7        47.600    24574770.289 8  97694554.599 8        53.500
E10  25647006.766 7 134775958.414 7        45.600    25647031.539 7 100644473.331 7        47.400    25647026.617 7 103269974.414 7        47.500    25647028.859 8 101957225.482 8        53.500
E04  28758113.461 5 151124903.636 5        32.200    28758145.969 5 112853138.377 5        35.800    28758139.797 6 115797117.804 6        38.200
G19  20890733.164 7 109781552.851 7        45.500    20890744.727 6  85544107.587 6        37.900
G17  22068133.758 7 115968816.074 7        43.900    22068149.594 6  90365370.424 6        41.300    22068149.641 7  90365304.423 7        45.300
G14  22150848.805 7 116403480.799 7        42.900    22150869.117 5  90704084.686 5        30.600    22150868.758 7  90704003.682 7        45.600    22150879.074 8  86924666.255 8        48.500
G12  24200155.813 6 127172671.310 6        38.200    24200172.203 4  99095680.231 4        28.300    24200172.230 6  99095682.249 6        36.200
G11  21975632.727 7 115482754.599 7        44.300    21975649.230 5  89986631.006 5        34.400    21975649.195 7  89986564.003 7        47.800    21975658.164 8  86237122.225 8        50.300
G09  23946378.461 5 125839100.543 5        33.500    23946409.895 4  98056578.186 4        26.000    23946409.199 6  98056574.186 6        37.000    23946418.359 7  93970912.964 7        43.400
G06  21371607.875 7 112308566.130 7        45.800    21371624.309 7  87513231.047 7        47.400    21371624.789 8  87513163.043 8        48.200    21371629.691 8  83866777.599 8        51.800
G05  25209801.633 5 132478448.818 5        32.400    25209829.559 3 103230059.607 3        22.800    25209829.641 5 103230064.609 5        35.400
G04  25264952.086 5 132768204.026 5        30.100                                                    25264976.984 5 103455910.514 5        34.500    25264986.605 6  99145287.029 6        36.900
R08  24577673.688 6 131612336.462 6        37.200    24577673.359 5 131612287.500 5        35.900    24577698.898 5 102365250.908 5        32.600    24577700.137 5 102365245.919 5        32.900
C30  24154087.641 6 125776661.523 6        40.200
C13  36661789.680 7 190907570.018 7        44.100    36661803.723 7 147621804.371 7        45.500
C06  40132426.344 5 208980074.395 5        32.000    40132441.754 5 161596709.654 5        35.200
C05  38595413.555 5 200976455.394 5        34.600    38595428.391 6 155407811.668 6        40.900
C04  39243319.203 5 204350278.375 5        34.000    39243335.270 6 158016660.806 6        39.700
C03  36101011.344 7 187987449.143 7        42.300    36101018.348 7 145363850.056 7        46.300
C02  36742138.477 6 191325966.993 6        38.700    36742145.426 7 147945403.893 7        45.600
C01  37926799.125 6 197494799.017 6        38.400    37926811.621 7 152715561.333 7        42.400
S27  38821639.031 6 204009097.211 6        39.800    38821656.762 7 152344487.228 7        43.000
S29  36527842.313 7 191955111.781 7        45.500
S37  36807714.031 6 193425876.309 6        41.700
> 2025  3 13  8 51 40.0000000  0 42       0.000200592000
R23  24024907.375 6 128517134.894 6        37.100    24024907.348 5 128517086.909 5        35.300
R22  21666918.430 7 115659507.340 7        46.500    21666918.996 7 115659460.341 7        46.200    21666933.793 7  89957370.541 7        43.200    21666934.371 6  89957367.549 6        41.900
R21  22078482.672 7 118146420.650 7        45.700    22078483.035 7 118146391.656 7        44.700    22078498.375 7  91891641.347 7        44.300    22078499.426 7  91891638.352 7        43.000
R12  21368797.336 8 114148293.428 8        49.100    21368798.031 7 114148261.433 7        47.600    21368814.590 7  88781986.691 7        45.800    21368814.953 7  88781983.686 7        44.500
R11  20440348.547 8 109227008.398 8        51.500    20440348.992 8 109226975.407 8        49.100    20440365.414 8  84954314.152 8        49.200    20440366.039 8  84954310.143 8        48.300
R10  23603528.961 5 125820073.181 5        35.800    23603529.055 5 125820034.197 5        34.000
R07  21849870.727 7 116964089.213 7        44.900    21849871.242 7 116964048.228 7        43.600    21849893.113 7  90972051.358 7        44.000    21849893.504 7  90972047.363 7        43.100
R06  21451127.648 5 114467388.932 5        35.500    21451127.984 5 114467315.935 5        33.800
G24  25578748.359 4 134417231.061 4        29.900    25578784.129 3 104740799.671 3        19.000    25578783.441 5 104740795.667 5        32.400    25578793.219 6 100376629.974 6        38.600
G22  21148931.016 7 111138376.481 7        47.600    21148946.098 6  86601380.009 6        39.000
G20  21777570.719 7 114441932.507 7        45.500    21777588.672 5  89175616.367 5        34.900
E33  25250198.055 7 132690686.519 7        44.400    25250215.699 7  99087262.696 7        46.800    25250211.195 7 101672131.469 7        47.400    25250213.484 8 100379651.692 8        53.300
E31  23392047.859 8 122926041.953 8        49.100    23392066.691 8  91795414.610 8        51.700    23392062.430 8  94190055.139 8        52.000    23392064.477 9  92992734.482 9        58.900
E29  27965711.352 5 146960857.982 5        35.700    27965749.309 6 109743666.518 6        38.400    27965742.340 6 112606519.519 6        37.300
E24  25977202.211 7 136511134.541 7        44.300    25977221.422 7 101940135.831 7        45.900    25977216.789 7 104599426.774 7        46.700    25977219.117 8 103269773.910 8        52.500
E23  25589968.078 7 134476181.116 7        44.700    25589994.027 7 100420614.558 7        45.700    25589989.379 7 103040268.705 7        47.000    25589991.652 8 101730441.243 8        52.700
E19  26989952.859 5 141833179.458 5        31.800    26989985.375 5 105914502.842 5        35.400    26989978.414 5 108677466.110 5        35.000
E16  27923846.906 6 146740811.431 6        36.000    27923870.926 6 109579281.281 6        39.800    27923865.680 6 112437850.297 6        39.800
E12  24574777.602 7 129141343.435 7        44.900    24574794.004 7  96436766.836 7        47.200    24574789.934 7  98952499.142 7        47.200    24574791.840 8  97694640.099 8        53.500
E10  25646879.180 7 134775287.507 7        45.700    25646903.656 7 100643972.337 7        46.700    25646898.836 7 103269460.351 7        47.600    25646901.070 8 101956717.953 8        53.400
E04  28757850.117 5 151123521.594 5        33.000    28757883.125 5 112852106.338 5        35.600    28757877.086 6 115796058.840 6        38.100
G19  20890620.805 7 109780961.192 7        45.500    20890632.160 6  85543646.557 6        37.600
G17  22068221.391 7 115969279.185 7        43.900    22068237.699 6  90365731.290 6        41.300    22068237.844 7  90365665.289 7        45.200
G14  22151460.852 7 116406697.702 7        42.700    22151481.559 5  90706591.359 5        30.500    22151481.301 7  90706510.360 7        45.400    22151491.645 8  86927068.486 8        48.500
G12  24199533.672 6 127169398.792 6        38.300    24199549.473 4  99093130.231 4        28.300    24199549.414 6  99093132.237 6        36.800
G11  21975528.148 7 115482203.877 7        44.500    21975544.660 5  89986201.878 5        34.400    21975544.430 7  89986134.876 7        47.500    21975553.488 8  86236710.978 8        50.300
G09  23946153.625 5 125837917.549 5        33.100    23946184.793 4  98055656.384 4        25.300    23946184.121 6  98055652.381 6        37.300    23946193.258 7  93970029.570 7        43.300
G06  21371781.391 7 112309479.661 7        45.900    21371797.844 7  87513942.893 7        47.200    21371798.266 8  87513874.887 8        48.400    21371803.348 8  83867459.785 8        51.800
G05  25209097.141 5 132474740.850 5        32.400    25209124.184 3 103227170.300 3        23.600    25209124.383 6 103227175.308 6        36.000
G04  25264905.531 4 132767958.871 4        29.100                                                    25264930.477 5 103455719.505 5        34.200    25264940.105 6  99145103.979 6        36.900
R08  24576979.219 6 131608615.856 6        39.000    24576978.504 6 131608566.882 6        37.500    24577003.555 5 102362357.097 5        33.300    24577005.121 5 102362352.116 5        33.500
C30  24154272.781 6 125777628.237 6        40.500
C13  36661658.523 7 190906887.460 7        45.100    36661672.520 7 147621276.577 7        45.200
C06  40132656.398 5 208981275.233 5        33.300    40132672.055 5 161597638.221 5        35.300
C05  38595411.922 5 200976448.347 5        35.800    38595427.305 6 155407806.225 6        40.800
C04  39243312.023 5 204350239.548 5        34.600    39243327.699 6 158016630.787 6        39.700
C03  36101007.273 7 187987427.343 7        42.900    36101014.203 7 145363833.202 7        46.100
C02  36742131.109 6 191325928.694 6        39.500    36742137.988 7 147945374.281 7        45.300
C01  37926795.563 6 197494781.109 6        39.000    37926808.266 7 152715547.488 7        42.500
S27  38821641.656 6 204009105.012 6        39.800    38821658.445 7 152344493.035 7        42.800
S29  36527842.266 7 191955113.521 7        45.800
S37  36807717.438 6 193425879.896 6        41.700
> 2025  3 13  8 51 41.0000000  0 42       0.000200592000
R23  24024675.477 6 128515892.022 6        37.400    24024675.355 5 128515844.035 5        35.300
R22  21666875.711 7 115659279.002 7        46.400    21666876.586 7 115659232.008 7        45.900    21666891.414 7  89957192.955 7        42.600    21666891.902 6  89957189.962 6        41.400
R21  22078699.563 7 118147580.768 7        45.900    22078699.883 7 118147551.776 7        44.700    22078714.852 7  91892543.666 7        43.600    22078716.191 7  91892540.670 7        42.400
R12  21368490.688 8 114146653.476 8        48.900    21368490.660 7 114146621.478 7        47.900    21368507.184 7  88780711.178 7        44.900    21368507.613 7  88780708.170 7        43.700
R11  20440835.609 8 109229613.481 8        51.500    20440836.152 8 109229580.490 8        49.500    20440852.688 8  84956340.326 8        48.500    20440853.086 7  84956336.318 7        47.400
R10  23604317.102 5 125824277.802 5        35.000    23604317.602 5 125824238.821 5        34.400
R07  21849271.336 7 116960877.344 7        45.200    21849271.168 7 116960836.359 7        44.100    21849292.801 7  90969553.249 7        43.700    21849293.164 7  90969549.252 7        42.700
R06  21451010.695 5 114466757.073 5        35.700    21451009.836 5 114466684.070 5        33.900
G24  25578973.344 4 134418414.732 4        29.600    25579009.359 3 104741722.011 3        19.000    25579008.438 5 104741718.003 5        32.600    25579018.461 6 100377513.872 6        38.200
G22  21149274.898 7 111140182.779 7        47.800    21149289.844 6  86602787.514 6        38.500
G20  21777083.578 7 114439373.650 7        46.000    21777101.875 5  89173622.460 5        34.400
E33  25250515.969 7 132692357.742 7        44.600    25250533.578 7  99088510.688 7        46.300    25250529.055 7 101673412.017 7        46.700    25250531.387 8 100380915.961 8        53.100
E31  23392116.961 8 122926405.249 8        49.100    23392135.758 8  91795685.901 8        51.200    23392131.477 8  94190333.510 8        51.400    23392133.543 9  92993009.315 9        58.700
E29  27965500.742 5 146959750.607 5        35.800    27965538.672 6 109742839.601 6        37.500    27965531.602 6 112605671.027 6        37.400
E24  25976807.516 7 136509060.859 7        44.500    25976826.871 7 101938587.310 7        45.700    25976822.195 7 104597837.858 7        46.400    25976824.465 8 103268205.191 8        52.300
E23  25590453.445 7 134478731.595 7        45.000    25590479.453 7 100422519.135 7        45.600    25590474.863 7 103042222.966 7        46.500    25590477.070 8 101732370.661 8        52.600
E19  26989606.492 5 141831358.186 5        31.700    26989638.551 5 105913142.801 5        35.300    26989631.672 5 108676070.591 5        34.800
E16  27923336.648 6 146738129.910 6        36.700    27923360.547 6 109577278.853 6        39.600    27923355.199 6 112435795.630 6        39.800
E12  24574799.195 7 129141456.593 7        44.900    24574815.449 7  96436851.343 7        46.400    24574811.512 7  98952585.855 7        47.300    24574813.367 8  97694725.708 8        53.300
E10  25646751.555 7 134774616.772 7        45.600    25646775.910 7 100643471.477 7        46.500    25646771.129 7 103268946.423 7        47.100    25646773.391 8 101956210.558 8        53.300
E04  28757587.320 5 151122139.216 5        33.300    28757620.094 5 112851074.044 5        35.500    28757614.082 6 115794999.623 6        37.200
G19  20890508.016 7 109780369.703 7        45.500    20890519.840 6  85543185.659 6        37.000
G17  22068309.539 7 115969742.466 7        44.400    22068325.898 6  90366092.289 6        41.300    22068325.898 7  90366026.286 7        44.600
G14  22152072.750 7 116409914.890 7        42.500    22152093.500 5  90709098.262 5        30.400    22152093.055 7  90709017.261 7        44.600    22152103.559 8  86929470.931 8        48.200
G12  24198910.039 6 127166126.513 6        37.600    24198926.750 4  99090580.412 4        28.000    24198926.789 6  99090582.419 6        36.400
G11  21975423.602 7 115481653.388 7        44.700    21975439.734 5  89985772.934 5        34.900    21975439.598 7  89985705.931 7        46.600    21975448.723 8  86236299.906 8        50.100
G09  23945928.781 5 125836734.821 5        33.400    23945959.801 4  98054734.785 4        24.200    23945959.391 6  98054730.786 6        37.000    23945968.281 7  93969146.378 7        43.300
G06  21371955.125 7 112310393.326 7        45.900    21371971.754 7  87514654.844 7        47.100    21371972.297 8  87514586.838 8        48.000    21371977.281 8  83868142.071 8        51.600
G05  25208392.195 5 132471032.881 5        33.100    25208418.480 3 103224280.980 3        22.800    25208418.832 5 103224285.999 5        35.400
G04  25264858.766 5 132767714.111 5        30.500                                                    25264883.750 5 103455528.802 5        34.100    25264893.625 6  99144921.215 6        36.500
R08  24576284.828 6 131604894.964 6        39.800    24576284.613 6 131604845.993 6        38.700    24576309.246 5 102359463.071 5        34.700    24576310.855 5 102359458.092 5        34.800
C30  24154458.594 6 125778594.928 6        41.100
C13  36661527.344 7 190906205.080 7        44.700    36661541.465 7 147620748.927 7        44.900
C06  40132887.391 5 208982475.915 5        33.700    40132902.734 5 161598566.663 5        35.400
C05  38595411.133 6 200976441.261 6        36.200    38595426.051 6 155407800.750 6        40.900
C04  39243304.727 5 204350200.676 5        34.700    39243320.379 6 158016600.726 6        40.100
C03  36101003.219 7 187987405.522 7        43.700    36101009.902 7 145363816.331 7        45.800
C02  36742123.820 6 191325890.361 6        39.800    36742130.609 7 147945344.644 7        44.700
C01  37926792.078 6 197494763.177 6        39.800    37926804.934 7 152715533.624 7        42.300
S27  38821643.203 6 204009112.710 6        40.200    38821659.746 7 152344498.751 7        42.600
S29  36527841.688 7 191955115.237 7        45.800
S37  36807723.047 6 193425883.464 6        41.700
> 2025  3 13  8 51 42.0000000  0 42       0.000200590000
R23  24024443.789 6 128514649.190 6        37.800    24024442.371 5 128514601.206 5        35.200
R22  21666832.922 7 115659050.641 7        46.600    21666833.035 7 115659003.652 7        45.700    21666848.391 7  89957015.348 7        43.000    21666848.547 6  89957012.356 6        41.900
R21  22078916.539 7 118148740.735 7        45.800    22078916.645 7 118148711.739 7        44.700    22078932.000 7  91893445.863 7        43.900    22078933.012 7  91893442.870 7        42.800
R12  21368183.203 8 114145014.254 8        48.800    21368183.980 7 114144982.259 7        47.800    21368200.785 7  88779436.234 7        45.400    21368201.051 7  88779433.225 7        44.600
R11  20441323.688 8 109232219.148 8        51.000    20441323.898 8 109232186.156 8        49.100    20441340.563 8  84958366.955 8        48.600    20441340.977 7  84958362.948 7        47.600
R10  23605105.109 5 125828482.342 5        35.100    23605105.781 5 125828443.350 5        34.000
R07  21848671.336 7 116957665.709 7        45.500    21848671.363 7 116957624.719 7        44.100    21848693.020 7  90967055.325 7        43.800    21848693.469 7  90967051.322 7        42.800
R06  21450891.164 5 114466125.920 5        35.000    21450891.625 5 114466052.917 5        34.100
G24  25579198.859 4 134419598.578 4        29.900    25579234.719 3 104742644.468 3        18.300    25579233.945 5 104742640.469 5        33.400    25579243.910 6 100378397.901 6        38.600
G22  21149618.734 7 111141989.538 7        47.800    21149633.672 6  86604195.376 6        38.700
G20  21776597.172 7 114436815.168 7        45.700    21776615.395 5  89171628.847 5        34.500
E33  25250834.125 7 132694028.894 7        44.900    25250851.816 7  99089758.629 7        46.400    25250847.301 7 101674692.513 7        47.400    25250849.555 8 100382180.179 8        53.300
E31  23392186.180 8 122926768.954 8        49.800    23392205.066 8  91795957.500 8        51.500    23392200.727 8  94190612.194 8        51.900    23392202.859 9  92993284.456 9        58.900
E29  27965289.875 6 146958643.390 6        36.400    27965327.672 6 109742012.800 6        37.500    27965320.793 6 112604822.656 6        37.500
E24  25976413.023 7 136506987.414 7        44.500    25976432.363 7 101937038.968 7        46.000    25976427.746 7 104596249.122 7        46.600    25976430.008 8 103266636.653 8        52.500
E23  25590938.641 7 134481282.251 7        45.100    25590964.914 7 100424423.842 7        45.900    25590960.246 7 103044177.360 7        46.600    25590962.406 8 101734300.210 8        52.700
E19  26989259.578 5 141829536.808 5        31.800    26989292.160 5 105911782.685 5        35.000    26989285.184 5 108674674.989 5        34.900
E16  27922826.320 6 146735448.472 6        36.700    27922850.254 6 109575276.487 6        39.700    27922845.008 6 112433741.024 6        40.100
E12  24574820.914 7 129141569.874 7        44.800    24574836.980 7  96436935.943 7        46.700    24574832.965 7  98952672.661 7        47.600    24574834.867 8  97694811.409 8        53.500
E10  25646623.875 7 134773946.194 7        45.700    25646648.438 7 100642970.732 7        46.700    25646643.430 7 103268432.613 7        47.200    25646645.785 8 101955703.281 8        53.500
E04  28757324.695 5 151120756.471 5        33.200    28757357.086 5 112850041.478 5        35.300    28757350.609 6 115793940.124 6        37.900
G19  20890395.648 7 109779778.379 7        45.700    20890407.629 6  85542724.891 6        37.000
G17  22068397.695 7 115970205.907 7        44.200    22068413.859 6  90366453.411 6        41.000    22068413.879 7  90366387.410 7        44.600
G14  22152684.750 7 116413132.334 7        42.300    22152705.691 5  90711605.360 5        30.600    22152705.477 7  90711524.359 7        45.300    22152715.883 8  86931873.564 8        48.300
G12  24198287.680 6 127162854.448 6        37.900    24198303.910 4  99088030.761 4        28.600    24198303.977 6  99088032.770 6        36.900
G11  21975318.836 7 115481103.113 7        44.700    21975334.984 5  89985344.157 5        34.600    21975334.996 7  89985277.151 7        46.900    21975343.898 8  86235888.993 8        50.300
G09  23945703.805 5 125835552.330 5        33.200    23945734.344 4  98053813.373 4        26.000    23945734.020 6  98053809.374 6        37.500    23945742.934 7  93968263.361 7        43.600
G06  21372129.383 7 112311307.110 7        46.000    21372145.379 7  87515366.888 7        47.400    21372145.977 8  87515298.883 8        48.200    21372150.988 8  83868824.448 8        51.800
G05  25207685.219 5 132467324.942 5        33.000    25207713.012 3 103221391.689 3        23.400    25207713.313 5 103221396.702 5        35.500
G04  25264812.422 5                        30.800
R08  24575589.500 6 131601173.758 6        39.600    24575588.738 6 131601124.779 6        38.400    24575613.980 5 102356568.810 5        35.300    24575615.211 5 102356563.825 5        35.200
C30  24154644.156 6 125779561.580 6        40.900
C13  36661396.367 7 190905522.844 7        44.500    36661410.422 7 147620221.383 7        45.500
C06  40133118.984 5 208983676.422 5        34.500    40133133.543 5 161599494.970 5        35.700
C05  38595409.367 5 200976434.145 5        35.500    38595424.617 6 155407795.249 6        41.100
C04  39243297.031 5 204350161.761 5        34.700    39243312.832 6 158016570.640 6        40.000
C03  36100998.898 7 187987383.660 7        43.100    36101005.691 7 145363799.426 7        46.300
C02  36742116.469 6 191325852.012 6        39.900    36742123.328 7 147945314.992 7        45.000
C01  37926788.453 6 197494745.197 6        39.600    37926801.293 7 152715519.720 7        42.600
S27  38821644.281 6 204009120.474 6        39.500    38821661.176 7 152344504.506 7        42.900
S29  36527842.203 7 191955116.912 7        45.700
S37  36807722.172 6 193425886.987 6        41.800
