     3.04           OBSERVATION DATA    M: Mixed            RINEX VERSION / TYPE
RTKCONV demo5 b34i                      20250404 090940 UTC PGM / RUN BY / DATE 
format: u-blox UBX                                          COMMENT             
log: D:\20242\demo5_b34i\data\khac\d2\svd1_2m.ubx           COMMENT             
                                                            MARKER NAME         
                                                            MARKER NUMBER       
                                                            MARKER TYPE         
                                                            OBSERVER / AGENCY   
                                                            REC # / TYPE / VERS 
                                                            ANT # / TYPE        
 -1626739.7020  5730517.3836  2271684.0392                  APPROX POSITION XYZ 
        0.0000        0.0000        0.0000                  ANTENNA: DELTA H/E/N
G    8 C1C L1C D1C S1C C2X L2X D2X S2X                      SYS / # / OBS TYPES 
  2025    04    04    08    54   39.9960000     GPS         TIME OF FIRST OBS   
  2025    04    04    09    09   38.9970000     GPS         TIME OF LAST OBS    
G L1C                                                       SYS / PHASE SHIFT   
G L2X  0.00000                                              SYS / PHASE SHIFT   
  0                                                         GLONASS SLOT / FRQ #
 C1C    0.000 C1P    0.000 C2C    0.000 C2P    0.000        GLONASS COD/PHS/BIS 
                                                            END OF HEADER       
> 2025 04 04 08 54 39.9960000  0 10                     
G09  22741176.662                       -3012.857          22.000                                                                  
G20  19348047.869   101674702.1091      -1770.082          44.000                                                                  
G05  20797513.153   109291686.2571        609.413          47.000    20797517.106    85162359.7541        474.907          42.000  
G11  20734567.922   108960902.3503      -1810.707          27.000    20734574.457    84904610.5331      -1411.376          33.000  
G06  21438247.256   112658744.0021      -2735.947          34.000    21438260.133    87786069.9311      -2130.063          29.000  
G17  22254652.863   116948991.6741      -3773.716          34.000    22254659.924    91129113.2391      -2941.230          35.000  
G12  20868770.738   109666144.2321      -1096.774          47.000    20868774.845    85454145.8211       -854.605          43.000  
G13  23328673.559   122593012.0871       1410.919          39.000                                                                  
G22  22971765.870   120717461.2791      -4937.250          40.000                                                                  
G19  20056644.836   105398377.9221      -3064.037          40.000                                                                  
> 2025 04 04 08 54 40.9960000  0 10                     
G09  22741747.280                       -3013.704          22.000                                                                  
G20  19348384.748   101676472.384       -1770.593          44.000                                                                  
G05  20797397.210   109291077.040         609.034          46.000    20797401.267    85161885.038         474.625          42.000  
G11  20734909.983   108962713.3842      -1811.703          26.000    20734919.113    84906021.584       -1411.417          33.000  
G06  21438767.889   112661479.628       -2736.048          35.000    21438780.261    87788201.707       -2131.770          29.000  
G17  22255371.166   116952766.044       -3774.369          34.000    22255378.264    91132054.293       -2941.503          35.000  
G12  20868979.522   109667241.330       -1097.556          47.000    20868983.573    85455000.703        -855.305          43.000  
G13  23328404.846   122591600.634        1411.340          39.000                                                                  
G22  22972705.340   120722398.448       -4937.253          41.000                                                                  
G19  20057227.837   105401442.018       -3064.514          40.000                                                                  
> 2025 04 04 08 54 41.9960000  0 11                     
G09  22742317.200                       -3009.013          24.000                                                                  
G20  19348721.728   101678243.286       -1771.137          44.000                                                                  
G05  20797281.434   109290468.462         608.399          46.000    20797285.444    85161410.842         473.909          41.000  
G11  20735253.926   108964524.5072      -1811.777          26.000    20735263.933    84907432.892       -1411.429          34.000  
G06  21439288.594   112664215.423       -2735.999          35.000    21439300.836    87790333.444       -2130.973          29.000  
G17  22256089.505   116956540.920       -3775.621          34.000    22256096.662    91134995.728       -2941.725          35.000  
G25  22899320.616                         341.548          14.000                                                                  
G12  20869188.370   109668339.232       -1098.314          47.000    20869192.547    85455856.208        -855.679          43.000  
G13  23328136.189   122590189.178        1411.611          38.000                                                                  
G22  22973644.842   120727335.822       -4937.339          41.000                                                                  
G19  20057811.095   105404506.761       -3065.269          41.000                                                                  
> 2025 04 04 08 54 42.9960000  0 10                     
G09  22742889.672                       -3012.847          24.000                                                                  
G20  19349058.845   101680014.785       -1771.895          44.000                                                                  
G05  20797165.780   109289860.454         607.796          45.000    20797169.730    85160937.073         473.634          40.000  
G11  20735600.634   108966335.781       -1811.459          27.000    20735608.636    84908844.235       -1410.851          34.000  
G06  21439809.296   112666951.302       -2736.040          35.000    21439821.422    87792465.339       -2131.683          29.000  
G17  22256807.947   116960316.212       -3775.364          35.000    22256815.136    91137937.526       -2942.282          34.000  
G12  20869397.621   109669437.928       -1098.988          47.000    20869401.654    85456712.327        -856.409          43.000  
G13  23327867.583   122588777.675        1411.223          38.000                                                                  
G22  22974584.411   120732273.363       -4937.871          41.000                                                                  
G19  20058394.460   105407572.091       -3065.960          41.000                                                                  
> 2025 04 04 08 54 43.9960000  0 10                     
G09  22743461.712                       -3007.165          22.000                                                                  
G20  19349395.980   101681786.622       -1772.016          44.000                                                                  
G05  20797050.174   109289252.794         607.427          46.000    20797054.109    85160463.576         473.129          40.000  
G11  20735949.039   108968147.047       -1811.719          27.000    20735953.426    84910255.645       -1411.631          34.000  
G06  21440329.933   112669687.053       -2735.806          34.000    21440341.957    87794597.065       -2131.761          29.000  
G17  22257526.439   116964091.781       -3776.072          37.000    22257533.703    91140879.499       -2942.388          34.000  
G12  20869606.815   109670537.162       -1099.609          47.000    20869610.860    85457568.879        -856.776          43.000  
G13  23327598.952   122587365.814        1411.766          38.000                                                                  
G22  22975523.878   120737210.790       -4937.398          41.000                                                                  
G19  20058977.890   105410637.800       -3065.867          40.000                                                                  
> 2025 04 04 08 54 44.9960000  0  9                     
G20  19349733.204   101683558.711       -1772.225          44.000                                                                  
G05  20796934.532   109288645.360         607.460          46.000    20796938.526    85159990.254         472.952          41.000  
G11  20736297.716   108969957.962       -1809.924          26.000    20736298.077    84911666.833       -1411.286          34.000  
G06  21440850.670   112672422.564       -2735.233          34.000    21440862.575    87796728.644       -2131.378          29.000  
G17  22258245.087   116967867.450       -3775.596          37.000    22258252.180    91143821.609       -2942.638          35.000  
G12  20869816.080   109671636.811       -1099.679          47.000    20869819.992    85458425.746        -856.946          43.000  
G13  23327330.208   122585953.605        1412.522          38.000                                                                  
G22  22976463.354   120742148.009       -4936.986          41.000                                                                  
G19  20059561.323   105413703.775       -3066.194          40.000                                                                  
> 2025 04 04 08 54 45.9960000  0  9                     
G20  19350070.381   101685330.797       -1771.818          44.000                                                                  
G05  20796818.876   109288037.931         607.384          46.000    20796822.910    85159516.930         473.087          41.000  
G11  20736642.200   108971768.568       -1810.042          25.000    20736642.756    84913077.731       -1411.192          34.000  
G06  21441370.973   112675157.649       -2735.789          33.000    21441383.060    87798859.815       -2131.124          29.000  
G17  22258963.591   116971643.041       -3775.399          36.000    22258970.595    91146763.608       -2942.493          34.000  
G12  20870025.344   109672736.656       -1100.041          47.000    20870029.351    85459282.762        -857.112          43.000  
G13  23327061.335   122584540.701        1413.346          38.000                                                                  
G22  22977402.792   120747084.750       -4936.288          41.000                                                                  
G19  20060144.825   105416769.746       -3066.162          40.000                                                                  
> 2025 04 04 08 54 46.9960000  0  9                     
G20  19350407.550   101687102.732       -1771.795          44.000                                                                  
G05  20796703.296   109287430.354         607.539          46.000    20796707.272    85159043.480         473.470          41.000  
G06  21441891.307   112677891.974       -2733.534          33.000    21441903.505    87800990.474       -2130.956          28.000  
G17  22259681.947   116975418.311       -3774.602          36.000    22259689.104    91149705.372       -2941.667          35.000  
G12  20870234.607   109673836.532       -1099.957          47.000    20870238.503    85460139.811        -856.972          43.000  
G13  23326792.380   122583127.030        1413.566          38.000                                                                  
G22  22978342.039   120752020.925       -4935.851          41.000                                                                  
G19  20060728.306   105419835.576       -3065.816          40.000                                                                  
G11                                                                  20736987.255    84914488.122       -1409.922          34.000  
> 2025 04 04 08 54 47.9960000  0  9                     
G20  19350744.704   101688874.562       -1771.944          44.000                                                                  
G05  20796587.578   109286822.657         607.593          46.000    20796591.642    85158569.949         473.697          41.000  
G06  21442411.730   112680625.770       -2733.198          32.000    21442423.804    87803120.642       -2129.756          28.000  
G17  22260400.252   116979193.410       -3775.253          36.000    22260407.447    91152647.000       -2941.531          35.000  
G12  20870444.042   109674936.515       -1100.139          47.000    20870447.831    85460996.952        -857.449          43.000  
G13  23326523.210   122581712.566        1414.718          38.000                                                                  
G22  22979281.269   120756956.535       -4935.222          42.000                                                                  
G19  20061311.676   105422901.318       -3065.971          40.000                                                                  
G11                                                                  20737331.623    84915898.128       -1410.202          34.000  
> 2025 04 04 08 54 48.9960000  0 10                     
G20  19351081.876   101690646.635       -1772.203          44.000                                                                  
G05  20796471.933   109286215.200         607.170          46.000    20796476.110    85158096.635         472.824          41.000  
G06  21442931.622   112683359.287       -2733.196          33.000    21442944.052    87805250.738       -2130.157          28.000  
G17  22261118.677   116982968.605       -3774.926          35.000    22261125.898    91155588.726       -2941.667          34.000  
G25  22898554.272                         393.921          18.000                                                                  
G12  20870653.395   109676036.916       -1100.645          47.000    20870657.273    85461854.400        -857.697          43.000  
G13  23326254.017   122580297.702        1415.063          38.000                                                                  
G22  22980220.353   120761891.959       -4935.513          42.000                                                                  
G19  20061895.104   105425967.316       -3066.293          40.000                                                                  
G11                                                                  20737675.967    84917307.987       -1409.995          35.000  
> 2025 04 04 08 54 49.9960000  0  9                     
G20  19351419.250   101692419.069       -1772.798          44.000                                                                  
G05  20796356.471   109285608.093         606.668          46.000    20796360.531    85157623.554         472.637          41.000  
G06  21443451.881   112686092.701       -2733.813          33.000    21443464.351    87807380.639       -2130.219          28.000  
G17  22261837.001   116986744.089       -3775.434          35.000    22261844.381    91158530.660       -2942.339          34.000  
G12  20870862.889   109677137.869       -1101.463          47.000    20870866.845    85462712.282        -858.337          43.000  
G13  23325984.752   122578882.604        1414.307          37.000                                                                  
G22  22981159.481   120766827.280       -4935.589          41.000                                                                  
G19  20062478.576   105429033.692       -3066.565          40.000                                                                  
G11                                                                  20738020.277    84918717.783       -1410.126          34.000  
> 2025 04 04 08 54 50.9960000  0  9                     
G20  19351756.590   101694191.992       -1773.115          44.000                                                                  
G05  20796241.092   109285001.472         606.408          46.000    20796245.064    85157150.877         472.582          41.000  
G11  20738370.046   108980869.9611      -1809.362          26.000    20738364.468    84920127.672       -1409.931          34.000  
G06  21443972.123   112688826.136       -2733.661          33.000    21443984.302    87809510.581       -2130.106          29.000  
G17  22262555.433   116990519.929       -3776.064          34.000    22262562.879    91161472.869       -2942.366          35.000  
G12  20871072.594   109678239.494       -1101.878          47.000    20871076.380    85463570.700        -858.688          43.000  
G13  23325715.375   122577467.316        1415.552          37.000                                                                  
G22  22982098.687   120771762.662       -4935.509          41.000                                                                  
G19  20063062.257   105432100.572       -3066.960          40.000                                                                  
> 2025 04 04 08 54 51.9960000  0 10                     
G09  22748053.491                       -3007.755          17.000                                                                  
G20  19352094.094   101695965.497       -1773.964          44.000                                                                  
G05  20796125.711   109284395.416         605.742          46.000    20796129.836    85156678.629         472.009          42.000  
G11  20738716.592   108982679.510       -1810.356          27.000    20738708.756    84921537.702       -1410.860          34.000  
G06  21444492.251   112691559.676       -2734.250          32.000    21444504.297    87811640.550       -2129.924          29.000  
G17  22263273.842   116994296.230       -3776.428          34.000    22263281.513    91164415.460       -2942.716          34.000  
G12  20871282.463   109679341.873       -1102.811          47.000    20871286.093    85464429.687        -859.084          43.000  
G13  23325445.990   122576051.949        1415.723          37.000                                                                  
G22  22983037.903   120776698.132       -4935.444          41.000                                                                  
G19  20063645.986   105435168.047       -3067.610          39.000                                                                  
> 2025 04 04 08 54 52.9960000  0 10                     
G09  22748625.087                       -3007.755          18.000                                                                  
G20  19352431.600   101697739.447       -1774.231          44.000                                                                  
G05  20796010.432   109283789.833         605.385          46.000    20796014.571    85156206.761         471.421          41.000  
G11  20739062.974   108984488.982       -1809.602          26.000    20739053.238    84922947.707       -1410.135          34.000  
G06  21445012.338   112694293.214       -2733.822          32.000    21445024.562    87813770.556       -2130.407          29.000  
G17  22263992.467   116998072.906       -3777.026          34.000    22264000.242    91167358.276       -2942.979          34.000  
G12  20871492.505   109680444.893       -1103.307          47.000    20871495.969    85465289.185        -859.682          43.000  
G13  23325176.595   122574636.461        1415.503          37.000                                                                  
G22  22983977.074   120781633.649       -4935.513          41.000                                                                  
G19  20064229.732   105438235.997       -3068.064          39.000                                                                  
> 2025 04 04 08 54 53.9960000  0 10                     
G09  22749205.338                       -3007.755          17.000                                                                  
G20  19352769.155   101699513.830       -1774.746          44.000                                                                  
G05  20795895.265   109283184.647         604.965          46.000    20795899.335    85155735.183         471.232          41.000  
G11  20739408.600   108986298.464       -1809.366          28.000    20739397.593    84924357.696       -1409.735          34.000  
G06  21445532.191   112697026.541       -2733.250          31.000    21445544.681    87815900.481       -2130.213          29.000  
G17  22264711.302   117001849.837       -3776.855          34.000    22264718.972    91170301.350       -2943.288          35.000  
G12  20871702.461   109681548.521       -1103.991          47.000    20871706.068    85466149.146        -860.176          43.000  
G13  23324907.068   122573220.680        1415.931          37.000                                                                  
G22  22984916.287   120786569.127       -4935.631          41.000                                                                  
G19  20064813.803   105441304.400       -3068.655          39.000                                                                  
> 2025 04 04 08 54 54.9960000  0 10                     
G09  22749777.306                       -3007.755          17.000                                                                  
G20  19353106.939   101701288.615       -1774.836          44.000                                                                  
G05  20795780.257   109282579.874         604.601          46.000    20795784.243    85155263.924         471.230          41.000  
G11  20739750.230   108988107.956       -1808.786          27.000    20739742.054    84925767.733       -1410.571          34.000  
G06  21446052.253   112699759.869       -2733.099          31.000    21446064.856    87818030.362       -2129.959          29.000  
G17  22265430.114   117005627.106       -3777.362          34.000    22265437.833    91173244.641       -2943.268          34.000  
G12  20871912.647   109682652.745       -1104.418          47.000    20871916.205    85467009.601        -860.729          43.000  
G13  23324637.678   122571804.687        1415.715          37.000                                                                  
G22  22985855.497   120791504.541       -4935.134          42.000                                                                  
G19  20065397.699   105444373.234       -3069.396          39.000                                                                  
> 2025 04 04 08 54 55.9960000  0  9                     
G20  19353444.685   101703063.609       -1775.172          44.000                                                                  
G05  20795665.154   109281975.294         604.445          46.000    20795669.138    85154792.840         470.701          41.000  
G11  20740091.300   108989917.284       -1808.994          27.000    20740086.480    84927177.551       -1409.437          34.000  
G06  21446572.461   112702492.912       -2732.514          32.000    21446584.838    87820159.996       -2129.663          29.000  
G17  22266149.085   117009404.468       -3778.349          35.000    22266156.567    91176188.017       -2943.291          34.000  
G12  20872122.723   109683757.342       -1104.779          47.000    20872126.406    85467870.312        -860.890          43.000  
G13  23324368.159   122570388.213        1416.781          37.000                                                                  
G22  22986794.609   120796439.741       -4934.929          41.000                                                                  
G19  20065981.850   105447442.255       -3069.208          39.000                                                                  
> 2025 04 04 08 54 56.9960000  0  9                     
G20  19353782.461   101704838.973       -1775.507          43.000                                                                  
G05  20795550.169   109281371.072         604.000          46.000    20795554.075    85154322.010         470.482          41.000  
G11  20740435.011   108991726.472       -1808.523          25.000    20740430.874    84928587.404       -1410.552          34.000  
G06  21447092.615   112705225.918       -2733.341          33.000    21447104.914    87822289.578       -2129.848          28.000  
G17  22266868.012   117013182.024       -3777.773          35.000    22266875.414    91179131.579       -2943.556          34.000  
G12  20872333.011   109684862.504       -1105.453          47.000    20872336.694    85468731.482        -861.558          43.000  
G13  23324098.494   122568971.513        1416.703          39.000                                                                  
G22  22987733.661   120801374.857       -4935.117          41.000                                                                  
G19  20066565.919   105450511.672       -3069.711          39.000                                                                  
> 2025 04 04 08 54 57.9960000  0  9                     
G20  19354120.356   101706614.651       -1775.925          43.000                                                                  
G05  20795435.281   109280767.144         603.649          46.000    20795439.240    85153851.405         470.504          41.000  
G11  20740775.596                       -1809.879          25.000    20740775.007    84929997.051       -1409.602          34.000  
G06  21447612.710   112707958.638       -2732.301          33.000    21447625.004    87824419.035       -2129.696          28.000  
G17  22267586.955   117016959.752       -3777.282          35.000    22267594.341    91182075.325       -2944.577          33.000  
G12  20872543.369   109685968.161       -1105.924          48.000    20872547.091    85469593.028        -861.855          43.000  
G13  23323828.828   122567554.419        1417.156          36.000                                                                  
G22  22988672.745   120806309.818       -4935.108          41.000                                                                  
G19  20067150.066   105453581.392       -3069.769          40.000                                                                  
> 2025 04 04 08 54 58.9960000  0 10                     
G20  19354458.328   101708390.604       -1775.926          43.000                                                                  
G05  20795320.381   109280163.510         603.672          47.000    20795324.341    85153381.067         470.238          42.000  
G06  21448132.636   112710691.162       -2732.012          33.000    21448144.970    87826548.261       -2129.065          28.000  
G17  22268305.940   117020737.703       -3778.167          35.000    22268313.174    91185019.131       -2943.836          34.000  
G25  22898233.548                         383.681          16.000                                                                  
G12  20872753.834   109687074.283       -1106.243          47.000    20872757.675    85470454.937        -862.200          43.000  
G13  23323559.018   122566136.966        1417.855          37.000                                                                  
G22  22989611.846   120811244.615       -4934.563          42.000                                                                  
G19  20067734.242   105456651.449       -3070.202          40.000                                                                  
G11                                                                  20741119.244    84931406.672       -1409.036          34.000  
> 2025 04 04 08 54 59.9960000  0  9                     
G20  19354796.379   101710166.760       -1776.332          43.000                                                                  
G05  20795205.480   109279560.088         603.358          46.000    20795209.488    85152910.881         470.152          42.000  
G06  21448652.805   112713423.476       -2731.442          33.000    21448664.937    87828677.283       -2128.965          28.000  
G17  22269024.863   117024515.727       -3777.977          35.000    22269031.976    91187963.039       -2943.762          34.000  
G12  20872964.451   109688180.799       -1106.675          48.000    20872968.306    85471317.145        -862.365          43.000  
G13  23323289.180   122564719.109        1417.678          38.000                                                                  
G22  22990550.928   120816179.216       -4934.682          42.000                                                                  
G19  20068318.486   105459721.693       -3070.271          39.000                                                                  
G11                                                                  20741463.507    84932816.141       -1409.397          35.000  
> 2025 04 04 08 55 00.9960000  0 10                     
G09  22753225.925                       -3015.729          25.000                                                                  
G20  19355134.320   101711943.039       -1776.307          44.000                                                                  
G05  20795090.673   109278956.764         603.053          46.000    20795094.621    85152440.769         470.165          41.000  
G06  21449172.606   112716155.383       -2731.691          34.000    21449184.797    87830806.029       -2128.531          27.000  
G17  22269743.910   117028293.757       -3777.858          36.000    22269750.887    91190906.964       -2944.094          34.000  
G12  20873175.020   109689287.615       -1106.926          47.000    20873178.979    85472179.612        -862.611          43.000  
G13  23323019.213   122563300.653        1418.809          37.000                                                                  
G22  22991489.940   120821113.436       -4934.051          42.000                                                                  
G19  20068902.703   105462792.094       -3070.521          39.000                                                                  
G11                                                                  20741807.682    84934225.290       -1409.073          34.000  
> 2025 04 04 08 55 01.9960000  0 10                     
G09  22753800.682                       -3018.163          26.000                                                                  
G20  19355472.332   101713719.387       -1776.558          46.000                                                                  
G05  20794975.835   109278353.464         603.112          48.000    20794979.760    85151970.608         470.091          41.000  
G11  20742147.107   109000718.1403      -1807.879          37.000    20742151.625    84935634.048       -1408.902          37.000  
G06  21449692.029   112718886.668       -2731.629          34.000    21449704.378    87832934.344       -2128.129          33.000  
G17  22270462.871   117032071.658       -3778.169          39.000    22270469.887    91193850.786       -2944.065          34.000  
G12  20873385.604   109690394.613       -1107.451          46.000    20873389.658    85473042.242        -862.682          43.000  
G13  23322749.210   122561881.620        1419.370          38.000                                                                  
G22  22992428.746   120826047.207       -4933.773          39.000                                                                  
G19  20069486.990   105465862.434       -3070.656          39.000                                                                  
> 2025 04 04 08 55 02.9960000  0 10                     
G09  22754370.709   119575024.7843      -3017.255          26.000                                                                  
G20  19355810.289   101715495.854       -1776.773          45.000                                                                  
G05  20794861.132   109277750.302         602.808          46.000    20794864.986    85151500.666         469.868          40.000  
G11  20742495.233   109002547.9132      -1808.182          38.000    20742495.435    84937042.761       -1408.823          37.000  
G06  21450211.590   112721617.458       -2729.818          29.000    21450223.792    87835062.311       -2128.695          32.000  
G17  22271181.763   117035849.656       -3777.425          37.000    22271188.800    91196794.774       -2944.586          35.000  
G12  20873596.403   109691502.052       -1107.947          44.000    20873600.448    85473905.172        -863.336          42.000  
G13  23322479.025   122560462.111        1420.179          36.000                                                                  
G22  22993367.503   120830980.812       -4933.997          39.000                                                                  
G19  20070071.198   105468933.116       -3071.170          44.000                                                                  
> 2025 04 04 08 55 03.9960000  0 10                     
G09  22754938.212   119578043.1542      -3018.805          31.000                                                                  
G20  19356148.363   101717272.749       -1777.051          44.000                                                                  
G05  20794746.492   109277147.543         602.372          45.000    20794750.346    85151030.987         469.306          41.000  
G11  20742838.927   109004353.6083      -1808.142          41.000    20742839.046    84938451.369       -1408.609          40.000  
G06  21450731.280   112724348.477       -2730.743          35.000    21450743.143    87837190.332       -2127.841          36.000  
G17  22271900.720   117039627.931       -3778.501          39.000    22271907.799    91199738.832       -2944.269          35.000  
G12  20873807.130   109692610.015       -1108.514          45.000    20873811.215    85474768.494        -863.481          42.000  
G13  23322208.866   122559042.358        1419.927          36.000                                                                  
G22  22994306.209   120835914.250       -4933.897          37.000                                                                  
G19  20070655.533   105472004.127       -3071.565          40.000                                                                  
> 2025 04 04 08 55 04.9960000  0 10                     
G09  22755513.538   119581061.1722      -3012.793          23.000                                                                  
G20  19356486.533   101719049.964       -1777.726          44.000                                                                  
G05  20794631.839   109276545.147         602.111          44.000    20794635.740    85150561.538         469.841          41.000  
G11  20743181.765   109006155.4233      -1807.999          44.000    20743182.587    84939859.972       -1409.271          40.000  
G06  21451250.787   112727079.125       -2730.604          41.000    21451262.265    87839318.144       -2128.387          38.000  
G17  22272619.687   117043406.399       -3778.476          37.000    22272626.852    91202683.115       -2944.577          34.000  
G12  20874018.121   109693718.499       -1109.536          46.000    20874022.206    85475632.233        -863.774          42.000  
G13  23321938.627   122557622.302        1420.076          34.000                                                                  
G22  22995245.048   120840847.566       -4933.409          38.000                                                                  
G19  20071239.948   105475075.442       -3071.220          41.000                                                                  
> 2025 04 04 08 55 05.9960000  0 10                     
G20  19356824.703   101720827.434       -1777.571          43.000                                                                  
G05  20794517.284   109275943.022         602.042          43.000    20794521.195    85150092.363         469.390          40.000  
G11  20743527.811   109007973.9382      -1807.552          43.000    20743526.175    84941268.436       -1408.059          41.000  
G06  21451770.218   112729809.872       -2730.209          42.000    21451780.963    87841445.953       -2127.642          41.000  
G17  22273338.691   117047185.065       -3778.420          37.000    22273345.905    91205627.509       -2944.220          35.000  
G25  22897665.571                         383.413          17.000                                                                  
G12  20874229.069   109694827.406       -1109.007          45.000    20874233.136    85476496.363        -864.115          43.000  
G13  23321668.441   122556201.814        1420.537          34.000                                                                  
G22  22996183.779   120845780.776       -4933.342          39.000                                                                  
G19  20071824.506   105478147.149       -3071.881          41.000                                                                  
> 2025 04 04 08 55 06.9960000  0 10                     
G20  19357162.936   101722605.413       -1778.312          43.000                                                                  
G05  20794402.753   109275341.282         600.965          41.000    20794406.758    85149623.494         468.660          39.000  
G11  20743871.471   109009779.5742      -1807.587          43.000    20743869.803    84942676.988       -1408.261          41.000  
G06  21452289.686   112732540.557       -2730.225          41.000    21452299.730    87843573.753       -2127.473          43.000  
G17  22274057.880   117050964.060       -3779.258          40.000    22274065.051    91208572.174       -2944.010          34.000  
G25  22897577.202                         407.339          17.000                                                                  
G12  20874440.135   109695937.023       -1109.800          46.000    20874444.295    85477360.979        -864.817          43.000  
G13  23321398.083   122554781.212        1419.724          35.000                                                                  
G22  22997122.509   120850714.014       -4933.610          38.000                                                                  
G19  20072409.148   105481219.336       -3072.482          39.000                                                                  
> 2025 04 04 08 55 07.9960000  0  9                     
G20  19357501.154   101724383.776       -1778.411          45.000                                                                  
G05  20794288.338   109274740.089         600.964          41.000    20794292.341    85149154.988         468.310          40.000  
G11  20744214.798   109011587.1882      -1807.908          44.000    20744213.463    84944085.496       -1408.063          41.000  
G06  21452809.216   112735271.060       -2730.943          38.000    21452818.659    87845701.446       -2128.388          36.000  
G17  22274777.095   117054743.378       -3778.698          40.000    22274784.281    91211517.111       -2946.427          34.000  
G12  20874651.470   109697047.214       -1110.054          48.000    20874655.525    85478226.064        -865.358          42.000  
G13  23321127.872   122553360.361        1421.349          39.000                                                                  
G22  22998061.192   120855647.193       -4934.233          36.000                                                                  
G19  20072993.912   105484291.936       -3073.151          41.000                                                                  
> 2025 04 04 08 55 08.9960000  0  9                     
G20  19357839.742   101726162.735       -1778.117          38.000                                                                  
G05  20794174.006   109274139.289         600.222          46.000    20794178.058    85148686.886         467.486          42.000  
G11  20744558.646   109013394.8162      -1807.707          42.000    20744557.119    84945494.097       -1408.747          40.000  
G06  21453328.869   112738001.858       -2730.866          38.000    21453337.897    87847829.302       -2128.539          36.000  
G17  22275496.432   117058523.126       -3779.958          38.000    22275503.601    91214462.307       -2945.350          34.000  
G12  20874862.438                       -1112.057          34.000    20874866.859    85479091.747        -865.713          31.000  
G13  23320857.468   122551939.334        1420.307          34.000                                                                  
G22  22998999.993   120860580.463       -4934.188          40.000                                                                  
G19  20073578.673   105487365.068       -3074.276          40.000                                                                  
> 2025 04 04 08 55 09.9960000  0  9                     
G20  19358178.180   101727941.913       -1779.272          44.000                                                                  
G05  20794059.775   109273538.787         600.519          44.000    20794063.735    85148218.976         467.835          40.000  
G11  20744902.367   109015202.4422      -1807.693          45.000    20744900.862    84946902.578       -1408.288          43.000  
G06  21453848.376   112740732.269       -2729.948          31.000    21453857.152    87849956.861       -2126.448          34.000  
G17  22276215.741   117062302.994       -3779.684          38.000    22276222.811    91217407.709       -2945.847          35.000  
G12  20875076.401   109699266.5243      -1111.580          44.000    20875078.462    85479957.745        -866.224          41.000  
G13  23320587.178   122550518.022        1420.776          38.000                                                                  
G22  22999938.819   120865513.627       -4933.518          40.000                                                                  
G19  20074163.411   105490438.478       -3073.625          42.000                                                                  
> 2025 04 04 08 55 10.9960000  0 10                     
G09  22758949.068   119599083.6923      -3022.638          26.000                                                                  
G20  19358516.814   101729721.398       -1779.467          43.000                                                                  
G05  20793945.499   109272938.556         600.285          46.000    20793949.487    85147751.273         467.458          40.000  
G11  20745245.994   109017009.8182      -1807.105          43.000    20745244.515    84948310.954       -1408.186          41.000  
G06  21454367.876   112743462.354       -2729.500          31.000    21454376.351    87852084.264       -2127.012          35.000  
G17  22276935.066   117066083.038       -3780.114          40.000    22276942.105    91220353.200       -2945.124          35.000  
G12  20875288.857   109700378.3912      -1112.138          45.000    20875290.013    85480824.133        -866.585          43.000  
G13  23320316.697   122549096.246        1422.289          35.000                                                                  
G22  23000877.505   120870446.513       -4932.937          39.000                                                                  
G19  20074748.258   105493512.204       -3073.630          42.000                                                                  
> 2025 04 04 08 55 11.9960000  0 10                     
G09  22759525.849   119602105.3982      -3021.515          26.000                                                                  
G20  19358855.439   101731500.889       -1779.393          44.000                                                                  
G05  20793831.233   109272338.383         600.139          45.000    20793835.317    85147283.637         467.733          40.000  
G11  20745589.741   109018817.1322      -1806.943          36.000    20745588.340    84949719.189       -1408.204          38.000  
G06  21454887.351   112746192.186       -2729.887          42.000    21454895.276    87854211.360       -2127.330          41.000  
G17  22277654.312   117069863.038       -3780.083          39.000    22277661.465    91223298.621       -2945.608          36.000  
G12  20875499.992   109701490.4442      -1111.764          47.000    20875501.528    85481690.652        -866.896          41.000  
G13  23320046.160   122547673.908        1423.240          38.000                                                                  
G22  23001816.142   120875378.969       -4931.780          39.000                                                                  
G19  20075333.243   105496585.991       -3074.231          41.000                                                                  
> 2025 04 04 08 55 12.9960000  0 10                     
G09  22760100.892                       -3022.766          27.000                                                                  
G20  19359194.085   101733280.454       -1779.880          44.000                                                                  
G05  20793716.983   109271738.322         600.002          45.000    20793721.106    85146816.001         467.552          39.000  
G11  20745933.319   109020623.831       -1806.852          39.000    20745932.061    84951126.994       -1407.441          38.000  
G06  21455406.556   112748921.579       -2729.328          40.000    21455413.938    87856338.153       -2126.687          42.000  
G17  22278373.686   117073642.936       -3779.919          38.000    22278380.804    91226244.048       -2945.501          36.000  
G12  20875711.976   109702602.803       -1112.728          45.000    20875713.213    85482557.441        -866.874          41.000  
G13  23319775.617   122546251.063        1423.232          39.000                                                                  
G22  23002754.753   120880311.172       -4932.132          38.000                                                                  
G19  20075918.154   105499659.847       -3073.939          40.000                                                                  
> 2025 04 04 08 55 13.9960000  0 10                     
G09  22760676.072   119608158.9533      -3022.577          27.000                                                                  
G20  19359532.701   101735060.410       -1780.128          44.000                                                                  
G05  20793602.841   109271138.612         599.447          44.000    20793607.018    85146348.696         467.452          39.000  
G11  20746276.974   109022430.481       -1806.703          39.000    20746275.712    84952534.797       -1407.938          38.000  
G06  21455925.754   112751650.820       -2729.125          41.000    21455932.805    87858464.871       -2126.941          42.000  
G17  22279093.086   117077423.160       -3780.668          40.000    22279100.073    91229189.635       -2945.581          36.000  
G12  20875923.704   109703715.703       -1113.181          45.000    20875925.056    85483424.636        -867.534          41.000  
G13  23319504.847   122544827.908        1423.467          39.000                                                                  
G22  23003693.398   120885243.229       -4932.249          39.000                                                                  
G19  20076503.135   105502734.134       -3074.676          40.000                                                                  
> 2025 04 04 08 55 14.9960000  0 10                     
G09  22761249.677   119611181.3142      -3022.278          27.000                                                                  
G20  19359871.462   101736840.487       -1780.176          45.000                                                                  
G05  20793488.730   109270539.047         599.386          45.000    20793492.924    85145881.489         467.244          41.000  
G11  20746620.620   109024236.813       -1806.372          40.000    20746619.313    84953942.298       -1407.311          37.000  
G06  21456444.935   112754379.706       -2728.786          40.000    21456451.707    87860591.238       -2126.342          43.000  
G17  22279812.374   117081203.367       -3780.492          40.000    22279819.470    91232135.253       -2946.217          36.000  
G12  20876135.254   109704828.882       -1113.318          45.000    20876137.013    85484292.050        -867.365          42.000  
G13  23319233.960   122543404.200        1423.845          39.000                                                                  
G22  23004631.945   120890174.941       -4931.684          39.000                                                                  
G19  20077088.193   105505808.545       -3074.443          39.000                                                                  
> 2025 04 04 08 55 15.9960000  0 10                     
G09  22761824.643   119614203.9522      -3023.645          26.000                                                                  
G20  19360210.237   101738620.669       -1780.091          45.000                                                                  
G05  20793374.643   109269939.547         599.567          45.000    20793378.788    85145414.351         467.103          40.000  
G11  20746964.201   109026042.827       -1805.532          39.000    20746962.931    84955349.613       -1407.088          37.000  
G06  21456964.014   112757108.225       -2728.335          40.000    21456970.603    87862717.347       -2125.836          42.000  
G17  22280531.778   117084983.559       -3780.065          40.000    22280538.868    91235080.849       -2945.593          37.000  
G12  20876347.131   109705942.392       -1113.528          43.000    20876349.021    85485159.728        -867.696          40.000  
G13  23318963.014   122541979.965        1424.578          38.000                                                                  
G22  23005570.391   120895106.320       -4931.292          39.000                                                                  
G19  20077673.223   105508883.093       -3074.581          40.000                                                                  
> 2025 04 04 08 55 16.9960000  0 10                     
G09  22762399.267   119617226.4692      -3022.003          26.000                                                                  
G20  19360549.013   101740400.696       -1779.854          45.000                                                                  
G05  20793260.451   109269339.882         599.988          45.000    20793264.629    85144947.115         467.115          40.000  
G11  20747307.567   109027848.288       -1805.002          39.000    20747306.447    84956756.478       -1406.794          36.000  
G06  21457483.037   112759836.109       -2727.501          40.000    21457489.350    87864842.943       -2125.423          42.000  
G17  22281251.042   117088763.441       -3779.560          40.000    22281258.185    91238026.217       -2945.155          37.000  
G12  20876558.773   109707055.935       -1113.329          44.000    20876560.944    85486027.405        -867.606          41.000  
G13  23318691.882   122540554.930        1425.417          39.000                                                                  
G22  23006508.772   120900037.098       -4930.282          39.000                                                                  
G19  20078258.179   105511957.476       -3074.074          40.000                                                                  
> 2025 04 04 08 55 17.9960000  0 10                     
G09  22762975.912   119620248.9372      -3022.498          27.000                                                                  
G20  19360887.636   101742180.526       -1779.756          45.000                                                                  
G05  20793146.274   109268740.025         600.082          45.000    20793150.489    85144479.682         467.415          41.000  
G11  20747650.938   109029653.094       -1804.293          39.000    20747649.898    84958162.851       -1406.489          37.000  
G06  21458001.836   112762563.263       -2726.527          40.000    21458008.089    87866968.024       -2124.845          43.000  
G17  22281970.382   117092543.086       -3779.579          40.000    22281977.468    91240971.362       -2944.797          37.000  
G12  20876770.469   109708169.462       -1113.505          44.000    20876772.813    85486895.088        -867.645          41.000  
G13  23318420.614   122539129.054        1426.566          38.000                                                                  
G22  23007446.982   120904967.229       -4929.613          39.000                                                                  
G19  20078843.190   105515031.709       -3074.239          39.000                                                                  
> 2025 04 04 08 55 18.9960000  0 10                     
G09  22763552.374   119623271.3382      -3022.784          27.000                                                                  
G20  19361226.293   101743960.279       -1779.958          44.000                                                                  
G05  20793032.110   109268140.068         599.723          44.000    20793036.234    85144012.213         467.032          41.000  
G11  20747994.304   109031457.473       -1804.430          39.000    20747993.141    84959568.840       -1405.885          37.000  
G06  21458520.665   112765289.893       -2726.693          40.000    21458526.739    87869092.652       -2124.609          42.000  
G17  22282689.586   117096322.452       -3779.481          40.000    22282696.640    91243916.373       -2945.342          37.000  
G12  20876982.148   109709283.100       -1113.807          45.000    20876984.773    85487762.847        -867.948          42.000  
G13  23318149.167   122537702.438        1427.046          38.000                                                                  
G22  23008385.235   120909896.837       -4929.859          39.000                                                                  
G19  20079428.248   105518105.832       -3074.220          39.000                                                                  
> 2025 04 04 08 55 19.9960000  0 10                     
G09  22764126.419   119626293.782       -3022.345          27.000                                                                  
G20  19361564.987   101745740.120       -1779.913          44.000                                                                  
G05  20792918.049   109267540.215         599.708          45.000    20792922.037    85143544.755         467.471          40.000  
G11  20748337.557   109033261.424       -1804.128          40.000    20748336.426    84960974.525       -1405.547          37.000  
G06  21459039.447   112768016.104       -2726.134          41.000    21459045.246    87871216.953       -2124.176          42.000  
G17  22283408.828   117100101.815       -3779.272          39.000    22283415.870    91246861.309       -2944.885          37.000  
G12  20877193.972   109710396.977       -1113.841          44.000    20877196.756    85488630.791        -867.962          42.000  
G13  23317877.581   122536275.228        1427.563          38.000                                                                  
G22  23009323.238   120914826.070       -4928.962          39.000                                                                  
G19  20080013.215   105521180.068       -3074.198          39.000                                                                  
> 2025 04 04 08 55 20.9960000  0 10                     
G09  22764705.532   119629316.392       -3022.266          26.000                                                                  
G20  19361903.516   101747519.865       -1779.732          45.000                                                                  
G05  20792803.937   109266940.290         599.733          44.000    20792807.984    85143077.331         467.221          39.000  
G11  20748680.628   109035064.945       -1803.078          38.000    20748679.533    84962379.821       -1405.794          37.000  
G06  21459558.116   112770741.730       -2725.296          41.000    21459563.702    87873340.840       -2123.633          42.000  
G17  22284127.994   117103881.037       -3779.766          40.000    22284135.179    91249806.144       -2944.911          37.000  
G12  20877405.810   109711510.996       -1114.278          46.000    20877408.741    85489498.862        -868.399          43.000  
G13  23317605.821   122534847.361        1428.087          38.000                                                                  
G22  23010261.186   120919754.773       -4928.199          38.000                                                                  
G19  20080598.199   105524254.252       -3074.162          39.000                                                                  
> 2025 04 04 08 55 21.9960000  0 10                     
G09  22765279.696   119632339.304       -3023.053          28.000                                                                  
G20  19362242.191   101749299.852       -1779.919          45.000                                                                  
G05  20792689.788   109266340.565         599.763          45.000    20792693.850    85142609.981         467.279          39.000  
G11  20749023.661   109036868.210       -1802.943          39.000    20749022.577    84963784.978       -1404.861          36.000  
G06  21460076.692   112773467.109       -2725.135          40.000    21460082.250    87875464.515       -2123.616          43.000  
G17  22284847.171   117107660.319       -3779.433          39.000    22284854.345    91252751.020       -2944.609          37.000  
G12  20877617.737   109712625.393       -1114.478          46.000    20877620.791    85490367.212        -868.412          43.000  
G13  23317334.043   122533419.033        1428.711          38.000                                                                  
G22  23011199.143   120924683.260       -4928.058          37.000                                                                  
G19  20081183.247   105527328.659       -3074.331          40.000                                                                  
> 2025 04 04 08 55 22.9960000  0 10                     
G09  22765852.427   119635362.621       -3023.523          29.000                                                                  
G20  19362580.945   101751080.193       -1780.752          44.000                                                                  
G05  20792575.759   109265741.183         598.990          45.000    20792579.792    85142142.956         466.844          39.000  
G11  20749366.725   109038671.445       -1803.464          39.000    20749365.691    84965190.113       -1405.335          36.000  
G06  21460595.191   112776192.354       -2725.434          40.000    21460600.721    87877588.093       -2123.837          43.000  
G17  22285566.428   117111439.836       -3780.009          40.000    22285573.624    91255696.099       -2944.835          37.000  
G12  20877829.714   109713740.341       -1115.470          46.000    20877832.865    85491235.996        -868.991          44.000  
G13  23317062.199   122531990.377        1428.834          39.000                                                                  
G22  23012137.000   120929611.632       -4928.607          37.000                                                                  
G19  20081768.296   105530403.446       -3075.414          40.000                                                                  
> 2025 04 04 08 55 23.9960000  0 10                     
G09  22766428.435   119638386.296       -3024.280          29.000                                                                  
G20  19362919.697   101752860.894       -1780.963          44.000                                                                  
G05  20792461.756   109265142.163         598.778          45.000    20792465.803    85141676.196         466.525          40.000  
G11  20749709.836   109040474.649       -1803.347          39.000    20749708.729    84966595.195       -1405.460          37.000  
G06  21461113.688   112778917.511       -2725.310          40.000    21461119.157    87879711.564       -2123.656          42.000  
G17  22286285.642   117115219.634       -3779.950          40.000    22286292.911    91258641.385       -2944.917          37.000  
G12  20878041.847   109714855.837       -1115.954          46.000    20878045.114    85492105.232        -869.664          43.000  
G13  23316790.317   122530561.503        1428.671          39.000                                                                  
G22  23013074.804   120934539.959       -4928.574          37.000                                                                  
G19  20082353.580   105533478.619       -3075.616          40.000                                                                  
> 2025 04 04 08 55 24.9960000  0 10                     
G09  22767007.099   119641410.768       -3025.244          29.000                                                                  
G20  19363258.639   101754642.178       -1781.851          44.000                                                                  
G05  20792347.785   109264543.736         597.908          46.000    20792351.962    85141209.892         465.873          40.000  
G11  20750052.862   109042277.988       -1803.692          39.000    20750051.837    84968000.401       -1405.614          37.000  
G06  21461632.245   112781642.752       -2725.569          39.000    21461637.599    87881835.115       -2123.707          42.000  
G17  22287004.994   117118999.881       -3780.629          40.000    22287012.268    91261587.071       -2945.813          38.000  
G12  20878254.100   109715972.116       -1116.893          46.000    20878257.601    85492975.057        -870.213          43.000  
G13  23316518.362   122529132.578        1427.980          38.000                                                                  
G22  23014012.610   120939468.372       -4928.720          36.000                                                                  
G19  20082938.767   105536554.374       -3076.450          39.000                                                                  
> 2025 04 04 08 55 25.9960000  0 10                     
G09  22767584.517   119644436.092       -3025.726          28.000                                                                  
G20  19363597.825   101756424.396       -1782.647          44.000                                                                  
G05  20792234.138   109263946.246         596.935          46.000    20792238.213    85140744.305         465.188          40.000  
G11  20750396.043   109044081.818       -1803.938          39.000    20750395.110    84969405.984       -1405.755          37.000  
G06  21462150.841   112784368.453       -2726.153          39.000    21462156.136    87883959.008       -2124.023          42.000  
G17  22287724.493   117122780.949       -3781.335          40.000    22287731.899    91264533.357       -2946.619          38.000  
G12  20878466.625   109717089.513       -1118.014          46.000    20878470.244    85493845.759        -871.276          43.000  
G13  23316246.508   122527703.903        1428.701          39.000                                                                  
G22  23014950.591   120944397.292       -4929.161          37.000                                                                  
G19  20083524.177   105539631.108       -3077.379          39.000                                                                  
> 2025 04 04 08 55 26.9960000  0 10                     
G09  22768159.972   119647462.563       -3026.886          28.000                                                                  
G20  19363937.098   101758207.618       -1783.687          44.000                                                                  
G05  20792120.591   109263349.751         596.063          46.000    20792124.693    85140279.517         464.420          40.000  
G11  20750739.287   109045886.251       -1804.913          39.000    20750738.506    84970812.000       -1405.642          37.000  
G06  21462669.535   112787094.621       -2726.143          39.000    21462674.859    87886083.302       -2123.953          43.000  
G17  22288444.249   117126562.894       -3782.166          40.000    22288451.579    91267480.325       -2947.586          38.000  
G12  20878679.343   109718208.116       -1119.062          47.000    20878683.161    85494717.372        -872.102          43.000  
G13  23315974.740   122526275.600        1428.483          39.000                                                                  
G22  23015888.734   120949326.771       -4929.604          36.000                                                                  
G19  20084109.855   105542708.839       -3078.074          39.000                                                                  
> 2025 04 04 08 55 27.9960000  0 10                     
G09  22768738.107   119650490.230       -3028.168          28.000                                                                  
G20  19364276.614   101759991.887       -1784.731          45.000                                                                  
G05  20792007.319   109262754.296         595.130          45.000    20792011.332    85139815.532         463.807          40.000  
G11  20751082.708   109047691.307       -1805.049          39.000    20751081.975    84972218.548       -1406.493          37.000  
G06  21463188.351   112789821.388       -2726.805          39.000    21463193.660    87888208.054       -2124.805          43.000  
G17  22289164.139   117130345.789       -3783.209          40.000    22289171.446    91270428.005       -2948.056          37.000  
G12  20878892.370   109719327.921       -1120.281          47.000    20878896.254    85495589.948        -872.865          43.000  
G13  23315702.971   122524847.705        1427.942          38.000                                                                  
G22  23016826.857   120954256.814       -4930.205          36.000                                                                  
G19  20084695.707   105545787.620       -3078.990          39.000                                                                  
> 2025 04 04 08 55 28.9960000  0 10                     
G09  22769315.233   119653518.778       -3029.120          28.000                                                                  
G20  19364616.319   101761777.019       -1785.420          45.000                                                                  
G05  20791894.173   109262159.703         594.287          45.000    20791898.090    85139352.207         463.234          40.000  
G11  20751426.181   109049496.819       -1805.500          39.000    20751425.491    84973625.423       -1406.668          37.000  
G06  21463707.364   112792548.547       -2727.447          39.000    21463712.476    87890333.089       -2125.015          43.000  
G17  22289884.131   117134129.429       -3783.986          40.000    22289891.543    91273376.317       -2948.888          37.000  
G12  20879105.632   109720448.797       -1121.413          46.000    20879109.654    85496463.366        -873.747          43.000  
G13  23315431.393   122523420.050        1427.567          38.000                                                                  
G22  23017765.132   120959187.276       -4930.124          36.000                                                                  
G19  20085281.783   105548867.337       -3080.306          39.000                                                                  
> 2025 04 04 08 55 29.9960000  0 10                     
G09  22769891.392   119656547.942       -3029.413          27.000                                                                  
G20  19364956.138   101763562.801       -1786.059          45.000                                                                  
G05  20791781.119   109261565.766         593.588          45.000    20791785.074    85138889.405         462.547          40.000  
G11  20751769.699   109051302.538       -1805.630          39.000    20751768.968    84975032.509       -1407.229          37.000  
G06  21464226.224   112795275.825       -2727.204          39.000    21464231.521    87892458.245       -2125.251          43.000  
G17  22290604.249   117137913.590       -3784.585          41.000    22290611.703    91276324.988       -2948.699          37.000  
G12  20879318.982   109721570.504       -1122.107          47.000    20879323.059    85497337.415        -874.414          43.000  
G13  23315159.667   122521992.359        1428.191          38.000                                                                  
G22  23018703.359   120964117.980       -4930.866          37.000                                                                  
G19  20085867.876   105551947.694       -3080.737          39.000                                                                  
> 2025 04 04 08 55 30.9960000  0 11                     
G09  22770466.999   119659577.813       -3029.559          27.000                                                                  
G20  19365296.012   101765349.097       -1786.581          45.000                                                                  
G05  20791668.270   109260972.354         593.124          45.000    20791672.199    85138426.993         462.200          40.000  
G11  20752113.288   109053108.370       -1805.806          38.000    20752112.508    84976439.643       -1407.327          38.000  
G06  21464745.145   112798003.170       -2727.353          39.000    21464750.500    87894583.449       -2125.509          43.000  
G17  22291324.547   117141698.164       -3784.768          40.000    22291331.886    91279274.025       -2948.924          37.000  
G25  22895955.525                         407.645          18.000                                                                  
G12  20879532.609   109722692.903       -1122.822          46.000    20879536.634    85498212.019        -874.816          43.000  
G13  23314887.956   122520564.537        1428.562          38.000                                                                  
G22  23019641.645   120969048.675       -4930.095          37.000                                                                  
G19  20086454.131   105555028.536       -3080.972          40.000                                                                  
> 2025 04 04 08 55 31.9960000  0 10                     
G09  22771044.010   119662608.186       -3031.195          27.000                                                                  
G20  19365636.066   101767135.908       -1787.086          44.000                                                                  
G05  20791555.375   109260379.413         592.664          45.000    20791559.418    85137964.963         461.608          40.000  
G11  20752457.013   109054914.243       -1806.342          39.000    20752456.170    84977846.846       -1407.615          36.000  
G06  21465263.977   112800730.547       -2727.574          42.000    21465269.377    87896708.643       -2125.201          41.000  
G17  22292044.902   117145483.087       -3785.164          39.000    22292052.163    91282223.338       -2949.571          37.000  
G12  20879746.428   109723816.002       -1123.723          45.000    20879750.385    85499087.206        -875.694          42.000  
G13  23314616.174   122519136.649        1428.079          38.000                                                                  
G22  23020579.975   120973979.534       -4931.033          36.000                                                                  
G19  20087040.568   105558110.002       -3082.175          40.000                                                                  
> 2025 04 04 08 55 32.9960000  0 10                     
G09  22771620.838   119665639.608       -3032.196          27.000                                                                  
G20  19365976.253   101768923.586       -1788.537          44.000                                                                  
G05  20791442.744   109259787.338         591.439          44.000    20791446.733    85137503.596         460.951          41.000  
G11  20752800.837   109056720.603       -1806.271          40.000    20752799.935    84979254.369       -1407.361          36.000  
G06  21465783.117   112803458.259       -2728.202          41.000    21465788.462    87898834.121       -2125.495          42.000  
G17  22292765.243   117149268.837       -3786.264          39.000    22292772.519    91285173.246       -2950.387          37.000  
G12  20879960.401   109724940.136       -1124.778          44.000    20879964.252    85499963.169        -876.439          41.000  
G13  23314344.471   122517708.911        1427.744          38.000                                                                  
G22  23021518.342   120978910.772       -4931.652          37.000                                                                  
G19  20087627.075   105561192.279       -3083.156          40.000                                                                  
> 2025 04 04 08 55 33.9960000  0 10                     
G09  22772197.926                       -3035.311          25.000                                                                  
G20  19366316.521   101770712.177       -1789.328          44.000                                                                  
G05  20791330.246   109259196.142         590.573          46.000    20791334.189    85137042.976         459.914          40.000  
G11  20753144.589   109058527.394       -1807.052          39.000    20753143.758    84980662.320       -1408.280          36.000  
G06  21466302.376   112806186.359       -2728.544          40.000    21466307.561    87900959.975       -2126.171          42.000  
G17  22293485.733   117153055.369       -3786.872          40.000    22293493.063    91288123.786       -2951.002          36.000  
G12  20880174.521   109726065.416       -1126.052          46.000    20880178.346    85500839.953        -877.150          43.000  
G13  23314072.820   122516281.474        1426.935          38.000                                                                  
G22  23022456.823   120983842.440       -4932.063          38.000                                                                  
G19  20088213.817   105564275.431       -3083.810          41.000                                                                  
> 2025 04 04 08 55 34.9960000  0 10                     
G09  22772775.372                       -3037.754          23.000                                                                  
G20  19366657.101   101772501.937       -1790.082          45.000                                                                  
G05  20791217.886   109258606.184         589.333          46.000    20791221.834    85136583.243         459.424          39.000  
G11  20753488.487   109060335.028       -1808.214          37.000    20753487.631    84982070.845       -1408.487          37.000  
G06  21466821.550   112808915.264       -2728.917          40.000    21466826.867    87903086.350       -2126.698          42.000  
G17  22294206.481   117156842.995       -3788.678          40.000    22294213.785    91291075.178       -2952.500          36.000  
G12  20880388.794   109727192.024       -1127.201          47.000    20880392.736    85501717.836        -878.239          43.000  
G13  23313801.236   122514854.626        1425.852          38.000                                                                  
G22  23023395.391   120988774.853       -4932.649          37.000                                                                  
G19  20088800.706   105567359.871       -3084.818          41.000                                                                  
> 2025 04 04 08 55 35.9960000  0  9                     
G20  19366997.915   101774293.006       -1791.651          44.000                                                                  
G05  20791105.889   109258017.553         587.949          46.000    20791109.833    85136124.537         458.188          39.000  
G11  20753832.581   109062143.495       -1808.601          37.000    20753831.701    84983480.009       -1409.850          36.000  
G06  21467340.966   112811644.922       -2730.261          40.000    21467346.413    87905213.388       -2127.257          42.000  
G17  22294927.448   117160631.744       -3789.631          39.000    22294934.685    91294027.454       -2952.586          36.000  
G12  20880603.348   109728320.129       -1128.819          46.000    20880607.469    85502596.887        -879.618          41.000  
G13  23313529.793   122513428.289        1426.052          36.000                                                                  
G22  23024334.185   120993708.091       -4933.703          37.000                                                                  
G19  20089388.072   105570445.608       -3086.310          42.000                                                                  
> 2025 04 04 08 55 36.9960000  0 10                     
G20  19367338.988   101776085.395       -1792.761          45.000                                                                  
G05  20790994.138   109257430.202         586.960          46.000    20790998.116    85135666.906         457.228          40.000  
G11  20754176.847   109063952.880       -1809.629          39.000    20754175.993    84984889.939       -1409.596          36.000  
G06  21467860.420   112814375.456       -2730.774          41.000    21467866.031    87907341.029       -2127.880          42.000  
G17  22295648.674   117164421.716       -3790.321          39.000    22295655.933    91296980.692       -2953.484          36.000  
G25  22895504.808                         386.526          16.000                                                                  
G12  20880818.333   109729449.758       -1130.178          44.000    20880822.473    85503477.135        -880.758          39.000  
G13  23313258.417   122512002.756        1425.723          37.000                                                                  
G22  23025273.079   120998642.179       -4933.988          36.000                                                                  
G19  20089975.538   105573532.658       -3087.484          42.000                                                                  
> 2025 04 04 08 55 37.9960000  0  9                     
G20  19367680.238   101777878.708       -1793.868          45.000                                                                  
G05  20790882.490   109256843.746         586.010          45.000    20790886.657    85135209.946         456.482          40.000  
G11  20754521.248   109065762.776       -1809.975          41.000    20754520.378    84986300.238       -1410.722          37.000  
G06  21468380.127   112817106.403       -2731.204          41.000    21468385.663    87909469.049       -2128.582          42.000  
G17  22296370.034   117168212.470       -3790.892          39.000    22296377.304    91299934.503       -2954.034          36.000  
G12  20881033.404   109730580.456       -1131.264          43.000    20881037.612    85504358.220        -881.672          39.000  
G13  23312987.269   122510577.461        1425.045          37.000                                                                  
G22  23026212.098   121003576.767       -4934.440          38.000                                                                  
G19  20090563.160   105576620.663       -3088.525          41.000                                                                  
> 2025 04 04 08 55 38.9960000  0  9                     
G20  19368021.555   101779672.659       -1794.153          45.000                                                                  
G05  20790770.965   109256257.924         585.925          45.000    20790775.097    85134753.444         456.667          38.000  
G11  20754865.699   109067572.892       -1810.527          35.000    20754864.683    84987710.507       -1407.823          30.000  
G06  21468899.881   112819837.510       -2731.246          42.000    21468905.359    87911597.151       -2128.220          42.000  
G17  22297091.664   117172003.825       -3791.761          40.000    22297098.773    91302888.778       -2954.023          36.000  
G12  20881248.741   109731712.028       -1131.736          43.000    20881252.885    85505239.963        -881.647          38.000  
G13  23312716.057   122509152.134        1424.818          38.000                                                                  
G22  23027151.237   121008511.651       -4934.945          39.000                                                                  
G19  20091150.958   105579709.335       -3089.276          41.000                                                                  
> 2025 04 04 08 55 39.9960000  0  9                     
G20  19368363.070   101781467.007       -1795.022          41.000                                                                  
G05  20790659.625   109255672.484         585.326          44.000    20790663.719    85134297.265         455.876          40.000  
G11  20755209.939   109069383.051       -1808.596          31.000    20755209.034    84989121.225       -1411.213          30.000  
G06  21469419.473   112822568.466       -2730.944          42.000    21469424.992    87913725.191       -2128.327          42.000  
G17  22297813.188   117175795.348       -3791.870          40.000    22297820.418    91305843.226       -2955.288          36.000  
G12  20881464.171   109732844.051       -1132.311          42.000    20881468.358    85506122.111        -882.808          40.000  
G13  23312444.759   122507726.577        1425.152          38.000                                                                  
G22  23028090.237   121013446.379       -4935.212          39.000                                                                  
G19  20091738.888   105582798.426       -3089.817          42.000                                                                  
> 2025 04 04 08 55 40.9960000  0 10                     
G20  19368704.646   101783262.196       -1795.077          37.000                                                                  
G05  20790548.368   109255087.763         584.552          46.000    20790552.427    85133841.618         455.470          41.000  
G11  20755554.733   109071193.014       -1810.824          39.000    20755553.599    84990531.546       -1409.989          34.000  
G06  21469939.240   112825299.665       -2731.247          39.000    21469944.655    87915853.347       -2128.246          40.000  
G17  22298534.744   117179587.504       -3792.835          40.000    22298542.181    91308798.188       -2955.698          36.000  
G25  22896212.410                         369.000          17.000                                                                  
G12  20881679.754   109733977.057       -1133.359          40.000    20881684.042    85507004.978        -883.089          34.000  
G13  23312173.555   122506301.018        1425.615          38.000                                                                  
G22  23029029.368   121018381.300       -4934.814          39.000                                                                  
G19  20092326.678   105585888.130       -3090.345          41.000                                                                  
> 2025 04 04 08 55 41.9960000  0 11                     
G09  22776807.202                       -3028.955          27.000                                                                  
G20  19369046.407   101785057.905       -1795.777          37.000                                                                  
G05  20790437.218   109254503.790         583.839          45.000    20790441.262    85133386.592         454.951          41.000  
G11  20755899.626   109073003.622       -1810.302          31.000    20755898.340    84991942.398       -1410.311          32.000  
G06  21470459.178   112828031.153       -2731.559          42.000    21470464.443    87917981.792       -2128.514          40.000  
G17  22299256.440   117183380.274       -3792.839          40.000    22299263.922    91311753.589       -2955.887          36.000  
G25  22896136.126                         369.000          17.000                                                                  
G12  20881895.598   109735111.062       -1134.214          43.000    20881899.839    85507888.575        -883.785          38.000  
G13  23311902.358   122504875.676        1425.419          38.000                                                                  
G22  23029968.491   121023316.606       -4935.316          38.000                                                                  
G19  20092914.790   105588978.737       -3090.563          41.000                                                                  
> 2025 04 04 08 55 42.9960000  0 10                     
G09  22777398.521   119696036.2713      -3040.833          29.000                                                                  
G20  19369388.226   101786854.214       -1796.467          42.000                                                                  
G05  20790326.166   109253920.455         583.254          43.000    20790330.117    85132932.028         454.255          40.000  
G11  20756244.602   109074814.313       -1810.793          33.000    20756243.040    84993353.281       -1411.265          31.000  
G06  21470979.123   112830762.883       -2732.737          35.000    21470984.300    87920110.384       -2128.296          38.000  
G17  22299978.297   117187173.639       -3793.410          40.000    22299985.682    91314709.450       -2956.128          36.000  
G12  20882111.524   109736245.910       -1134.583          46.000    20882115.935    85508772.819        -884.653          43.000  
G13  23311630.992   122503450.210        1426.252          38.000                                                                  
G22  23030907.674   121028252.090       -4935.426          38.000                                                                  
G19  20093502.989   105592069.939       -3091.317          41.000                                                                  
> 2025 04 04 08 55 43.9960000  0  9                     
G09  22777980.166   119699077.7652      -3040.875          28.000                                                                  
G20  19369730.157   101788651.256       -1797.340          42.000                                                                  
G05  20790215.270   109253337.633         582.331          46.000    20790219.305    85132477.898         453.830          40.000  
G11  20756589.034   109076624.845       -1812.096          33.000    20756587.577    84994763.900       -1411.999          34.000  
G06  21471498.997   112833494.570       -2731.024          38.000    21471504.188    87922238.966       -2129.017          41.000  
G17  22300700.219   117190967.353       -3794.443          35.000    22300707.632    91317665.568       -2957.021          33.000  
G12  20882327.562   109737381.364       -1135.168          45.000    20882331.862    85509657.612        -884.825          42.000  
G13  23311359.808   122502024.675        1425.773          37.000                                                                  
G22  23031846.903   121033187.643       -4935.087          38.000                                                                  
> 2025 04 04 08 55 44.9960000  0  9                     
G09  22778560.487   119702119.5912      -3042.291          28.000                                                                  
G20  19370072.157   101790448.488       -1797.408          43.000                                                                  
G05  20790104.416   109252755.077         582.514          46.000    20790108.515    85132023.953         453.903          41.000  
G11  20756933.480   109078435.648       -1810.794          35.000    20756932.232    84996175.003       -1411.845          34.000  
G06  21472018.765   112836225.947       -2731.222          40.000    21472024.021    87924367.348       -2128.245          41.000  
G17  22301422.265   117194761.230       -3794.348          34.000    22301429.629    91320621.852       -2956.709          30.000  
G12  20882543.606   109738517.337       -1136.313          45.000    20882547.985    85510542.798        -885.458          43.000  
G13  23311088.464   122500598.866        1425.464          37.000                                                                  
G22  23032786.142   121038123.017       -4935.398          39.000                                                                  
> 2025 04 04 08 55 45.9960000  0 10                     
G09  22779139.407   119705161.9402      -3042.413          28.000                                                                  
G20  19370414.339   101792246.245       -1798.079          43.000                                                                  
G05  20789993.680   109252173.064         581.733          46.000    20789997.746    85131570.428         453.289          41.000  
G11  20757277.944   109080246.587       -1811.136          34.000    20757276.722    84997586.068       -1411.101          34.000  
G06  21472538.615   112838957.489       -2731.536          38.000    21472543.763    87926495.803       -2128.359          41.000  
G17  22302144.504   117198555.666       -3794.710          33.000    22302151.684    91323578.545       -2957.002          29.000  
G12  20882759.857   109739654.002       -1137.172          45.000    20882764.247    85511428.500        -885.929          43.000  
G13  23310817.133   122499172.888        1425.718          36.000                                                                  
G22  23033725.269   121043058.414       -4935.843          39.000                                                                  
G19  20095269.079                       -3092.764          27.000                                                                  
> 2025 04 04 08 55 46.9960000  0 10                     
G09  22779718.401   119708205.0472      -3043.561          30.000                                                                  
G20  19370756.554   101794044.566       -1797.952          42.000                                                                  
G05  20789883.082   109251591.629         581.299          45.000    20789887.004    85131117.380         452.853          41.000  
G11  20757622.493   109082057.658       -1812.231          30.000    20757621.288    84998997.324       -1411.587          30.000  
G06  21473058.427   112841689.070       -2731.432          39.000    21473063.552    87928624.329       -2128.341          40.000  
G17  22302866.701   117202350.399       -3794.664          32.000    22302873.866    91326535.519       -2957.266          28.000  
G12  20882976.322   109740791.434       -1137.620          45.000    20882980.752    85512314.815        -886.423          42.000  
G13  23310545.862   122497746.763        1426.298          36.000                                                                  
G22  23034664.366   121047993.970       -4935.898          38.000                                                                  
G19  20095861.828   105604466.3583      -3093.026          35.000                                                                  
> 2025 04 04 08 55 47.9960000  0 10                     
G09  22780297.746   119711248.6432      -3043.658          29.000                                                                  
G20  19371098.959   101795843.353       -1799.142          43.000                                                                  
G05  20789772.616   109251010.633         580.789          45.000    20789776.385    85130664.661         452.494          41.000  
G11  20757967.219   109083868.788       -1810.144          29.000    20757966.188    85000408.669       -1411.485          35.000  
G06  21473578.261   112844420.660       -2731.278          39.000    21473583.293    87930752.847       -2128.993          39.000  
G17  22303589.086   117206145.516       -3795.655          34.000    22303596.138    91329492.703       -2958.261          27.000  
G12  20883192.901   109741929.527       -1138.413          47.000    20883197.242    85513201.601        -887.147          43.000  
G13  23310274.508   122496320.597        1426.849          37.000                                                                  
G22  23035603.470   121052929.551       -4935.639          38.000                                                                  
G19  20096452.770   105607560.1002      -3093.939          30.000                                                                  
> 2025 04 04 08 55 48.9960000  0 10                     
G09  22780877.608   119714292.9942      -3044.806          30.000                                                                  
G20  19371441.401   101797642.832       -1799.780          43.000                                                                  
G05  20789662.152   109250430.308         580.020          46.000    20789665.932    85130212.452         451.888          40.000  
G11  20758311.750   109085680.205       -1811.775          28.000    20758311.077    85001820.069       -1412.497          31.000  
G06  21474098.147   112847152.468       -2731.701          38.000    21474103.103    87932881.480       -2128.856          41.000  
G17  22304311.691   117209941.210       -3796.722          34.000    22304318.419    91332450.352       -2957.572          26.000  
G12  20883409.616   109743068.454       -1139.254          45.000    20883414.024    85514089.118        -887.742          43.000  
G13  23310003.200   122494894.356        1426.110          34.000                                                                  
G22  23036542.731   121057865.359       -4936.112          38.000                                                                  
G19  20097041.907   105610654.344       -3094.757          29.000                                                                  
> 2025 04 04 08 55 49.9960000  0 10                     
G09  22781456.968   119717338.142       -3045.825          31.000                                                                  
G20  19371783.953   101799443.029       -1800.698          43.000                                                                  
G05  20789551.863   109249850.722         579.053          46.000    20789555.699    85129760.823         451.114          40.000  
G11  20758656.753   109087491.941       -1811.860          33.000    20758656.045    85003231.776       -1411.693          35.000  
G06  21474618.011   112849884.462       -2732.131          39.000    21474623.039    87935010.333       -2129.104          41.000  
G17  22305034.167   117213737.507       -3797.250          35.000    22305040.826    91335408.568       -2957.917          26.000  
G12  20883626.561   109744208.347       -1140.405          47.000    20883630.839    85514977.307        -888.880          43.000  
G13  23309731.768   122493468.229        1426.504          35.000                                                                  
G22  23037482.049   121062801.406       -4936.167          39.000                                                                  
G19  20097632.627   105613749.470       -3095.461          32.000                                                                  
> 2025 04 04 08 55 50.9960000  0  9                     
G09  22782036.872   119720384.497       -3047.143          31.000                                                                  
G20  19372126.860   101801244.365       -1802.017          43.000                                                                  
G05  20789441.763   109249272.265         577.867          45.000    20789445.680    85129310.106         450.305          40.000  
G11  20759001.769   109089304.288       -1813.219          38.000    20759001.071    85004639.0131      -1412.956          33.000  
G06  21475138.032   112852617.159       -2733.022          39.000    21475143.139    87937139.703       -2129.636          40.000  
G17  22305756.917   117217534.792       -3797.421          38.000    22305763.478    91338367.464       -2958.526          32.000  
G12  20883843.729   109745349.543       -1141.688          46.000    20883847.876    85515866.576        -889.750          42.000  
G13  23309460.318   122492042.652        1425.315          35.000                                                                  
G22  23038421.392   121067738.195       -4937.373          38.000                                                                  
> 2025 04 04 08 55 51.9960000  0 10                     
G09  22782616.660   119723432.227       -3048.431          32.000                                                                  
G20  19372469.931   101803047.009       -1803.112          42.000                                                                  
G05  20789331.877   109248695.134         576.442          45.000    20789335.870    85128860.407         449.221          40.000  
G11  20759346.824   109091117.653       -1813.413          42.000    20759346.145    85006052.021       -1412.823          37.000  
G06  21475658.186   112855350.615       -2732.578          36.000    21475663.207    87939269.680       -2129.684          37.000  
G17  22306479.891   117221333.379       -3798.936          36.000    22306486.447    91341327.415       -2960.198          31.000  
G12  20884061.151   109746492.183       -1143.149          46.000    20884065.282    85516756.942        -890.740          40.000  
G13  23309189.133   122490617.726        1424.944          35.000                                                                  
G22  23039360.941   121072675.848       -4938.198          38.000                                                                  
G19  20098807.351   105619944.5101      -3097.511          33.000                                                                  
> 2025 04 04 08 55 52.9960000  0 10                     
G09  22783196.541   119726480.880       -3048.724          33.000                                                                  
G20  19372813.139   101804850.509       -1803.836          43.000                                                                  
G05  20789222.246   109248118.865         575.905          45.000    20789226.203    85128411.370         448.692          40.000  
G11  20759691.849   109092931.408       -1814.036          42.000    20759691.380    85007465.366       -1412.945          38.000  
G06  21476178.351   112858084.533       -2733.591          35.000    21476183.516    87941399.997       -2130.837          37.000  
G17  22307202.891   117225132.575       -3799.309          36.000    22307209.558    91344287.892       -2961.690          30.000  
G12  20884278.727   109747635.933       -1144.039          44.000    20884282.988    85517648.191        -891.448          39.000  
G13  23308918.022   122489192.993        1424.739          34.000                                                                  
G22  23040300.624   121077613.821       -4938.062          38.000                                                                  
G19  20099395.896   105623042.977       -3098.822          34.000                                                                  
> 2025 04 04 08 55 53.9960000  0 10                     
G09  22783776.902   119729530.358       -3048.975          32.000                                                                  
G20  19373156.466   101806654.823       -1804.524          43.000                                                                  
G05  20789112.810   109247543.405         575.175          45.000    20789116.700    85127962.959         447.981          40.000  
G11  20760037.061   109094745.546       -1814.313          42.000    20760036.591    85008879.022       -1414.032          38.000  
G06  21476698.671   112860818.716       -2733.869          35.000    21476703.886    87943530.515       -2130.802          37.000  
G17  22307925.998   117228932.577       -3800.431          36.000    22307932.697    91347248.871       -2961.712          30.000  
G12  20884496.531   109748780.674       -1145.134          46.000    20884500.773    85518540.179        -892.495          41.000  
G13  23308646.964   122487768.395        1425.535          35.000                                                                  
G22  23041240.355   121082552.205       -4938.387          38.000                                                                  
G19  20099985.308   105626142.279       -3100.178          34.000                                                                  
> 2025 04 04 08 55 54.9960000  0 10                     
G09  22784357.338   119732580.699       -3050.214          32.000                                                                  
G20  19373499.833   101808459.774       -1805.214          43.000                                                                  
G05  20789003.440   109246968.530         574.747          45.000    20789007.226    85127514.992         448.036          40.000  
G11  20760382.225   109096559.921       -1814.272          42.000    20760381.849    85010292.809       -1413.934          38.000  
G06  21477218.938   112863553.084       -2734.368          35.000    21477224.295    87945661.184       -2130.521          37.000  
G17  22308649.241   117232733.042       -3800.623          36.000    22308655.984    91350210.302       -2961.664          30.000  
G12  20884714.517   109749926.252       -1145.875          46.000    20884718.753    85519432.840        -892.786          42.000  
G13  23308375.784   122486343.894        1424.073          34.000                                                                  
G22  23042180.151   121087490.796       -4938.754          38.000                                                                  
G19  20100574.848   105629242.190       -3100.156          34.000                                                                  
> 2025 04 04 08 55 55.9960000  0 10                     
G09  22784937.758   119735631.821       -3051.561          32.000                                                                  
G20  19373843.530   101810265.488       -1806.005          43.000                                                                  
G05  20788894.162   109246394.508         573.894          44.000    20788897.932    85127067.714         447.201          38.000  
G11  20760727.588   109098374.638       -1814.786          42.000    20760727.240    85011706.877       -1414.161          38.000  
G06  21477739.380   112866287.724       -2734.264          34.000    21477744.679    87947792.060       -2130.725          37.000  
G17  22309372.625   117236534.122       -3800.606          36.000    22309379.405    91353172.234       -2962.557          31.000  
G12  20884932.783   109751072.747       -1146.812          46.000    20884936.961    85520326.224        -893.576          42.000  
G13  23308104.584   122484919.403        1423.767          33.000                                                                  
G22  23043119.920   121092429.684       -4939.156          38.000                                                                  
G19  20101164.795   105632342.891       -3100.533          34.000                                                                  
> 2025 04 04 08 55 56.9960000  0 10                     
G09  22785518.376   119738683.733       -3051.996          32.000                                                                  
G20  19374187.322   101812071.887       -1806.684          43.000                                                                  
G05  20788785.067   109245821.121         573.090          43.000    20788788.760    85126620.908         446.820          38.000  
G11  20761072.965   109100189.637       -1815.140          42.000    20761072.633    85013121.140       -1414.229          39.000  
G06  21478259.930   112869022.543       -2734.373          34.000    21478265.136    87949923.080       -2130.638          37.000  
G17  22310095.994   117240335.857       -3801.184          38.000    22310102.846    91356134.590       -2962.107          31.000  
G12  20885151.124   109752220.161       -1147.798          46.000    20885155.306    85521220.297        -894.279          42.000  
G13  23307833.454   122483494.977        1425.052          36.000                                                                  
G22  23044059.760   121097368.874       -4940.159          38.000                                                                  
G19  20101754.903   105635444.339       -3101.564          34.000                                                                  
> 2025 04 04 08 55 57.9960000  0 10                     
G09  22786099.234   119741736.701       -3052.996          28.000                                                                  
G20  19374531.348   101813879.266       -1807.679          44.000                                                                  
G05  20788676.187   109245248.733         571.896          44.000    20788679.852    85126174.904         445.608          40.000  
G11  20761418.509   109102005.436       -1816.794          35.000    20761418.215    85014536.065       -1415.482          36.000  
G06  21478780.407   112871757.898       -2735.401          41.000    21478785.639    87952054.525       -2131.508          41.000  
G17  22310819.579   117244138.475       -3802.849          34.000    22310826.670    91359097.594       -2963.089          34.000  
G12  20885369.809   109753368.702       -1149.244          47.000    20885373.907    85522115.265        -895.512          42.000  
G13  23307562.510   122482070.906        1423.891          36.000                                                                  
G22  23044999.744   121102308.522       -4940.078          37.000                                                                  
G19  20102345.131   105638546.833       -3103.217          34.000                                                                  
> 2025 04 04 08 55 58.9960000  0 10                     
G09  22786682.752   119744825.7973      -3054.466          31.000                                                                  
G20  19374875.481   101815687.806       -1808.990          42.000                                                                  
G05  20788567.480   109244677.531         570.258          43.000    20788571.185    85125729.831         444.852          40.000  
G11  20761764.187   109103821.640       -1815.796          32.000    20761763.882    85015951.309       -1417.001          32.000  
G06  21479300.999   112874493.974       -2736.346          42.000    21479306.315    87954186.501       -2132.384          42.000  
G17  22311543.466   117247942.081       -3804.405          37.000    22311550.581    91362061.439       -2964.450          35.000  
G12  20885588.675   109754518.669       -1150.800          46.000    20885592.687    85523011.343        -896.498          44.000  
G13  23307291.605   122480647.385        1423.087          38.000                                                                  
G22  23045939.888   121107248.837       -4940.585          37.000                                                                  
G19  20102935.518   105641650.418       -3104.588          29.000                                                                  
> 2025 04 04 08 55 59.9960000  0 10                     
G09  22787266.617   119747881.3892      -3056.723          30.000                                                                  
G20  19375219.856   101817497.582       -1810.049          37.000                                                                  
G05  20788458.963   109244107.563         568.953          44.000    20788462.559    85125285.684         443.767          40.000  
G11  20762113.306   109105641.1033      -1817.571          33.000    20762109.590    85017367.352       -1416.194          30.000  
G06  21479821.766   112877230.730       -2737.365          41.000    21479827.059    87956319.034       -2132.709          42.000  
G17  22312267.564   117251746.882       -3805.367          36.000    22312274.691    91365026.226       -2965.614          32.000  
G12  20885807.749   109755669.983       -1151.981          45.000    20885811.796    85523908.453        -897.733          43.000  
G13  23307020.727   122479224.372        1422.992          38.000                                                                  
G22  23046880.213   121112190.037       -4941.429          39.000                                                                  
G19  20103525.955   105644755.253       -3105.875          41.000                                                                  
> 2025 04 04 08 56 00.9960000  0 10                     
G09  22787844.878   119750937.954       -3056.700          30.000                                                                  
G20  19375564.488   101819308.496       -1811.915          37.000                                                                  
G05  20788350.671   109243538.664         568.130          44.000    20788354.293    85124842.405         442.860          41.000  
G11  20762461.847   109107458.5061      -1819.657          32.000    20762455.533    85018783.749       -1417.600          29.000  
G06  21480342.699   112879968.071       -2737.874          42.000    21480347.887    87958452.049       -2133.435          42.000  
G17  22312991.887   117255552.612       -3806.373          31.000    22312999.231    91367991.665       -2965.424          30.000  
G12  20886027.092   109756822.580       -1153.277          45.000    20886031.113    85524806.592        -898.751          42.000  
G13  23306750.124   122477801.917        1422.256          42.000                                                                  
G22  23047820.524   121117131.756       -4942.125          38.000                                                                  
G19  20104116.875   105647861.318       -3106.786          39.000                                                                  
> 2025 04 04 08 56 01.9960000  0 11                     
G09  22788424.244   119753995.981       -3058.978          29.000                                                                  
G20  19375909.425   101821120.636       -1812.992          38.000                                                                  
G05  20788242.671   109242971.065         566.615          46.000    20788246.272    85124400.136         441.551          40.000  
G11  20762808.192   109109276.980       -1818.173          31.000    20762801.571    85020200.888       -1418.227          29.000  
G06  21480863.673   112882706.243       -2738.699          42.000    21480868.969    87960585.679       -2133.958          42.000  
G17  22313716.611   117259359.470       -3807.134          32.000    22313723.777    91370958.082       -2965.875          30.000  
G25  22894875.843                         270.570          24.000                                                                  
G12  20886246.676   109757976.677       -1155.110          45.000    20886250.605    85525705.871        -899.888          42.000  
G13  23306479.457   122476380.069        1421.055          40.000                                                                  
G22  23048761.173   121122074.427       -4943.961          38.000                                                                  
G19  20104708.010   105650968.566       -3107.745          38.000                                                                  
> 2025 04 04 08 56 02.9960000  0 11                     
G09  22789006.296   119757055.391       -3060.226          29.000                                                                  
G20  19376254.537   101822934.093       -1814.377          38.000                                                                  
G05  20788134.907   109242404.819         565.329          46.000    20788138.558    85123958.863         440.854          40.000  
G11  20763153.836   109111096.485       -1819.589          39.000    20763148.021                       -1422.692          26.000  
G06  21481384.883   112885445.300       -2739.470          41.000    21481390.132    87962719.984       -2134.856          42.000  
G17  22314441.430   117263167.574       -3808.622          36.000    22314448.517    91373925.459       -2966.909          30.000  
G25  22894839.847                         270.570          24.000                                                                  
G12  20886466.544   109759132.314       -1156.341          46.000    20886470.536    85526606.359        -901.028          42.000  
G13  23306208.984   122474958.920        1421.230          39.000                                                                  
G22  23049701.954   121127017.910       -4943.251          39.000                                                                  
G19  20105299.335   105654077.186       -3108.677          38.000                                                                  
> 2025 04 04 08 56 03.9960000  0 10                     
G09  22789590.518   119760116.179       -3061.403          30.000                                                                  
G20  19376599.998   101824748.928       -1815.498          42.000                                                                  
G05  20788027.366   109241839.841         564.540          44.000    20788031.004    85123518.711         439.613          41.000  
G11  20763498.413   109112916.957       -1821.518          37.000    20763495.847                       -1419.308          21.000  
G06  21481906.244   112888185.223       -2739.884          40.000    21481911.510    87964854.990       -2135.443          42.000  
G17  22315166.118   117266976.817       -3809.434          34.000    22315173.454    91376893.747       -2968.366          29.000  
G12  20886686.846   109760289.455       -1157.632          46.000    20886690.767    85527508.031        -902.145          44.000  
G13  23305938.700   122473538.538        1420.216          42.000                                                                  
G22  23050642.839   121131962.285       -4944.436          37.000                                                                  
G19  20105890.918   105657187.182       -3110.410          43.000                                                                  
> 2025 04 04 08 56 04.9960000  0 11                     
G09  22790172.566   119763165.0693      -3062.203          30.000                                                                  
G20  19376945.510   101826564.709       -1815.917          42.000                                                                  
G05  20787919.914   109241275.923         563.618          45.000    20787923.553    85123079.285         439.169          41.000  
G11  20763845.922   109114737.960       -1821.606          37.000    20763842.944    85024464.9811      -1419.167          24.000  
G06  21482427.731   112890925.616       -2740.467          40.000    21482433.033    87966990.309       -2135.587          42.000  
G17  22315891.134   117270787.024       -3809.764          39.000    22315898.658    91379862.642       -2969.618          32.000  
G25  22894754.964                         266.420          23.000                                                                  
G12  20886907.362   109761447.746       -1158.718          46.000    20886911.225    85528410.595        -903.055          45.000  
G13  23305668.489   122472118.441        1420.403          38.000                                                                  
G22  23051583.825   121136907.238       -4945.066          39.000                                                                  
G19  20106482.673   105660298.121       -3111.342          40.000                                                                  
> 2025 04 04 08 56 05.9960000  0 11                     
G09  22790755.080   119766227.7352      -3062.450          30.000                                                                  
G20  19377291.196   101828381.247       -1816.606          43.000                                                                  
G05  20787812.694   109240712.724         562.948          45.000    20787816.422    85122640.416         438.639          41.000  
G11  20764192.457   109116559.273       -1821.212          37.000    20764190.384    85025884.084       -1419.199          27.000  
G06  21482949.231   112893666.198       -2740.425          41.000    21482954.673    87969125.836       -2135.633          42.000  
G17  22316616.288   117274597.887       -3811.115          41.000    22316623.700    91382832.121       -2970.080          35.000  
G25  22894700.826                         266.420          23.000                                                                  
G12  20887127.995   109762606.942       -1159.515          46.000    20887131.809    85529313.870        -903.608          45.000  
G13  23305398.244   122470698.430        1420.275          38.000                                                                  
G22  23052524.890   121141852.420       -4945.250          39.000                                                                  
G19  20107074.630   105663409.864       -3111.881          42.000                                                                  
> 2025 04 04 08 56 06.9960000  0 11                     
G09  22791337.489   119769291.134       -3063.616          30.000                                                                  
G20  19377637.023   101830198.443       -1817.475          43.000                                                                  
G05  20787705.496   109240150.181         562.321          45.000    20787709.359    85122202.084         437.917          42.000  
G11  20764538.945   109118380.839       -1821.595          37.000    20764537.271    85027303.534       -1419.431          28.000  
G06  21483470.651   112896407.029       -2740.979          40.000    21483476.316    87971261.509       -2135.525          42.000  
G17  22317341.407   117278409.285       -3811.161          37.000    22317348.901    91385802.154       -2970.414          37.000  
G25  22894649.043                         266.420          24.000                                                                  
G12  20887348.782   109763767.010       -1160.421          47.000    20887352.567    85530217.813        -904.298          45.000  
G13  23305128.078   122469278.399        1420.466          38.000                                                                  
G22  23053465.941   121146797.808       -4945.453          41.000                                                                  
G19  20107666.747   105666522.261       -3112.647          41.000                                                                  
> 2025 04 04 08 56 07.9960000  0 10                     
G09  22791920.192   119772355.231       -3064.657          30.000                                                                  
G20  19377982.969   101832016.273       -1818.108          42.000                                                                  
G05  20787598.585   109239588.308         561.668          45.000    20787602.480    85121764.246         437.556          42.000  
G11  20764885.376   109120202.655       -1822.349          37.000    20764885.044                       -1419.919          27.000  
G06  21483992.220   112899147.986       -2741.588          40.000    21483997.993    87973397.328       -2135.982          41.000  
G17  22318066.831   117282221.268       -3812.733          40.000    22318074.239    91388772.426       -2970.237          34.000  
G12  20887569.725   109764927.921       -1161.394          46.000    20887573.501    85531122.405        -905.057          45.000  
G13  23304857.965   122467858.399        1419.535          40.000                                                                  
G22  23054407.100   121151743.476       -4946.003          35.000                                                                  
G19  20108259.100   105669635.346       -3113.258          41.000                                                                  
> 2025 04 04 08 56 08.9960000  0 10                     
G09  22792503.308   119775420.142       -3065.490          30.000                                                                  
G20  19378328.994   101833834.741       -1818.707          42.000                                                                  
G05  20787491.801   109239027.012         561.011          45.000    20787495.680    85121326.884         437.074          41.000  
G11  20765231.843   109122024.620       -1822.252          37.000    20765232.973    85030157.7401      -1419.789          27.000  
G06  21484513.761   112901889.076       -2741.228          40.000    21484519.520    87975533.235       -2135.704          41.000  
G17  22318792.168   117286033.692       -3812.917          40.000    22318799.488    91391743.138       -2970.429          35.000  
G12  20887790.791   109766089.626       -1162.056          46.000    20887794.540    85532027.643        -905.550          44.000  
G13  23304587.777   122466438.397        1418.942          36.000                                                                  
G22  23055348.291   121156689.270       -4946.223          37.000                                                                  
G19  20108851.518   105672749.061       -3113.879          42.000                                                                  
> 2025 04 04 08 56 09.9960000  0 10                     
G09  22793086.563   119778485.709       -3065.933          30.000                                                                  
G20  19378675.157   101835653.956       -1819.697          42.000                                                                  
G05  20787385.181   109238466.497         560.050          44.000    20787388.945    85120890.124         436.530          40.000  
G11  20765578.384   109123846.945       -1822.403          38.000    20765579.596    85031577.766       -1420.654          27.000  
G06  21485035.328   112904630.449       -2741.628          40.000    21485041.231    87977669.370       -2136.118          41.000  
G17  22319517.677   117289846.728       -3813.270          40.000    22319525.061    91394714.380       -2971.659          36.000  
G12  20888012.069   109767252.270       -1163.128          47.000    20888015.773    85532933.581        -906.090          44.000  
G13  23304317.547   122465018.491        1419.170          35.000                                                                  
G22  23056289.597   121161635.312       -4946.265          37.000                                                                  
G19  20109444.144   105675863.565       -3114.961          42.000                                                                  
> 2025 04 04 08 56 10.9960000  0 10                     
G09  22793670.297   119781552.287       -3066.678          30.000                                                                  
G20  19379021.431   101837474.010       -1820.533          42.000                                                                  
G05  20787278.564   109237906.794         559.050          45.000    20787282.482    85120454.006         435.602          40.000  
G11  20765925.103   109125669.697       -1822.903          38.000    20765926.493                       -1419.882          27.000  
G06  21485557.073   112907372.192       -2742.087          40.000    21485562.957    87979805.784       -2136.782          41.000  
G17  22320243.375   117293660.527       -3814.230          38.000    22320250.675    91397686.203       -2971.758          36.000  
G12  20888233.651   109768415.983       -1164.388          47.000    20888237.199    85533840.369        -907.501          45.000  
G13  23304047.493   122463598.818        1419.722          37.000                                                                  
G22  23057230.779   121166581.634       -4946.810          29.000                                                                  
G19  20110036.745   105678978.916       -3115.850          42.000                                                                  
> 2025 04 04 08 56 11.9960000  0 10                     
G09  22794253.937   119784619.901       -3067.456          29.000                                                                  
G20  19379367.938   101839295.088       -1821.480          42.000                                                                  
G05  20787172.242   109237348.172         558.208          45.000    20787176.148    85120018.720         434.673          41.000  
G11  20766271.923   109127493.026       -1823.127          38.000    20766273.017    85034416.0361      -1420.677          27.000  
G06  21486078.879   112910114.474       -2742.731          39.000    21486084.863    87981942.632       -2137.333          41.000  
G17  22320969.216   117297475.246       -3815.470          39.000    22320976.341    91400658.710       -2972.407          36.000  
G12  20888455.352   109769580.880       -1165.473          47.000    20888458.882    85534748.079        -908.335          45.000  
G13  23303777.400   122462179.441        1419.199          35.000                                                                  
G22  23058172.324   121171528.655       -4947.134          31.000                                                                  
G19  20110629.671   105682095.337       -3116.736          42.000                                                                  
> 2025 04 04 08 56 12.9960000  0 10                     
G09  22794837.886   119787688.515       -3068.717          30.000                                                                  
G20  19379714.638   101841116.998       -1822.353          42.000                                                                  
G05  20787066.104   109236790.332         557.520          44.000    20787069.967    85119584.032         434.394          41.000  
G11  20766618.897   109129316.803       -1824.060          38.000    20766619.351    85035837.082       -1421.294          28.000  
G06  21486600.710   112912857.076       -2743.130          38.000    21486606.697    87984079.707       -2137.175          41.000  
G17  22321695.239   117301290.659       -3815.249          39.000    22321702.235    91403631.734       -2973.071          35.000  
G12  20888677.214   109770746.787       -1166.318          47.000    20888680.698    85535656.564        -908.647          45.000  
G13  23303507.323   122460760.369        1419.365          37.000                                                                  
G22  23059113.607   121176476.114       -4947.500          31.000                                                                  
G19  20111222.837   105685212.559       -3117.451          42.000                                                                  
> 2025 04 04 08 56 13.9960000  0 10                     
G09  22795421.937   119790757.920       -3069.733          30.000                                                                  
G20  19380061.440   101842939.742       -1823.201          42.000                                                                  
G05  20786960.063   109236233.282         556.759          45.000    20786964.042    85119149.975         434.063          41.000  
G11  20766965.916   109131140.982       -1823.841          38.000    20766964.535    85037258.441       -1418.314          28.000  
G06  21487122.670   112915599.993       -2742.314          39.000    21487128.607    87986217.063       -2137.195          41.000  
G17  22322421.422   117305106.798       -3816.585          39.000    22322428.332    91406605.365       -2973.699          36.000  
G12  20888899.317   109771913.727       -1167.386          47.000    20888902.831    85536565.869        -909.760          45.000  
G13  23303237.275   122459341.450        1418.723          37.000                                                                  
G22  23060055.334   121181423.843       -4948.297          34.000                                                                  
G19  20111816.083   105688330.644       -3118.177          42.000                                                                  
> 2025 04 04 08 56 14.9960000  0 10                     
G09  22796006.481   119793828.308       -3070.151          32.000                                                                  
G20  19380408.493   101844763.248       -1823.582          42.000                                                                  
G05  20786854.287   109235677.070         555.872          44.000    20786858.203    85118716.573         433.114          40.000  
G11  20767313.139   109132965.522       -1824.633          36.000    20767311.917    85038680.301       -1423.429          27.000  
G06  21487644.689   112918343.282       -2743.112          40.000    21487650.588    87988354.671       -2137.677          41.000  
G17  22323147.613   117308923.617       -3816.997          40.000    22323154.584    91409579.439       -2973.522          36.000  
G12  20889121.643   109773081.596       -1168.291          46.000    20889125.112    85537475.913        -910.203          44.000  
G13  23302967.354   122457922.588        1419.499          37.000                                                                  
G22  23060996.994   121186371.925       -4948.100          36.000                                                                  
G19  20112409.461   105691449.540       -3119.072          42.000                                                                  
> 2025 04 04 08 56 15.9960000  0 10                     
G09  22796591.044   119796899.491       -3073.010          31.000                                                                  
G20  19380755.633   101846587.381       -1824.508          39.000                                                                  
G05  20786748.593   109235121.501         555.488          46.000    20786752.475    85118283.637         432.541          40.000  
G11  20767660.225   109134790.283       -1824.484          36.000    20767661.160                       -1422.550          25.000  
G06  21488166.710   112921086.605       -2742.959          42.000    21488172.624    87990492.381       -2137.432          41.000  
G17  22323873.965   117312740.954       -3817.820          39.000    22323880.867    91412554.016       -2974.506          35.000  
G12  20889344.119   109774250.306       -1169.062          47.000    20889347.408    85538386.571        -910.553          43.000  
G13  23302697.356   122456503.834        1419.025          39.000                                                                  
G22  23061938.778   121191320.248       -4948.231          37.000                                                                  
G19  20113003.032   105694569.082       -3119.283          43.000                                                                  
> 2025 04 04 08 56 16.9960000  0 10                     
G09  22797175.927   119799970.782       -3071.999          32.000                                                                  
G20  19381102.718   101848411.870       -1824.830          36.000                                                                  
G05  20786642.952   109234566.214         555.125          46.000    20786646.796    85117850.933         432.704          40.000  
G11  20768007.251   109136614.906       -1824.213          42.000    20768007.709                       -1421.545          24.000  
G06  21488688.737   112923829.908       -2742.965          42.000    21488694.615    87992629.945       -2137.375          41.000  
G17  22324600.285   117316558.464       -3817.726          39.000    22324607.233    91415528.692       -2974.699          35.000  
G12  20889566.593   109775419.491       -1169.413          48.000    20889569.896    85539297.649        -911.432          42.000  
G13  23302427.239   122455084.692        1419.204          37.000                                                                  
G22  23062880.354   121196268.403       -4948.018          39.000                                                                  
G19  20113596.678   105697688.989       -3120.085          43.000                                                                  
> 2025 04 04 08 56 17.9960000  0 10                     
G09  22797760.671   119803042.576       -3072.236          32.000                                                                  
G20  19381450.052   101850236.584       -1824.664          36.000                                                                  
G05  20786537.396   109234011.232         554.958          46.000    20786541.134    85117418.471         432.520          40.000  
G11  20768354.205   109138439.413       -1824.411          42.000    20768352.723    85042932.6001      -1422.104          30.000  
G06  21489210.613   112926572.952       -2742.865          42.000    21489216.588    87994767.369       -2137.184          42.000  
G17  22325326.624   117320376.157       -3817.621          39.000    22325333.699    91418503.522       -2974.916          35.000  
G12  20889789.243   109776589.186       -1169.775          47.000    20889792.453    85540209.094        -911.627          42.000  
G13  23302157.102   122453665.217        1419.653          37.000                                                                  
G22  23063821.933   121201216.385       -4947.689          38.000                                                                  
G19  20114190.423   105700809.165       -3120.321          42.000                                                                  
> 2025 04 04 08 56 18.9960000  0 10                     
G09  22798345.320   119806114.655       -3071.854          32.000                                                                  
G20  19381797.294   101852061.557       -1825.027          36.000                                                                  
G05  20786431.833   109233456.482         554.662          46.000    20786435.540    85116986.214         432.072          41.000  
G11  20768701.188   109140263.759       -1824.307          40.000    20768699.388    85044354.086       -1420.974          29.000  
G06  21489732.507   112929315.742       -2742.374          42.000    21489738.499    87996904.622       -2137.028          42.000  
G17  22326052.992   117324193.963       -3817.798          39.000    22326060.201    91421478.439       -2974.897          35.000  
G12  20890011.991   109777759.312       -1170.156          47.000    20890015.096    85541120.878        -911.705          42.000  
G13  23301886.930   122452245.360        1420.200          38.000                                                                  
G22  23064763.346   121206164.142       -4947.813          38.000                                                                  
G19  20114784.237   105703929.598       -3120.647          42.000                                                                  
> 2025 04 04 08 56 19.9960000  0 10                     
G09  22798930.025   119809187.029       -3072.320          31.000                                                                  
G20  19382144.605   101853886.751       -1825.255          37.000                                                                  
G05  20786326.275   109232901.972         554.364          46.000    20786329.971    85116554.117         432.157          40.000  
G11  20769048.237   109142087.848       -1823.585          40.000    20769046.827    85045775.464       -1421.712          27.000  
G06  21490254.432   112932058.280       -2742.330          42.000    21490260.514    87999041.662       -2136.921          42.000  
G17  22326779.460   117328011.893       -3817.962          39.000    22326786.680    91424453.430       -2974.554          34.000  
G12  20890234.778   109778929.837       -1170.655          47.000    20890237.933    85542032.979        -912.236          42.000  
G13  23301616.642   122450825.091        1420.392          38.000                                                                  
G22  23065704.807   121211111.675       -4947.450          38.000                                                                  
G19  20115378.000   105707050.270       -3120.692          42.000                                                                  
> 2025 04 04 08 56 20.9960000  0 10                     
G09  22799514.587   119812259.580       -3072.430          31.000                                                                  
G20  19382491.947   101855712.015       -1825.201          37.000                                                                  
G05  20786220.815   109232347.510         554.329          46.000    20786224.526    85116122.081         431.897          40.000  
G11  20769395.266   109143911.627       -1823.752          40.000    20769396.051    85047196.584       -1420.946          27.000  
G06  21490776.279   112934800.402       -2741.962          42.000    21490782.293    88001178.364       -2136.468          42.000  
G17  22327505.894   117331829.764       -3818.112          39.000    22327513.129    91427428.387       -2974.667          34.000  
G12  20890457.645   109780100.622       -1171.062          47.000    20890460.626    85542945.263        -912.301          42.000  
G13  23301346.179   122449404.212        1420.972          38.000                                                                  
G22  23066646.339   121216058.818       -4947.118          38.000                                                                  
G19  20115971.808   105710171.045       -3120.945          41.000                                                                  
> 2025 04 04 08 56 21.9960000  0 10                     
G09  22800099.190   119815332.102       -3072.561          31.000                                                                  
G20  19382839.269   101857537.189       -1825.085          36.000                                                                  
G05  20786115.369   109231792.992         554.369          46.000    20786118.953    85115689.986         431.630          40.000  
G11  20769742.150   109145734.891       -1823.592          40.000    20769743.408    85048617.264       -1420.031          27.000  
G06  21491298.070   112937541.948       -2741.715          42.000    21491304.059    88003314.637       -2136.209          42.000  
G17  22328232.276   117335647.421       -3817.942          38.000    22328239.563    91430403.241       -2975.870          34.000  
G12  20890680.591   109781271.505       -1171.214          46.000    20890683.462    85543857.650        -912.678          42.000  
G13  23301075.656   122447982.640        1421.702          38.000                                                                  
G22  23067587.517   121221005.406       -4946.317          38.000                                                                  
G19  20116565.612   105713291.734       -3120.764          41.000                                                                  
> 2025 04 04 08 56 22.9960000  0 10                     
G09  22800683.722   119818405.029       -3073.818          31.000                                                                  
G20  19383186.615   101859362.624       -1825.502          35.000                                                                  
G05  20786009.792   109231238.711         554.027          46.000    20786013.542    85115258.079         431.655          40.000  
G11  20770089.037   109147558.008       -1823.052          40.000    20770090.667    85050037.914       -1420.632          28.000  
G06  21491819.720   112940283.299       -2741.221          42.000    21491825.750    88005450.732       -2135.893          42.000  
G17  22328958.724   117339465.276       -3817.773          39.000    22328966.058    91433378.154       -2974.741          35.000  
G12  20890903.498   109782442.851       -1171.515          46.000    20890906.357    85544770.388        -913.001          42.000  
G13  23300805.109   122446560.684        1422.224          38.000                                                                  
G22  23068528.740   121225951.865       -4946.176          38.000                                                                  
G19  20117159.513   105716412.717       -3121.173          42.000                                                                  
> 2025 04 04 08 56 23.9960000  0 10                     
G09  22801268.467   119821478.093       -3073.597          30.000                                                                  
G20  19383534.063   101861188.233       -1825.711          35.000                                                                  
G05  20785904.233   109230684.583         554.190          46.000    20785908.236    85114826.307         431.721          41.000  
G11  20770435.815   109149380.865       -1822.490          41.000    20770439.123    85051458.330       -1419.335          30.000  
G06  21492341.277   112943024.323       -2740.997          42.000    21492347.455    88007586.578       -2135.612          42.000  
G17  22329685.105   117343283.171       -3817.822          38.000    22329692.553    91436353.132       -2974.864          35.000  
G12  20891126.558   109783614.545       -1171.771          47.000    20891129.321    85545683.388        -913.121          42.000  
G13  23300534.354   122445138.285        1422.760          38.000                                                                  
G22  23069469.915   121230897.992       -4945.787          39.000                                                                  
G19  20117753.469   105719533.891       -3121.228          42.000                                                                  
> 2025 04 04 08 56 24.9960000  0 10                     
G09  22801853.451   119824551.621       -3074.894          31.000                                                                  
G20  19383881.422   101863014.252       -1826.302          35.000                                                                  
G05  20785798.836   109230130.842         553.255          46.000    20785802.784    85114394.792         431.179          40.000  
G11  20770782.512   109151203.647       -1823.016          39.000    20770786.027    85052878.699       -1420.599          33.000  
G06  21492862.829   112945765.186       -2740.930          41.000    21492869.050    88009722.338       -2136.076          42.000  
G17  22330411.598   117347101.247       -3818.081          38.000    22330419.036    91439328.259       -2975.022          35.000  
G12  20891349.562   109784786.744       -1172.450          46.000    20891352.386    85546596.787        -913.654          42.000  
G13  23300263.668   122443715.519        1422.882          38.000                                                                  
G22  23070411.055   121235843.996       -4946.008          40.000                                                                  
G19  20118347.585   105722655.398       -3121.949          42.000                                                                  
> 2025 04 04 08 56 25.9960000  0 10                     
G09  22802438.394   119827625.609       -3074.582          30.000                                                                  
G20  19384228.896   101864840.580       -1826.946          41.000                                                                  
G05  20785693.417   109229577.502         552.738          44.000    20785697.460    85113963.689         430.970          41.000  
G11  20771129.296   109153026.676       -1824.060          35.000    20771132.079    85054299.286       -1419.860          34.000  
G06  21493384.405   112948506.024       -2740.089          39.000    21493390.645    88011858.061       -2135.421          41.000  
G17  22331138.096   117350919.667       -3818.598          38.000    22331145.615    91442303.647       -2975.329          35.000  
G12  20891572.706   109785959.702       -1173.441          47.000    20891575.563    85547510.736        -914.355          44.000  
G13  23299992.970   122442292.670        1423.167          38.000                                                                  
G22  23071352.299   121240790.062       -4946.580          37.000                                                                  
G19  20118941.616   105725777.406       -3122.410          42.000                                                                  
> 2025 04 04 08 56 26.9960000  0 10                     
G09  22803023.536   119830700.230       -3074.811          29.000                                                                  
G20  19384576.654   101866667.471       -1827.206          42.000                                                                  
G05  20785588.251   109229024.640         552.886          44.000    20785592.199    85113532.847         431.085          41.000  
G11  20771475.995   109154849.313       -1822.962          38.000    20771478.528    85055719.559       -1420.224          37.000  
G06  21493906.023   112951246.782       -2740.821          39.000    21493912.141    88013993.711       -2135.495          41.000  
G17  22331864.690   117354738.459       -3818.774          38.000    22331872.284    91445279.340       -2975.740          35.000  
G12  20891796.069   109787133.202       -1174.240          47.000    20891798.856    85548425.165        -914.095          42.000  
G13  23299722.120   122440869.540        1423.534          37.000                                                                  
G22  23072293.512   121245736.089       -4946.382          38.000                                                                  
G19  20119535.746   105728899.878       -3122.996          43.000                                                                  
> 2025 04 04 08 56 27.9960000  0 10                     
G09  22803608.581   119833774.940       -3074.399          30.000                                                                  
G20  19384924.351   101868494.493       -1826.996          42.000                                                                  
G05  20785483.161   109228471.942         552.631          44.000    20785487.079    85113102.191         430.194          40.000  
G11  20771822.687   109156671.910       -1822.425          42.000    20771824.933    85057139.706       -1420.121          39.000  
G06  21494427.538   112953987.277       -2740.277          38.000    21494433.643    88016129.161       -2135.222          39.000  
G17  22332591.361   117358557.307       -3818.515          38.000    22332598.915    91448255.057       -2975.664          35.000  
G12  20892019.489   109788307.018       -1173.936          46.000    20892022.239    85549339.863        -914.731          43.000  
G13  23299451.218   122439445.998        1423.894          37.000                                                                  
G22  23073234.722   121250681.763       -4945.048          38.000                                                                  
G19  20120129.974   105732022.534       -3122.997          43.000                                                                  
> 2025 04 04 08 56 28.9960000  0 10                     
G09  22804193.748   119836849.865       -3074.042          30.000                                                                  
G20  19385271.975   101870321.518       -1827.136          42.000                                                                  
G05  20785377.870   109227919.268         552.631          44.000    20785381.955    85112671.525         430.508          40.000  
G11  20772169.243   109158494.087       -1822.073          43.000    20772171.211    85058559.586       -1419.703          41.000  
G06  21494948.968   112956727.337       -2740.067          40.000    21494955.105    88018264.267       -2134.963          41.000  
G17  22333318.063   117362376.030       -3818.607          39.000    22333325.547    91451230.722       -2975.620          35.000  
G12  20892242.939   109789481.083       -1174.271          46.000    20892245.735    85550254.719        -914.908          43.000  
G13  23299180.228   122438021.797        1424.833          37.000                                                                  
G22  23074175.928   121255627.061       -4945.040          39.000                                                                  
G19  20120724.227   105735145.221       -3122.784          43.000                                                                  
> 2025 04 04 08 56 29.9960000  0 10                     
G09  22804778.880   119839924.770       -3074.872          29.000                                                                  
G20  19385619.682   101872148.437       -1826.843          43.000                                                                  
G05  20785272.693   109227366.461         552.948          44.000    20785276.787    85112240.763         431.183          41.000  
G11  20772515.655   109160315.724       -1821.101          45.000    20772517.350    85059979.073       -1419.487          41.000  
G06  21495470.162   112959466.789       -2739.171          40.000    21495476.405    88020398.907       -2134.560          41.000  
G17  22334044.592   117366194.520       -3818.181          39.000    22334052.159    91454206.146       -2975.638          35.000  
G12  20892466.325   109790655.222       -1174.188          46.000    20892469.097    85551169.633        -914.867          42.000  
G13  23298908.932   122436596.815        1425.732          36.000                                                                  
G22  23075116.984   121260571.810       -4944.245          39.000                                                                  
G19  20121318.419   105738267.798       -3122.479          43.000                                                                  
> 2025 04 04 08 56 30.9960000  0 11                     
G09  22805364.023   119842999.516       -3074.619          29.000                                                                  
G20  19385967.342   101873975.193       -1826.816          43.000                                                                  
G05  20785167.451   109226813.473         552.992          44.000    20785171.605    85111809.874         431.125          41.000  
G11  20772862.068   109162136.795       -1820.847          45.000    20772863.426    85061398.079       -1419.410          41.000  
G06  21495991.195   112962205.558       -2738.392          40.000    21495997.619    88022533.014       -2134.050          41.000  
G17  22334771.195   117370012.750       -3818.000          39.000    22334778.719    91457181.401       -2975.486          35.000  
G25  22893215.034                         371.781          19.000                                                                  
G12  20892689.730   109791829.385       -1174.286          46.000    20892692.451    85552084.570        -915.094          43.000  
G13  23298637.664   122435171.075        1426.649          37.000                                                                  
G22  23076057.798   121265515.910       -4943.750          39.000                                                                  
G19  20121912.605   105741390.255       -3122.386          43.000                                                                  
> 2025 04 04 08 56 31.9960000  0 11                     
G09  22805949.206   119846074.068       -3073.998          29.000                                                                  
G20  19386314.931   101875801.720       -1826.547          43.000                                                                  
G05  20785062.159   109226260.292         553.114          44.000    20785066.367    85111378.845         430.911          41.000  
G11  20773208.347   109163957.208       -1820.240          45.000    20773209.489    85062816.559       -1418.469          41.000  
G06  21496512.242   112964943.648       -2737.971          41.000    21496518.647    88024666.578       -2133.358          41.000  
G17  22335497.686   117373830.643       -3817.855          39.000    22335505.194    91460156.348       -2975.121          35.000  
G25  22893166.521                         371.781          18.000                                                                  
G12  20892913.177   109793003.502       -1174.332          46.000    20892915.876    85552999.453        -915.044          42.000  
G13  23298366.135   122433744.466        1426.647          37.000                                                                  
G22  23076998.476   121270459.339       -4943.044          39.000                                                                  
G19  20122506.650   105744512.488       -3122.112          43.000                                                                  
> 2025 04 04 08 56 32.9960000  0 11                     
G09  22806534.432   119849148.705       -3075.349          30.000                                                                  
G20  19386662.473   101877628.106       -1826.551          43.000                                                                  
G05  20784956.802   109225706.972         553.161          44.000    20784961.129    85110947.706         430.752          41.000  
G11  20773554.484   109165777.062       -1819.923          45.000    20773555.433    85064234.632       -1418.123          41.000  
G06  21497033.118   112967681.127       -2737.504          40.000    21497039.537    88026799.669       -2133.107          41.000  
G17  22336224.152   117377648.302       -3817.958          39.000    22336231.627    91463131.132       -2974.543          35.000  
G25  22893112.306                         371.781          16.000                                                                  
G12  20893136.665   109794177.679       -1174.422          46.000    20893139.277    85553914.417        -915.450          42.000  
G13  23298094.480   122432317.086        1427.500          37.000                                                                  
G22  23077939.008   121275402.171       -4942.963          39.000                                                                  
G19  20123100.851   105747634.621       -3122.399          43.000                                                                  
> 2025 04 04 08 56 33.9960000  0 10                     
G09  22807119.786   119852223.578       -3075.143          31.000                                                                  
G20  19387010.211   101879454.777       -1826.888          43.000                                                                  
G05  20784851.522   109225153.951         552.854          44.000    20784855.934    85110516.764         430.767          41.000  
G11  20773900.630   109167596.773       -1819.639          45.000    20773901.528    85065652.592       -1417.855          41.000  
G06  21497554.021   112970418.386       -2737.454          41.000    21497560.347    88028932.583       -2132.722          41.000  
G17  22336950.740   117381466.101       -3818.277          39.000    22336958.094    91466106.072       -2975.080          35.000  
G12  20893360.341   109795352.326       -1175.019          46.000    20893362.860    85554829.707        -915.351          42.000  
G13  23297822.843   122430889.347        1427.755          37.000                                                                  
G22  23078879.562   121280344.827       -4942.398          39.000                                                                  
G19  20123695.044   105750757.047       -3122.700          43.000                                                                  
> 2025 04 04 08 56 34.9960000  0 11                     
G09  22807704.944   119855299.009       -3076.074          30.000                                                                  
G20  19387357.858   101881281.840       -1827.346          43.000                                                                  
G05  20784746.445   109224601.317         552.322          44.000    20784750.779    85110086.132         430.650          40.000  
G11  20774246.742   109169416.464       -1819.785          45.000    20774247.486    85067070.522       -1417.892          41.000  
G06  21498074.862   112973155.549       -2737.372          41.000    21498081.093    88031065.439       -2132.996          42.000  
G17  22337677.341   117385284.201       -3818.232          39.000    22337684.602    91469081.210       -2975.376          34.000  
G25  22892985.231                         371.781          17.000                                                                  
G12  20893583.967   109796527.550       -1175.664          46.000    20893586.568    85555745.493        -916.229          42.000  
G13  23297550.998   122429461.375        1428.076          38.000                                                                  
G22  23079820.136   121285287.420       -4942.374          40.000                                                                  
G19  20124289.224   105753879.884       -3123.038          43.000                                                                  
> 2025 04 04 08 56 35.9960000  0 11                     
G09  22808290.485   119858374.695       -3076.247          31.000                                                                  
G20  19387705.614   101883109.145       -1827.521          43.000                                                                  
G05  20784641.396   109224048.922         552.268          44.000    20784645.719    85109655.699         430.452          40.000  
G11  20774592.966   109171235.979       -1819.461          45.000    20774593.418    85068488.347       -1417.988          41.000  
G06  21498595.601   112975892.446       -2736.657          40.000    21498601.875    88033198.102       -2132.818          41.000  
G17  22338403.891   117389102.450       -3818.310          39.000    22338411.123    91472056.467       -2975.176          35.000  
G25  22892916.966                         371.781          18.000                                                                  
G12  20893807.610   109797703.217       -1176.039          46.000    20893810.331    85556661.571        -916.403          42.000  
G13  23297279.112   122428033.046        1428.114          38.000                                                                  
G22  23080760.630   121290229.827       -4942.412          39.000                                                                  
G19  20124883.491   105757002.999       -3123.381          43.000                                                                  
> 2025 04 04 08 56 36.9960000  0 11                     
G09  22808876.033   119861451.161       -3076.638          31.000                                                                  
G20  19388053.554   101884937.186       -1828.309          43.000                                                                  
G05  20784536.338   109223497.295         551.373          44.000    20784540.734    85109225.866         429.506          40.000  
G11  20774939.292   109173055.817       -1820.054          45.000    20774939.566    85069906.384       -1418.120          41.000  
G06  21499116.540   112978629.640       -2737.276          40.000    21499122.677    88035330.957       -2132.761          41.000  
G17  22339130.504   117392921.296       -3819.094          38.000    22339137.719    91475032.206       -2975.961          34.000  
G25  22892842.523                         371.781          17.000                                                                  
G12  20894031.528   109798879.802       -1176.959          46.000    20894034.216    85557578.388        -916.938          42.000  
G13  23297007.316   122426604.751        1428.417          38.000                                                                  
G22  23081701.040   121295172.469       -4942.548          39.000                                                                  
G19  20125478.043   105760126.833       -3124.158          42.000                                                                  
> 2025 04 04 08 56 37.9960000  0 11                     
G09  22809461.418   119864528.273       -3077.179          31.000                                                                  
G20  19388401.559   101886765.729       -1828.802          43.000                                                                  
G05  20784431.447   109222946.166         550.484          44.000    20784435.817    85108796.419         429.417          40.000  
G11  20775285.446   109174875.744       -1820.108          44.000    20775285.667    85071324.509       -1418.318          41.000  
G06  21499637.477   112981366.849       -2737.322          40.000    21499643.618    88037463.850       -2133.071          41.000  
G17  22339857.210   117396740.563       -3819.815          38.000    22339864.447    91478008.256       -2976.332          35.000  
G25  22892771.328                         371.781          18.000                                                                  
G12  20894255.526   109800057.092       -1177.849          46.000    20894258.272    85558495.768        -917.746          42.000  
G13  23296735.553   122425176.374        1428.181          38.000                                                                  
G22  23082641.519   121300115.221       -4942.903          39.000                                                                  
G19  20126072.601   105763251.238       -3124.698          42.000                                                                  
> 2025 04 04 08 56 38.9960000  0 10                     
G09  22810047.251   119867606.154       -3077.842          31.000                                                                  
G20  19388749.626   101888594.980       -1829.303          43.000                                                                  
G05  20784326.725   109222395.724         550.489          44.000    20784331.032    85108367.510         428.912          40.000  
G11  20775631.825   109176695.952       -1820.199          44.000    20775631.928    85072742.842       -1418.189          41.000  
G06  21500158.539   112984104.285       -2737.408          40.000    21500164.630    88039596.907       -2133.037          41.000  
G17  22340584.143   117400560.412       -3819.848          39.000    22340591.209    91480984.742       -2976.466          35.000  
G12  20894479.663   109801235.279       -1178.308          46.000    20894482.461    85559413.832        -918.101          42.000  
G13  23296463.870   122423748.055        1428.718          38.000                                                                  
G22  23083582.212   121305058.193       -4942.864          39.000                                                                  
G19  20126667.289   105766376.349       -3125.188          42.000                                                                  
> 2025 04 04 08 56 39.9960000  0 11                     
G09  22810633.102   119870684.468       -3078.617          31.000                                                                  
G20  19389097.785   101890424.570       -1830.051          43.000                                                                  
G05  20784222.085   109221845.626         549.648          44.000    20784226.376    85107938.862         428.176          40.000  
G11  20775978.159   109178516.050       -1820.256          45.000    20775978.099    85074161.114       -1418.300          41.000  
G06  21500679.525   112986841.557       -2737.274          40.000    21500685.511    88041729.859       -2133.346          42.000  
G17  22341310.988   117404380.460       -3820.188          39.000    22341318.120    91483961.428       -2976.948          35.000  
G25  22892630.557                         371.781          18.000                                                                  
G12  20894703.893   109802413.989       -1179.199          46.000    20894706.662    85560332.302        -918.876          42.000  
G13  23296192.023   122422319.440        1428.456          38.000                                                                  
G22  23084522.758   121310001.026       -4942.808          39.000                                                                  
G19  20127262.038   105769501.814       -3125.829          42.000                                                                  
> 2025 04 04 08 56 40.9960000  0 10                     
G09  22811219.049   119873763.119       -3079.132          31.000                                                                  
G20  19389446.007   101892254.477       -1830.214          43.000                                                                  
G05  20784117.460   109221295.852         549.422          44.000    20784121.742    85107510.476         428.182          40.000  
G11  20776324.349   109180336.072       -1820.147          45.000    20776324.210    85075579.318       -1418.406          41.000  
G06  21501200.508   112989578.678       -2737.377          40.000    21501206.419    88043862.661       -2133.002          41.000  
G17  22342037.952   117408200.751       -3820.743          39.000    22342045.066    91486938.240       -2976.664          35.000  
G12  20894928.201   109803593.200       -1179.659          46.000    20894931.111    85561251.185        -919.529          42.000  
G13  23295920.074   122420890.481        1429.236          38.000                                                                  
G22  23085463.329   121314943.761       -4942.705          39.000                                                                  
G19  20127856.852   105772627.608       -3125.973          42.000                                                                  
> 2025 04 04 08 56 41.9960000  0 10                     
G09  22811805.139   119876842.189       -3078.506          31.000                                                                  
G20  19389794.304   101894084.708       -1830.310          43.000                                                                  
G05  20784012.965   109220746.409         549.333          44.000    20784017.188    85107082.338         428.018          40.000  
G11  20776670.550   109182155.995       -1819.735          45.000    20776670.330    85076997.425       -1417.820          41.000  
G06  21501721.306   112992315.650       -2736.748          40.000    21501727.169    88045995.355       -2132.481          41.000  
G17  22342765.054   117412021.246       -3820.904          39.000    22342772.140    91489915.239       -2976.883          35.000  
G12  20895152.725   109804772.945       -1180.011          46.000    20895155.634    85562170.447        -919.265          42.000  
G13  23295648.018   122419461.242        1429.747          38.000                                                                  
G22  23086403.806   121319886.375       -4942.559          39.000                                                                  
G19  20128451.682   105775753.770       -3126.089          42.000                                                                  
> 2025 04 04 08 56 42.9960000  0 10                     
G09  22812391.128   119879921.587       -3079.450          30.000                                                                  
G20  19390142.654   101895915.161       -1830.691          43.000                                                                  
G05  20783908.425   109220197.208         549.014          44.000    20783912.491    85106654.373         427.810          40.000  
G11  20777016.721   109183975.744       -1819.800          45.000    20777016.616    85078415.403       -1418.004          41.000  
G06  21502242.094   112995052.375       -2736.781          40.000    21502247.986    88048127.862       -2132.491          41.000  
G17  22343492.079   117415841.801       -3820.205          39.000    22343499.184    91492892.363       -2977.485          35.000  
G12  20895377.246   109805953.095       -1180.530          46.000    20895380.173    85563090.055        -919.946          42.000  
G13  23295375.991   122418031.611        1429.337          39.000                                                                  
G22  23087344.282   121324828.718       -4942.064          39.000                                                                  
G19  20129046.658   105778880.177       -3126.550          42.000                                                                  
> 2025 04 04 08 56 43.9960000  0 10                     
G09  22812977.196   119883001.131       -3079.956          30.000                                                                  
G20  19390490.958   101897745.726       -1830.622          43.000                                                                  
G05  20783803.841   109219648.086         548.972          43.000    20783808.013    85106226.515         427.771          40.000  
G11  20777362.865   109185795.153       -1819.302          45.000    20777362.701    85079833.153       -1417.744          41.000  
G06  21502762.696   112997788.689       -2736.218          40.000    21502768.754    88050260.053       -2131.965          41.000  
G17  22344219.127   117419662.393       -3820.866          39.000    22344226.276    91495869.398       -2976.811          35.000  
G12  20895601.845   109807133.542       -1180.569          46.000    20895604.819    85564009.882        -920.100          42.000  
G13  23295103.853   122416601.392        1430.348          38.000                                                                  
G22  23088284.731   121329770.742       -4941.817          39.000                                                                  
G19  20129641.577   105782006.693       -3126.685          43.000                                                                  
> 2025 04 04 08 56 44.9960000  0 10                     
G09  22813563.388   119886080.679       -3080.251          30.000                                                                  
G20  19390839.245   101899576.192       -1830.525          43.000                                                                  
G05  20783699.266   109219098.855         549.489          43.000    20783703.582    85105798.567         428.091          41.000  
G11  20777708.964   109187614.028       -1818.623          44.000    20777708.747    85081250.458       -1417.197          41.000  
G06  21503283.362   113000524.382       -2735.072          39.000    21503289.384    88052391.790       -2131.800          40.000  
G17  22344946.183   117423482.781       -3820.695          39.000    22344953.389    91498846.327       -2977.229          36.000  
G12  20895826.530   109808314.069       -1180.605          46.000    20895829.588    85564929.774        -919.790          42.000  
G13  23294831.506   122415170.471        1431.382          38.000                                                                  
G22  23089225.073   121334712.207       -4941.457          39.000                                                                  
G19  20130236.434   105785133.151       -3126.416          43.000                                                                  
> 2025 04 04 08 56 45.9960000  0 11                     
G09  22814149.275   119889160.116       -3080.276          31.000                                                                  
G20  19391187.596   101901406.448       -1830.018          44.000                                                                  
G05  20783594.694   109218549.514         549.491          43.000    20783599.055    85105370.501         428.080          41.000  
G11  20778054.998   109189432.325       -1817.673          43.000    20778054.752    85082667.362       -1416.865          43.000  
G06  21503804.000   113003259.771       -2735.608          31.000    21503809.899    88054523.135       -2131.317          35.000  
G17  22345673.055   117427302.852       -3820.364          39.000    22345680.307    91501822.980       -2976.475          35.000  
G25  22892916.975                         362.901          18.000                                                                  
G12  20896051.119   109809494.615       -1180.473          46.000    20896054.282    85565849.681        -919.776          42.000  
G13  23294559.001   122413738.744        1432.260          38.000                                                                  
G22  23090165.317   121339653.029       -4940.013          39.000                                                                  
G19  20130831.401   105788259.489       -3126.777          43.000                                                                  
> 2025 04 04 08 56 46.9960000  0 11                     
G09  22814735.080   119892239.377       -3077.657          29.000                                                                  
G20  19391535.838   101903236.616       -1830.097          43.000                                                                  
G05  20783490.176   109217999.972         549.702          45.000    20783494.528    85104942.255         428.432          41.000  
G11  20778400.873   109191250.100       -1817.262          44.000    20778400.648    85084083.763       -1416.638          41.000  
G06  21504324.494   113005993.942       -2733.228          37.000    21504330.275    88056653.824       -2130.437          40.000  
G17  22346399.982   117431122.661       -3819.525          37.000    22346407.153    91504799.453       -2976.124          36.000  
G25  22892841.702                         362.901          18.000                                                                  
G12  20896275.850   109810675.210       -1180.708          46.000    20896278.957    85566769.627        -919.930          43.000  
G13  23294286.214   122412306.300        1431.499          35.000                                                                  
G22  23091105.499   121344593.241       -4939.542          39.000                                                                  
G19  20131426.370   105791385.673       -3126.681          38.000                                                                  
> 2025 04 04 08 56 47.9960000  0 11                     
G09  22815321.332   119895318.712       -3076.892          29.000                                                                  
G20  19391884.164   101905066.653       -1830.011          43.000                                                                  
G05  20783385.548   109217450.332         549.840          43.000    20783390.010    85104514.011         428.094          41.000  
G11  20778746.695   109193067.345       -1817.538          45.000    20778746.454    85085499.787       -1415.914          41.000  
G06  21504844.693   113008727.829       -2732.190          39.000    21504850.598    88058784.041       -2129.273          39.000  
G17  22347126.885   117434942.208       -3817.416          30.000    22347134.083    91507775.815       -2975.797          31.000  
G25  22892772.659                         362.901          17.000                                                                  
G12  20896500.481   109811855.893       -1180.656          46.000    20896503.679    85567689.636        -920.110          42.000  
G13  23294013.473   122410872.957        1433.733          39.000                                                                  
G22  23092045.478   121349532.985       -4939.693          38.000                                                                  
G19  20132021.291   105794511.661       -3126.478          44.000                                                                  
> 2025 04 04 08 56 48.9960000  0 11                     
G09  22815907.493   119898398.243       -3079.318          30.000                                                                  
G20  19392232.485   101906896.739       -1830.042          43.000                                                                  
G05  20783281.026   109216900.778         549.324          45.000    20783285.425    85104085.795         428.168          41.000  
G11  20779092.361   109194884.169       -1816.863          45.000    20779092.159    85086915.530       -1415.911          41.000  
G06  21505364.875   113011461.376       -2733.719          40.000    21505370.725    88060914.052       -2129.839          41.000  
G17  22347853.887   117438761.741       -3819.845          37.000    22347860.885    91510751.956       -2976.048          34.000  
G25  22892699.245                         362.901          16.000                                                                  
G12  20896725.291   109813036.831       -1180.990          46.000    20896728.271    85568609.848        -920.349          42.000  
G13  23293740.524   122409439.175        1433.910          38.000                                                                  
G22  23092985.401   121354472.214       -4939.310          40.000                                                                  
G19  20132616.167   105797637.855       -3126.425          44.000                                                                  
> 2025 04 04 08 56 49.9960000  0 11                     
G09  22816493.715   119901477.875       -3079.384          29.000                                                                  
G20  19392580.707   101908726.963       -1830.150          43.000                                                                  
G05  20783176.435   109216351.327         549.561          44.000    20783180.858    85103657.673         428.258          41.000  
G11  20779438.116   109196700.725       -1816.466          45.000    20779437.827    85088331.037       -1415.456          41.000  
G06  21505884.915   113014194.462       -2732.890          40.000    21505890.771    88063043.728       -2129.146          41.000  
G17  22348580.727   117442581.266       -3819.228          39.000    22348587.828    91513728.200       -2975.600          34.000  
G25  22892635.693                         362.901          17.000                                                                  
G12  20896950.099   109814218.075       -1181.441          47.000    20896953.040    85569530.289        -920.643          42.000  
G13  23293467.590   122408004.817        1434.910          38.000                                                                  
G22  23093925.164   121359411.132       -4938.700          39.000                                                                  
G19  20133210.993   105800764.151       -3126.400          43.000                                                                  
> 2025 04 04 08 56 50.9960000  0 11                     
G09  22817079.977   119904557.817       -3079.964          30.000                                                                  
G20  19392929.028   101910557.319       -1830.465          43.000                                                                  
G05  20783071.905   109215802.067         549.163          45.000    20783076.299    85103229.656         427.817          40.000  
G11  20779783.759   109198517.008       -1815.997          45.000    20779783.508    85089746.304       -1415.098          41.000  
G06  21506404.984   113016927.226       -2732.476          39.000    21506410.711    88065173.154       -2129.035          41.000  
G17  22349307.597   117446400.915       -3819.632          42.000    22349314.757    91516704.566       -2976.312          36.000  
G25  22892562.426                         362.901          17.000                                                                  
G12  20897175.043   109815399.638       -1181.674          46.000    20897177.965    85570450.999        -920.801          42.000  
G13  23293194.593   122406570.075        1435.084          36.000                                                                  
G22  23094864.943   121364349.776       -4938.324          37.000                                                                  
G19  20133806.004   105803890.601       -3126.439          42.000                                                                  
> 2025 04 04 08 56 51.9960000  0 11                     
G09  22817666.314   119907637.876       -3079.301          29.000                                                                  
G20  19393277.378   101912387.783       -1830.510          43.000                                                                  
G05  20782967.376   109215252.874         549.002          44.000    20782971.814    85102801.733         427.825          41.000  
G11  20780129.193   109200332.986       -1815.826          45.000    20780129.079    85091161.349       -1415.188          41.000  
G06  21506924.996   113019659.626       -2732.282          40.000    21506930.658    88067302.285       -2129.127          41.000  
G17  22350034.456   117450220.489       -3820.355          39.000    22350041.619    91519680.815       -2976.380          36.000  
G25  22892494.313                         362.901          15.000                                                                  
G12  20897399.987   109816581.501       -1181.981          46.000    20897402.848    85571371.927        -920.945          42.000  
G13  23292921.493   122405134.673        1435.493          34.000                                                                  
G22  23095804.621   121369288.061       -4938.226          37.000                                                                  
G19  20134401.072   105807017.197       -3126.698          43.000                                                                  
> 2025 04 04 08 56 52.9960000  0 11                     
G09  22818252.562   119910718.308       -3080.169          30.000                                                                  
G20  19393625.682   101914218.506       -1830.571          43.000                                                                  
G05  20782862.979   109214703.975         548.881          44.000    20782867.305    85102373.980         427.693          40.000  
G11  20780474.767   109202148.793       -1815.587          44.000    20780474.492    85092576.253       -1415.070          41.000  
G06  21507444.991   113022391.785       -2731.801          40.000    21507450.602    88069431.255       -2128.947          41.000  
G17  22350761.437   117454040.337       -3819.031          34.000    22350768.574    91522657.391       -2975.809          30.000  
G25  22892427.164                         362.901          15.000                                                                  
G12  20897624.999   109817763.813       -1182.198          46.000    20897627.841    85572293.225        -921.535          42.000  
G13  23292648.190   122403698.952        1435.250          36.000                                                                  
G22  23096744.378   121374226.223       -4937.871          40.000                                                                  
G19  20134996.100   105810144.017       -3126.330          41.000                                                                  
> 2025 04 04 08 56 53.9970000  0 10                     
G09  22818839.129   119913801.903       -3080.334          29.000                                                                  
G20  19393974.422   101916051.136       -1830.734          43.000                                                                  
G05  20782758.405   109214154.547         549.171          44.000    20782762.741    85101945.854         427.793          41.000  
G11  20780820.552   109203966.068       -1815.265          45.000    20780820.282    85093992.323       -1414.680          41.000  
G06  21507965.286   113025126.250       -2731.676          40.000    21507971.019    88071561.971       -2128.240          41.000  
G17  22351489.017   117457863.822       -3819.710          35.000    22351496.152    91525636.732       -2976.224          31.000  
G12  20897850.324   109818947.581       -1182.691          46.000    20897853.044    85573215.639        -921.614          42.000  
G13  23292374.537   122402261.138        1437.863          35.000                                                                  
G22  23097684.885   121379168.793       -4937.486          38.000                                                                  
G19  20135591.635   105813274.199       -3126.924          41.000                                                                  
> 2025 04 04 08 56 54.9970000  0 10                     
G09  22819425.121   119916882.465       -3080.169          29.000                                                                  
G20  19394322.851   101917881.876       -1830.693          43.000                                                                  
G05  20782653.814   109213605.636         549.369          44.000    20782658.233    85101518.169         427.937          39.000  
G11  20781165.950   109205781.065       -1814.584          45.000    20781165.623    85095406.590       -1413.852          41.000  
G06  21508485.015   113027857.489       -2730.431          40.000    21508490.858    88073690.190       -2127.879          42.000  
G17  22352215.812   117461683.361       -3818.525          37.000    22352223.154    91528612.984       -2975.710          35.000  
G12  20898075.458   109820130.310       -1182.459          47.000    20898078.049    85574137.221        -921.452          41.000  
G13  23292101.033   122400824.215        1437.850          37.000                                                                  
G22  23098624.420   121384106.020       -4937.313          38.000                                                                  
G19  20136186.676   105816401.079       -3126.741          41.000                                                                  
> 2025 04 04 08 56 55.9970000  0 10                     
G09  22820011.401   119919963.215       -3081.012          28.000                                                                  
G20  19394671.159   101919712.731       -1831.139          43.000                                                                  
G05  20782549.294   109213056.893         548.366          45.000    20782553.829    85101090.553         427.566          40.000  
G11  20781511.379   109207595.738       -1814.567          45.000    20781510.975    85096820.628       -1414.185          41.000  
G06  21509004.759   113030588.319       -2730.597          40.000    21509010.457    88075818.109       -2127.683          42.000  
G17  22352942.613   117465502.880       -3820.324          37.000    22352949.980    91531589.246       -2976.136          35.000  
G12  20898300.559   109821313.345       -1183.380          47.000    20898303.213    85575059.075        -922.013          42.000  
G13  23291827.633   122399386.731        1437.861          37.000                                                                  
G22  23099563.895   121389042.879       -4936.839          37.000                                                                  
G19  20136781.801   105819528.206       -3127.272          43.000                                                                  
> 2025 04 04 08 56 56.9970000  0 10                     
G09  22820598.034   119923044.389       -3081.433          28.000                                                                  
G20  19395019.619   101921543.878       -1831.346          43.000                                                                  
G05  20782445.050   109212508.418         548.386          44.000    20782449.447    85100663.194         427.226          40.000  
G11  20781856.722   109209410.309       -1814.359          45.000    20781856.321    85098234.585       -1413.907          41.000  
G06  21509524.481   113033318.986       -2730.497          40.000    21509530.071    88077945.914       -2127.643          40.000  
G17  22353669.442   117469322.596       -3819.688          39.000    22353676.762    91534565.662       -2976.666          35.000  
G12  20898525.655   109822496.872       -1184.043          46.000    20898528.394    85575981.287        -922.243          42.000  
G13  23291553.985   122397948.941        1437.709          37.000                                                                  
G22  23100503.307   121393979.594       -4936.865          38.000                                                                  
G19  20137377.073   105822655.594       -3127.384          43.000                                                                  
> 2025 04 04 08 56 57.9970000  0 10                     
G09  22821184.883   119926125.850       -3081.378          27.000                                                                  
G20  19395368.090   101923375.267       -1831.528          43.000                                                                  
G05  20782340.761   109211960.144         548.326          45.000    20782345.120    85100235.962         426.907          41.000  
G11  20782202.047   109211224.674       -1814.409          45.000    20782201.550    85099648.361       -1413.736          41.000  
G06  21510044.084   113036049.392       -2730.389          40.000    21510049.555    88080073.508       -2127.652          40.000  
G17  22354396.250   117473142.450       -3820.252          39.000    22354403.583    91537542.124       -2976.313          35.000  
G12  20898750.887   109823680.783       -1184.003          46.000    20898753.585    85576903.820        -922.742          41.000  
G13  23291280.327   122396510.680        1438.760          37.000                                                                  
G22  23101442.600   121398916.015       -4936.010          38.000                                                                  
G19  20137972.295   105825783.233       -3127.846          43.000                                                                  
> 2025 04 04 08 56 58.9970000  0 11                     
G09  22821771.517   119929207.498       -3081.604          27.000                                                                  
G20  19395716.734   101925206.811       -1831.712          43.000                                                                  
G05  20782236.506   109211412.082         548.018          44.000    20782240.836    85099808.909         426.841          40.000  
G11  20782547.287   109213038.795       -1813.986          45.000    20782546.768    85101061.968       -1413.449          41.000  
G06  21510563.587   113038779.505       -2729.970          40.000    21510569.043    88082200.851       -2126.950          40.000  
G17  22355123.062   117476962.333       -3819.541          39.000    22355130.370    91540518.703       -2976.969          35.000  
G25  22892741.507                         367.470          19.000                                                                  
G12  20898976.291   109824865.072       -1184.474          46.000    20898978.934    85577826.658        -923.120          42.000  
G13  23291006.613   122395072.022        1438.402          36.000                                                                  
G22  23102382.046   121403852.237       -4936.186          37.000                                                                  
G19  20138567.519   105828911.047       -3127.776          43.000                                                                  
> 2025 04 04 08 56 59.9970000  0 11                     
G09  22822357.984   119932289.354       -3081.567          27.000                                                                  
G20  19396065.274   101927038.444       -1831.548          42.000                                                                  
G05  20782132.327   109210864.103         548.111          44.000    20782136.540    85099381.913         427.370          41.000  
G11  20782892.288   109214852.581       -1813.542          45.000    20782891.975    85102475.332       -1413.465          42.000  
G06  21511083.012   113041509.240       -2729.359          41.000    21511088.456    88084327.874       -2126.369          40.000  
G17  22355849.929   117480782.219       -3819.972          39.000    22355857.254    91543495.211       -2976.075          35.000  
G25  22892681.012                         367.470          18.000                                                                  
G12  20899201.680   109826049.647       -1184.674          46.000    20899204.314    85578749.687        -923.029          42.000  
G13  23290732.751   122393632.767        1439.020          35.000                                                                  
G22  23103321.240   121408788.055       -4935.340          37.000                                                                  
G19  20139162.761   105832038.997       -3127.964          43.000                                                                  
> 2025 04 04 08 57 00.9970000  0 11                     
G09  22822944.626   119935371.139       -3082.281          26.000                                                                  
G20  19396413.833   101928869.966       -1831.713          42.000                                                                  
G05  20782028.019   109210316.059         547.793          44.000    20782032.245    85098954.862         426.782          40.000  
G11  20783237.337   109216665.841       -1813.308          45.000    20783237.015    85103888.249       -1412.719          42.000  
G06  21511602.288   113044238.362       -2729.133          39.000    21511607.853    88086454.499       -2126.283          41.000  
G17  22356576.795   117484601.853       -3820.227          39.000    22356584.254    91546471.573       -2976.768          35.000  
G25  22892620.741                         367.470          16.000                                                                  
G12  20899427.145   109827234.331       -1185.076          46.000    20899429.722    85579672.815        -923.453          42.000  
G13  23290458.624   122392192.766        1439.702          32.000                                                                  
G22  23104260.274   121413723.282       -4934.944          36.000                                                                  
G19  20139757.934   105835166.848       -3127.950          43.000                                                                  
> 2025 04 04 08 57 01.9970000  0 10                     
G09  22823531.026   119938452.947       -3081.158          28.000                                                                  
G20  19396762.286   101930701.416       -1831.313          42.000                                                                  
G05  20781923.744   109209767.910         548.141          45.000    20781927.973    85098527.744         426.845          40.000  
G11  20783582.349   109218478.627       -1812.498          45.000    20783581.965    85105300.796       -1412.293          42.000  
G06  21512121.518   113046966.952       -2728.417          40.000    21512127.027    88088580.657       -2125.908          41.000  
G17  22357303.545   117488421.302       -3819.560          38.000    22357310.982    91549447.750       -2975.847          35.000  
G12  20899652.575   109828419.088       -1184.778          46.000    20899655.117    85580595.988        -922.934          42.000  
G13  23290184.306   122390752.095        1441.874          33.000                                                                  
G22  23105199.319   121418658.092       -4934.552          35.000                                                                  
G19  20140353.180   105838294.669       -3127.937          43.000                                                                  
> 2025 04 04 08 57 02.9970000  0 10                     
G09  22824117.665   119941534.508       -3081.946          28.000                                                                  
G20  19397110.693   101932532.615       -1831.231          42.000                                                                  
G05  20781819.403   109209219.503         548.518          45.000    20781823.640    85098100.391         427.731          40.000  
G11  20783927.220   109220290.711       -1811.760          45.000    20783926.914    85106712.829       -1411.994          42.000  
G06  21512640.568   113049694.752       -2727.388          40.000    21512646.104    88090706.230       -2125.382          41.000  
G17  22358030.187   117492240.391       -3818.904          38.000    22358037.613    91552423.673       -2975.833          34.000  
G12  20899878.060   109829603.794       -1184.677          46.000    20899880.624    85581519.147        -923.143          42.000  
G13  23289909.974   122389310.531        1442.056          33.000                                                                  
G22  23106138.212   121423592.080       -4933.404          35.000                                                                  
G19  20140948.396   105841422.209       -3127.296          43.000                                                                  
> 2025 04 04 08 57 03.9970000  0 10                     
G09  22824704.196   119944616.076       -3081.543          28.000                                                                  
G20  19397459.053   101934363.633       -1831.081          42.000                                                                  
G05  20781715.110   109208670.953         548.393          45.000    20781719.189    85097672.981         427.113          40.000  
G11  20784271.971   109222102.231       -1811.415          45.000    20784271.670    85108124.373       -1411.528          41.000  
G06  21513159.443   113052421.980       -2727.151          40.000    21513165.108    88092831.311       -2125.205          41.000  
G17  22358756.852   117496059.192       -3819.072          38.000    22358764.254    91555399.379       -2975.938          34.000  
G12  20900103.532   109830788.548       -1185.092          46.000    20900106.119    85582442.335        -923.693          42.000  
G13  23289635.388   122387868.144        1443.138          35.000                                                                  
G22  23107077.081   121428525.502       -4933.446          37.000                                                                  
G19  20141543.508   105844549.647       -3127.670          43.000                                                                  
> 2025 04 04 08 57 04.9970000  0 10                     
G09  22825290.636   119947697.630       -3082.550          27.000                                                                  
G20  19397807.490   101936194.630       -1831.000          43.000                                                                  
G05  20781610.788   109208122.356         548.695          45.000    20781614.760    85097245.499         427.465          41.000  
G11  20784616.670   109223913.279       -1810.619          45.000    20784616.267    85109535.604       -1411.159          41.000  
G06  21513678.372   113055148.646       -2726.653          40.000    21513683.969    88094955.962       -2124.327          41.000  
G17  22359483.538   117499877.849       -3819.099          37.000    22359490.910    91558374.948       -2975.480          33.000  
G12  20900328.996   109831973.420       -1184.964          46.000    20900331.605    85583365.618        -923.465          42.000  
G13  23289360.806   122386425.114        1443.497          37.000                                                                  
G22  23108015.728   121433458.404       -4932.666          37.000                                                                  
G19  20142138.561   105847677.054       -3127.539          43.000                                                                  
> 2025 04 04 08 57 05.9970000  0 10                     
G09  22825876.973   119950778.985       -3081.470          27.000                                                                  
G20  19398155.944   101938025.332       -1830.320          43.000                                                                  
G05  20781506.226   109207573.491         548.879          44.000    20781510.274    85096817.810         427.805          41.000  
G11  20784961.282   109225723.632       -1809.913          45.000    20784960.778    85110946.260       -1410.530          41.000  
G06  21514197.134   113057874.519       -2725.041          40.000    21514202.723    88097080.056       -2123.867          41.000  
G17  22360210.090   117503696.194       -3818.708          35.000    22360217.490    91561350.279       -2976.136          33.000  
G12  20900554.362   109833158.227       -1184.828          46.000    20900557.144    85584288.831        -922.971          42.000  
G13  23289086.067   122384981.111        1444.211          37.000                                                                  
G22  23108954.374   121438390.568       -4931.494          38.000                                                                  
G19  20142733.657   105850804.217       -3126.918          44.000                                                                  
> 2025 04 04 08 57 06.9970000  0 11                     
G09  22826462.588                       -3080.692          27.000                                                                  
G20  19398504.160   101939855.711       -1830.243          43.000                                                                  
G05  20781401.809   109207024.225         549.394          45.000    20781405.800    85096389.794         428.227          41.000  
G11  20785305.629   109227533.237       -1809.321          45.000    20785305.080    85112356.327       -1409.898          41.000  
G06  21514715.647   113060599.634       -2724.745          40.000    21514721.227    88099203.484       -2123.184          40.000  
G17  22360936.444   117507513.925       -3817.405          37.000    22360943.974    91564325.157       -2974.588          33.000  
G25  22891538.279                         374.410          17.000                                                                  
G12  20900779.749   109834342.868       -1184.623          46.000    20900782.533    85585211.922        -923.124          42.000  
G13  23288811.066   122383536.186        1444.587          34.000                                                                  
G22  23109892.785   121443322.070       -4931.346          38.000                                                                  
G19  20143328.647   105853931.051       -3126.974          44.000                                                                  
> 2025 04 04 08 57 07.9970000  0 11                     
G09  22827049.642                       -3079.776          26.000                                                                  
G20  19398852.426   101941685.781       -1829.920          43.000                                                                  
G05  20781297.251   109206474.740         549.705          45.000    20781301.227    85095961.647         428.336          41.000  
G11  20785649.925   109229342.107       -1808.471          45.000    20785649.295    85113765.838       -1408.828          41.000  
G06  21515234.103   113063323.907       -2723.563          40.000    21515239.641    88101326.319       -2122.716          40.000  
G17  22361662.868   117511331.362       -3817.511          37.000    22361670.330    91567299.688       -2973.178          34.000  
G25  22891472.093                         374.410          17.000                                                                  
G12  20901005.124   109835527.390       -1184.305          47.000    20901007.921    85586134.933        -922.936          42.000  
G13  23288536.028   122382090.301        1446.147          34.000                                                                  
G22  23110831.061   121448252.578       -4930.755          36.000                                                                  
G19  20143923.546   105857057.577       -3126.178          44.000                                                                  
> 2025 04 04 08 57 08.9970000  0 11                     
G09  22827635.498                       -3081.861          26.000                                                                  
G20  19399200.602   101943515.337       -1829.409          43.000                                                                  
G05  20781192.570   109205924.706         550.228          44.000    20781196.544    85095533.032         428.991          41.000  
G11  20785993.983   109231150.056       -1807.363          45.000    20785993.415    85115174.652       -1408.490          41.000  
G06  21515752.335   113066047.241       -2722.740          40.000    21515757.850    88103448.372       -2121.542          40.000  
G17  22362389.268   117515148.156       -3816.030          37.000    22362396.550    91570273.872       -2973.764          34.000  
G25  22891408.235                         374.410          16.000                                                                  
G12  20901230.425   109836711.631       -1184.047          46.000    20901233.255    85587057.706        -922.683          42.000  
G13  23288260.754   122380643.391        1446.952          35.000                                                                  
G22  23111769.092   121453182.251       -4928.957          37.000                                                                  
G19  20144518.368   105860183.649       -3125.812          44.000                                                                  
> 2025 04 04 08 57 09.9970000  0 10                     
G09  22828219.719                       -3079.280          26.000                                                                  
G20  19399548.698   101945344.359       -1828.681          43.000                                                                  
G05  20781087.898   109205374.168         550.583          44.000    20781091.722    85095104.070         428.918          39.000  
G11  20786337.847   109232957.070       -1806.715          45.000    20786337.296    85116582.689       -1407.889          41.000  
G06  21516270.379   113068769.573       -2722.119          40.000    21516275.867    88105569.654       -2120.891          40.000  
G17  22363115.492   117518964.305       -3816.193          37.000    22363122.756    91573247.472       -2973.227          34.000  
G12  20901455.730   109837895.508       -1183.897          46.000    20901458.492    85587980.222        -922.652          41.000  
G13  23287985.140   122379195.196        1448.039          37.000                                                                  
G22  23112707.077   121458110.943       -4928.417          37.000                                                                  
G19  20145113.166   105863309.213       -3125.415          44.000                                                                  
> 2025 04 04 08 57 10.9970000  0 10                     
G09  22828807.689                       -3080.365          25.000                                                                  
G20  19399896.669   101947172.993       -1828.428          43.000                                                                  
G05  20780983.054   109204823.255         550.977          44.000    20780986.910    85094674.807         429.021          41.000  
G11  20786681.597   109234763.246       -1805.880          45.000    20786681.047    85117990.091       -1406.920          41.000  
G06  21516788.273   113071490.986       -2720.962          40.000    21516793.716    88107690.234       -2120.238          40.000  
G17  22363841.606   117522779.901       -3815.703          37.000    22363848.825    91576220.707       -2973.592          34.000  
G12  20901681.058   109839079.177       -1183.751          46.000    20901683.600    85588902.543        -922.262          41.000  
G13  23287709.272   122377745.959        1449.492          37.000                                                                  
G22  23113644.806   121463038.776       -4928.138          37.000                                                                  
G19  20145707.906   105866434.388       -3125.069          44.000                                                                  
> 2025 04 04 08 57 11.9970000  0 10                     
G09  22829394.888                       -3079.652          25.000                                                                  
G20  19400244.693   101949001.380       -1828.405          43.000                                                                  
G05  20780878.075   109204272.091         550.850          44.000    20780882.076    85094245.333         429.052          41.000  
G11  20787025.171   109236568.782       -1805.482          45.000    20787024.575    85119397.004       -1406.683          41.000  
G06  21517305.978   113074211.706       -2720.651          40.000    21517311.429    88109810.281       -2120.229          40.000  
G17  22364567.646   117526595.174       -3815.700          37.000    22364574.853    91579193.637       -2973.288          34.000  
G12  20901906.330   109840262.804       -1184.004          46.000    20901908.860    85589824.841        -922.461          41.000  
G13  23287433.340   122376295.897        1450.094          37.000                                                                  
G22  23114582.327   121467965.841       -4926.878          37.000                                                                  
G19  20146302.529   105869559.333       -3124.948          44.000                                                                  
> 2025 04 04 08 57 12.9970000  0 10                     
G09  22829982.471                       -3080.489          25.000                                                                  
G20  19400592.727   101950830.051       -1828.834          43.000                                                                  
G05  20780773.207   109203721.236         550.657          44.000    20780777.165    85093816.096         428.985          40.000  
G11  20787368.692   109238374.190       -1805.679          45.000    20787368.134    85120803.811       -1406.760          41.000  
G06  21517823.616   113076932.212       -2720.258          40.000    21517829.082    88111930.148       -2119.980          40.000  
G17  22365293.869   117530410.617       -3815.465          37.000    22365300.830    91582166.688       -2972.907          34.000  
G12  20902131.725   109841446.872       -1184.059          44.000    20902134.218    85590747.529        -922.670          39.000  
G13  23287157.283   122374845.499        1450.798          37.000                                                                  
G22  23115519.852   121472892.843       -4927.414          37.000                                                                  
G19  20146897.219   105872684.623       -3125.603          44.000                                                                  
> 2025 04 04 08 57 13.9970000  0  9                     
G20  19400940.737   101952659.048       -1829.264          43.000                                                                  
G05  20780668.508   109203170.707         550.156          44.000    20780672.325    85093387.086         429.116          40.000  
G11  20787712.065   109240179.458       -1805.316          45.000    20787711.688    85122210.490       -1406.779          41.000  
G06  21518341.311   113079652.569       -2719.600          40.000    21518346.706    88114049.916       -2120.031          40.000  
G17  22366020.001   117534226.265       -3815.661          37.000    22366026.962    91585139.909       -2972.656          34.000  
G12  20902357.032   109842631.492       -1184.702          46.000    20902359.616    85591670.601        -923.284          41.000  
G13  23286881.161   122373394.791        1450.470          36.000                                                                  
G22  23116457.401   121477819.658       -4926.625          37.000                                                                  
G19  20147492.037   105875810.205       -3125.398          44.000                                                                  
> 2025 04 04 08 57 14.9970000  0 10                     
G09  22831153.853   119978522.3643      -3080.902          26.000                                                                  
G20  19401288.873   101954488.414       -1829.735          43.000                                                                  
G05  20780563.745   109202620.572         549.569          44.000    20780567.595    85092958.408         428.315          40.000  
G11  20788055.673   109241984.723       -1805.405          44.000    20788055.361    85123617.254       -1406.837          37.000  
G06  21518858.992   113082372.823       -2720.535          40.000    21518864.324    88116169.574       -2119.844          40.000  
G17  22366746.232   117538042.186       -3816.444          37.000    22366753.191    91588113.359       -2973.401          34.000  
G12  20902582.548   109843816.687       -1185.680          46.000    20902585.175    85592594.108        -924.007          41.000  
G13  23286604.997   122371943.771        1451.086          36.000                                                                  
G22  23117394.875   121482746.434       -4927.069          37.000                                                                  
G19  20148087.002   105878936.215       -3126.444          44.000                                                                  
> 2025 04 04 08 57 15.9970000  0 10                     
G09  22831740.830   119981603.8282      -3081.396          26.000                                                                  
G20  19401637.180   101956318.491       -1830.606          43.000                                                                  
G05  20780459.303   109202071.147         548.694          44.000    20780462.983    85092530.304         427.738          40.000  
G11  20788399.287   109243790.301       -1806.153          43.000    20788398.954    85125024.187       -1406.906          37.000  
G06  21519376.626   113085093.303       -2720.629          40.000    21519382.088    88118289.447       -2120.605          40.000  
G17  22367472.594   117541858.708       -3817.521          37.000    22367479.473    91591087.282       -2974.417          34.000  
G12  20902808.173   109845002.764       -1186.856          46.000    20902810.977    85593518.334        -924.444          41.000  
G13  23286328.832   122370492.902        1450.179          37.000                                                                  
G22  23118332.435   121487673.438       -4928.155          36.000                                                                  
G19  20148681.964   105882062.967       -3127.457          44.000                                                                  
> 2025 04 04 08 57 16.9970000  0 10                     
G09  22832328.215   119984686.3462      -3082.843          26.000                                                                  
G20  19401985.683   101958149.468       -1831.523          43.000                                                                  
G05  20780355.054   109201522.637         548.073          44.000    20780358.548    85092102.911         426.734          40.000  
G11  20788743.003   109245596.311       -1806.618          44.000    20788742.562    85126431.404       -1407.521          37.000  
G06  21519894.379   113087814.243       -2721.374          39.000    21519899.876    88120409.622       -2120.451          41.000  
G17  22368199.036   117545676.008       -3817.351          38.000    22368205.903    91594061.800       -2975.234          34.000  
G12  20903034.069   109846189.960       -1187.929          46.000    20903036.785    85594443.398        -925.512          41.000  
G13  23286052.549   122369042.291        1450.943          36.000                                                                  
G22  23119270.123   121492600.869       -4927.812          37.000                                                                  
G19  20149277.152   105885190.642       -3128.054          44.000                                                                  
> 2025 04 04 08 57 17.9970000  0 10                     
G09  22832914.733   119987769.6812      -3084.082          26.000                                                                  
G20  19402334.189   101959981.272       -1832.296          43.000                                                                  
G05  20780250.834   109200974.959         547.286          44.000    20780254.288    85091676.157         426.276          40.000  
G11  20789086.803   109247402.828       -1806.513          43.000    20789086.371    85127839.153       -1407.691          37.000  
G06  21520412.167   113090535.489       -2721.359          39.000    21520417.690    88122530.072       -2120.651          40.000  
G17  22368925.576   117549494.062       -3818.516          37.000    22368932.557    91597036.916       -2975.904          34.000  
G12  20903260.175   109847378.148       -1188.818          46.000    20903262.889    85595369.295        -926.440          41.000  
G13  23285776.475   122367591.880        1450.374          36.000                                                                  
G22  23120207.843   121497528.681       -4927.989          36.000                                                                  
G19  20149872.471   105888319.175       -3128.984          44.000                                                                  
> 2025 04 04 08 57 18.9970000  0  9                     
G20  19402682.959   101961814.193       -1833.348          43.000                                                                  
G05  20780146.749   109200428.421         545.853          44.000    20780150.344    85091250.270         425.507          40.000  
G11  20789430.623   109249209.898       -1807.387          44.000    20789430.262    85129247.248       -1408.782          37.000  
G06  21520930.118   113093257.376       -2722.170          40.000    21520935.671    88124651.033       -2121.118          41.000  
G17  22369652.354   117553313.087       -3819.560          37.000    22369659.343    91600012.794       -2976.372          34.000  
G12  20903486.604   109848567.665       -1189.956          47.000    20903489.276    85596296.169        -927.327          41.000  
G13  23285500.605   122366141.909        1449.834          37.000                                                                  
G22  23121145.750   121502457.208       -4928.512          37.000                                                                  
G19  20150468.019   105891448.846       -3130.155          44.000                                                                  
> 2025 04 04 08 57 19.9970000  0  9                     
G20  19403031.969   101963648.007       -1834.145          43.000                                                                  
G05  20780042.936   109199882.784         545.023          44.000    20780046.491    85090825.090         424.791          40.000  
G11  20789774.672   109251017.515       -1807.910          44.000    20789774.155    85130655.752       -1408.639          37.000  
G06  21521448.174   113095979.676       -2722.286          41.000    21521453.761    88126772.293       -2121.047          41.000  
G17  22370379.242   117557132.884       -3820.044          37.000    22370386.263    91602989.225       -2976.298          33.000  
G12  20903713.025   109849758.245       -1191.021          45.000    20903715.643    85597223.885        -927.910          41.000  
G13  23285224.738   122364692.282        1449.226          37.000                                                                  
G22  23122083.700   121507386.120       -4929.129          38.000                                                                  
G19  20151063.797   105894579.431       -3130.889          44.000                                                                  
> 2025 04 04 08 57 20.9970000  0  9                     
G20  19403381.244   101965482.863       -1835.403          43.000                                                                  
G05  20779939.313   109199338.170         543.682          44.000    20779942.763    85090400.702         423.923          40.000  
G11  20790118.824   109252825.754       -1808.679          44.000    20790118.221    85132064.758       -1409.296          38.000  
G06  21521966.383   113098702.554       -2723.551          41.000    21521971.791    88128893.998       -2121.993          42.000  
G17  22371106.333   117560953.623       -3821.438          37.000    22371113.345    91605966.431       -2977.524          34.000  
G12  20903939.837   109850950.065       -1192.612          46.000    20903942.466    85598152.599        -929.526          41.000  
G13  23284948.990   122363243.004        1449.006          36.000                                                                  
G22  23123021.723   121512315.597       -4930.018          38.000                                                                  
G19  20151659.706   105897711.065       -3132.330          44.000                                                                  
> 2025 04 04 08 57 21.9970000  0  9                     
G20  19403730.517   101967318.695       -1836.293          43.000                                                                  
G05  20779835.935   109198794.549         543.140          44.000    20779839.345    85089977.113         423.348          39.000  
G11  20790463.081   109254634.562       -1808.964          44.000    20790462.429    85133474.248       -1409.947          38.000  
G06  21522484.568   113101425.902       -2723.202          41.000    21522490.073    88131016.108       -2122.253          42.000  
G17  22371833.632   117564775.236       -3822.247          37.000    22371840.559    91608944.323       -2977.976          33.000  
G12  20904166.790   109852143.069       -1193.588          46.000    20904169.406    85599082.185        -929.880          41.000  
G13  23284673.128   122361794.112        1448.658          37.000                                                                  
G22  23123959.853   121517245.608       -4929.934          37.000                                                                  
G19  20152255.834   105900843.709       -3133.114          44.000                                                                  
> 2025 04 04 08 57 22.9970000  0  9                     
G20  19404079.988   101969155.261       -1837.049          43.000                                                                  
G05  20779732.534   109198251.650         542.306          45.000    20779736.072    85089554.083         422.758          40.000  
G11  20790807.354   109256443.664       -1809.332          44.000    20790806.629    85134883.895       -1409.295          38.000  
G06  21523002.845   113104149.501       -2723.551          41.000    21523008.259    88133138.383       -2122.414          42.000  
G17  22372561.117   117568597.457       -3821.844          37.000    22372567.944    91611922.674       -2978.360          33.000  
G12  20904394.007   109853336.980       -1194.428          46.000    20904396.607    85600012.499        -930.396          41.000  
G13  23284397.322   122360345.307        1448.799          37.000                                                                  
G22  23124898.114   121522175.948       -4930.558          37.000                                                                  
G19  20152851.998   105903977.098       -3133.627          44.000                                                                  
> 2025 04 04 08 57 23.9970000  0  9                     
G20  19404429.536   101970992.346       -1837.185          43.000                                                                  
G05  20779629.383   109197709.266         542.441          43.000    20779632.934    85089131.481         422.338          40.000  
G11  20791151.646   109258252.875       -1808.910          45.000    20791150.906    85136293.676       -1409.427          38.000  
G06  21523521.074   113106873.184       -2723.532          41.000    21523526.581    88135260.726       -2122.441          42.000  
G17  22373288.502   117572420.113       -3823.120          37.000    22373295.226    91614901.351       -2978.394          34.000  
G12  20904621.200   109854531.598       -1194.841          45.000    20904623.876    85600943.382        -930.986          41.000  
G13  23284121.669   122358896.406        1448.616          37.000                                                                  
G22  23125836.326   121527106.325       -4930.563          37.000                                                                  
G19  20153448.338   105907111.043       -3134.260          44.000                                                                  
> 2025 04 04 08 57 24.9970000  0  9                     
G20  19404779.167   101972829.421       -1837.041          43.000                                                                  
G05  20779526.121   109197166.913         542.590          45.000    20779529.642    85088708.858         422.514          40.000  
G11  20791495.934   109260061.665       -1808.396          45.000    20791494.998    85137703.117       -1408.908          38.000  
G06  21524039.378   113109596.379       -2723.116          41.000    21524044.874    88137382.674       -2121.591          41.000  
G17  22374015.880   117576242.629       -3822.579          36.000    22374022.618    91617879.944       -2978.614          34.000  
G12  20904848.451   109855726.398       -1194.535          46.000    20904851.206    85601874.415        -931.181          41.000  
G13  23283845.882   122357446.833        1450.067          37.000                                                                  
G22  23126774.423   121532036.202       -4929.523          37.000                                                                  
G19  20154044.682   105910244.969       -3133.814          44.000                                                                  
> 2025 04 04 08 57 25.9970000  0  9                     
G20  19405128.755   101974666.370       -1836.987          43.000                                                                  
G05  20779422.909   109196624.420         542.756          45.000    20779426.321    85088286.125         422.996          40.000  
G11  20791840.149   109261869.915       -1807.945          45.000    20791838.997    85139112.156       -1408.407          38.000  
G06  21524557.543   113112318.928       -2722.169          41.000    21524562.905    88139504.151       -2121.142          41.000  
G17  22374743.146   117580064.924       -3822.269          36.000    22374750.094    91620858.345       -2978.418          34.000  
G12  20905075.743   109856921.287       -1194.805          46.000    20905078.556    85602805.475        -931.006          41.000  
G13  23283570.000   122355996.545        1450.683          38.000                                                                  
G22  23127712.503   121536965.514       -4928.831          38.000                                                                  
G19  20154641.108   105913378.826       -3133.746          44.000                                                                  
> 2025 04 04 08 57 26.9970000  0  9                     
G20  19405478.312   101976503.092       -1836.677          43.000                                                                  
G05  20779319.684   109196081.717         542.854          45.000    20779323.024    85087863.258         422.900          40.000  
G11  20792184.210   109263677.532       -1807.555          45.000    20792182.962    85140520.673       -1408.512          40.000  
G06  21525075.484   113115040.816       -2721.783          40.000    21525080.937    88141625.075       -2120.571          41.000  
G17  22375470.451   117583886.873       -3822.226          37.000    22375477.421    91623836.454       -2977.550          34.000  
G12  20905303.088   109858116.145       -1194.922          46.000    20905305.935    85603736.535        -930.957          41.000  
G13  23283293.901   122354545.428        1451.665          38.000                                                                  
G22  23128650.302   121541894.196       -4928.947          37.000                                                                  
G19  20155237.390   105916512.483       -3133.715          44.000                                                                  
> 2025 04 04 08 57 27.9970000  0  9                     
G20  19405827.845   101978339.794       -1836.699          43.000                                                                  
G05  20779216.403   109195539.004         542.778          44.000    20779219.716    85087440.360         423.112          40.000  
G11  20792528.150   109265484.748       -1807.299          46.000    20792526.786    85141928.886       -1407.951          41.000  
G06  21525593.286   113117762.239       -2720.881          37.000    21525598.835    88143745.697       -2120.188          38.000  
G17  22376197.628   117587708.645       -3821.321          37.000    22376204.746    91626814.513       -2978.108          34.000  
G12  20905530.416   109859311.176       -1195.245          46.000    20905533.331    85604667.723        -931.519          41.000  
G13  23283017.585   122353093.693        1452.042          37.000                                                                  
G22  23129588.082   121546822.336       -4928.070          37.000                                                                  
G19  20155833.718   105919646.135       -3133.713          43.000                                                                  
> 2025 04 04 08 57 28.9970000  0  9                     
G20  19406177.399   101980176.873       -1837.269          43.000                                                                  
G05  20779113.180   109194996.667         542.173          45.000    20779116.543    85087017.771         422.332          40.000  
G11  20792871.923   109267291.850       -1806.920          45.000    20792870.608    85143337.074       -1408.314          41.000  
G06  21526111.157   113120483.424       -2721.180          39.000    21526116.683    88145866.098       -2120.428          38.000  
G17  22376924.865   117591530.728       -3822.294          37.000    22376932.051    91629792.766       -2977.967          34.000  
G12  20905757.884   109860506.766       -1195.974          46.000    20905760.913    85605599.348        -931.755          41.000  
G13  23282741.214   122351641.642        1452.609          36.000                                                                  
G22  23130525.919   121551750.419       -4928.058          36.000                                                                  
G19  20156430.134   105922780.200       -3134.236          43.000                                                                  
> 2025 04 04 08 57 29.9970000  0  9                     
G20  19406527.178   101982014.464       -1837.722          43.000                                                                  
G05  20779010.055   109194454.850         541.606          45.000    20779013.429    85086595.586         421.691          40.000  
G11  20793215.854   109269099.091       -1807.432          46.000    20793214.501    85144745.288       -1408.477          41.000  
G06  21526628.925   113123204.756       -2721.608          40.000    21526634.489    88147986.596       -2120.649          39.000  
G17  22377652.245   117595353.209       -3822.702          38.000    22377659.444    91632771.329       -2978.611          34.000  
G12  20905985.560   109861703.060       -1196.864          46.000    20905988.621    85606531.534        -932.557          41.000  
G13  23282464.754   122350189.530        1451.360          36.000                                                                  
G22  23131463.723   121556678.567       -4928.285          36.000                                                                  
G19  20157026.594   105925914.788       -3135.053          43.000                                                                  
> 2025 04 04 08 57 30.9970000  0  9                     
G20  19406877.090   101983852.799       -1838.579          43.000                                                                  
G05  20778907.102   109193913.789         540.731          45.000    20778910.470    85086173.983         421.348          40.000  
G11  20793559.892   109270906.638       -1807.609          46.000    20793558.479    85146153.767       -1408.558          41.000  
G06  21527146.920   113125926.343       -2721.865          41.000    21527152.401    88150107.307       -2121.008          40.000  
G17  22378379.786   117599176.353       -3823.687          38.000    22378386.876    91635750.398       -2979.974          34.000  
G12  20906213.413   109862900.310       -1197.631          46.000    20906216.379    85607464.448        -933.003          41.000  
G13  23282188.473   122348737.463        1452.073          35.000                                                                  
G22  23132401.524   121561607.007       -4928.585          36.000                                                                  
G19  20157623.183   105929050.140       -3135.605          43.000                                                                  
> 2025 04 04 08 57 31.9970000  0  9                     
G20  19407227.061   101985691.948       -1839.633          43.000                                                                  
G05  20778804.324   109193373.558         539.547          45.000    20778807.609    85085753.019         420.507          40.000  
G11  20793904.013   109272714.589       -1808.191          46.000    20793902.498    85147562.575       -1409.105          41.000  
G06  21527664.868   113128648.248       -2722.033          41.000    21527670.387    88152228.261       -2121.024          40.000  
G17  22379107.438   117603000.157       -3824.343          38.000    22379114.537    91638729.995       -2980.191          34.000  
G12  20906441.487   109864098.541       -1198.726          46.000    20906444.429    85608398.155        -934.322          41.000  
G13  23281912.056   122347285.611        1451.451          35.000                                                                  
G22  23133339.442   121566535.793       -4929.253          36.000                                                                  
G19  20158220.011   105932186.335       -3136.753          43.000                                                                  
> 2025 04 04 08 57 32.9970000  0  9                     
G20  19407577.342   101987532.015       -1840.572          43.000                                                                  
G05  20778701.648   109192834.244         538.707          45.000    20778705.013    85085332.778         419.745          40.000  
G11  20794248.151   109274523.048       -1808.679          46.000    20794246.680    85148971.752       -1409.419          41.000  
G06  21528182.979   113131370.582       -2722.758          41.000    21528188.321    88154349.554       -2121.554          40.000  
G17  22379835.279   117606824.773       -3825.168          38.000    22379842.388    91641710.221       -2981.015          33.000  
G12  20906669.738   109865297.910       -1200.091          46.000    20906672.714    85609332.719        -935.223          41.000  
G13  23281635.796   122345834.067        1451.398          35.000                                                                  
G22  23134277.467   121571465.053       -4929.674          36.000                                                                  
G19  20158817.029   105935323.473       -3137.727          43.000                                                                  
> 2025 04 04 08 57 33.9970000  0  9                     
G20  19407927.711   101989373.096       -1841.662          43.000                                                                  
G05  20778599.219   109192295.943         537.788          45.000    20778602.670    85084913.338         418.978          40.000  
G11  20794592.385   109276332.093       -1809.263          46.000    20794590.906    85150381.398       -1409.793          41.000  
G06  21528701.179   113134093.483       -2722.988          41.000    21528706.578    88156471.279       -2121.934          41.000  
G17  22380563.278   117610650.292       -3825.749          38.000    22380570.302    91644691.170       -2981.835          33.000  
G12  20906898.058   109866498.459       -1200.849          46.000    20906901.135    85610268.217        -935.863          41.000  
G13  23281359.536   122344382.842        1451.956          35.000                                                                  
G22  23135215.486   121576394.872       -4930.262          36.000                                                                  
G19  20159414.184   105938461.648       -3138.551          43.000                                                                  
> 2025 04 04 08 57 34.9970000  0  9                     
G20  19408278.215   101991215.104       -1842.401          43.000                                                                  
G05  20778496.917   109191758.600         536.987          45.000    20778500.507    85084494.630         418.397          40.000  
G11  20794936.783   109278141.667       -1809.826          46.000    20794935.291    85151791.446       -1410.197          41.000  
G06  21529219.493   113136816.806       -2723.694          40.000    21529224.826    88158593.353       -2122.069          39.000  
G17  22381291.299   117614476.661       -3826.377          38.000    22381298.472    91647672.731       -2982.123          34.000  
G12  20907126.759   109867700.169       -1202.180          46.000    20907129.868    85611204.611        -936.909          41.000  
G13  23281083.390   122342931.990        1451.219          35.000                                                                  
G22  23136153.642   121581325.214       -4931.259          36.000                                                                  
G19  20160011.627   105941600.781       -3139.776          43.000                                                                  
> 2025 04 04 08 57 35.9970000  0  9                     
G20  19408628.884   101993058.070       -1843.482          43.000                                                                  
G05  20778394.851   109191222.218         535.648          45.000    20778398.449    85084076.660         417.622          40.000  
G11  20795281.212   109279951.770       -1810.784          46.000    20795279.689    85153201.916       -1410.722          41.000  
G06  21529737.923   113139540.750       -2724.064          35.000    21529743.148    88160715.921       -2122.951          37.000  
G17  22382019.656   117618303.884       -3828.145          38.000    22382026.606    91650654.941       -2982.488          34.000  
G12  20907355.596   109868902.999       -1203.457          46.000    20907358.807    85612141.877        -937.912          41.000  
G13  23280807.306   122341481.458        1450.058          35.000                                                                  
G22  23137091.966   121586255.970       -4931.354          37.000                                                                  
G19  20160609.250   105944740.892       -3140.748          43.000                                                                  
> 2025 04 04 08 57 36.9970000  0  9                     
G20  19408979.785   101994902.163       -1844.255          43.000                                                                  
G05  20778293.170   109190686.942         534.902          45.000    20778296.555    85083659.579         416.881          40.000  
G11  20795625.760   109281762.580       -1810.888          45.000    20795624.293    85154612.939       -1411.306          37.000  
G06  21530256.296   113142265.078       -2724.480          41.000    21530261.564    88162838.762       -2122.999          41.000  
G17  22382748.303   117622132.086       -3828.534          38.000    22382755.166    91653637.962       -2983.363          34.000  
G12  20907584.739   109870107.156       -1204.542          46.000    20907587.988    85613080.180        -938.720          41.000  
G13  23280531.297   122340031.357        1450.249          36.000                                                                  
G22  23138030.314   121591187.458       -4931.775          37.000                                                                  
G19  20161206.918   105947882.108       -3141.249          43.000                                                                  
> 2025 04 04 08 57 37.9970000  0  9                     
G20  19409330.872   101996747.099       -1845.046          43.000                                                                  
G05  20778191.475   109190152.549         534.115          45.000    20778194.841    85083243.157         416.258          40.000  
G11  20795970.457   109283573.798       -1811.178          45.000    20795968.828    85156024.317       -1411.476          37.000  
G06  21530774.697   113144989.916       -2724.833          39.000    21530780.106    88164962.018       -2123.003          41.000  
G17  22383477.028   117625961.015       -3828.998          38.000    22383483.839    91656621.557       -2983.522          33.000  
G12  20907814.100   109871312.348       -1205.555          46.000    20907817.322    85614019.283        -939.374          41.000  
G13  23280255.503   122338581.564        1449.454          36.000                                                                  
G22  23138968.830   121596119.267       -4931.716          36.000                                                                  
G19  20161804.894   105951024.240       -3142.385          43.000                                                                  
> 2025 04 04 08 57 38.9970000  0  9                     
G20  19409682.010   101998592.730       -1846.071          43.000                                                                  
G05  20778089.782   109189618.835         533.368          45.000    20778093.327    85082827.292         415.492          39.000  
G11  20796315.080   109285385.312       -1811.868          44.000    20796313.453    85157435.863       -1411.579          36.000  
G06  21531293.329   113147714.969       -2725.484          39.000    21531298.724    88167085.421       -2123.327          40.000  
G17  22384205.811   117629790.531       -3830.117          38.000    22384212.531    91659605.610       -2984.315          33.000  
G12  20908043.576   109872518.421       -1206.625          46.000    20908046.832    85614959.086        -940.245          41.000  
G13  23279979.628   122337131.757        1449.851          37.000                                                                  
G22  23139907.344   121601051.363       -4932.232          36.000                                                                  
G19  20162402.983   105954167.080       -3143.381          43.000                                                                  
> 2025 04 04 08 57 39.9970000  0  9                     
G20  19410033.368   102000439.177       -1846.951          43.000                                                                  
G05  20777988.366   109189085.936         532.560          45.000    20777991.999    85082412.055         414.742          40.000  
G11  20796659.874   109287197.236       -1812.163          44.000    20796658.320    85158847.762       -1412.181          36.000  
G06  21531811.963   113150440.324       -2725.261          39.000    21531817.365    88169209.093       -2123.634          40.000  
G17  22384934.888   117633620.778       -3830.642          38.000    22384941.309    91662590.198       -2985.036          33.000  
G12  20908273.345   109873725.512       -1207.656          46.000    20908276.459    85615899.671        -941.033          41.000  
G13  23279703.824   122335682.196        1449.701          37.000                                                                  
G22  23140846.001   121605983.816       -4932.909          36.000                                                                  
G19  20163001.167   105957310.769       -3144.137          43.000                                                                  
> 2025 04 04 08 57 40.9970000  0  9                     
G20  19410384.933   102002286.491       -1847.833          43.000                                                                  
G05  20777887.184   109188553.922         531.350          45.000    20777890.726    85081997.501         413.755          40.000  
G11  20797004.836   109289009.603       -1812.779          44.000    20797003.307    85160259.982       -1411.985          37.000  
G06  21532330.622   113153166.108       -2725.917          39.000    21532336.055    88171333.075       -2124.107          40.000  
G17  22385663.775   117637451.765       -3831.390          38.000    22385670.273    91665575.383       -2985.186          33.000  
G12  20908503.288   109874933.652       -1208.780          46.000    20908506.351    85616841.083        -942.087          41.000  
G13  23279428.068   122334232.860        1449.372          37.000                                                                  
G22  23141784.609   121610916.688       -4933.290          35.000                                                                  
G19  20163599.573   105960455.342       -3145.297          43.000                                                                  
> 2025 04 04 08 57 41.9970000  0  9                     
G20  19410736.669   102004134.520       -1848.712          43.000                                                                  
G05  20777786.175   109188022.623         530.885          45.000    20777789.648    85081583.487         413.746          40.000  
G11  20797349.814   109290822.244       -1812.931          44.000    20797348.267    85161672.439       -1412.553          36.000  
G06  21532849.350   113155892.106       -2726.355          39.000    21532854.893    88173457.210       -2124.149          40.000  
G17  22386392.888   117641283.359       -3832.045          38.000    22386399.346    91668561.042       -2985.961          33.000  
G12  20908733.325   109876142.705       -1209.742          46.000    20908736.479    85617783.189        -942.612          41.000  
G13  23279152.363   122332783.642        1448.796          37.000                                                                  
G22  23142723.463   121615849.774       -4933.195          35.000                                                                  
G19  20164198.030   105963600.629       -3145.787          43.000                                                                  
> 2025 04 04 08 57 42.9970000  0  9                     
G20  19411088.500   102005983.264       -1849.190          43.000                                                                  
G05  20777685.159   109187492.092         530.058          45.000    20777688.629    85081170.092         413.061          40.000  
G11  20797694.836   109292635.215       -1813.173          45.000    20797693.307    85163085.146       -1412.980          37.000  
G06  21533368.195   113158618.389       -2726.563          39.000    21533373.675    88175581.571       -2124.508          40.000  
G17  22387122.205   117645115.574       -3832.522          38.000    22387128.595    91671547.210       -2986.612          33.000  
G12  20908963.645   109877352.675       -1210.469          46.000    20908966.672    85618726.023        -943.263          41.000  
G13  23278876.765   122331334.495        1448.845          36.000                                                                  
G22  23143662.224   121620783.183       -4933.465          36.000                                                                  
G19  20164796.687   105966746.700       -3146.617          43.000                                                                  
> 2025 04 04 08 57 43.9970000  0  9                     
G20  19411440.489   102007832.753       -1849.875          43.000                                                                  
G05  20777584.350   109186962.287         529.566          45.000    20777587.768    85080757.257         412.920          40.000  
G11  20798039.961   109294448.521       -1813.483          45.000    20798038.392    85164498.120       -1413.275          37.000  
G06  21533887.161   113161344.878       -2726.771          39.000    21533892.655    88177706.118       -2124.532          41.000  
G17  22387851.553   117648948.420       -3833.018          38.000    22387857.960    91674533.794       -2986.675          33.000  
G12  20909194.038   109878563.556       -1211.318          46.000    20909197.182    85619669.545        -943.464          41.000  
G13  23278601.089   122329885.441        1448.642          36.000                                                                  
G22  23144601.074   121625716.879       -4933.521          36.000                                                                  
G19  20165395.474   105969893.495       -3146.975          43.000                                                                  
> 2025 04 04 08 57 44.9970000  0  9                     
G20  19411792.615   102009682.942       -1850.588          43.000                                                                  
G05  20777483.621   109186433.170         528.821          45.000    20777487.086    85080344.964         412.204          40.000  
G11  20798385.099   109296262.053       -1813.576          44.000    20798383.643    85165911.208       -1412.912          35.000  
G06  21534406.048   113164071.659       -2727.181          40.000    21534411.555    88179830.828       -2125.467          41.000  
G17  22388580.937   117652781.843       -3833.939          38.000    22388587.436    91677520.863       -2987.797          34.000  
G12  20909424.686   109879775.333       -1212.098          46.000    20909427.716    85620613.827        -945.089          41.000  
G13  23278325.404   122328436.480        1448.629          35.000                                                                  
G22  23145540.112   121630650.789       -4934.180          36.000                                                                  
G19  20165994.391   105973041.036       -3147.981          43.000                                                                  
> 2025 04 04 08 57 45.9970000  0  9                     
G20  19412144.822   102011533.869       -1851.417          43.000                                                                  
G05  20777383.057   109185904.844         527.946          45.000    20777386.603    85079933.305         411.198          40.000  
G11  20798730.337   109298076.012       -1814.582          46.000    20798728.869    85167324.678       -1413.776          40.000  
G06  21534924.956   113166798.652       -2727.715          39.000    21534930.512    88181955.789       -2126.056          40.000  
G17  22389310.493   117656615.907       -3834.367          38.000    22389317.031    91680508.490       -2988.055          34.000  
G12  20909655.609   109880988.053       -1213.575          45.000    20909658.575    85621558.796        -945.541          39.000  
G13  23278049.654   122326987.642        1448.590          34.000                                                                  
G22  23146479.110   121635585.012       -4934.476          37.000                                                                  
G19  20166593.576   105976189.378       -3148.794          43.000                                                                  
> 2025 04 04 08 57 46.9970000  0  9                     
G20  19412497.210   102013385.846       -1852.497          43.000                                                                  
G05  20777282.731   109185377.569         526.790          45.000    20777286.265    85079522.422         410.889          40.000  
G11  20799075.580   109299890.531       -1814.814          46.000    20799074.166    85168738.619       -1414.612          41.000  
G06  21535443.990   113169526.195       -2727.644          40.000    21535449.595    88184081.133       -2125.254          41.000  
G17  22390040.275   117660450.883       -3834.672          38.000    22390046.808    91683496.801       -2988.623          34.000  
G12  20909886.662   109882202.041       -1214.558          45.000    20909889.601    85622504.758        -946.666          39.000  
G13  23277773.979   122325539.204        1448.793          35.000                                                                  
G22  23147418.373   121640519.814       -4935.317          37.000                                                                  
G19  20167192.806   105979338.752       -3150.314          43.000                                                                  
> 2025 04 04 08 57 47.9970000  0  9                     
G20  19412849.840   102015239.001       -1853.739          43.000                                                                  
G05  20777182.557   109184851.458         525.430          45.000    20777186.243    85079112.519         409.040          40.000  
G11  20799421.090   109301705.808       -1815.742          46.000    20799419.592    85170153.099       -1414.609          41.000  
G06  21535963.157   113172254.475       -2728.563          39.000    21535968.910    88186207.058       -2126.334          41.000  
G17  22390770.259   117664286.978       -3836.952          38.000    22390776.730    91686485.915       -2989.302          34.000  
G12  20910117.963   109883417.383       -1215.952          47.000    20910120.899    85623451.750        -947.584          41.000  
G13  23277498.452   122324091.344        1447.746          36.000                                                                  
G22  23148357.812   121645455.337       -4936.005          38.000                                                                  
G19  20167792.370   105982489.318       -3151.109          43.000                                                                  
> 2025 04 04 08 57 48.9970000  0  9                     
G20  19413202.704   102017093.372       -1855.364          43.000                                                                  
G05  20777082.739   109184326.613         524.082          45.000    20777086.302    85078703.489         408.599          40.000  
G11  20799766.589   109303521.898       -1816.829          46.000    20799765.145    85171568.250       -1415.514          41.000  
G06  21536482.552   113174983.479       -2729.764          40.000    21536488.106    88188333.566       -2127.033          41.000  
G17  22391500.370   117668124.133       -3837.703          38.000    22391506.932    91689475.933       -2990.591          34.000  
G12  20910349.460   109884634.145       -1217.634          46.000    20910352.479    85624399.881        -948.682          41.000  
G13  23277223.118   122322644.068        1446.457          36.000                                                                  
G22  23149297.218   121650391.598       -4937.032          37.000                                                                  
G19  20168392.207   105985641.145       -3152.603          43.000                                                                  
> 2025 04 04 08 57 49.9970000  0 10                     
G20  19413555.878   102018949.103       -1856.441          43.000                                                                  
G05  20776983.042   109183803.119         522.772          44.000    20776986.681    85078295.609         406.977          40.000  
G11  20800112.372   109305338.945       -1817.583          46.000    20800110.857    85172984.121       -1416.142          41.000  
G06  21537002.094   113177713.378       -2730.398          40.000    21537007.571    88190460.762       -2127.919          41.000  
G17  22392230.661   117671962.563       -3838.971          38.000    22392237.469    91692466.922       -2991.797          34.000  
G25  22889699.456                         359.323          17.000                                                                  
G12  20910581.277   109885852.459       -1219.203          46.000    20910584.259    85625349.207        -949.916          41.000  
G13  23276947.822   122321197.484        1446.491          36.000                                                                  
G22  23150236.729   121655328.800       -4937.611          37.000                                                                  
G19  20168992.215   105988794.362       -3153.850          43.000                                                                  
> 2025 04 04 08 57 50.9970000  0 10                     
G20  19413909.307   102020806.329       -1857.879          43.000                                                                  
G05  20776883.703   109183281.129         521.154          45.000    20776887.422    85077888.870         406.296          40.000  
G11  20800458.422   109307157.043       -1818.726          46.000    20800456.791    85174400.822       -1417.073          41.000  
G06  21537521.700   113180444.292       -2731.381          40.000    21537527.242    88192588.707       -2128.117          41.000  
G17  22392961.318   117675802.362       -3840.125          38.000    22392968.127    91695458.950       -2992.039          34.000  
G25  22889653.281                         359.323          16.000                                                                  
G12  20910813.414   109887072.433       -1220.767          46.000    20910816.495    85626299.837        -951.237          41.000  
G13  23276672.740   122319751.860        1445.296          36.000                                                                  
G22  23151176.600   121660267.024       -4938.631          37.000                                                                  
G19  20169592.592   105991949.079       -3155.206          43.000                                                                  
> 2025 04 04 08 57 51.9970000  0 10                     
G20  19414263.012   102022664.893       -1859.089          43.000                                                                  
G05  20776784.564   109182760.508         520.033          44.000    20776788.414    85077483.212         405.094          40.000  
G11  20800804.493   109308976.079       -1819.430          46.000    20800803.003    85175818.268       -1417.960          41.000  
G06  21538041.515   113183176.060       -2732.412          39.000    21538047.121    88194717.380       -2129.191          41.000  
G17  22393692.399   117679643.424       -3841.949          38.000    22393699.056    91698451.993       -2993.137          34.000  
G25  22889577.790                         359.323          16.000                                                                  
G12  20911045.943   109888293.971       -1222.364          46.000    20911048.907    85627251.699        -952.469          41.000  
G13  23276397.867   122318306.860        1444.450          36.000                                                                  
G22  23152116.582   121665206.143       -4939.530          37.000                                                                  
G19  20170193.154   105995105.197       -3156.981          43.000                                                                  
> 2025 04 04 08 57 52.9970000  0 10                     
G20  19414616.966   102024524.937       -1860.974          43.000                                                                  
G05  20776685.879   109182241.353         518.242          44.000    20776689.640    85077078.659         403.839          40.000  
G11  20801150.783   109310796.169       -1820.707          46.000    20801149.376    85177236.507       -1418.769          41.000  
G06  21538561.582   113185908.809       -2732.903          40.000    21538567.161    88196846.788       -2129.762          41.000  
G17  22394423.645   117683485.827       -3843.214          38.000    22394430.210    91701446.058       -2994.049          34.000  
G25  22889512.495                         359.323          15.000                                                                  
G12  20911278.833   109889517.156       -1224.204          46.000    20911281.631    85628204.824        -954.078          41.000  
G13  23276123.141   122316862.751        1443.293          36.000                                                                  
G22  23153056.605   121670146.263       -4940.586          37.000                                                                  
G19  20170794.086   105998262.773       -3158.661          43.000                                                                  
> 2025 04 04 08 57 53.9970000  0 10                     
G20  19414971.138   102026386.335       -1862.016          43.000                                                                  
G05  20776587.439   109181723.579         517.062          45.000    20776591.147    85076675.194         402.843          39.000  
G11  20801497.333   109312617.209       -1821.471          46.000    20801495.901    85178655.500       -1419.195          41.000  
G06  21539081.771   113188642.479       -2733.888          40.000    21539087.340    88198976.903       -2130.300          41.000  
G17  22395155.054   117687329.464       -3844.227          39.000    22395161.659    91704441.128       -2995.332          34.000  
G25  22889441.310                         359.323          14.000                                                                  
G12  20911511.881   109890741.910       -1225.385          46.000    20911514.645    85629159.183        -954.966          42.000  
G13  23275848.672   122315419.373        1443.355          37.000                                                                  
G22  23153996.935   121675087.320       -4941.478          38.000                                                                  
G19  20171395.208   106001421.742       -3159.578          43.000                                                                  
> 2025 04 04 08 57 54.9970000  0 10                     
G20  19415325.545   102028248.801       -1863.060          43.000                                                                  
G05  20776489.169   109181206.869         516.242          45.000    20776492.743    85076272.570         402.329          40.000  
G11  20801843.954   109314438.889       -1822.037          46.000    20801842.563    85180074.981       -1419.641          41.000  
G06  21539602.092   113191376.710       -2734.222          40.000    21539607.684    88201107.468       -2130.388          41.000  
G17  22395886.660   117691174.076       -3844.889          39.000    22395893.269    91707436.918       -2995.881          34.000  
G25  22889362.316                         359.323          16.000                                                                  
G12  20911745.247   109891967.916       -1226.561          46.000    20911747.914    85630114.490        -955.621          41.000  
G13  23275574.117   122313976.412        1443.095          36.000                                                                  
G22  23154937.204   121680028.962       -4941.986          38.000                                                                  
G19  20171996.440   106004581.797       -3160.620          43.000                                                                  
> 2025 04 04 08 57 55.9970000  0 10                     
G20  19415680.203   102030112.045       -1863.493          43.000                                                                  
G05  20776391.099   109180690.978         515.606          45.000    20776394.594    85075870.579         401.483          40.000  
G11  20802190.729   109316260.932       -1821.914          46.000    20802189.367    85181494.770       -1419.827          41.000  
G06  21540122.427   113194111.262       -2734.606          40.000    21540128.071    88203238.291       -2130.752          41.000  
G17  22396618.315   117695019.356       -3845.303          39.000    22396624.933    91710433.244       -2996.411          34.000  
G25  22889298.209                         359.323          15.000                                                                  
G12  20911978.848   109893194.899       -1227.245          46.000    20911981.297    85631070.590        -956.352          41.000  
G13  23275299.551   122312533.676        1442.438          36.000                                                                  
G22  23155877.592   121684970.927       -4941.821          38.000                                                                  
G19  20172597.934   106007742.674       -3161.011          43.000                                                                  
> 2025 04 04 08 57 56.9970000  0 10                     
G20  19416034.770   102031975.627       -1863.847          43.000                                                                  
G05  20776292.932   109180175.398         515.185          44.000    20776296.438    85075468.843         401.441          39.000  
G11  20802537.410   109318082.910       -1822.060          46.000    20802536.088    85182914.493       -1420.010          41.000  
G06  21540642.725   113196845.644       -2734.426          40.000    21540648.434    88205368.988       -2130.527          41.000  
G17  22397350.167   117698864.889       -3846.069          38.000    22397356.610    91713429.740       -2996.664          34.000  
G25  22889227.203                         359.323          15.000                                                                  
G12  20912212.324   109894422.403       -1227.983          46.000    20912214.935    85632027.086        -956.793          41.000  
G13  23275025.112   122311090.604        1442.928          36.000                                                                  
G22  23156817.829   121689912.786       -4941.968          38.000                                                                  
G19  20173199.590   106010903.905       -3161.414          43.000                                                                  
> 2025 04 04 08 57 57.9970000  0 10                     
G20  19416389.533   102033839.560       -1864.013          43.000                                                                  
G05  20776194.770   109179660.195         515.019          45.000    20776198.365    85075067.388         401.099          40.000  
G11  20802884.103   109319904.814       -1821.956          46.000    20802882.737    85184334.134       -1419.510          41.000  
G06  21541163.006   113199579.936       -2734.506          40.000    21541168.869    88207499.583       -2130.743          41.000  
G17  22398081.809   117702710.642       -3845.787          38.000    22398088.363    91716426.447       -2997.501          33.000  
G25  22889159.926                         359.323          15.000                                                                  
G12  20912445.988   109895650.459       -1228.470          46.000    20912448.662    85632984.014        -957.434          41.000  
G13  23274750.516   122309647.240        1443.092          37.000                                                                  
G22  23157758.305   121694854.541       -4941.839          38.000                                                                  
G19  20173801.172   106014065.510       -3161.891          44.000                                                                  
> 2025 04 04 08 57 58.9970000  0 10                     
G20  19416744.400   102035703.985       -1864.707          43.000                                                                  
G05  20776096.854   109179145.475         514.312          45.000    20776100.439    85074666.292         400.612          40.000  
G11  20803230.757   109321726.781       -1822.097          46.000    20803229.387    85185753.858       -1419.885          41.000  
G06  21541683.286   113202314.207       -2734.460          40.000    21541689.229    88209630.181       -2130.687          40.000  
G17  22398813.568   117706556.742       -3846.353          37.000    22398820.261    91719423.397       -2996.703          33.000  
G25  22889090.479                         359.323          16.000                                                                  
G12  20912679.822   109896879.174       -1229.040          45.000    20912682.537    85633941.456        -957.427          41.000  
G13  23274476.027   122308203.752        1443.413          37.000                                                                  
G22  23158698.685   121699796.281       -4941.873          38.000                                                                  
G19  20174402.811   106017227.617       -3162.275          44.000                                                                  
> 2025 04 04 08 57 59.9970000  0  9                     
G20  19417099.434   102037568.983       -1865.378          43.000                                                                  
G05  20775998.953   109178631.368         513.643          45.000    20776002.608    85074265.688         400.194          40.000  
G11  20803577.491   109323548.909       -1822.180          46.000    20803576.074    85187173.682       -1419.763          40.000  
G06  21542203.620   113205048.592       -2734.571          40.000    21542209.694    88211760.856       -2130.732          40.000  
G17  22399545.443   117710403.338       -3846.928          37.000    22399552.284    91722420.738       -2997.828          34.000  
G12  20912913.763   109898108.684       -1229.820          45.000    20912916.374    85634899.526        -958.316          41.000  
G13  23274201.256   122306760.202        1443.900          36.000                                                                  
G22  23159639.187   121704738.182       -4942.066          37.000                                                                  
G19  20175004.661   106020390.341       -3163.012          44.000                                                                  
> 2025 04 04 08 58 00.9970000  0  9                     
G20  19417454.495   102039434.662       -1866.122          43.000                                                                  
G05  20775901.190   109178117.945         512.807          45.000    20775904.914    85073865.623         399.690          40.000  
G11  20803924.281   109325371.321       -1822.698          46.000    20803922.875    85188593.773       -1420.674          40.000  
G06  21542723.986   113207783.188       -2734.811          40.000    21542730.110    88213891.718       -2131.252          40.000  
G17  22400277.375   117714250.522       -3847.526          37.000    22400284.459    91725418.522       -2997.932          34.000  
G12  20913147.955   109899339.087       -1231.002          45.000    20913150.577    85635858.273        -958.930          41.000  
G13  23273926.596   122305316.754        1442.993          36.000                                                                  
G22  23160579.592   121709680.302       -4942.419          37.000                                                                  
G19  20175606.592   106023553.770       -3163.812          44.000                                                                  
> 2025 04 04 08 58 01.9970000  0  9                     
G20  19417809.578   102041301.177       -1866.860          43.000                                                                  
G05  20775803.707   109177605.353         512.061          45.000    20775807.295    85073466.205         398.907          39.000  
G11  20804271.121   109327194.131       -1822.908          46.000    20804269.720    85190014.130       -1420.601          41.000  
G06  21543244.398   113210518.144       -2735.083          39.000    21543250.555    88216022.828       -2131.288          41.000  
G17  22401009.476   117718098.359       -3847.940          38.000    22401016.681    91728416.849       -2998.389          33.000  
G12  20913382.359   109900570.487       -1231.955          45.000    20913384.981    85636817.803        -959.868          41.000  
G13  23273651.973   122303873.528        1443.045          36.000                                                                  
G22  23161520.153   121714622.791       -4942.603          38.000                                                                  
G19  20176208.800   106026718.065       -3164.571          44.000                                                                  
> 2025 04 04 08 58 02.9970000  0  9                     
G20  19418164.917   102043168.033       -1867.295          43.000                                                                  
G05  20775706.231   109177093.107         512.025          45.000    20775709.817    85073067.058         399.044          39.000  
G11  20804618.043   109329016.872       -1822.860          46.000    20804616.580    85191434.438       -1420.414          41.000  
G06  21543764.756   113213252.950       -2734.959          39.000    21543770.898    88218153.862       -2131.052          41.000  
G17  22401741.609   117721946.525       -3848.618          37.000    22401748.933    91731415.418       -2998.670          33.000  
G12  20913616.739   109901802.437       -1232.339          45.000    20913619.385    85637777.759        -960.255          41.000  
G13  23273377.183   122302429.993        1443.698          36.000                                                                  
G22  23162460.667   121719565.171       -4942.515          37.000                                                                  
G19  20176811.083   106029882.715       -3164.908          44.000                                                                  
> 2025 04 04 08 58 03.9970000  0  9                     
G20  19418520.244   102045035.048       -1867.134          43.000                                                                  
G05  20775608.821   109176581.048         511.964          45.000    20775612.416    85072668.052         399.053          39.000  
G11  20804964.773   109330839.378       -1822.502          46.000    20804963.311    85192854.568       -1420.143          41.000  
G06  21544285.136   113215987.464       -2734.414          39.000    21544291.256    88220284.636       -2130.612          40.000  
G17  22402473.796   117725794.652       -3848.016          37.000    22402481.222    91734413.989       -2998.801          33.000  
G12  20913851.206   109903034.737       -1232.437          45.000    20913853.902    85638738.001        -960.283          41.000  
G13  23273102.361   122300986.010        1444.069          36.000                                                                  
G22  23163401.086   121724507.254       -4941.979          37.000                                                                  
G19  20177413.288   106033047.570       -3164.991          43.000                                                                  
> 2025 04 04 08 58 04.9970000  0  9                     
G20  19418875.616   102046902.046       -1866.901          43.000                                                                  
G05  20775511.413   109176068.979         512.261          45.000    20775515.058    85072269.053         398.781          39.000  
G11  20805311.413   109332661.440       -1821.850          46.000    20805310.059    85194274.358       -1419.518          41.000  
G06  21544805.406   113218721.466       -2733.934          40.000    21544811.531    88222415.022       -2129.939          40.000  
G17  22403206.049   117729642.731       -3847.954          36.000    22403213.425    91737412.424       -2997.417          33.000  
G12  20914085.648   109904267.227       -1232.430          45.000    20914088.395    85639698.367        -960.399          41.000  
G13  23272827.388   122299541.339        1445.059          36.000                                                                  
G22  23164341.457   121729448.873       -4941.437          38.000                                                                  
G19  20178015.423   106036212.428       -3165.014          43.000                                                                  
> 2025 04 04 08 58 05.9970000  0  9                     
G20  19419230.890   102048768.864       -1866.774          43.000                                                                  
G05  20775414.047   109175556.746         512.164          45.000    20775417.615    85071869.875         399.285          39.000  
G11  20805657.949   109334482.890       -1821.175          45.000    20805656.641    85195693.666       -1419.143          41.000  
G06  21545325.564   113221454.804       -2732.991          40.000    21545331.682    88224544.907       -2129.491          40.000  
G17  22403938.173   117733490.457       -3847.126          36.000    22403945.629    91740410.703       -2998.144          32.000  
G12  20914320.175   109905499.715       -1232.461          45.000    20914322.919    85640658.751        -960.490          42.000  
G13  23272552.417   122298095.946        1445.455          36.000                                                                  
G22  23165281.688   121734389.844       -4940.674          37.000                                                                  
G19  20178617.674   106039377.128       -3164.925          43.000                                                                  
> 2025 04 04 08 58 06.9970000  0  9                     
G20  19419586.067   102050635.498       -1866.665          43.000                                                                  
G05  20775316.643   109175044.350         512.334          45.000    20775320.005    85071470.610         399.258          40.000  
G11  20806004.422   109336303.763       -1820.704          45.000    20806003.045    85197112.533       -1418.775          41.000  
G06  21545845.626   113224187.510       -2732.694          39.000    21545851.641    88226674.263       -2128.941          40.000  
G17  22404670.286   117737337.953       -3847.504          35.000    22404677.774    91743408.704       -2997.067          32.000  
G12  20914554.672   109906732.224       -1232.690          45.000    20914557.440    85641619.147        -960.712          41.000  
G13  23272277.050   122296649.683        1446.501          36.000                                                                  
G22  23166221.892   121739330.174       -4940.018          37.000                                                                  
G19  20179219.892   106042541.654       -3164.643          43.000                                                                  
> 2025 04 04 08 58 07.9970000  0  9                     
G20  19419941.206   102052502.051       -1866.460          43.000                                                                  
G05  20775219.079   109174531.864         512.479          45.000    20775222.442    85071071.274         399.484          40.000  
G11  20806350.872   109338124.138       -1820.155          46.000    20806349.473    85198531.006       -1418.369          41.000  
G06  21546365.535   113226919.641       -2731.855          39.000    21546371.516    88228803.211       -2128.828          40.000  
G17  22405402.211   117741185.236       -3847.251          36.000    22405409.837    91746406.601       -2997.637          32.000  
G12  20914789.208   109907964.845       -1232.638          46.000    20914791.972    85642579.619        -960.350          41.000  
G13  23272001.777   122295202.719        1447.623          36.000                                                                  
G22  23167161.889   121744269.979       -4939.260          37.000                                                                  
G19  20179822.059   106045706.141       -3164.428          43.000                                                                  
> 2025 04 04 08 58 08.9970000  0  9                     
G20  19420296.507   102054368.705       -1866.871          44.000                                                                  
G05  20775121.538   109174019.484         512.080          45.000    20775124.946    85070672.023         399.093          39.000  
G11  20806697.206   109339944.169       -1819.880          45.000    20806695.888    85199949.207       -1418.209          41.000  
G06  21546885.387   113229651.380       -2731.545          39.000    21546891.339    88230931.846       -2128.805          40.000  
G17  22406134.233   117745032.501       -3847.062          36.000    22406141.980    91749404.487       -2997.571          32.000  
G12  20915023.765   109909197.756       -1233.340          46.000    20915026.684    85643540.324        -960.947          41.000  
G13  23271726.283   122293755.257        1447.704          36.000                                                                  
G22  23168101.795   121749209.429       -4939.509          37.000                                                                  
G19  20180424.234   106048870.749       -3164.772          43.000                                                                  
> 2025 04 04 08 58 09.9970000  0  9                     
G20  19420651.823   102056235.604       -1866.886          44.000                                                                  
G05  20775024.042   109173507.379         511.991          45.000    20775027.458    85070272.978         399.320          39.000  
G11  20807043.447   109341764.076       -1819.792          45.000    20807042.223    85201367.323       -1418.201          41.000  
G06  21547405.219   113232382.954       -2731.816          39.000    21547411.103    88233060.320       -2128.630          40.000  
G17  22406866.335   117748879.961       -3848.153          35.000    22406874.087    91752402.493       -2998.257          33.000  
G12  20915258.485   109910431.134       -1233.704          46.000    20915261.369    85644501.407        -961.517          41.000  
G13  23271450.827   122292307.458        1447.788          36.000                                                                  
G22  23169041.772   121754148.664       -4939.250          37.000                                                                  
G19  20181026.463   106052035.643       -3165.121          43.000                                                                  
> 2025 04 04 08 58 10.9970000  0  9                     
G20  19421007.216   102058102.989       -1867.648          43.000                                                                  
G05  20774926.666   109172995.738         511.450          45.000    20774930.125    85069874.326         398.492          40.000  
G11  20807389.729   109343584.018       -1820.014          45.000    20807388.536    85202785.451       -1418.292          41.000  
G06  21547925.111   113235114.450       -2731.486          40.000    21547930.914    88235188.770       -2128.401          40.000  
G17  22407598.556   117752727.768       -3848.295          36.000    22407606.234    91755400.756       -2997.888          33.000  
G12  20915493.280   109911665.152       -1234.555          46.000    20915496.204    85645462.961        -961.598          40.000  
G13  23271175.376   122290859.459        1448.689          37.000                                                                  
G22  23169981.669   121759087.901       -4939.231          37.000                                                                  
G19  20181628.872   106055201.021       -3165.775          43.000                                                                  
> 2025 04 04 08 58 11.9970000  0  9                     
G20  19421362.688   102059970.621       -1867.676          43.000                                                                  
G05  20774829.380   109172484.407         511.285          44.000    20774832.855    85069475.882         398.195          38.000  
G11  20807735.898   109345403.802       -1819.857          45.000    20807734.860    85204203.448       -1417.957          41.000  
G06  21548444.816   113237845.767       -2731.322          39.000    21548450.589    88237317.060       -2127.966          40.000  
G17  22408330.584   117756575.693       -3847.895          35.000    22408338.490    91758399.168       -2998.541          33.000  
G12  20915728.239   109912899.635       -1234.867          46.000    20915731.179    85646424.901        -962.056          42.000  
G13  23270899.777   122289411.118        1448.375          37.000                                                                  
G22  23170921.470   121764026.991       -4939.025          37.000                                                                  
G19  20182231.303   106058366.693       -3165.646          43.000                                                                  
> 2025 04 04 08 58 12.9970000  0  9                     
G20  19421718.199   102061838.432       -1867.938          43.000                                                                  
G05  20774732.118   109171973.247         511.244          44.000    20774735.596    85069077.590         398.387          40.000  
G11  20808082.124   109347223.360       -1819.459          45.000    20808081.080    85205621.296       -1417.689          41.000  
G06  21548964.507   113240576.788       -2730.971          39.000    21548970.299    88239445.123       -2127.860          41.000  
G17  22409062.780   117760423.713       -3848.078          35.000    22409070.737    91761397.603       -2998.122          32.000  
G12  20915963.280   109914134.480       -1235.183          46.000    20915966.119    85647387.116        -962.253          42.000  
G13  23270624.057   122287962.298        1449.663          36.000                                                                  
G22  23171861.199   121768965.755       -4938.409          36.000                                                                  
G19  20182833.765   106061532.584       -3166.119          43.000                                                                  
> 2025 04 04 08 58 13.9970000  0  9                     
G20  19422073.543   102063706.167       -1867.585          43.000                                                                  
G05  20774634.806   109171462.018         511.351          45.000    20774638.299    85068679.223         398.666          39.000  
G11  20808428.351   109349042.417       -1818.677          45.000    20808427.150    85207038.731       -1416.697          41.000  
G06  21549484.017   113243307.271       -2730.157          39.000    21549489.887    88241572.754       -2127.067          41.000  
G17  22409794.978   117764271.486       -3847.932          35.000    22409802.926    91764395.872       -2997.933          32.000  
G12  20916198.254   109915369.451       -1235.015          46.000    20916201.232    85648349.439        -962.435          41.000  
G13  23270348.179   122286512.837        1450.196          34.000                                                                  
G22  23172800.714   121773903.975       -4937.407          35.000                                                                  
G19  20183436.187   106064698.403       -3165.588          43.000                                                                  
> 2025 04 04 08 58 14.9970000  0  9                     
G20  19422428.879   102065573.624       -1867.064          43.000                                                                  
G05  20774537.487   109170950.549         511.593          45.000    20774541.028    85068280.666         398.699          39.000  
G11  20808774.362   109350860.794       -1817.892          45.000    20808773.183    85208455.668       -1416.703          41.000  
G06  21550003.461   113246036.982       -2729.486          40.000    21550009.375    88243699.814       -2126.811          41.000  
G17  22410527.007   117768118.940       -3847.199          35.000    22410535.032    91767393.889       -2997.200          32.000  
G12  20916433.279   109916604.351       -1234.702          46.000    20916436.301    85649311.689        -962.104          41.000  
G13  23270072.102   122285062.419        1451.183          35.000                                                                  
G22  23173740.247   121778841.520       -4937.229          37.000                                                                  
G19  20184038.603   106067863.999       -3165.534          43.000                                                                  
> 2025 04 04 08 58 15.9970000  0  9                     
G20  19422784.198   102067440.420       -1866.257          44.000                                                                  
G05  20774440.003   109170438.406         512.764          45.000    20774443.593    85067881.612         399.652          39.000  
G11  20809120.206   109352678.096       -1816.605          45.000    20809119.038    85209871.736       -1415.412          41.000  
G06  21550522.829   113248765.558       -2727.692          39.000    21550528.617    88245825.988       -2125.886          40.000  
G17  22411259.004   117771965.568       -3845.850          36.000    22411266.924    91770391.309       -2996.716          32.000  
G12  20916668.157   109917838.773       -1233.869          45.000    20916671.130    85650273.577        -961.489          41.000  
G13  23269795.791   122283610.753        1453.055          35.000                                                                  
G22  23174679.553   121783777.896       -4935.918          35.000                                                                  
G19  20184640.884   106071028.945       -3164.406          43.000                                                                  
> 2025 04 04 08 58 16.9970000  0  9                     
G20  19423139.376   102069306.397       -1865.833          44.000                                                                  
G05  20774342.328   109169925.474         513.111          45.000    20774345.920    85067481.921         399.768          40.000  
G11  20809465.700   109354494.144       -1815.620          45.000    20809464.657    85211286.835       -1414.579          41.000  
G06  21551041.780   113251492.838       -2726.859          39.000    21551047.607    88247951.143       -2125.129          41.000  
G17  22411991.050   117775811.332       -3845.755          36.000    22411998.719    91773387.938       -2996.542          32.000  
G12  20916902.909   109919072.572       -1233.702          46.000    20916905.874    85651234.984        -961.238          41.000  
G13  23269519.137   122282157.683        1453.065          35.000                                                                  
G22  23175618.547   121788712.961       -4934.648          35.000                                                                  
G19  20185242.931   106074193.090       -3164.016          43.000                                                                  
> 2025 04 04 08 58 17.9970000  0  9                     
G20  19423494.314   102071171.887       -1865.440          43.000                                                                  
G05  20774244.678   109169412.099         513.415          45.000    20774248.193    85067081.871         399.964          39.000  
G11  20809811.026   109356309.321       -1814.970          45.000    20809810.061    85212701.256       -1414.241          41.000  
G06  21551560.432   113254219.170       -2725.903          39.000    21551566.411    88250075.558       -2124.299          40.000  
G17  22412722.983   117779656.459       -3844.880          37.000    22412730.396    91776384.169       -2996.461          32.000  
G12  20917137.538   109920306.108       -1233.469          45.000    20917140.692    85652196.169        -961.347          41.000  
G13  23269242.271   122280703.475        1454.305          35.000                                                                  
G22  23176557.350   121793647.166       -4933.611          36.000                                                                  
G19  20185844.920   106077356.795       -3163.545          43.000                                                                  
> 2025 04 04 08 58 18.9970000  0  9                     
G20  19423849.266   102073037.195       -1865.223          44.000                                                                  
G05  20774147.008   109168898.514         513.627          45.000    20774150.534    85066681.689         400.197          39.000  
G11  20810156.234   109358123.876       -1814.133          45.000    20810155.357    85214115.218       -1413.899          41.000  
G06  21552079.074   113256944.848       -2725.636          40.000    21552085.094    88252199.434       -2123.392          40.000  
G17  22413454.758   117783501.325       -3844.546          36.000    22413462.059    91779380.149       -2995.813          32.000  
G12  20917372.260   109921539.638       -1233.413          45.000    20917375.456    85653157.369        -961.129          41.000  
G13  23268965.326   122279248.484        1454.939          35.000                                                                  
G22  23177496.036   121798580.693       -4933.272          36.000                                                                  
G19  20186447.020   106080520.355       -3163.695          43.000                                                                  
