     3.04           OBSERVATION DATA    M: Mixed            RINEX VERSION / TYPE
RTKCONV demo5 b34i                      20250404 090954 UTC PGM / RUN BY / DATE 
format: u-blox UBX                                          COMMENT             
log: D:\20242\demo5_b34i\data\khac\d2\svd2_2m.ubx           COMMENT             
                                                            MARKER NAME         
                                                            MARKER NUMBER       
                                                            MARKER TYPE         
                                                            OBSERVER / AGENCY   
                                                            REC # / TYPE / VERS 
                                                            ANT # / TYPE        
 -1626740.7846  5730518.3721  2271685.4623                  APPROX POSITION XYZ 
        0.0000        0.0000        0.0000                  ANTENNA: DELTA H/E/N
G    8 C1C L1C D1C S1C C2X L2X D2X S2X                      SYS / # / OBS TYPES 
  2025    04    04    08    54   40.0010000     GPS         TIME OF FIRST OBS   
  2025    04    04    09    09   41.0020000     GPS         TIME OF LAST OBS    
G L1C                                                       SYS / PHASE SHIFT   
G L2X  0.00000                                              SYS / PHASE SHIFT   
  0                                                         GLONASS SLOT / FRQ #
 C1C    0.000 C1P    0.000 C2C    0.000 C2P    0.000        GLONASS COD/PHS/BIS 
                                                            END OF HEADER       
> 2025 04 04 08 54 40.0010000  0 10                     
G06  22887152.504   120272796.9121      -2467.331          38.000    22887157.757    93719081.6941      -1922.878          42.000  
G11  22183479.062   116574972.5261      -1542.431          43.000    22183479.395    90837637.2841      -1202.065          42.000  
G12  22317677.994   117280189.2001       -828.283          44.000    22317680.285    91387170.6521       -645.799          41.000  
G17  23703559.023   124563043.6041      -3505.559          40.000    23703565.751    97062138.3061      -2732.094          35.000  
G19  21505549.774   113012427.8791      -2795.505          40.000                                                                  
G20  20796954.227   109288733.6491      -1501.721          45.000                                                                  
G05  22246418.708   116905719.2031        877.883          45.000    22246421.808    91095377.0651        684.006          42.000  
G09  24190061.073   127119631.6533      -2741.601          32.000    24190080.971    99054322.7251      -2136.395          32.000  
G22  24420670.947   128331490.1201      -4668.552          40.000                                                                  
G13  24777580.853   130207072.3451       1680.657          36.000                                                                  
> 2025 04 04 08 54 41.0010000  0 10                     
G06  22887621.453   120275261.705       -2465.618          38.000    22887626.767    93721002.329       -1921.358          42.000  
G11  22183772.166   116576512.623       -1540.984          43.000    22183772.542    90838837.366       -1200.873          42.000  
G12  22317835.221   117281015.473        -827.559          44.000    22317837.507    91387814.518        -645.067          41.000  
G17  23704225.683   124566547.109       -3504.301          40.000    23704232.464    97064868.329       -2730.850          35.000  
G19  21506081.325   113015221.173       -2794.812          41.000                                                                  
G20  20797239.503   109290233.092       -1500.284          45.000                                                                  
G05  22246251.194   116904839.190         878.843          45.000    22246254.326    91094691.350         684.957          42.000  
G09  24190582.429   127122370.9312      -2739.392          33.000    24190602.237    99056457.285       -2135.785          33.000  
G22  24421558.953   128336156.507       -4667.474          40.000                                                                  
G13  24777260.601   130205390.133        1681.066          36.000                                                                  
> 2025 04 04 08 54 42.0010000  0 11                     
G06  22888089.770   120277723.131       -2459.580          38.000    22888095.117    93722920.320       -1916.754          42.000  
G11  22184064.449   116578049.386       -1535.150          43.000    22184064.996    90840034.829       -1195.993          42.000  
G12  22317991.922   117281839.021        -822.225          45.000    22317994.153    91388456.188        -640.538          40.000  
G17  23704891.811   124570047.639       -3499.565          40.000    23704898.500    97067595.979       -2727.429          35.000  
G19  21506612.259   113018011.530       -2788.848          40.000                                                                  
G20  20797524.214   109291729.653       -1495.087          45.000                                                                  
G05  22246083.161   116903956.255         884.246          44.000    22246086.270    91094003.330         689.576          42.000  
G09  24191103.393   127125105.9943      -2735.687          33.000    24191122.954    99058589.643       -2131.470          33.000  
G25  24348263.336                         666.061          22.000                                                                  
G22  24422446.406   128340819.502       -4661.262          40.000                                                                  
G13  24776939.647   130203696.2923       1687.203          35.000                                                                  
> 2025 04 04 08 54 43.0010000  0 11                     
G06  22888557.643   120280181.825       -2457.275          38.000    22888563.105    93724836.169       -1914.597          41.000  
G11  22184356.291   116579583.457       -1532.468          43.000    22184356.878    90841230.231       -1194.065          42.000  
G12  22318148.308   117282660.526        -820.346          43.000    22318150.452    91389096.338        -638.605          38.000  
G17  23705557.442   124573545.740       -3497.270          40.000    23705564.028    97070321.774       -2724.703          35.000  
G19  21507142.842   113020799.638       -2786.310          41.000                                                                  
G20  20797808.469   109293223.946       -1493.227          45.000                                                                  
G05  22245914.663   116903071.022         886.645          44.000    22245917.844    91093313.569         690.986          42.000  
G09  24191623.873   127127839.8031      -2733.288          33.000    24191643.379    99060720.305       -2130.017          34.000  
G25  24348128.515                         666.061          22.000                                                                  
G22  24423333.276   128345479.795       -4658.720          40.000                                                                  
G13  24776617.957   130202007.5322       1690.631          35.000                                                                  
> 2025 04 04 08 54 44.0010000  0 10                     
G06  22889025.353   120282639.2173      -2460.908          38.000    22889030.863    93726754.4101      -1917.537          41.000  
G11  22184648.143   116581112.3393      -1536.348          43.000    22184648.716    90842425.050       -1197.138          42.000  
G12  22318304.772   117283482.8883       -824.233          43.000    22318306.803    91389736.388        -642.712          38.000  
G17  23706223.167   124577042.9183      -3500.318          40.000    23706229.804    97073047.2601      -2728.059          36.000  
G19  21507673.524   113023586.9943      -2790.521          41.000                                                                  
G20  20798093.049   109294715.9473      -1496.951          45.000                                                                  
G05  22245746.330   116902185.5233        882.455          44.000    22245749.419    91092623.581         687.381          42.000  
G09  24192144.449   127130576.4193      -2737.256          33.000    24192163.849    99062850.773       -2132.953          33.000  
G22  24424220.124   128350142.3613      -4662.262          41.000                                                                  
G13  24776296.340   130200315.9003       1686.699          35.000                                                                  
> 2025 04 04 08 54 45.0010000  0 11                     
G06  22889492.807   120285096.6142      -2458.020          38.000    22889498.455    93728669.243       -1915.206          41.000  
G11  22184939.847   116582645.2592      -1533.268          43.000    22184940.371    90843619.531       -1194.851          42.000  
G12  22318461.070   117284304.4342       -822.466          43.000    22318463.199    91390376.538        -640.830          38.000  
G17  23706888.723   124580540.4982      -3498.461          40.000    23706895.353    97075772.621       -2725.691          36.000  
G19  21508203.992   113026374.8732      -2788.902          41.000                                                                  
G20  20798377.354   109296209.9152      -1494.755          45.000                                                                  
G05  22245577.820   116901299.9672        885.010          44.000    22245580.854    91091933.530         689.384          42.000  
G09  24192664.768   127133310.5342      -2734.711          33.000    24192684.149    99064981.306       -2131.226          34.000  
G25  24347514.713                         633.281          23.000                                                                  
G22  24425106.802   128354801.4532      -4659.610          40.000                                                                  
G13  24775974.539   130198625.5212       1690.164          36.000                                                                  
> 2025 04 04 08 54 46.0010000  0 10                     
G06  22889960.549   120287554.8872      -2458.497          38.000    22889966.256    93730584.764       -1915.752          41.000  
G11  22185231.627   116584179.1242      -1534.511          43.000    22185232.250    90844814.754       -1195.542          42.000  
G12  22318617.707   117285127.5242       -823.953          44.000    22318619.873    91391017.913        -642.324          38.000  
G17  23707554.489   124584039.3442      -3499.513          40.000    23707561.138    97078498.996       -2727.134          36.000  
G19  21508734.736   113029164.0862      -2789.862          41.000                                                                  
G20  20798661.873   109297705.2722      -1496.134          45.000                                                                  
G05  22245409.697   116900415.7982        883.382          44.000    22245412.668    91091244.576         688.405          42.000  
G09  24193185.405   127136046.1272      -2736.615          32.000    24193204.798    99067112.937       -2132.306          33.000  
G22  24425993.510   128359461.4802      -4660.553          41.000                                                                  
G13  24775652.836   130196935.9062       1689.399          36.000                                                                  
> 2025 04 04 08 54 47.0010000  0 10                     
G06  22890428.639   120290014.4422      -2460.308          38.000    22890434.314    93732501.303       -1916.976          41.000  
G11  22185523.758   116585714.3362      -1535.699          43.000    22185524.427    90846011.023       -1196.655          42.000  
G12  22318774.611   117285952.5622       -825.937          44.000    22318776.914    91391660.774        -643.458          39.000  
G17  23708220.596   124587539.7832      -3500.765          40.000    23708227.287    97081226.638       -2728.637          36.000  
G19  21509265.894   113031955.0662      -2791.416          41.000                                                                  
G20  20798946.777   109299202.3812      -1497.920          45.000                                                                  
G05  22245241.695   116899533.3722        881.681          44.000    22245244.791    91090556.976         686.982          42.000  
G09  24193706.162   127138783.5952      -2738.556          32.000    24193725.675    99069245.993       -2134.052          33.000  
G22  24426880.496   128364122.8062      -4661.655          41.000                                                                  
G13  24775331.295   130195247.4242       1687.866          36.000                                                                  
> 2025 04 04 08 54 48.0010000  0 10                     
G06  22890896.864   120292474.8022      -2461.081          38.000    22890902.421    93734418.464       -1917.442          41.000  
G11  22185816.079   116587250.4342      -1536.686          43.000    22185816.733    90847207.983       -1197.182          42.000  
G12  22318931.957   117286779.1422       -827.411          44.000    22318934.204    91392304.876        -644.863          39.000  
G17  23708886.941   124591041.4712      -3502.641          40.000    23708893.670    97083955.200       -2729.140          36.000  
G19  21509797.282   113034747.4112      -2792.940          41.000                                                                  
G20  20799231.872   109300700.7962      -1499.233          45.000                                                                  
G05  22245074.028   116898652.2862        880.124          44.000    22245077.019    91089870.418         685.744          42.000  
G09  24194227.446   127141522.3922      -2739.356          33.000    24194246.810    99071380.152       -2134.436          33.000  
G22  24427767.734   128368785.0212      -4662.904          41.000                                                                  
G13  24775009.857   130193559.5882       1687.201          36.000                                                                  
> 2025 04 04 08 54 49.0010000  0 11                     
G06  22891365.380   120294936.6221      -2460.483          37.000    22891370.931    93736337.149       -1916.894          41.000  
G11  22186108.856   116588788.0211      -1535.661          43.000    22186109.476    90848406.507       -1196.745          42.000  
G12  22319089.733   117287608.297        -826.879          43.000    22319091.956    91392950.967        -644.488          39.000  
G17  23709553.789   124594544.9491      -3501.486          41.000    23709560.505    97086685.551       -2728.345          36.000  
G19  21510329.193   113037541.6921      -2792.707          41.000                                                                  
G20  20799517.487   109302201.628       -1498.417          45.000                                                                  
G05  22244906.804   116897773.583         880.741          44.000    22244909.821    91089185.710         686.656          42.000  
G09  24194749.295   127144263.1741      -2737.744          32.000    24194768.495    99073516.252       -2134.406          33.000  
G25  24347055.691                         656.475          17.000                                                                  
G22  24428655.390   128373449.176       -4661.866          40.000                                                                  
G13  24774688.858   130191873.473        1688.470          36.000                                                                  
> 2025 04 04 08 54 50.0010000  0 11                     
G06  22891834.018                       -2453.715          37.000    22891839.478    93738256.100       -1909.225          41.000  
G11  22186401.680                       -1530.960          43.000    22186402.158    90849605.348       -1189.092          42.000  
G12  22319247.766                        -821.258          44.000    22319249.908    91393597.851        -636.932          39.000  
G17  23710220.913                       -3495.417          41.000    23710227.542                       -2722.790          36.000  
G19  21510861.317                       -2788.269          41.000                                                                  
G20  20799803.344                       -1493.212          45.000                                                                  
G05  22244739.827                         886.100          43.000    22244742.805    91088501.668         693.914          42.000  
G09  24195271.388                       -2732.538          32.000    24195290.376    99075653.136       -2128.741          33.000  
G25  24346930.415                         656.475          17.000                                                                  
G22  24429543.083                       -4654.660          41.000                                                                  
G13  24774368.073                        1693.999          36.000                                                                  
> 2025 04 04 08 54 51.0010000  0 11                     
G06  22892301.639   120299856.1603      -2457.032          37.000    22892307.071    93740170.540       -1914.780          41.000  
G11  22186693.321   116591860.3313      -1532.747          43.000    22186693.896    90850799.745       -1194.649          42.000  
G12  22319404.810   117289263.5883       -825.370          44.000    22319406.926    91394240.779        -643.195          39.000  
G17  23710886.830   124601550.9723      -3499.279          40.000    23710893.478    97092144.2331      -2726.940          36.000  
G19  21511392.329   113043128.6643      -2790.347          41.000                                                                  
G20  20800088.002   109305200.2063      -1496.558          45.000                                                                  
G05  22244571.811   116896013.0653        882.942          43.000    22244574.749    91087813.481         688.208          42.000  
G09  24195792.446   127149745.4463      -2737.152          33.000    24195811.325    99077785.792       -2133.197          32.000  
G25  24346808.685                         656.475          16.000                                                                  
G22  24430429.684   128382774.0813      -4658.928          41.000                                                                  
G13  24774046.020   130188490.7993       1692.103          37.000                                                                  
> 2025 04 04 08 54 52.0010000  0 10                     
G06  22892769.573   120302315.2382      -2457.358          37.000    22892775.087    93742086.691       -1914.758          41.000  
G11  22186985.433   116593395.4122      -1533.176          43.000    22186985.948    90851995.890       -1194.682          42.000  
G12  22319562.331   117290091.5482       -826.397          43.000    22319564.442    91394885.947        -643.848          39.000  
G17  23711553.166   124605052.8482      -3500.070          40.000    23711559.887    97094872.970       -2727.240          37.000  
G19  21511923.787   113045921.7302      -2791.437          41.000                                                                  
G20  20800373.334   109306699.2882      -1497.317          45.000                                                                  
G05  22244404.256   116895132.6012        882.192          43.000    22244407.185    91087127.425         687.317          42.000  
G09  24196314.199   127152485.2252      -2738.818          33.000    24196332.816    99079920.679       -2133.771          32.000  
G22  24431316.666   128387435.1762      -4659.300          40.000                                                                  
G13  24773724.353   130186801.0612       1691.627          37.000                                                                  
> 2025 04 04 08 54 53.0010000  0 10                     
G06  22893237.389   120304773.7712      -2459.410          37.000    22893242.967    93744002.433       -1916.804          41.000  
G11  22187277.546   116594929.9902      -1535.792          43.000    22187277.964    90853191.652       -1196.463          42.000  
G12  22319719.854   117290919.6152       -829.454          43.000    22319721.965    91395531.195        -646.416          39.000  
G17  23712219.597   124608554.5432      -3502.678          41.000    23712226.292    97097601.557       -2730.058          37.000  
G19  21512455.348   113048714.7142      -2793.965          41.000                                                                  
G20  20800658.599   109308198.2962      -1500.337          45.000                                                                  
G05  22244236.705   116894252.0512        879.320          43.000    22244239.618    91086441.288         684.965          42.000  
G09  24196835.730   127155224.9842      -2741.736          33.000    24196854.256    99082055.571       -2135.815          32.000  
G22  24432203.571   128392095.7082      -4661.572          40.000                                                                  
G13  24773402.579   130185110.5532       1689.536          37.000                                                                  
> 2025 04 04 08 54 54.0010000  0 10                     
G06  22893705.366   120307232.9322      -2456.418          37.000    22893711.012    93745918.656       -1913.998          41.000  
G11  22187569.659   116596465.2512      -1532.282          43.000    22187570.034    90854387.977       -1194.102          42.000  
G12  22319877.641   117291748.9842       -826.829          43.000    22319879.839    91396177.467        -644.040          39.000  
G17  23712886.036   124612057.2372      -3500.068          41.000    23712892.857    97100330.935       -2726.920          37.000  
G19  21512987.020   113051508.8622      -2791.629          41.000                                                                  
G20  20800944.035   109309698.4292      -1497.534          45.000                                                                  
G05  22244069.195   116893372.6252        882.072          43.000    22244072.271    91085756.016         687.360          42.000  
G09  24197357.648   127157965.9622      -2738.482          34.000    24197376.023    99084191.387       -2134.033          33.000  
G22  24433090.538   128396756.9202      -4658.277          40.000                                                                  
G13  24773080.880   130183420.5372       1693.136          37.000                                                                  
> 2025 04 04 08 54 55.0010000  0 10                     
G06  22894173.130   120309690.576       -2454.750          38.000    22894178.644    93747833.732       -1913.463          41.000  
G11  22187861.513   116597999.115       -1531.654          43.000    22187861.990    90855583.188       -1193.272          42.000  
G12  22320035.319   117292577.548        -826.645          43.000    22320037.525    91396823.090        -643.891          39.000  
G17  23713552.359   124615558.844       -3499.580          40.000    23713559.261    97103059.409       -2726.220          36.000  
G19  21513518.460   113054302.010       -2791.179          41.000                                                                  
G20  20801229.267   109311197.0571      -1497.012          45.000                                                                  
G05  22243901.562   116892491.6951        882.421          43.000    22243904.708    91085069.971         687.722          42.000  
G09  24197879.218   127160706.046       -2738.904          34.000    24197897.547    99086326.526       -2133.893          33.000  
G22  24433977.295   128401416.1971      -4657.364          40.000                                                                  
G13  24772758.851   130181728.883        1694.285          38.000                                                                  
> 2025 04 04 08 54 56.0010000  0 10                     
G06  22894640.382   120312146.313       -2457.115          38.000    22894645.917    93749747.260       -1914.714          41.000  
G11  22188153.086   116599531.062       -1533.499          43.000    22188153.540    90856776.929       -1195.155          42.000  
G12  22320192.742   117293404.805        -829.074          43.000    22320195.072    91397467.722        -646.180          39.000  
G17  23714218.415   124619058.842       -3502.245          41.000    23714225.329    97105786.707       -2728.840          36.000  
G19  21514049.608   113057093.701       -2793.533          41.000                                                                  
G20  20801514.300   109312694.730       -1499.469          45.000                                                                  
G05  22243733.717   116891609.779         880.042          43.000    22243736.875    91084382.755         685.955          42.000  
G09  24198400.294   127163444.655       -2740.240          33.000    24198418.775    99088460.530       -2135.639          33.000  
G22  24434863.624   128406074.044       -4659.316          40.000                                                                  
G13  24772436.575   130180035.081        1692.595          37.000                                                                  
> 2025 04 04 08 54 57.0010000  0 10                     
G06  22895107.854   120314603.116       -2455.695          38.000    22895113.421    93751661.657       -1914.026          41.000  
G11  22188444.855   116601064.164       -1532.160          43.000    22188445.334    90857971.524       -1193.919          42.000  
G12  22320350.417   117294233.821        -828.349          44.000    22320352.776    91398113.695        -645.399          39.000  
G17  23714884.687   124622560.247       -3500.404          40.000    23714891.690    97108515.097       -2727.697          37.000  
G19  21514581.167   113059886.970       -2792.505          40.000                                                                  
G20  20801799.579   109314193.947       -1498.557          45.000                                                                  
G05  22243566.180   116890729.420         881.110          43.000    22243569.346    91083696.749         686.413          41.000  
G09  24198921.973   127166184.917       -2739.356          33.000    24198940.540    99090595.833       -2134.564          34.000  
G22  24435750.150   128410733.014       -4658.069          40.000                                                                  
G13  24772114.391   130178342.172        1694.176          38.000                                                                  
> 2025 04 04 08 54 58.0010000  0 11                     
G06  22895575.314   120317059.007       -2456.649          38.000    22895580.722    93753575.310       -1914.241          41.000  
G11  22188736.446   116602596.420       -1532.758          43.000    22188736.936    90859165.497       -1194.222          42.000  
G12  22320508.150   117295062.603        -829.573          44.000    22320510.436    91398759.491        -646.278          39.000  
G17  23715550.851   124626061.153       -3501.757          40.000    23715557.886    97111243.030       -2727.871          37.000  
G19  21515112.620   113062679.858       -2793.656          40.000                                                                  
G20  20802084.698   109315692.744       -1499.416          45.000                                                                  
G05  22243398.524   116889848.629         880.093          44.000    22243401.775    91083010.440         685.712          42.000  
G09  24199443.521   127168924.900       -2741.144          33.000    24199462.121    99092730.883       -2135.468          34.000  
G25  24346408.374                         581.914          26.000                                                                  
G22  24436636.552   128415391.119       -4658.717          39.000                                                                  
G13  24771792.088   130176648.259        1693.337          38.000                                                                  
> 2025 04 04 08 54 59.0010000  0 11                     
G06  22896043.178   120319517.422       -2457.084          39.000    22896048.520    93755490.968       -1914.827          41.000  
G11  22189028.555   116604131.288       -1533.806          43.000    22189029.042    90860361.509       -1195.284          42.000  
G12  22320666.549   117295894.617        -831.285          45.000    22320668.703    91399407.804        -647.827          41.000  
G17  23716217.635   124629564.982       -3503.121          40.000    23716224.630    97113973.284       -2729.215          36.000  
G19  21515644.678   113065475.776       -2794.916          40.000                                                                  
G20  20802370.506   109317194.573       -1500.920          45.000                                                                  
G05  22243231.541   116888970.881         878.563          43.000    22243234.700    91082326.474         684.423          42.000  
G09  24199965.817   127171667.906       -2742.267          33.000    24199984.323    99094868.337       -2136.932          34.000  
G25  24346329.526                         581.914          24.000                                                                  
G22  24437523.506   128420051.784       -4659.994          39.000                                                                  
G13  24771470.260   130174956.674        1692.899          38.000                                                                  
> 2025 04 04 08 55 00.0010000  0 11                     
G06  22896510.449   120321973.9503      -2450.393          39.000    22896515.789    93757404.763       -1909.976          41.000  
G11  22189320.137   116605663.8143      -1527.127          43.000    22189320.690    90861555.674       -1189.962          42.000  
G12  22320824.535   117296723.8853       -825.167          45.000    22320826.662    91400054.789        -643.256          41.000  
G17  23716884.004   124633065.7553      -3496.748          40.000    23716891.059    97116701.962       -2724.608          37.000  
G19  21516176.416   113068269.7833      -2788.771          41.000                                                                  
G20  20802655.942   109318694.0063      -1495.011          45.000                                                                  
G05  22243064.008   116888089.7003        884.926          43.000    22243067.381    91081641.016         689.640          42.000  
G09  24200487.712   127174421.1423      -2736.548          33.000    24200505.972    99097004.341       -2132.404          34.000  
G25  24346229.487                         581.914          21.000                                                                  
G22  24438409.926   128424710.082       -4652.650          39.000                                                                  
G13  24771147.925   130173260.5633       1699.341          38.000                                                                  
> 2025 04 04 08 55 01.0010000  0 11                     
G06  22896977.465   120324427.5241      -2455.327          38.000    22896982.848    93759317.015       -1913.171          41.000  
G11  22189611.464   116607194.472       -1532.038          43.000    22189611.912    90862748.393       -1193.872          42.000  
G12  22320982.312   117297552.890        -830.560          44.000    22320984.478    91400700.757        -647.258          41.000  
G17  23717550.042   124636565.968       -3501.892          40.000    23717557.083    97119429.387       -2728.762          36.000  
G19  21516707.954   113071062.356       -2794.272          41.000                                                                  
G20  20802941.124   109320191.9691      -1500.079          45.000                                                                  
G05  22242896.327   116887208.0601        879.612          44.000    22242899.749    91080954.432         685.051          42.000  
G09  24201009.403   127177160.925       -2741.254          33.000    24201027.308    99099139.240       -2135.730          34.000  
G25  24346114.967                         581.914          20.000                                                                  
G22  24439295.982   128429366.506       -4657.597          38.000                                                                  
G13  24770825.327   130171564.317        1694.703          39.000                                                                  
> 2025 04 04 08 55 02.0010000  0 11                     
G06  22897444.689   120326883.080       -2457.765          39.000    22897450.035    93761230.413       -1914.835          41.000  
G11  22189902.956   116608726.641       -1534.348          43.000    22189903.558    90863942.287       -1195.358          42.000  
G12  22321140.546   117298384.015        -833.664          45.000    22321142.754    91401348.365        -649.734          41.000  
G17  23718216.527   124640067.991       -3504.546          40.000    23718223.446    97122158.234       -2730.665          37.000  
G19  21517239.740   113073856.899       -2797.110          41.000                                                                  
G20  20803226.732   109321692.369       -1502.681          45.000                                                                  
G05  22242728.990   116886328.866         876.805          43.000    22242732.537    91080269.337         683.181          42.000  
G09  24201530.941   127179902.750       -2743.695          33.000    24201549.197    99101275.718       -2137.909          34.000  
G25  24345990.347                         581.914          20.000                                                                  
G22  24440182.249   128434024.405       -4659.937          38.000                                                                  
G13  24770502.847   130169869.358        1692.905          39.000                                                                  
> 2025 04 04 08 55 03.0010000  0 11                     
G06  22897911.994   120329339.187       -2458.277          39.000    22897917.393    93763144.266       -1915.270          41.000  
G11  22190194.663   116610259.474       -1535.122          43.000    22190195.195    90865136.697       -1196.118          42.000  
G12  22321299.035   117299216.397        -834.825          44.000    22321301.219    91401996.993        -650.277          41.000  
G17  23718883.064   124643570.980       -3505.239          40.000    23718890.099    97124887.835       -2731.220          36.000  
G19  21517771.799   113076652.497       -2797.811          41.000                                                                  
G20  20803512.452   109323193.855       -1503.848          45.000                                                                  
G05  22242561.837   116885450.727         875.870          44.000    22242565.330    91079585.082         682.165          42.000  
G09  24202052.880   127182645.756       -2745.538          33.000    24202071.309    99103413.167       -2139.307          35.000  
G25  24345882.272                         581.914          18.000                                                                  
G22  24441068.801   128438682.962       -4660.842          38.000                                                                  
G13  24770180.359   130168174.862        1692.777          38.000                                                                  
> 2025 04 04 08 55 04.0010000  0 11                     
G06  22898379.590   120331796.272       -2455.847          38.000    22898384.858    93765058.883       -1913.579          41.000  
G11  22190486.507   116611793.311       -1532.755          44.000    22190487.073    90866331.908       -1194.681          42.000  
G12  22321457.768   117300050.409        -833.197          44.000    22321459.896    91402646.888        -649.421          41.000  
G17  23719549.783   124647075.286       -3503.134          40.000    23719557.025    97127618.500       -2730.171          37.000  
G19  21518304.177   113079449.593       -2796.417          41.000                                                                  
G20  20803798.375   109324696.776       -1501.779          45.000                                                                  
G05  22242394.969   116884574.024         877.392          43.000    22242398.386    91078901.935         683.545          42.000  
G09  24202575.212   127185390.223       -2743.261          33.000    24202593.565    99105551.694       -2138.055          35.000  
G25  24345768.109                         581.914          16.000                                                                  
G22  24441955.397   128443342.492       -4658.247          37.000                                                                  
G13  24769857.980   130166481.155        1695.057          38.000                                                                  
> 2025 04 04 08 55 05.0010000  0 11                     
G06  22898846.738   120334251.172       -2457.946          38.000    22898851.908    93766971.770       -1914.882          41.000  
G11  22190778.111   116613325.024       -1534.505          44.000    22190778.657    90867525.473       -1195.996          42.000  
G12  22321616.232   117300882.891        -835.510          44.000    22321618.282    91403295.558        -651.124          41.000  
G17  23720216.274   124650577.772       -3505.004          40.000    23720223.654    97130347.689       -2731.326          36.000  
G19  21518836.173   113082244.997       -2798.717          41.000                                                                  
G20  20804083.943   109326197.991       -1503.808          45.000                                                                  
G05  22242227.789   116883695.618         875.281          44.000    22242231.245    91078217.446         682.036          42.000  
G09  24203097.172                       -2746.729          33.000    24203115.582    99107688.993       -2139.270          34.000  
G25  24345663.164                         581.914          15.000                                                                  
G22  24442841.622   128447999.866       -4660.443          37.000                                                                  
G13  24769535.320   130164785.060        1693.320          38.000                                                                  
> 2025 04 04 08 55 06.0010000  0 10                     
G06  22899313.429   120336704.150       -2453.009          38.000    22899318.676    93768883.201       -1911.376          40.000  
G11  22191069.223   116614854.905       -1529.995          44.000    22191069.715    90868717.595       -1192.529          42.000  
G12  22321774.378   117301714.145        -831.758          45.000    22321776.534    91403943.278        -648.123          39.000  
G17  23720882.413   124654078.807       -3501.282          40.000    23720889.793    97133075.743       -2728.357          36.000  
G19  21519367.820   113085039.005       -2794.572          41.000                                                                  
G20  20804369.382   109327697.847       -1500.087          45.000                                                                  
G05  22242060.297   116882815.789         879.571          44.000    22242063.752    91077531.901         685.193          42.000  
G09  24203618.904   127190875.1153      -2742.401          33.000    24203637.217    99109825.295       -2137.079          35.000  
G22  24443727.569   128452655.423       -4656.234          37.000                                                                  
G13  24769212.295   130163086.924        1698.478          39.000                                                                  
> 2025 04 04 08 55 07.0010000  0 11                     
G06  22899780.451   120339158.360       -2452.316          38.000    22899785.704    93770795.548       -1910.943          40.000  
G11  22191360.633   116616386.042       -1529.476          43.000    22191361.133    90869910.643       -1191.886          42.000  
G12  22321932.931   117302547.350        -832.113          45.000    22321935.119    91404592.550        -648.140          41.000  
G17  23721548.876   124657581.322       -3501.033          40.000    23721556.288    97135805.028       -2728.327          36.000  
G19  21519899.790   113087834.677       -2794.165          40.000                                                                  
G20  20804655.165   109329199.368       -1500.336          45.000                                                                  
G05  22241893.138   116881937.645         880.075          43.000    22241896.694    91076847.630         685.424          42.000  
G09  24204140.791   127193617.9391      -2742.706          32.000    24204159.240    99111962.933       -2136.945          35.000  
G25  24345440.929                         581.914          15.000                                                                  
G22  24444613.649   128457312.154       -4654.707          36.000                                                                  
G13  24768889.436   130161389.874        1698.551          39.000                                                                  
> 2025 04 04 08 55 08.0010000  0 11                     
G06  22900247.951   120341614.628       -2453.397          39.000    22900253.087    93772709.535       -1911.966          41.000  
G11  22191652.406   116617919.346       -1530.480          43.000    22191652.966    90871105.411       -1192.405          40.000  
G12  22322091.978   117303383.209        -833.364          45.000    22322094.156    91405243.869        -649.473          40.000  
G17  23722215.834   124661086.303       -3502.459          40.000    23722223.269    97138536.157       -2729.448          36.000  
G19  21520432.276   113090632.944       -2795.813          41.000                                                                  
G20  20804941.442   109330703.406       -1501.734          45.000                                                                  
G05  22241726.515   116881062.040         878.097          44.000    22241730.072    91076165.328         683.835          42.000  
G09  24204663.438   127196363.788       -2743.884          32.000    24204681.743    99114102.627       -2138.306          35.000  
G25  24345327.927                         581.914          20.000                                                                  
G22  24445500.154   128461970.987       -4656.053          36.000                                                                  
G13  24768566.902   130159694.630        1698.068          39.000                                                                  
> 2025 04 04 08 55 09.0010000  0 11                     
G06  22900714.656   120344066.827       -2447.230          38.000    22900719.720    93774620.342       -1906.850          40.000  
G11  22191943.485   116619448.661       -1524.194          44.000    22191944.060    90872297.086       -1187.701          42.000  
G12  22322250.386   117304215.707        -827.825          45.000    22322252.576    91405892.575        -645.121          40.000  
G17  23722882.122   124664587.586       -3495.978          39.000    23722889.489    97141264.450       -2724.844          36.000  
G19  21520964.049   113093427.658       -2790.148          41.000                                                                  
G20  20805226.969   109332203.869       -1495.425          45.000                                                                  
G05  22241559.172   116880182.836         884.116          44.000    22241562.748    91075480.254         688.495          42.000  
G09  24205185.144   127199106.187       -2737.531          32.000    24205203.530    99116239.542       -2133.014          34.000  
G25  24345188.115                         584.570          21.000                                                                  
G22  24446385.884   128466625.838       -4649.466          36.000                                                                  
G13  24768243.497   130157995.244        1704.419          39.000                                                                  
> 2025 04 04 08 55 10.0010000  0 11                     
G06  22901180.609   120346515.992       -2451.044          39.000    22901185.700    93776528.759       -1909.767          40.000  
G11  22192233.866   116620974.920       -1528.306          45.000    22192234.460    90873486.424       -1190.968          42.000  
G12  22322408.350   117305045.818        -832.576          44.000    22322410.502    91406539.400        -648.634          40.000  
G17  23723547.907   124668086.223       -3500.859          39.000    23723555.194    97143990.626       -2728.032          36.000  
G19  21521495.352   113096219.823       -2794.741          40.000                                                                  
G20  20805512.047   109333701.789       -1500.152          45.000                                                                  
G05  22241391.411   116879301.098         879.539          43.000    22241395.022    91074793.169         685.254          42.000  
G09  24205706.414   127201846.137       -2742.016          33.000    24205724.911    99118374.563       -2136.627          34.000  
G25  24345087.117                         584.570          22.000                                                                  
G22  24447271.003   128471277.647       -4653.894          36.000                                                                  
G13  24767919.466   130156292.604        1701.334          39.000                                                                  
> 2025 04 04 08 55 11.0010000  0 11                     
G06  22901647.271   120348967.975       -2452.723          38.000    22901652.271    93778439.385       -1911.300          40.000  
G11  22192524.888   116622504.116       -1530.099          45.000    22192525.348    90874677.975       -1192.194          42.000  
G12  22322567.000   117305879.418        -834.688          45.000    22322569.115    91407188.973        -650.647          40.000  
G17  23724214.224   124671588.027       -3502.810          40.000    23724221.567    97146719.317       -2729.605          35.000  
G19  21522027.253   113099015.299       -2796.675          41.000                                                                  
G20  20805797.734   109335203.022       -1502.354          45.000                                                                  
G05  22241224.265   116878422.663         877.304          43.000    22241227.967    91074108.687         683.380          42.000  
G09  24206228.641   127204589.425       -2743.933          33.000    24206246.782    99120512.201       -2138.293          34.000  
G25  24344983.887                         584.570          23.000                                                                  
G22  24448156.736   128475932.332       -4655.209          35.000                                                                  
G13  24767595.956   130154592.656        1699.285          40.000                                                                  
> 2025 04 04 08 55 12.0010000  0 11                     
G06  22902114.222   120351421.548       -2454.692          38.000    22902119.111    93780351.255       -1912.656          40.000  
G11  22192816.208   116624034.982       -1532.111          44.000    22192816.593    90875870.864       -1193.756          42.000  
G12  22322726.107   117306715.304        -837.350          45.000    22322728.102    91407840.307        -652.264          40.000  
G17  23724880.992   124675091.812       -3505.263          39.000    23724888.241    97149449.525       -2731.023          35.000  
G19  21522559.543   113101812.907       -2799.110          41.000                                                                  
G20  20806083.799   109336706.349       -1504.691          45.000                                                                  
G05  22241057.555   116877546.310         875.225          43.000    22241061.245    91073425.799         681.942          42.000  
G09  24206751.228   127207334.890       -2746.826          33.000    24206769.114    99122651.546       -2140.479          34.000  
G25  24344871.424                         584.570          22.000                                                                  
G22  24449042.737   128480588.674       -4657.821          35.000                                                                  
G13  24767272.669   130152894.144        1697.448          40.000                                                                  
> 2025 04 04 08 55 13.0010000  0 11                     
G06  22902581.442   120353876.991       -2456.492          38.000    22902586.271    93782264.604       -1914.113          41.000  
G11  22193107.815   116625567.780       -1533.930          44.000    22193108.353    90877065.251       -1195.310          42.000  
G12  22322885.560   117307553.747        -839.793          45.000    22322887.611    91408493.645        -654.551          40.000  
G17  23725548.273   124678597.835       -3507.261          40.000    23725555.319    97152181.525       -2733.103          35.000  
G19  21523092.390   113104612.889       -2801.571          41.000                                                                  
G20  20806370.311   109338212.025       -1507.004          45.000                                                                  
G05  22240891.392   116876672.321         872.764          43.000    22240894.847    91072744.774         680.084          42.000  
G09  24207274.367   127210082.806       -2749.115          34.000    24207291.945    99124792.774       -2142.444          35.000  
G25  24344757.288                         584.570          20.000                                                                  
G22  24449929.151   128485246.874       -4659.175          34.000                                                                  
G13  24766949.831   130151197.329        1696.139          40.000                                                                  
> 2025 04 04 08 55 14.0010000  0 11                     
G06  22903048.983   120356334.233       -2458.539          38.000    22903053.797    93784179.318       -1915.606          40.000  
G11  22193399.963   116627102.383       -1535.597          44.000    22193400.337    90878261.054       -1196.591          42.000  
G12  22323045.521   117308394.600        -842.023          45.000    22323047.625    91409148.842        -656.106          40.000  
G17  23726215.896   124682105.998       -3509.107          40.000    23726222.851    97154915.123       -2734.504          35.000  
G19  21523625.707   113107415.107       -2803.568          41.000                                                                  
G20  20806657.217   109339719.949       -1509.203          45.000                                                                  
G05  22240725.578   116875800.572         870.452          43.000    22240728.865    91072065.478         678.442          42.000  
G09  24207798.010   127212833.032       -2751.318          34.000    24207815.306    99126935.810       -2144.025          35.000  
G25  24344647.559                         584.570          19.000                                                                  
G22  24450815.749   128489906.949       -4661.407          33.000                                                                  
G13  24766627.301   130149502.166        1694.065          40.000                                                                  
> 2025 04 04 08 55 15.0010000  0 11                     
G06  22903516.892   120358792.915       -2459.051          38.000    22903521.643    93786095.182       -1916.217          40.000  
G11  22193692.262   116628638.558       -1536.698          44.000    22193692.641    90879458.061       -1197.151          42.000  
G12  22323205.976   117309237.635        -843.845          45.000    22323208.022    91409805.751        -657.535          40.000  
G17  23726883.822   124685616.019       -3510.731          40.000    23726890.846    97157650.191       -2735.659          35.000  
G19  21524159.311   113110219.342       -2805.010          41.000                                                                  
G20  20806944.524   109341229.841       -1510.486          45.000                                                                  
G05  22240560.123   116874930.802         869.005          43.000    22240563.376    91071387.755         677.110          42.000  
G09  24208321.790   127215585.304       -2752.673          34.000    24208339.029    99129080.450       -2145.471          35.000  
G25  24344535.327                         584.570          18.000                                                                  
G22  24451702.504   128494568.481       -4661.319          32.000                                                                  
G13  24766305.008   130147808.281        1693.411          40.000                                                                  
> 2025 04 04 08 55 16.0010000  0 11                     
G06  22903984.967   120361252.958       -2461.334          38.000    22903989.752    93788012.076       -1917.690          40.000  
G11  22193984.888   116630176.107       -1538.536          43.000    22193985.284    90880656.169       -1198.851          43.000  
G12  22323366.902   117310082.647        -846.374          45.000    22323368.865    91410464.200        -659.332          40.000  
G17  23727552.060   124689127.722       -3512.992          40.000    23727559.126    97160386.571       -2736.862          35.000  
G19  21524693.265   113113025.358       -2807.228          41.000                                                                  
G20  20807232.213   109342741.525       -1512.943          45.000                                                                  
G05  22240395.017   116874062.820         866.691          43.000    22240398.195    91070711.400         675.356          42.000  
G09  24208846.073   127218339.452       -2755.145          34.000    24208863.051    99131226.521       -2146.979          35.000  
G25  24344422.934                         584.570          17.000                                                                  
G22  24452589.651   128499231.450       -4664.665          33.000                                                                  
G13  24765982.830   130146115.567        1691.623          40.000                                                                  
> 2025 04 04 08 55 17.0010000  0 11                     
G06  22904453.415   120363714.733       -2462.682          38.000    22904458.248    93789930.370       -1919.025          40.000  
G11  22194277.887   116631715.523       -1540.473          44.000    22194278.205    90881855.704       -1200.338          43.000  
G12  22323528.193   117310930.122        -848.834          45.000    22323530.133    91411124.568        -661.223          40.000  
G17  23728220.802   124692641.588       -3515.073          40.000    23728227.830    97163124.656       -2738.721          35.000  
G19  21525227.667   113115833.694       -2809.539          41.000                                                                  
G20  20807520.277   109344255.505       -1515.208          45.000                                                                  
G05  22240230.318   116873197.101         864.523          43.000    22240233.414    91070036.800         673.951          42.000  
G09  24209370.680   127221095.933       -2757.690          34.000    24209387.541    99133374.443       -2148.608          35.000  
G25  24344313.309                         584.570          16.000                                                                  
G22  24453477.236   128503896.109       -4665.167          32.000                                                                  
G13  24765660.964   130144424.454        1690.669          40.000                                                                  
> 2025 04 04 08 55 18.0010000  0 11                     
G06  22904922.199   120366178.459       -2464.887          38.000    22904927.067    93791850.133       -1920.548          41.000  
G11  22194571.279   116633256.883       -1542.295          44.000    22194571.614    90883056.748       -1201.545          42.000  
G12  22323689.951   117311780.148        -851.015          45.000    22323691.883    91411786.930        -663.012          40.000  
G17  23728889.873   124696157.689       -3516.842          40.000    23728896.858    97165864.498       -2740.347          35.000  
G19  21525762.649   113118644.437       -2811.886          41.000                                                                  
G20  20807808.859   109345771.850       -1517.165          45.000                                                                  
G05  22240066.020   116872333.754         862.332          43.000    22240069.175    91069364.096         671.870          42.000  
G09  24209895.506   127223854.899       -2760.119          33.000    24209912.639    99135524.283       -2150.537          35.000  
G25  24344198.087                         654.883          17.000                                                                  
G22  24454365.032   128508562.817       -4668.380          31.000                                                                  
G13  24765339.331   130142735.109        1688.644          40.000                                                                  
> 2025 04 04 08 55 19.0010000  0 10                     
G06  22905391.381   120368644.354       -2481.801          38.000    22905396.257    93793771.612       -1933.847          41.000  
G11  22194865.145   116634800.508       -1559.473          44.000    22194865.292    90884259.595       -1215.578          42.000  
G12  22323852.307   117312633.061        -868.898          45.000    22323854.228    91412451.536        -676.872          40.000  
G17  23729559.536   124699676.412       -3535.127          41.000    23729566.514    97168606.341       -2753.968          35.000  
G19  21526298.066   113121457.831       -2829.152          41.000                                                                  
G20  20808097.907   109347290.918       -1535.530          45.000                                                                  
G05  22239902.211   116871473.099         844.549          43.000    22239905.432    91068693.458         658.163          42.000  
G09  24210421.047   127226616.622       -2778.418          33.000    24210438.118    99137676.305       -2164.948          36.000  
G22  24455253.293   128513231.717       -4684.358          31.000                                                                  
G13  24765018.165   130141047.782        1671.646          39.000                                                                  
> 2025 04 04 08 55 20.0010000  0 10                     
G06  22905860.572   120371109.6613      -2461.749          38.000    22905865.436    93795688.8491      -1918.370          40.000  
G11  22195158.904   116636346.6343      -1539.667          44.000    22195158.857    90885464.2301      -1199.962          42.000  
G12  22324014.805   117313489.5753       -849.852          44.000    22324016.486    91413115.4351       -662.115          40.000  
G17  23730229.244   124703195.3913      -3515.261          41.000    23730235.947    97171349.2491      -2739.460          35.000  
G19  21526833.622   113124273.2153      -2810.312          41.000                                                                  
G20  20808387.006   109348810.8383      -1515.682          45.000                                                                  
G05  22239738.485   116870614.3593        863.823          43.000    22239741.736    91068023.9591        673.323          42.000  
G09  24210946.571   127229382.8083      -2759.613          33.000    24210963.622    99139848.4921      -2149.969          36.000  
G22  24456141.685   128517891.0933      -4664.840          32.000                                                                  
G13  24764697.053   130139360.7293       1691.761          40.000                                                                  
> 2025 04 04 08 55 21.0010000  0 10                     
G06  22906329.357   120373573.3492      -2463.892          38.000    22906334.244    93797608.586       -1919.828          41.000  
G11  22195452.224   116637888.1222      -1541.469          44.000    22195452.174    90886665.406       -1201.297          42.000  
G12  22324176.899   117314341.5902       -852.501          44.000    22324178.604    91413779.355        -664.349          40.000  
G17  23730898.476   124706712.5862      -3517.762          40.000    23730905.311    97174089.907       -2740.550          36.000  
G19  21527368.739   113127085.3952      -2812.617          41.000                                                                  
G20  20808675.925   109350328.6412      -1518.379          45.000                                                                  
G05  22239574.432   116869752.4442        861.407          44.000    22239577.714    91067352.358         671.198          42.000  
G09  24211471.837   127232143.3282      -2760.193          32.000    24211488.798    99141999.611       -2151.947          35.000  
G22  24457029.750   128522557.8072      -4666.996          32.000                                                                  
G13  24764375.439   130137670.8292       1690.239          40.000                                                                  
> 2025 04 04 08 55 22.0010000  0 10                     
G06  22906798.228   120376037.5552      -2464.224          38.000    22906803.184    93799528.768       -1920.394          40.000  
G11  22195745.604   116639430.2852      -1542.521          44.000    22195745.705    90887867.085       -1201.851          42.000  
G12  22324339.293   117315194.8532       -853.760          45.000    22324340.976    91414444.219        -665.119          41.000  
G17  23731567.923   124710230.7262      -3518.587          40.000    23731574.860    97176831.326       -2741.461          36.000  
G19  21527904.032   113129898.6832      -2813.784          42.000                                                                  
G20  20808964.896   109351847.4662      -1519.369          45.000                                                                  
G05  22239410.576   116868891.5742        860.297          43.000    22239413.904    91066681.542         670.604          42.000  
G09  24211997.202   127234905.0562      -2762.128          32.000    24212014.338    99144151.579       -2152.454          35.000  
G22  24457917.775   128527225.1852      -4667.621          33.000                                                                  
G13  24764053.865   130135981.3912       1689.036          40.000                                                                  
> 2025 04 04 08 55 23.0010000  0 10                     
G06  22907267.200   120378502.1662      -2464.805          38.000    22907272.309    93801449.204       -1920.593          40.000  
G11  22196038.984   116640972.8552      -1542.913          44.000    22196039.257    90889069.083       -1202.294          42.000  
G12  22324501.879   117316049.1302       -854.903          45.000    22324503.540    91415109.898        -666.198          41.000  
G17  23732237.492   124713749.5652      -3519.166          40.000    23732244.508    97179573.311       -2742.291          36.000  
G19  21528439.587   113132712.7912      -2814.814          42.000                                                                  
G20  20809254.011   109353367.1222      -1520.137          45.000                                                                  
G05  22239246.879   116868031.5472        859.469          44.000    22239250.238    91066011.398         669.687          42.000  
G09  24212522.700   127237667.6722      -2762.738          32.000    24212539.971    99146304.291       -2153.308          35.000  
G22  24458806.232   128531892.8932      -4667.924          33.000                                                                  
G13  24763732.240   130134292.0992       1689.364          40.000                                                                  
> 2025 04 04 08 55 24.0010000  0 10                     
G06  22907736.292   120380967.2502      -2465.155          38.000    22907741.354    93803370.062       -1920.713          40.000  
G11  22196332.619   116642515.9782      -1542.942          44.000    22196332.936    90890271.534       -1202.593          42.000  
G12  22324664.635   117316904.5722       -855.653          45.000    22324666.308    91415776.473        -666.490          41.000  
G17  23732907.206   124717269.3142      -3520.042          40.000    23732914.223    97182315.946       -2742.819          36.000  
G19  21528975.181   113135527.9002      -2815.099          42.000                                                                  
G20  20809543.411   109354887.7812      -1520.808          45.000                                                                  
G05  22239083.331   116867172.4802        858.889          44.000    22239086.754    91065342.000         669.259          42.000  
G09  24213048.450   127240431.3822      -2764.313          32.000    24213065.715    99148457.820       -2153.650          35.000  
G22  24459694.578   128536561.1362      -4667.742          33.000                                                                  
G13  24763410.859   130132603.1682       1689.174          40.000                                                                  
> 2025 04 04 08 55 25.0010000  0 10                     
G06  22908205.508   120383432.419       -2465.189          38.000    22908210.373    93805290.974       -1921.199          40.000  
G11  22196626.377   116644059.264       -1543.358          44.000    22196626.659    90891474.077       -1202.743          42.000  
G12  22324827.543   117317760.2871       -856.508          45.000    22324829.194    91416443.660        -667.654          40.000  
G17  23733577.044   124720788.9971      -3520.158          40.000    23733584.100    97185058.941       -2743.152          36.000  
G19  21529511.131   113138343.609       -2816.439          42.000                                                                  
G20  20809832.909   109356409.006       -1521.719          46.000                                                                  
G05  22238919.971   116866313.993         858.113          44.000    22238923.360    91064673.061         668.458          42.000  
G09  24213574.462   127243195.2201      -2764.496          32.000    24213591.722    99150611.851       -2154.279          35.000  
G22  24460583.098   128541229.529       -4668.761          33.000                                                                  
G13  24763089.461   130130914.173        1688.899          40.000                                                                  
> 2025 04 04 08 55 26.0010000  0 10                     
G06  22908674.769   120385898.037       -2466.219          38.000    22908679.566    93807212.219       -1921.810          40.000  
G11  22196920.069   116645603.038       -1544.183          44.000    22196920.386    90892677.022       -1203.372          42.000  
G12  22324990.637   117318617.611        -858.163          45.000    22324992.319    91417111.698        -668.772          40.000  
G17  23734246.945   124724309.995       -3521.571          40.000    23734254.019    97187802.602       -2744.624          36.000  
G19  21530047.092   113141160.251       -2817.526          42.000                                                                  
G20  20810122.540   109357931.163       -1522.872          46.000                                                                  
G05  22238756.768   116865456.420         856.814          43.000    22238760.071    91064004.812         667.728          42.000  
G09  24214100.718   127245960.528       -2765.662          32.000    24214117.950    99152766.656       -2155.145          35.000  
G22  24461471.529   128545898.343       -4669.167          33.000                                                                  
G13  24762768.017   130129225.415        1688.512          39.000                                                                  
> 2025 04 04 08 55 27.0010000  0 10                     
G06  22909144.131   120388364.637       -2467.366          38.000    22909148.886    93809134.241       -1922.535          40.000  
G11  22197214.062   116647147.874       -1545.622          44.000    22197214.310    90893880.784       -1204.272          42.000  
G12  22325154.010   117319476.606        -860.165          44.000    22325155.745    91417781.047        -670.333          40.000  
G17  23734917.123   124727832.356       -3523.585          40.000    23734924.391    97190547.295       -2745.705          36.000  
G19  21530583.287   113143978.411       -2819.252          41.000                                                                  
G20  20810412.479   109359454.792       -1524.712          46.000                                                                  
G05  22238593.778   116864600.328         855.049          43.000    22238597.151    91063337.740         666.297          42.000  
G09  24214627.058   127248727.428       -2768.329          32.000    24214644.361    99154922.703       -2156.982          35.000  
G22  24462360.667   128550568.251       -4670.447          34.000                                                                  
G13  24762446.712   130127537.537        1687.349          39.000                                                                  
> 2025 04 04 08 55 28.0010000  0 10                     
G06  22909613.791   120390832.840       -2468.486          38.000    22909618.505    93811057.509       -1923.503          40.000  
G11  22197508.343   116648694.392       -1547.181          44.000    22197508.560    90895085.848       -1205.550          42.000  
G12  22325317.884   117320337.873        -862.169          44.000    22325319.606    91418452.156        -671.741          40.000  
G17  23735587.656   124731356.673       -3524.660          40.000    23735595.042    97193293.525       -2747.252          36.000  
G19  21531119.939   113146798.639       -2820.820          41.000                                                                  
G20  20810702.758   109360980.508       -1526.569          46.000                                                                  
G05  22238431.213   116863746.344         853.062          43.000    22238434.626    91062672.305         664.742          42.000  
G09  24215154.308   127251496.454       -2769.543          33.000    24215171.156    99157080.379       -2158.374          35.000  
G22  24463249.934   128555239.773       -4671.780          34.000                                                                  
G13  24762125.681   130125851.088        1686.361          39.000                                                                  
> 2025 04 04 08 55 29.0010000  0 10                     
G06  22910083.773   120393302.399       -2470.129          38.000    22910088.422    93812981.823       -1924.846          40.000  
G11  22197802.958   116650242.283       -1548.525          44.000    22197803.115    90896291.997       -1206.531          42.000  
G12  22325482.121   117321201.133        -864.237          44.000    22325483.856    91419124.841        -673.356          41.000  
G17  23736258.602   124734882.719       -3526.576          40.000    23736266.040    97196041.037       -2747.954          36.000  
G19  21531656.893   113149620.723       -2823.080          41.000                                                                  
G20  20810993.346   109362508.035       -1528.351          46.000                                                                  
G05  22238269.009   116862894.142         851.292          43.000    22238272.423    91062008.266         663.105          41.000  
G09  24215681.697   127254267.393       -2771.429          33.000    24215698.351    99159239.522       -2159.344          35.000  
G22  24464139.449   128559912.635       -4673.685          35.000                                                                  
G13  24761804.893   130124165.798        1684.733          39.000                                                                  
> 2025 04 04 08 55 30.0010000  0 10                     
G06  22910554.025   120395773.536       -2471.704          38.000    22910558.648    93814907.400       -1926.334          41.000  
G11  22198097.775   116651791.867       -1550.431          44.000    22198097.955    90897499.476       -1208.245          42.000  
G12  22325646.835   117322066.711        -866.775          44.000    22325648.601    91419799.315        -675.589          41.000  
G17  23736929.828   124738410.754       -3528.979          39.000    23736937.399    97198790.159       -2749.797          36.000  
G19  21532194.342   113152444.940       -2825.274          41.000                                                                  
G20  20811284.391   109364037.693       -1530.851          46.000                                                                  
G05  22238107.222   116862044.061         848.866          43.000    22238110.696    91061345.875         661.219          41.000  
G09  24216209.546   127257040.494       -2773.584          33.000    24216226.028    99161400.408       -2161.475          35.000  
G22  24465029.126   128564587.144       -4675.121          35.000                                                                  
G13  24761484.444   130122482.009        1683.180          39.000                                                                  
> 2025 04 04 08 55 31.0010000  0 10                     
G06  22911024.577   120398246.176       -2473.496          38.000    22911029.135    93816834.101       -1927.045          41.000  
G11  22198392.891   116653342.967       -1551.659          44.000    22198393.122    90898708.123       -1209.108          42.000  
G12  22325812.064   117322934.413        -868.824          44.000    22325813.674    91420475.409        -676.585          41.000  
G17  23737601.378   124741940.587       -3530.667          39.000    23737609.071    97201540.668       -2750.949          37.000  
G19  21532732.096   113155271.091       -2827.085          42.000                                                                  
G20  20811575.915   109365569.260       -1532.228          46.000                                                                  
G05  22237945.743   116861195.895         847.516          43.000    22237949.268    91060684.955         660.474          41.000  
G09  24216737.673   127259815.653       -2776.465          33.000    24216754.096    99163562.858       -2163.403          35.000  
G22  24465918.902   128569263.172       -4676.161          35.000                                                                  
G13  24761164.297   130120799.463        1682.134          39.000                                                                  
> 2025 04 04 08 55 32.0010000  0 10                     
G06  22911495.249   120400719.877       -2474.390          38.000    22911499.860    93818761.678       -1928.126          41.000  
G11  22198688.299   116654895.234       -1553.083          44.000    22198688.465    90899917.679       -1210.135          42.000  
G12  22325977.308   117323803.862        -870.696          44.000    22325979.103    91421152.931        -678.528          41.000  
G17  23738273.286   124745471.918       -3532.390          39.000    23738281.122    97204292.364       -2752.123          36.000  
G19  21533270.194   113158098.858       -2828.829          41.000                                                                  
G20  20811867.808   109367102.430       -1534.109          46.000                                                                  
G05  22237784.579   116860349.338         845.429          43.000    22237788.191    91060025.292         658.916          42.000  
G09  24217265.808   127262592.458       -2778.900          32.000    24217282.509    99165726.612       -2164.832          35.000  
G22  24466809.104   128573940.319       -4677.949          36.000                                                                  
G13  24760844.231   130119117.892        1681.027          40.000                                                                  
> 2025 04 04 08 55 33.0010000  0 10                     
G06  22911966.203   120403194.726       -2475.624          38.000    22911970.748    93820690.119       -1929.133          41.000  
G11  22198983.875   116656448.682       -1554.218          44.000    22198984.097    90901128.168       -1211.224          42.000  
G12  22326143.135   117324675.110        -872.199          44.000    22326144.897    91421831.831        -679.966          40.000  
G17  23738945.335   124749004.756       -3533.677          39.000    23738953.448    97207045.199       -2753.093          37.000  
G19  21533808.574   113160928.241       -2830.126          41.000                                                                  
G20  20812159.789   109368637.211       -1535.691          46.000                                                                  
G05  22237623.812   116859504.362         844.102          43.000    22237627.425    91059366.895         657.369          42.000  
G09  24217794.457   127265370.857       -2779.199          32.000    24217811.191    99167891.619       -2165.631          36.000  
G22  24467699.238   128578618.679       -4679.139          36.000                                                                  
G13  24760524.415   130117437.296        1679.905          39.000                                                                  
> 2025 04 04 08 55 34.0010000  0 10                     
G06  22912437.388   120405670.556       -2476.217          38.000    22912441.838    93822619.318       -1929.509          41.000  
G11  22199279.627   116658003.209       -1554.983          44.000    22199279.925    90902339.468       -1211.278          42.000  
G12  22326309.235   117325548.020        -873.363          44.000    22326310.959    91422512.033        -680.731          40.000  
G17  23739617.746   124752538.932       -3534.419          39.000    23739625.972    97209799.102       -2754.195          37.000  
G19  21534347.305   113163759.132       -2831.425          42.000                                                                  
G20  20812452.072   109370173.473       -1536.923          45.000                                                                  
G05  22237463.297   116858660.873         843.015          44.000    22237466.853    91058709.618         656.897          42.000  
G09  24218323.337   127268150.873       -2780.511          32.000    24218340.096    99170057.893       -2166.638          36.000  
G22  24468589.776   128583297.977       -4679.427          37.000                                                                  
G13  24760204.779   130115757.510        1679.758          39.000                                                                  
> 2025 04 04 08 55 35.0010000  0 11                     
G06  22912908.525   120408146.806       -2476.773          38.000    22912913.049    93824548.847       -1929.718          41.000  
G11  22199575.519   116659558.204       -1555.386          44.000    22199575.741    90903551.166       -1211.805          42.000  
G12  22326475.482   117326422.030        -874.426          44.000    22326477.375    91423193.071        -681.326          40.000  
G17  23740290.362   124756073.937       -3535.456          39.000    23740298.796    97212553.632       -2754.749          37.000  
G19  21534886.182   113166590.942       -2832.384          41.000                                                                  
G20  20812744.630   109371710.625       -1537.587          46.000                                                                  
G05  22237302.916   116857818.308         842.018          43.000    22237306.487    91058053.073         656.251          42.000  
G09  24218852.663   127270931.864       -2781.171          32.000    24218869.155    99172224.926       -2167.371          36.000  
G25  24342727.114                         624.758          26.000                                                                  
G22  24469480.253   128587977.776       -4679.684          36.000                                                                  
G13  24759885.157   130114077.992        1679.383          39.000                                                                  
> 2025 04 04 08 55 36.0010000  0 11                     
G06  22913379.884   120410623.980       -2476.917          38.000    22913384.474    93826479.148       -1930.875          41.000  
G11  22199871.587   116661114.204       -1556.393          43.000    22199871.935    90904763.645       -1212.730          42.000  
G12  22326642.033   117327297.662        -876.304          45.000    22326644.018    91423875.400        -682.911          40.000  
G17  23740963.190   124759610.208       -3537.088          39.000    23740971.783    97215309.196       -2756.145          37.000  
G19  21535425.326   113169424.198       -2834.129          41.000                                                                  
G20  20813037.427   109373249.229       -1539.192          46.000                                                                  
G05  22237142.876   116856977.149         840.447          44.000    22237146.392    91057397.636         654.937          42.000  
G09  24219382.381   127273714.383       -2783.112          32.000    24219398.674    99174393.126       -2168.591          36.000  
G25  24342624.515                         624.758          22.000                                                                  
G22  24470371.052   128592658.592       -4681.153          37.000                                                                  
G13  24759565.678   130112399.253        1678.784          39.000                                                                  
> 2025 04 04 08 55 37.0010000  0 11                     
G06  22913851.505   120413101.973       -2478.457          38.000    22913856.112    93828410.022       -1931.169          41.000  
G11  22200167.940   116662671.059       -1557.245          44.000    22200168.256    90905976.777       -1213.346          42.000  
G12  22326808.991   117328174.734        -877.662          45.000    22326810.871    91424558.821        -683.944          40.000  
G17  23741636.346   124763147.675       -3538.570          39.000    23741644.892    97218065.633       -2756.956          36.000  
G19  21535964.729   113172258.729       -2835.250          41.000                                                                  
G20  20813330.527   109374789.080       -1540.432          46.000                                                                  
G05  22236982.953   116856137.270         839.212          44.000    22236986.542    91056743.166         654.101          42.000  
G09  24219912.114   127276498.251       -2784.784          32.000    24219928.330    99176562.353       -2169.623          36.000  
G25  24342475.211                         624.758          20.000                                                                  
G22  24471262.010   128597340.188       -4682.053          37.000                                                                  
G13  24759246.194   130110721.161        1677.627          39.000                                                                  
> 2025 04 04 08 55 38.0010000  0 11                     
G06  22914323.210   120415580.795       -2479.365          38.000    22914327.925    93830341.556       -1931.638          41.000  
G11  22200464.355   116664228.814       -1558.256          44.000    22200464.770    90907190.607       -1214.080          42.000  
G12  22326976.247   117329053.330        -879.371          44.000    22326978.040    91425243.436        -685.213          40.000  
G17  23742309.664   124766686.296       -3538.965          39.000    23742318.286    97220823.014       -2757.668          36.000  
G19  21536504.380   113175094.603       -2836.677          41.000                                                                  
G20  20813623.749   109376330.268       -1541.768          46.000                                                                  
G05  22236823.361   116855298.702         837.939          43.000    22236827.025    91056089.754         652.804          42.000  
G09  24220442.158   127279283.483       -2785.815          32.000    24220458.350    99178732.690       -2170.441          36.000  
G25  24342373.391                         624.758          20.000                                                                  
G22  24472152.999   128602022.662       -4682.911          37.000                                                                  
G13  24758926.959   130109043.733        1677.583          38.000                                                                  
> 2025 04 04 08 55 39.0010000  0 11                     
G06  22914795.033   120418060.445       -2480.479          38.000    22914799.727    93832273.740       -1932.788          41.000  
G11  22200760.887   116665787.449       -1559.308          44.000    22200761.489    90908405.116       -1214.995          42.000  
G12  22327143.631   117329933.413        -881.279          44.000    22327145.604    91425929.210        -686.544          40.000  
G17  23742983.310   124770226.152       -3540.836          39.000    23742991.907    97223581.339       -2759.110          36.000  
G19  21537044.205   113177931.788       -2838.162          41.000                                                                  
G20  20813917.368   109377872.764       -1543.497          46.000                                                                  
G05  22236664.050   116854461.426         836.088          43.000    22236667.621    91055437.340         651.624          42.000  
G09  24220972.429   127282070.077       -2788.123          32.000    24220988.665    99180904.093       -2171.924          36.000  
G25  24342255.927                         624.758          18.000                                                                  
G22  24473044.401   128606705.998       -4684.066          38.000                                                                  
G13  24758607.733   130107366.948        1676.542          39.000                                                                  
> 2025 04 04 08 55 40.0010000  0 11                     
G06  22915267.144   120420541.150       -2480.841          38.000    22915271.887    93834206.764       -1933.270          41.000  
G11  22201057.622   116667347.266       -1560.283          44.000    22201058.369    90909620.553       -1215.972          42.000  
G12  22327311.486   117330815.261        -882.570          45.000    22327313.448    91426616.352        -687.587          40.000  
G17  23743657.104   124773767.445       -3541.815          39.000    23743665.798    97226340.803       -2760.345          36.000  
G19  21537584.433   113180770.578       -2839.472          42.000                                                                  
G20  20814211.046   109379416.830       -1544.735          46.000                                                                  
G05  22236504.970   116853625.716         834.862          44.000    22236508.580    91054786.135         650.739          42.000  
G09  24221502.812   127284858.389       -2789.447          32.000    24221519.205    99183076.763       -2172.583          35.000  
G25  24342136.750                         624.758          16.000                                                                  
G22  24473935.825   128611390.456       -4684.892          37.000                                                                  
G13  24758288.775   130105691.150        1674.966          38.000                                                                  
> 2025 04 04 08 55 41.0010000  0 10                     
G06  22915739.277   120423022.843       -2482.523          38.000    22915744.141    93836140.526       -1934.064          41.000  
G11  22201354.596   116668908.054       -1561.213          44.000    22201355.286    90910836.724       -1216.671          42.000  
G12  22327479.521   117331698.712        -884.458          45.000    22327481.550    91427304.771        -688.886          40.000  
G17  23744331.335   124777310.063       -3543.372          39.000    23744339.769    97229101.256       -2760.846          36.000  
G19  21538124.987   113183610.800       -2840.840          42.000                                                                  
G20  20814505.084   109380962.313       -1545.971          45.000                                                                  
G05  22236346.218   116852791.411         833.671          44.000    22236349.844    91054136.035         649.571          42.000  
G09  24222033.611   127287648.119       -2790.375          32.000    24222050.010    99185250.650       -2174.811          35.000  
G22  24474827.378   128616075.863       -4686.258          37.000                                                                  
G13  24757969.989   130104016.108        1674.275          39.000                                                                  
> 2025 04 04 08 55 42.0010000  0 10                     
G06  22916211.720   120425505.628       -2483.154          37.000    22916216.622    93838075.176       -1934.830          41.000  
G11  22201651.754   116670470.052       -1562.463          43.000    22201652.489    90912053.888       -1217.649          42.000  
G12  22327647.854   117332583.990        -885.955          45.000    22327650.074    91427994.595        -690.553          40.000  
G17  23745005.715   124780854.176       -3544.825          39.000    23745014.122    97231862.930       -2762.732          36.000  
G19  21538665.806   113186452.682       -2842.648          41.000                                                                  
G20  20814799.412   109382509.449       -1547.841          45.000                                                                  
G05  22236187.805   116851958.768         831.939          44.000    22236191.437    91053487.229         648.093          42.000  
G09  24222565.061   127290439.582       -2792.102          33.000    24222581.196    99187425.812       -2175.269          35.000  
G22  24475719.255   128620762.474       -4687.153          37.000                                                                  
G13  24757651.407   130102342.023        1673.929          38.000                                                                  
> 2025 04 04 08 55 43.0010000  0 11                     
G06  22916684.397   120427989.563       -2484.402          38.000    22916689.383    93840010.701       -1936.430          41.000  
G11  22201949.240   116672033.211       -1563.841          43.000    22201949.923    90913271.941       -1218.735          42.000  
G12  22327816.699   117333471.045        -888.137          45.000    22327818.829    91428685.800        -691.760          40.000  
G17  23745680.409   124784399.778       -3546.517          39.000    23745688.876    97234625.728       -2764.044          36.000  
G19  21539206.921   113189296.156       -2844.611          41.000                                                                  
G20  20815094.173   109384058.157       -1549.717          45.000                                                                  
G05  22236029.810   116851127.687         830.169          44.000    22236033.287    91052839.636         646.785          42.000  
G09  24223096.772   127293232.709       -2793.921          33.000    24223112.778    99189602.306       -2177.209          35.000  
G25  24341782.802                         624.758          16.000                                                                  
G22  24476611.281   128625450.212       -4688.586          37.000                                                                  
G13  24757333.056   130100668.891        1672.533          38.000                                                                  
> 2025 04 04 08 55 44.0010000  0 11                     
G06  22917157.304   120430474.276       -2485.374          38.000    22917162.248    93841946.806       -1936.318          40.000  
G11  22202246.959   116673597.262       -1564.488          43.000    22202247.554    90914490.670       -1219.074          43.000  
G12  22327985.765   117334359.582        -889.376          44.000    22327987.832    91429378.163        -692.773          40.000  
G17  23746355.347   124787946.576       -3547.471          39.000    23746363.757    97237389.462       -2764.679          36.000  
G19  21539748.231   113192140.942       -2845.367          41.000                                                                  
G20  20815389.140   109385608.162       -1550.723          45.000                                                                  
G05  22235871.845   116850297.931         829.115          43.000    22235875.381    91052193.064         646.331          42.000  
G09  24223628.701   127296027.237       -2795.514          33.000    24223644.489    99191779.841       -2177.942          35.000  
G25  24341665.238                         624.758          16.000                                                                  
G22  24477503.628   128630138.793       -4688.796          38.000                                                                  
G13  24757014.722   130098996.464        1671.544          37.000                                                                  
> 2025 04 04 08 55 45.0010000  0 11                     
G06  22917630.304   120432959.777       -2485.985          35.000    22917635.336    93843883.603       -1937.189          38.000  
G11  22202544.785   116675162.142       -1565.417          43.000    22202545.310    90915710.064       -1219.789          41.000  
G12  22328155.073   117335249.551        -890.737          44.000    22328157.232    91430071.644        -693.831          41.000  
G17  23747030.555   124791494.494       -3548.468          39.000    23747038.800    97240154.035       -2765.021          36.000  
G19  21540289.897   113194987.010       -2846.687          42.000                                                                  
G20  20815684.383   109387159.412       -1551.825          46.000                                                                  
G05  22235714.307   116849469.420         827.779          44.000    22235717.712    91051547.490         644.820          42.000  
G09  24224160.749   127298823.059       -2796.326          32.000    24224176.488    99193958.410       -2179.559          35.000  
G25  24341547.743                         624.758          15.000                                                                  
G22  24478395.887   128634828.163       -4689.824          38.000                                                                  
G13  24756696.556   130097324.592        1671.598          37.000                                                                  
> 2025 04 04 08 55 46.0010000  0 10                     
G06  22918103.562   120435446.228       -2486.887          36.000    22918108.508    93845821.066       -1938.128          38.000  
G11  22202842.796   116676727.997       -1566.544          43.000    22202843.285    90916930.216       -1220.523          42.000  
G12  22328324.727   117336141.122        -892.380          44.000    22328326.921    91430766.400        -695.576          41.000  
G17  23747705.960   124795043.704       -3549.867          39.000    23747714.074    97242919.658       -2766.058          36.000  
G19  21540831.788   113197834.522       -2848.464          42.000                                                                  
G20  20815979.797   109388712.074       -1553.352          45.000                                                                  
G05  22235556.752   116848642.301         826.494          44.000    22235560.220    91050902.972         644.056          42.000  
G09  24224693.182   127301620.335       -2798.358          32.000    24224708.757    99196138.151       -2180.170          35.000  
G22  24479288.511   128639518.487       -4690.885          38.000                                                                  
G13  24756378.657   130095653.496        1670.459          37.000                                                                  
> 2025 04 04 08 55 47.0010000  0 10                     
G06  22918576.936   120437933.558       -2487.294          36.000    22918581.889    93847759.250       -1938.275          38.000  
G11  22203141.005   116678294.839       -1567.142          43.000    22203141.425    90918151.135       -1221.011          42.000  
G12  22328494.703   117337034.306        -893.846          44.000    22328497.004    91431462.359        -696.440          41.000  
G17  23748381.600   124798594.242       -3551.636          39.000    23748389.704    97245686.288       -2767.172          36.000  
G19  21541373.971   113200683.448       -2849.579          42.000                                                                  
G20  20816275.562   109390266.154       -1554.702          45.000                                                                  
G05  22235399.745   116847816.607         825.152          44.000    22235403.114    91050259.583         643.006          42.000  
G09  24225225.859   127304419.121       -2799.640          31.000    24225241.372    99198319.053       -2181.482          34.000  
G22  24480181.226   128644209.808       -4691.647          38.000                                                                  
G13  24756060.783   130093983.175        1669.574          37.000                                                                  
> 2025 04 04 08 55 48.0010000  0 11                     
G06  22919050.454   120440421.449       -2488.325          37.000    22919055.366    93849697.853       -1938.816          39.000  
G11  22203439.339   116679862.309       -1567.989          43.000    22203439.705    90919372.536       -1221.859          42.000  
G12  22328664.891   117337928.667        -894.986          44.000    22328667.149    91432159.293        -697.615          41.000  
G17  23749057.526   124802145.624       -3551.962          40.000    23749065.465    97248453.599       -2767.488          36.000  
G19  21541916.307   113203533.403       -2850.646          42.000                                                                  
G20  20816571.515   109391821.248       -1555.715          45.000                                                                  
G05  22235242.818   116846991.927         823.927          44.000    22235246.185    91049616.973         642.145          42.000  
G09  24225758.874   127307219.028       -2800.323          31.000    24225774.150    99200500.801       -2182.605          34.000  
G25  24340931.603                         631.423          22.000                                                                  
G22  24481074.092   128648901.677       -4692.436          38.000                                                                  
G13  24755742.939   130092313.231        1669.650          37.000                                                                  
> 2025 04 04 08 55 49.0010000  0 10                     
G06  22919523.971   120442909.998       -2488.712          36.000    22919529.031    93851636.987       -1939.515          38.000  
G11  22203737.744   116681430.491       -1568.537          43.000    22203738.081    90920594.484       -1222.197          42.000  
G12  22328835.325   117338824.387        -896.293          44.000    22328837.602    91432857.244        -698.529          41.000  
G17  23749733.584   124805698.104       -3553.732          40.000    23749741.435    97251221.769       -2768.970          36.000  
G19  21542458.910   113206384.536       -2851.866          42.000                                                                  
G20  20816867.602   109393377.488       -1556.832          45.000                                                                  
G05  22235086.141   116846168.376         822.740          44.000    22235089.425    91048975.245         641.376          42.000  
G09  24226291.848   127310020.108       -2802.142          32.000    24226307.079    99202683.467       -2183.215          34.000  
G22  24481966.908   128653594.249       -4692.966          39.000                                                                  
G13  24755425.216   130090643.813        1668.623          37.000                                                                  
> 2025 04 04 08 55 50.0010000  0 10                     
G06  22919997.599   120445399.133       -2489.617          36.000    22920002.749    93853576.536       -1939.591          38.000  
G11  22204036.175   116682999.328       -1569.123          43.000    22204036.620    90921816.960       -1223.113          42.000  
G12  22329006.058   117339721.359        -897.488          44.000    22329008.299    91433556.188        -699.360          41.000  
G17  23750409.865   124809251.486       -3553.889          40.000    23750417.634    97253990.638       -2768.991          36.000  
G19  21543001.724   113209236.742       -2852.670          42.000                                                                  
G20  20817163.946   109394934.794       -1557.704          45.000                                                                  
G05  22234929.662   116845345.898         822.079          44.000    22234932.894    91048334.355         640.703          42.000  
G09  24226825.445   127312822.372       -2803.107          32.000    24226840.242    99204867.038       -2184.015          34.000  
G22  24482860.000   128658287.435       -4693.188          39.000                                                                  
G13  24755107.585   130088974.794        1669.143          37.000                                                                  
> 2025 04 04 08 55 51.0010000  0 10                     
G06  22920471.451   120447889.091       -2490.635          37.000    22920476.604    93855516.777       -1940.581          38.000  
G11  22204334.882   116684569.035       -1570.546          43.000    22204335.363    90923040.072       -1223.511          42.000  
G12  22329176.969   117340619.815        -899.359          44.000    22329179.296    91434256.287        -700.899          41.000  
G17  23751086.282   124812806.056       -3555.086          40.000    23751094.071    97256760.446       -2770.312          36.000  
G19  21543544.761   113212090.271       -2854.539          42.000                                                                  
G20  20817460.515   109396493.411       -1559.715          46.000                                                                  
G05  22234773.423   116844524.710         820.196          44.000    22234776.548    91047694.476         639.332          42.000  
G09  24227359.148   127315625.970       -2803.888          31.000    24227373.741    99207051.690       -2185.242          34.000  
G22  24483753.256   128662981.482       -4694.718          39.000                                                                  
G13  24754790.133   130087306.443        1667.536          37.000                                                                  
> 2025 04 04 08 55 52.0010000  0 11                     
G06  22920945.426   120450380.018       -2491.221          36.000    22920950.593    93857457.758       -1941.235          37.000  
G11  22204633.790   116686139.775       -1571.174          44.000    22204634.290    90924264.066       -1224.369          42.000  
G12  22329348.263   117341519.955        -900.964          44.000    22329350.632    91434957.670        -701.695          40.000  
G17  23751763.103   124816362.002       -3556.424          40.000    23751770.682    97259531.331       -2771.555          37.000  
G19  21544088.064   113214945.306       -2855.686          41.000                                                                  
G20  20817757.537   109398053.500       -1560.800          46.000                                                                  
G05  22234617.412   116843705.006         819.021          44.000    22234620.584    91047055.736         638.512          42.000  
G09  24227893.156   127318431.182       -2805.811          33.000    24227907.470    99209237.554       -2186.395          35.000  
G25  24340704.949                         514.234          21.000                                                                  
G22  24484646.767   128667676.532       -4695.455          38.000                                                                  
G13  24754472.668   130085638.939        1666.776          35.000                                                                  
> 2025 04 04 08 55 53.0010000  0 11                     
G06  22921419.675   120452871.779       -2491.886          36.000    22921424.759    93859399.394       -1941.875          37.000  
G11  22204932.771   116687711.422       -1572.322          44.000    22204933.438    90925488.740       -1225.289          42.000  
G12  22329519.838   117342421.560        -902.339          44.000    22329522.310    91435660.253        -703.433          41.000  
G17  23752439.983   124819919.164       -3557.655          40.000    23752447.576    97262303.123       -2772.429          37.000  
G19  21544631.590   113217801.643       -2856.970          42.000                                                                  
G20  20818054.637   109399614.889       -1562.106          46.000                                                                  
G05  22234461.828   116842886.633         817.698          44.000    22234464.831    91046418.068         637.104          42.000  
G09  24228427.301   127321237.756       -2807.581          33.000    24228441.446    99211424.512       -2187.573          35.000  
G25  24340634.312                         514.234          20.000                                                                  
G22  24485540.385   128672372.462       -4696.365          39.000                                                                  
G13  24754155.476   130083972.075        1666.382          35.000                                                                  
> 2025 04 04 08 55 54.0010000  0 10                     
G06  22921894.023   120455364.234       -2492.437          35.000    22921899.021    93861341.553       -1942.169          37.000  
G11  22205231.911   116689283.810       -1572.400          44.000    22205232.628    90926713.976       -1225.429          42.000  
G12  22329691.650   117343324.556        -903.344          45.000    22329694.283    91436363.861        -703.921          40.000  
G17  23753117.041   124823477.378       -3558.325          40.000    23753124.677    97265075.754       -2772.774          37.000  
G19  21545175.368   113220659.170       -2857.478          41.000                                                                  
G20  20818351.951   109401177.453       -1562.862          46.000                                                                  
G05  22234306.350   116842069.399         817.323          44.000    22234309.361    91045781.278         636.531          42.000  
G09  24228961.758   127324045.533       -2807.806          33.000    24228975.704    99213612.403       -2187.982          35.000  
G22  24486434.176   128677069.109       -4696.751          38.000                                                                  
G13  24753838.277   130082305.737        1666.885          35.000                                                                  
> 2025 04 04 08 55 55.0010000  0 10                     
G06  22922368.305   120457856.849       -2492.286          35.000    22922373.335    93863283.827       -1941.531          37.000  
G11  22205531.174   116690856.387       -1571.796          44.000    22205531.983    90927939.347       -1224.693          42.000  
G12  22329863.544   117344228.328        -903.228          44.000    22329866.243    91437068.121        -704.012          41.000  
G17  23753794.310   124827036.071       -3557.908          39.000    23753801.900    97267848.772       -2772.800          37.000  
G19  21545719.261   113223517.326       -2857.520          41.000                                                                  
G20  20818649.385   109402740.617       -1562.672          46.000                                                                  
G05  22234150.938   116841252.804         817.229          44.000    22234153.949    91045144.963         636.835          42.000  
G09  24229496.233   127326854.032       -2807.690          34.000    24229510.104    99215800.874       -2188.513          35.000  
G22  24487327.845   128681765.912       -4695.902          38.000                                                                  
G13  24753521.015   130080639.384        1666.832          35.000                                                                  
> 2025 04 04 08 55 56.0010000  0 10                     
G06  22922842.401   120460348.746       -2491.656          36.000    22922847.572    93865225.581       -1941.495          37.000  
G11  22205830.372   116692428.419       -1571.730          44.000    22205831.084    90929164.293       -1224.617          42.000  
G12  22330035.538   117345132.106        -903.909          44.000    22330038.239    91437772.342        -704.398          40.000  
G17  23754471.487   124830594.529       -3558.941          40.000    23754479.108    97270621.555       -2772.952          37.000  
G19  21546263.214   113226375.362       -2858.010          41.000                                                                  
G20  20818946.854   109404303.628       -1562.958          46.000                                                                  
G05  22233995.506   116840436.045         816.490          44.000    22233998.444    91044508.524         636.473          42.000  
G09  24230030.756   127329662.438       -2808.185          33.000    24230044.496    99217989.234       -2188.702          35.000  
G22  24488221.453   128686462.073       -4695.695          38.000                                                                  
G13  24753203.690   130078972.232        1667.599          35.000                                                                  
> 2025 04 04 08 55 57.0010000  0 10                     
G06  22923316.572   120462840.274       -2491.356          35.000    22923321.664    93867167.002       -1941.134          37.000  
G11  22206129.410   116694000.065       -1571.723          43.000    22206130.099    90930388.964       -1224.868          42.000  
G12  22330207.633   117346036.179        -904.630          43.000    22330210.309    91438476.829        -704.917          37.000  
G17  23755148.664   124834152.880       -3558.853          38.000    23755156.290    97273394.317       -2773.167          37.000  
G19  21546807.027   113229233.490       -2858.739          41.000                                                                  
G20  20819244.287   109405866.701       -1563.245          45.000                                                                  
G05  22233840.017   116839619.361         815.943          43.000    22233842.951    91043872.156         636.138          42.000  
G09  24230565.131   127332470.969       -2808.496          34.000    24230578.861    99220177.740       -2188.904          35.000  
G22  24489115.079   128691157.883       -4696.142          38.000                                                                  
G13  24752886.239   130077304.509        1667.479          34.000                                                                  
> 2025 04 04 08 55 58.0010000  0 11                     
G06  22923790.765   120465331.821       -2492.086          35.000    22923795.777    93869108.467       -1941.469          37.000  
G11  22206428.540   116695571.849       -1571.975          44.000    22206429.213    90931613.719       -1224.742          43.000  
G12  22330379.907   117346940.950        -905.208          43.000    22330382.557    91439181.792        -705.083          38.000  
G17  23755825.938   124837711.705       -3559.393          40.000    23755833.464    97276167.429       -2773.593          37.000  
G19  21547351.010   113232092.146       -2859.283          41.000                                                                  
G20  20819541.868   109407430.295       -1564.076          45.000                                                                  
G05  22233684.697   116838803.204         815.781          44.000    22233687.587    91043236.225         635.559          42.000  
G09  24231099.861   127335280.130       -2809.686          34.000    24231113.420    99222366.654       -2189.172          34.000  
G25  24340152.863                         514.234          11.000                                                                  
G22  24490008.562   128695853.785       -4696.238          39.000                                                                  
G13  24752568.746   130075636.699        1667.679          34.000                                                                  
> 2025 04 04 08 55 59.0010000  0 11                     
G06  22924265.077   120467824.021       -2492.327          35.000    22924270.026    93871050.487       -1943.062          37.000  
G11  22206727.744   116697144.269       -1572.964          45.000    22206728.462    90932838.978       -1225.739          43.000  
G12  22330552.285   117347847.016        -906.741          46.000    22330554.969    91439887.843        -706.718          41.000  
G17  23756503.402   124841271.482       -3560.823          40.000    23756510.897    97278941.236       -2774.571          36.000  
G19  21547895.158   113234951.896       -2860.547          41.000                                                                  
G20  20819839.608   109408995.015       -1565.510          45.000                                                                  
G05  22233529.525   116837988.140         814.170          44.000    22233532.535    91042601.099         634.614          42.000  
G09  24231634.761   127338090.509       -2811.499          34.000    24231648.131    99224556.538       -2190.247          35.000  
G25  24340059.348                         514.234          12.000                                                                  
G22  24490902.294   128700550.301       -4696.815          39.000                                                                  
G13  24752251.375   130073969.334        1667.260          33.000                                                                  
> 2025 04 04 08 56 00.0010000  0 11                     
G06  22924739.425   120470316.946       -2492.808          35.000    22924744.468    93872993.014       -1943.203          38.000  
G11  22207027.001   116698717.531       -1573.700          44.000    22207027.813    90934064.900       -1226.420          43.000  
G12  22330724.983   117348754.510        -908.873          40.000    22330727.691    91440595.009        -708.049          34.000  
G17  23757181.100   124844832.332       -3561.429          40.000    23757188.555    97281715.984       -2775.288          38.000  
G19  21548439.619   113237812.925       -2861.375          41.000                                                                  
G20  20820137.588   109410560.922       -1566.937          44.000                                                                  
G05  22233374.658   116837174.286         813.313          43.000    22233377.657    91041966.883         633.517          42.000  
G09  24232169.822   127340902.070       -2811.609          35.000    24232183.012    99226747.383       -2191.089          34.000  
G25  24339967.831                         514.234          13.000                                                                  
G22  24491796.130   128705247.592       -4697.748          39.000                                                                  
G13  24751934.166   130072302.527        1666.836          34.000                                                                  
> 2025 04 04 08 56 01.0010000  0 11                     
G06  22925213.874   120472810.234       -2492.961          36.000    22925218.755    93874935.833       -1943.314          39.000  
G11  22207326.436   116700291.235       -1574.259          43.000    22207327.164    90935291.150       -1226.442          43.000  
G12  22330897.981   117349663.227        -909.481          40.000    22330900.734    91441303.061        -708.354          38.000  
G17  23757858.954   124848393.980       -3562.297          40.000    23757866.264    97284491.299       -2775.918          37.000  
G19  21548984.202   113240674.842       -2862.707          41.000                                                                  
G20  20820435.728   109412127.744       -1567.286          45.000                                                                  
G05  22233219.851   116836361.344         812.426          45.000    22233222.997    91041333.451         633.076          41.000  
G09  24232704.897   127343714.668       -2812.866          36.000    24232718.086    99228939.034       -2191.913          35.000  
G25  24339868.770                         514.234          16.000                                                                  
G22  24492689.893   128709945.330       -4697.816          38.000                                                                  
G13  24751617.090   130070635.980        1666.310          34.000                                                                  
> 2025 04 04 08 56 02.0010000  0 11                     
G06  22925688.552   120475304.189       -2493.815          37.000    22925693.367    93876879.154       -1943.290          38.000  
G11  22207626.037   116701865.640       -1574.633          43.000    22207626.812    90936517.965       -1226.800          43.000  
G12  22331071.091   117350573.088        -910.587          40.000    22331073.921    91442012.069        -709.520          38.000  
G17  23758536.926   124851956.666       -3563.031          40.000    23758544.296    97287267.422       -2777.125          37.000  
G19  21549529.113   113243537.902       -2863.566          42.000                                                                  
G20  20820734.002   109413695.672       -1568.045          46.000                                                                  
G05  22233065.344   116835549.514         811.584          43.000    22233068.523    91040700.886         632.169          41.000  
G09  24233239.883   127346528.428       -2813.751          36.000    24233253.419    99231131.613       -2193.182          34.000  
G25  24339769.896                         514.234          20.000                                                                  
G22  24493583.851   128714643.749       -4698.505          38.000                                                                  
G13  24751300.005   130068969.958        1665.021          34.000                                                                  
> 2025 04 04 08 56 03.0010000  0 10                     
G06  22926163.140   120477798.355       -2494.252          36.000    22926167.931    93878822.653       -1943.988          38.000  
G11  22207925.650   116703440.297       -1574.760          44.000    22207926.547    90937744.979       -1227.203          42.000  
G12  22331244.406   117351483.619        -911.584          41.000    22331247.262    91442721.547        -709.581          33.000  
G17  23759214.995   124855519.917       -3563.943          40.000    23759222.395    97290043.927       -2776.184          37.000  
G19  21550074.062   113246401.624       -2864.338          41.000                                                                  
G20  20821032.499   109415264.242       -1568.994          45.000                                                                  
G05  22232910.998   116834738.357         810.950          44.000    22232914.207    91040068.812         631.346          42.000  
G09  24233775.248   127349342.947       -2815.411          35.000    24233788.896    99233324.719       -2193.921          34.000  
G22  24494477.897   128719342.340       -4699.232          40.000                                                                  
G13  24750982.839   130067303.861        1665.769          31.000                                                                  
> 2025 04 04 08 56 04.0010000  0 10                     
G06  22926640.430                       -2481.720          27.000    22926642.756    93880766.854       -1941.216          36.000  
G11  22208225.471   116705015.951       -1571.189          45.000    22208226.392    90938972.740       -1224.198          44.000  
G12  22331418.037   117352395.970        -908.082          44.000    22331420.812    91443432.473        -707.554          41.000  
G17  23759893.391   124859084.484       -3560.399          41.000    23759900.683    97292821.560       -2774.641          36.000  
G19  21550619.330   113249266.828       -2861.194          42.000                                                                  
G20  20821331.242   109416834.288       -1565.620          46.000                                                                  
G05  22232756.946   116833928.668         813.928          43.000    22232760.080    91039437.874         634.353          41.000  
G09  24234310.918   127352158.878       -2811.285          34.000    24234324.566    99235518.971       -2190.118          32.000  
G22  24495372.198   128724041.916       -4695.297          39.000                                                                  
G13  24750665.840   130065638.570        1671.207          33.000                                                                  
> 2025 04 04 08 56 05.0010000  0 10                     
G06  22927115.035   120482801.9303      -2494.017          27.000    22927117.043    93882708.795       -1944.484          32.000  
G11  22208524.784   116706588.809       -1576.734          45.000    22208525.662    90940198.331       -1228.701          43.000  
G12  22331591.166   117353306.109        -914.111          45.000    22331593.968    91444141.656        -712.313          41.000  
G17  23760571.217   124862646.513       -3565.269          41.000    23760578.601    97295597.185       -2778.802          36.000  
G19  21551164.062   113252129.630       -2866.514          41.000                                                                  
G20  20821629.502   109418401.929       -1571.493          45.000                                                                  
G05  22232602.354   116833116.566         808.094          43.000    22232605.572    91038805.096         629.730          42.000  
G09  24234846.632   127354972.551       -2815.686          30.000    24234860.013    99237711.517       -2195.410          31.000  
G22  24496265.995   128728738.676       -4700.628          39.000                                                                  
G13  24750348.319   130063970.346        1664.507          34.000                                                                  
> 2025 04 04 08 56 06.0010000  0 10                     
G06  22927589.256   120485293.7972      -2496.403          38.000    22927591.262    93884650.322       -1945.111          40.000  
G11  22208823.993   116708161.210       -1577.130          45.000    22208824.866    90941423.587       -1228.704          43.000  
G12  22331764.410   117354216.414        -915.477          45.000    22331767.148    91444850.980        -713.186          41.000  
G17  23761249.120   124866208.495       -3567.091          40.000    23761256.476    97298372.673       -2779.666          37.000  
G19  21551708.760   113254992.455       -2867.509          41.000                                                                  
G20  20821927.830   109419969.573       -1573.061          45.000                                                                  
G05  22232447.856   116832304.452         807.074          44.000    22232451.013    91038172.275         629.208          42.000  
G09  24235381.930                       -2816.840          22.000    24235395.752    99239904.188       -2197.986          30.000  
G22  24497159.515   128733434.924       -4700.707          39.000                                                                  
G13  24750030.692   130062301.366        1664.392          34.000                                                                  
> 2025 04 04 08 56 07.0010000  0 10                     
G06  22928065.282   120487795.4502      -2489.318          38.000    22928065.555    93886592.626       -1939.109          41.000  
G11  22209123.492   116709734.5972      -1569.469          45.000    22209124.254    90942649.600       -1222.837          43.000  
G12  22331937.948   117355128.296        -908.463          44.000    22331940.675    91445561.527        -707.710          40.000  
G17  23761927.087   124869771.640       -3559.396          40.000    23761934.470    97301149.170       -2773.125          34.000  
G19  21552253.867   113257856.714       -2861.142          41.000                                                                  
G20  20822226.332   109421538.539       -1565.016          45.000                                                                  
G05  22232293.620   116831493.7302        814.228          43.000    22232296.839    91037540.547         634.793          42.000  
G09  24235914.231   127360588.1163      -2811.310          34.000    24235930.965    99242085.6941      -2189.813          31.000  
G22  24498053.338   128738132.1532      -4693.917          39.000                                                                  
G13  24749713.247   130060633.1332       1672.394          34.000                                                                  
> 2025 04 04 08 56 08.0010000  0 10                     
G06  22928538.749   120490284.6802      -2484.963          35.000    22928539.267    93888532.351       -1936.724          41.000  
G11  22209422.326   116711304.7372      -1566.300          45.000    22209423.037    90943873.119       -1220.536          43.000  
G12  22332110.950   117356037.492        -905.720          43.000    22332113.575    91446270.054        -706.212          36.000  
G17  23762604.485   124873331.887       -3556.871          38.000    23762611.958    97303923.329       -2770.441          37.000  
G19  21552798.440   113260718.153       -2858.018          41.000                                                                  
G20  20822524.387   109423104.739       -1562.351          44.000                                                                  
G05  22232138.784   116830680.1952        817.372          44.000    22232142.002    91036906.599         636.794          43.000  
G09  24236450.246   127363400.6442      -2808.746          35.000    24236466.018    99244277.369       -2188.910          33.000  
G22  24498946.469   128742826.0792      -4689.894          39.000                                                                  
G13  24749395.107   130058961.5072       1674.669          30.000                                                                  
> 2025 04 04 08 56 09.0010000  0 10                     
G06  22929012.718   120492771.0782      -2486.591          39.000    22929012.462    93890469.742       -1937.365          41.000  
G11  22209720.500   116712871.9552      -1567.305          45.000    22209721.166    90945094.323       -1220.892          43.000  
G12  22332283.492   117356944.561        -907.332          38.000    22332286.187    91446976.872        -707.087          34.000  
G17  23763281.552   124876889.795       -3559.516          28.000    23763288.011                       -2763.687          24.000  
G19  21553342.646   113263577.157       -2859.355          36.000                                                                  
G20  20822821.815   109424668.484       -1564.194          45.000                                                                  
G05  22231983.485   116829864.1562        815.643          45.000    22231986.668    91036270.766         635.245          42.000  
G09  24236986.425   127366210.7012      -2810.663          34.000    24236997.321    99246467.047       -2190.436          33.000  
G22  24499839.147   128747517.1342      -4691.812          39.000                                                                  
G13  24749076.587   130057286.7492       1675.181          37.000                                                                  
> 2025 04 04 08 56 10.0010000  0 10                     
G06  22929485.170   120495258.1532      -2489.106          39.000    22929485.701    93892407.766       -1939.262          39.000  
G11  22210018.910   116714440.0652      -1570.346          45.000    22210019.617    90946316.205       -1223.336          43.000  
G12  22332456.359   117357852.884        -910.713          43.000    22332458.984    91447684.621        -709.764          39.000  
G17  23763958.561                       -3558.432          28.000    23763964.414                       -2770.382          22.000  
G19  21553886.967   113266437.418       -2862.208          36.000                                                                  
G20  20823119.661   109426233.428       -1566.925          46.000                                                                  
G05  22231828.424   116829049.3962        812.359          44.000    22231831.550    91035635.878         633.164          41.000  
G09  24237520.255   127369022.1042      -2813.159          31.000    24237533.246    99248657.740       -2192.310          32.000  
G22  24500731.983   128752208.9362      -4693.655          37.000                                                                  
G13  24748757.977   130055612.6052       1672.184          35.000                                                                  
> 2025 04 04 08 56 11.0010000  0 10                     
G06  22929958.628   120497743.8312      -2485.847          37.000    22929958.662    93894344.594       -1936.267          41.000  
G11  22210316.979   116716006.7122      -1566.963          45.000    22210317.715    90947536.989       -1220.818          43.000  
G12  22332629.026   117358760.515        -907.738          43.000    22332631.693    91448391.865        -707.685          41.000  
G17  23764635.620   124884006.1741      -3558.365          41.000    23764641.691                       -2772.929          36.000  
G19  21554431.037   113269296.562       -2859.728          41.000                                                                  
G20  20823417.303   109427797.398       -1564.225          45.000                                                                  
G05  22231673.137   116828233.5992        815.574          45.000    22231676.367    91035000.197         635.247          41.000  
G09  24238051.971   127371832.6192      -2811.151          33.000    24238068.740    99250847.723       -2190.039          33.000  
G22  24501624.522   128756899.3942      -4690.228          32.000                                                                  
G13  24748439.205                        1671.440          26.000                                                                  
> 2025 04 04 08 56 12.0010000  0 10                     
G06  22930432.095   120500229.4772      -2485.934          38.000    22930431.561    93896281.478       -1936.726          40.000  
G11  22210615.132   116717573.4482      -1567.003          44.000    22210615.855    90948757.821       -1221.102          43.000  
G12  22332801.897   117359668.763        -908.793          44.000    22332804.405    91449099.592        -707.753          41.000  
G17  23765312.639   124887564.234       -3558.631          40.000    23765319.305    97315009.5501      -2772.798          36.000  
G19  21554975.186   113272156.320       -2859.524          41.000                                                                  
G20  20823715.075   109429361.873       -1564.778          46.000                                                                  
G05  22231517.906   116827418.3102        815.034          44.000    22231521.201    91034364.925         634.951          41.000  
G09  24238589.338   127374643.6462      -2811.505          34.000    24238603.997    99253038.122       -2190.527          34.000  
G22  24502516.963   128761589.6772      -4690.084          39.000                                                                  
G13  24748120.898   130052252.9063       1675.140          32.000                                                                  
> 2025 04 04 08 56 13.0010000  0 10                     
G06  22930904.803   120502715.4331      -2486.190          37.000    22930904.631    93898218.982       -1937.240          40.000  
G11  22210913.538   116719141.084       -1568.046          44.000    22210914.092    90949979.351       -1221.507          43.000  
G12  22332974.971   117360578.542        -910.162          44.000    22332977.559    91449808.529        -709.631          40.000  
G17  23765989.848   124891123.502       -3559.752          39.000    23765996.894    97317782.978       -2773.709          36.000  
G19  21555519.748   113275017.480       -2862.079          41.000                                                                  
G20  20824013.156   109430927.640       -1566.197          46.000                                                                  
G05  22231363.023   116826604.357         813.317          44.000    22231366.368    91033730.678         633.750          42.000  
G09  24239125.687   127377455.5811      -2812.665          34.000    24239138.918    99255229.660       -2191.132          33.000  
G22  24503409.596   128766280.944       -4691.765          39.000                                                                  
G13  24747802.731   130050577.657        1674.708          33.000                                                                  
> 2025 04 04 08 56 14.0010000  0 10                     
G06  22931377.440   120505202.029       -2478.278          37.000    22931377.777    93900156.581       -1930.767          40.000  
G11  22211211.921   116720708.875       -1559.715          44.000    22211212.481    90951201.025       -1215.591          43.000  
G12  22333148.243   117361489.106        -902.886          43.000    22333150.800    91450518.055        -703.409          41.000  
G17  23766667.132   124894683.236       -3551.419          39.000    23766673.600    97320556.812       -2767.362          36.000  
G19  21556064.244   113277879.173       -2854.100          41.000                                                                  
G20  20824311.115   109432493.986       -1558.084          46.000                                                                  
G05  22231208.216   116825790.975         821.243          44.000    22231211.621    91033096.843         640.229          42.000  
G09  24239660.674   127380268.692       -2804.498          33.000    24239674.179    99257421.711       -2185.242          33.000  
G22  24504302.444   128770972.322       -4683.417          39.000                                                                  
G13  24747481.933   130048902.393        1682.305          32.000                                                                  
> 2025 04 04 08 56 15.0010000  0 10                     
G06  22931848.622   120507681.132       -2481.303          38.000    22931849.561    93902088.375       -1933.513          40.000  
G11  22211508.897   116722269.265       -1562.530          44.000    22211509.456    90952416.892       -1217.538          43.000  
G12  22333320.216   117362392.855        -906.439          44.000    22333322.720    91451222.266        -706.268          41.000  
G17  23767343.008   124898235.923       -3554.848          39.000    23767350.770    97323325.154       -2770.453          36.000  
G19  21556607.369   113280733.920       -2857.266          41.000                                                                  
G20  20824607.823   109434053.380       -1561.914          45.000                                                                  
G05  22231052.133   116824970.581         817.900          44.000    22231055.451    91032457.613         637.389          42.000  
G09  24240194.717   127383074.885       -2808.679          34.000    24240208.116    99259608.356       -2189.276          32.000  
G22  24505193.754   128775656.301       -4685.960          40.000                                                                  
G13  24747164.155                        1668.164          32.000                                                                  
> 2025 04 04 08 56 16.0010000  0 10                     
G06  22932320.500   120510163.764       -2474.984          38.000    22932322.017    93904022.882       -1928.875          41.000  
G11  22211806.443   116723833.214       -1557.061          44.000    22211807.131    90953635.558       -1213.012          43.000  
G12  22333492.991   117363300.797        -901.242          44.000    22333495.488    91451929.742        -702.267          40.000  
G17  23768019.642   124901792.449       -3549.915          39.000    23768027.249    97326096.488       -2766.384          36.000  
G19  21557151.341   113283592.686       -2851.807          42.000                                                                  
G20  20824905.321   109435616.730       -1556.626          45.000                                                                  
G05  22230896.787   116824154.214         823.298          44.000    22230900.001    91031821.479         641.596          42.000  
G09  24240729.370   127385885.172       -2803.546          34.000    24240742.814    99261798.217       -2184.949          32.000  
G22  24506085.788   128780343.780       -4680.081          39.000                                                                  
G13  24746842.966   130045537.2593       1687.612          32.000                                                                  
> 2025 04 04 08 56 17.0010000  0 10                     
G06  22932792.198   120512644.812       -2481.838          37.000    22932794.194    93905956.159       -1934.106          41.000  
G11  22212103.921   116725395.656       -1563.370          44.000    22212104.377    90954853.037       -1218.208          43.000  
G12  22333665.624   117364207.829        -908.421          44.000    22333668.046    91452636.493        -707.726          40.000  
G17  23768696.227   124905347.790       -3556.781          41.000    23768703.682    97328866.835       -2771.715          36.000  
G19  21557695.022   113286450.347       -2858.907          41.000                                                                  
G20  20825202.665   109437178.995       -1563.795          45.000                                                                  
G05  22230741.273   116823336.752         816.235          44.000    22230744.449    91031184.469         636.524          42.000  
G09  24241263.996   127388694.415       -2811.084          34.000    24241277.328    99263987.261       -2191.351          32.000  
G22  24506977.555   128785029.728       -4686.839          39.000                                                                  
G13  24746524.579   130043856.0482       1679.761          32.000                                                                  
> 2025 04 04 08 56 18.0010000  0 10                     
G06  22933263.387   120515123.043       -2477.200          38.000    22933265.811    93907887.275       -1930.957          41.000  
G11  22212400.637   116726955.358       -1558.873          44.000    22212401.079    90956068.413       -1215.083          43.000  
G12  22333837.855   117365112.734        -904.808          44.000    22333840.263    91453341.621        -705.177          40.000  
G17  23769372.258   124908900.666       -3552.365          39.000    23769380.114    97331635.301       -2767.708          35.000  
G19  21558238.445   113289305.753       -2855.298          41.000                                                                  
G20  20825499.374   109438738.924       -1559.402          45.000                                                                  
G05  22230585.177   116822516.972         819.878          44.000    22230588.466    91030545.731         638.576          42.000  
G09  24241798.068   127391501.354       -2806.946          33.000    24241811.436    99266174.462       -2187.018          32.000  
G22  24507868.828   128789712.925       -4682.795          40.000                                                                  
G13  24746205.376   130042171.7572       1684.708          32.000                                                                  
> 2025 04 04 08 56 19.0010000  0 11                     
G06  22933734.341   120517599.127       -2473.434          38.000    22933736.925    93909816.646       -1926.921          40.000  
G11  22212697.013   116728512.9322      -1554.753          44.000    22212697.418    90957282.091       -1211.290          43.000  
G12  22334009.758   117366016.5922       -900.930          44.000    22334012.138    91454045.521        -701.805          40.000  
G17  23770047.854   124912452.2362      -3548.421          39.000    23770055.683    97334402.366       -2764.674          35.000  
G19  21558781.403   113292159.4102      -2850.862          41.000                                                                  
G20  20825795.890   109440297.1722      -1555.820          45.000                                                                  
G05  22230428.800   116821695.4632        824.259          43.000    22230432.045    91029905.565         642.615          42.000  
G09  24242331.696   127394307.2472      -2803.314          33.000    24242345.368    99268360.505       -2184.155          32.000  
G25  24337838.241                         656.145          22.000                                                                  
G22  24508759.539   128794393.9182      -4678.282          40.000                                                                  
G13  24745883.926   130040485.2132       1688.822          32.000                                                                  
> 2025 04 04 08 56 20.0010000  0 10                     
G06  22934205.055   120520074.366       -2475.934          37.000    22934207.881    93911745.407       -1929.399          41.000  
G11  22212993.351   116730069.7612      -1557.324          45.000    22212993.768    90958495.205       -1213.504          43.000  
G12  22334181.691   117366919.8172       -903.930          44.000    22334184.075    91454749.343        -704.387          41.000  
G17  23770723.486   124916002.8652      -3551.319          40.000    23770731.316    97337169.102       -2767.651          35.000  
G19  21559324.334   113295012.8052      -2854.196          41.000                                                                  
G20  20826092.402   109441855.0722      -1558.817          45.000                                                                  
G05  22230272.391   116820873.6482        821.049          43.000    22230275.611    91029265.196         639.956          42.000  
G09  24242865.535   127397112.3322      -2806.231          34.000    24242879.212    99270546.292       -2186.157          33.000  
G22  24509650.206   128799074.1622      -4680.657          40.000                                                                  
G13  24745560.155   130038797.6202       1686.439          31.000                                                                  
> 2025 04 04 08 56 21.0010000  0 10                     
G06  22934675.684   120522549.129       -2475.633          37.000    22934678.808    93913673.775       -1929.088          41.000  
G11  22213289.623   116731626.1682      -1557.219          45.000    22213289.936    90959707.999       -1213.593          43.000  
G12  22334353.616   117367823.2402       -904.599          44.000    22334355.987    91455453.299        -704.711          41.000  
G17  23771399.142   124919553.3792      -3551.530          40.000    23771407.040    97339935.748       -2767.959          35.000  
G19  21559867.303   113297866.1982      -2854.504          41.000                                                                  
G20  20826388.907   109443412.9592      -1558.991          45.000                                                                  
G05  22230116.056   116820051.8472        820.607          43.000    22230119.156    91028624.841         639.376          41.000  
G09  24243399.539   127399917.5382      -2806.696          34.000    24243413.067    99272732.147       -2186.584          33.000  
G22  24510540.691   128803753.9342      -4680.696          40.000                                                                  
G13  24745238.625   130037106.3823       1687.183          31.000                                                                  
> 2025 04 04 08 56 22.0010000  0 10                     
G06  22935146.546   120525024.623       -2476.054          37.000    22935149.799    93915602.745       -1929.328          41.000  
G11  22213586.016   116733183.3972      -1557.789          45.000    22213586.229    90960921.413       -1213.931          43.000  
G12  22334525.744   117368728.0842       -905.747          44.000    22334528.212    91456158.382        -705.810          41.000  
G17  23772075.037   124923105.0202      -3552.508          40.000    23772082.879    97342703.231       -2768.311          35.000  
G19  21560410.448   113300720.8602      -2855.390          41.000                                                                  
G20  20826685.656   109444972.1032      -1559.897          45.000                                                                  
G05  22229959.923   116819231.2772        819.773          43.000    22229962.961    91027985.442         638.810          41.000  
G09  24243933.631   127402723.9862      -2807.092          34.000    24243947.036    99274919.034       -2187.225          32.000  
G22  24511431.468   128808434.5182      -4681.260          40.000                                                                  
G13  24744917.265   130035417.7172       1687.385          31.000                                                                  
> 2025 04 04 08 56 23.0010000  0 10                     
G06  22935617.598   120527501.251       -2475.563          38.000    22935621.079    93917532.575       -1928.878          41.000  
G11  22213882.616   116734741.8042      -1557.263          45.000    22213882.664    90962135.742       -1213.286          43.000  
G12  22334698.342   117369634.7112       -905.561          44.000    22334700.743    91456864.851        -705.733          41.000  
G17  23772751.153   124926658.1132      -3551.605          40.000    23772758.960    97345471.899       -2767.944          35.000  
G19  21560953.888   113303577.1342      -2855.199          41.000                                                                  
G20  20826982.559   109446532.8522      -1559.708          45.000                                                                  
G05  22229804.076   116818412.2892        820.056          43.000    22229807.073    91027347.272         639.032          41.000  
G09  24244468.012   127405532.1442      -2807.385          34.000    24244481.374    99277107.179       -2187.158          32.000  
G22  24512322.512   128813116.2232      -4680.518          40.000                                                                  
G13  24744596.835                        1686.478          29.000                                                                  
> 2025 04 04 08 56 24.0010000  0 11                     
G06  22936088.076   120529974.395       -2471.352          38.000    22936091.676    93919459.681       -1925.528          41.000  
G11  22214178.650   116736296.7442      -1552.917          45.000    22214178.738    90963347.395       -1210.186          43.000  
G12  22334870.186   117370538.4972       -902.009          44.000    22334872.816    91457569.107        -702.983          41.000  
G17  23773426.741   124930208.1072      -3548.252          40.000    23773434.418    97348238.121       -2764.756          34.000  
G19  21561496.766   113306430.4032      -2851.664          41.000                                                                  
G20  20827278.914   109448090.5552      -1556.060          45.000                                                                  
G05  22229647.667   116817590.2692        823.845          43.000    22229650.632    91026706.748         641.888          41.000  
G09  24245001.894   127408337.3102      -2803.217          34.000    24245015.220    99279293.078       -2184.180          32.000  
G25  24337792.983                         626.211          20.000                                                                  
G22  24513212.799   128817794.4352      -4676.012          41.000                                                                  
G13  24744273.615   130032034.7873       1690.228          29.000                                                                  
> 2025 04 04 08 56 25.0010000  0 10                     
G06  22936558.429   120532446.480       -2474.200          38.000    22936562.137    93921385.991       -1927.949          41.000  
G11  22214474.410   116737850.753       -1556.049          45.000    22214474.510    90964558.293       -1212.629          43.000  
G12  22335042.184   117371441.457        -905.884          44.000    22335044.738    91458273.078        -705.882          41.000  
G17  23774102.182   124933756.973       -3552.304          41.000    23774109.774    97351003.831       -2767.783          35.000  
G19  21562039.531   113309283.139       -2855.115          41.000                                                                  
G20  20827575.202   109449647.748       -1559.893          45.000                                                                  
G05  22229491.086   116816767.732         820.055          43.000    22229494.095    91026065.799         639.168          42.000  
G09  24245535.423   127411141.632       -2808.051          34.000    24245548.937    99281478.606       -2187.469          32.000  
G22  24514102.800   128822471.700       -4679.230          41.000                                                                  
G13  24743950.756   130030342.7301       1689.655          29.000                                                                  
> 2025 04 04 08 56 26.0010000  0 10                     
G06  22937028.871   120534919.307       -2472.452          38.000    22937032.750    93923312.838       -1926.165          41.000  
G11  22214770.391   116739405.538       -1554.448          45.000    22214770.358    90965769.823       -1211.239          43.000  
G12  22335214.384   117372346.289        -904.725          44.000    22335216.939    91458978.161        -705.135          41.000  
G17  23774777.849   124937307.381       -3550.319          41.000    23774785.285    97353770.376       -2766.409          35.000  
G19  21562582.460   113312137.148       -2854.164          41.000                                                                  
G20  20827871.680   109451206.107       -1558.119          45.000                                                                  
G05  22229334.757   116815946.396         821.443          43.000    22229337.718    91025425.805         639.905          41.000  
G09  24246069.317   127413947.625       -2806.366          34.000    24246083.057    99283665.128       -2186.603          32.000  
G22  24514992.888   128827149.694       -4677.709          41.000                                                                  
G13  24743629.901   130028651.8453       1690.398          29.000                                                                  
> 2025 04 04 08 56 27.0010000  0 10                     
G06  22937499.429   120537392.394       -2473.866          37.000    22937503.380    93925239.896       -1927.491          41.000  
G11  22215066.368   116740960.638       -1556.208          45.000    22215066.227    90966981.568       -1212.479          43.000  
G12  22335386.726   117373252.045        -906.829          44.000    22335389.411    91459683.954        -706.999          41.000  
G17  23775453.636   124940858.403       -3552.107          41.000    23775460.938    97356537.424       -2767.792          35.000  
G19  21563125.701   113314991.874       -2856.112          41.000                                                                  
G20  20828168.429   109452765.225       -1560.311          45.000                                                                  
G05  22229178.671   116815125.790         819.402          43.000    22229181.694    91024786.362         638.532          41.000  
G09  24246603.361   127416754.448       -2808.417          33.000    24246617.152    99285852.246       -2187.769          32.000  
G22  24515883.216   128831827.978       -4679.359          41.000                                                                  
G13  24743309.675   130026960.9552       1689.325          29.000                                                                  
> 2025 04 04 08 56 28.0010000  0 10                     
G06  22937970.240   120539865.664       -2472.083          38.000    22937974.035    93927167.140       -1926.420          41.000  
G11  22215362.345   116742516.018       -1554.608          45.000    22215362.143    90968193.551       -1211.237          43.000  
G12  22335559.160   117374158.708        -906.079          44.000    22335562.049    91460390.418        -706.007          41.000  
G17  23776129.525   124944410.014       -3550.622          41.000    23776136.828    97359304.936       -2767.356          35.000  
G19  21563669.130   113317847.309       -2854.733          41.000                                                                  
G20  20828465.148   109454325.042       -1559.083          45.000                                                                  
G05  22229022.584   116814305.885         820.553          43.000    22229025.705    91024147.485         639.280          41.000  
G09  24247137.598   127419562.050       -2806.744          32.000    24247151.444    99288040.039       -2187.720          31.000  
G22  24516773.546   128836506.493       -4677.446          41.000                                                                  
G13  24742983.896   130025270.1162       1693.840          28.000                                                                  
> 2025 04 04 08 56 29.0010000  0 10                     
G06  22938440.747   120542337.843       -2472.097          38.000    22938444.486    93929093.524       -1926.914          40.000  
G11  22215658.119   116744070.340       -1554.629          45.000    22215657.935    90969404.735       -1211.602          43.000  
G12  22335731.678   117375064.910        -906.861          44.000    22335734.496    91461096.543        -706.391          41.000  
G17  23776805.298   124947960.902       -3550.899          41.000    23776812.597    97362071.849       -2767.482          35.000  
G19  21564212.399   113320702.134       -2855.381          41.000                                                                  
G20  20828761.881   109455884.229       -1559.774          45.000                                                                  
G05  22228866.513   116813485.353         819.933          43.000    22228869.535    91023508.111         638.976          41.000  
G09  24247671.625   127422369.100       -2807.172          32.000    24247685.673    99290227.306       -2187.915          32.000  
G22  24517663.723   128841183.938       -4678.028          41.000                                                                  
G13  24742663.179   130023578.1292       1691.367          30.000                                                                  
> 2025 04 04 08 56 30.0010000  0 11                     
G06  22938911.325   120544810.888       -2476.407          38.000    22938915.170    93931020.546       -1929.661          40.000  
G11  22215954.028   116745625.599       -1559.059          45.000    22215953.855    90970616.602       -1214.578          43.000  
G12  22335904.407   117375972.638        -911.384          44.000    22335907.358    91461803.875        -709.998          41.000  
G17  23777481.279   124951512.998       -3555.640          42.000    23777488.531    97364839.688       -2769.990          34.000  
G19  21564756.017   113323558.345       -2860.117          41.000                                                                  
G20  20829058.832   109457444.744       -1564.234          45.000                                                                  
G05  22228710.648   116812666.154         815.525          43.000    22228713.644    91022869.790         635.347          41.000  
G09  24248205.999   127425177.574       -2812.421          32.000    24248220.208    99292415.731       -2191.437          32.000  
G25  24337037.459                         518.531          20.000                                                                  
G22  24518553.995   128845862.248       -4681.696          41.000                                                                  
G13  24742342.364   130021886.8612       1687.633          30.000                                                                  
> 2025 04 04 08 56 31.0010000  0 11                     
G06  22939381.892   120547283.989       -2473.112          38.000    22939385.766    93932947.628       -1927.445          40.000  
G11  22216249.980   116747180.975       -1555.506          45.000    22216249.869    90971828.583       -1212.081          43.000  
G12  22336077.163   117376881.108        -908.935          43.000    22336080.306    91462511.809        -708.199          41.000  
G17  23778157.343   124955065.547       -3552.827          41.000    23778164.521    97367607.932       -2768.140          35.000  
G19  21565299.576   113326415.090       -2857.108          41.000                                                                  
G20  20829355.878   109459005.821       -1561.472          46.000                                                                  
G05  22228554.818   116811847.515         818.432          43.000    22228557.733    91022231.873         637.887          41.000  
G09  24248740.663   127427986.682       -2809.924          33.000    24248754.728    99294604.629       -2189.038          31.000  
G25  24336927.646                         518.531          22.000                                                                  
G22  24519444.285   128850540.679       -4678.492          41.000                                                                  
G13  24742022.172   130020203.3513       1691.227          30.000                                                                  
> 2025 04 04 08 56 32.0010000  0 11                     
G06  22939852.583   120549757.409       -2474.274          38.000    22939856.420    93934874.960       -1927.772          40.000  
G11  22216546.128   116748736.706       -1556.087          45.000    22216545.927    90973040.843       -1212.515          42.000  
G12  22336250.158   117377790.572        -910.531          43.000    22336253.373    91463220.458        -709.361          41.000  
G17  23778833.528   124958618.752       -3553.896          40.000    23778840.624    97370376.685       -2769.093          35.000  
G19  21565843.344   113329272.671       -2858.411          41.000                                                                  
G20  20829653.078   109460567.663       -1562.434          46.000                                                                  
G05  22228399.226   116811029.647         817.180          43.000    22228402.088    91021594.586         636.906          41.000  
G09  24249275.444   127430796.586       -2810.376          34.000    24249289.496    99296794.219       -2190.186          32.000  
G25  24336825.443                         518.531          22.000                                                                  
G22  24520334.535   128855219.409       -4679.104          41.000                                                                  
G13  24741698.654   130018503.1513       1689.701          29.000                                                                  
> 2025 04 04 08 56 33.0010000  0 10                     
G06  22940323.361   120552231.556       -2473.931          38.000    22940327.226    93936802.879       -1927.806          40.000  
G11  22216842.429   116750293.283       -1556.327          45.000    22216842.118    90974253.763       -1212.444          42.000  
G12  22336423.411   117378701.446        -911.145          43.000    22336426.704    91463930.220        -709.821          42.000  
G17  23779510.017   124962173.111       -3554.470          41.000    23779517.019    97373146.299       -2769.818          35.000  
G19  21566387.497   113332131.504       -2858.813          42.000                                                                  
G20  20829950.633   109462130.771       -1563.062          45.000                                                                  
G05  22228243.885   116810213.032         816.702          43.000    22228246.688    91020958.275         636.271          41.000  
G09  24249810.462   127433607.884       -2811.230          34.000    24249824.553    99298984.819       -2190.491          31.000  
G22  24521225.077   128859898.962       -4679.413          41.000                                                                  
G13  24741377.631   130016812.3292       1690.758          28.000                                                                  
> 2025 04 04 08 56 34.0010000  0 11                     
G06  22940794.121   120554706.327       -2474.875          38.000    22940798.176    93938731.275       -1928.521          40.000  
G11  22217138.760   116751850.528       -1557.389          45.000    22217138.284    90975467.195       -1213.768          42.000  
G12  22336597.053   117379613.612        -912.527          43.000    22336600.358    91464641.001        -711.080          42.000  
G17  23780186.601   124965728.432       -3555.259          41.000    23780193.559    97375916.721       -2770.484          35.000  
G19  21566931.741   113334991.460       -2860.638          42.000                                                                  
G20  20830248.317   109463694.964       -1564.516          45.000                                                                  
G05  22228088.695   116809397.533         815.303          43.000    22228091.528    91020322.833         634.886          41.000  
G09  24250345.350   127436420.285       -2812.238          34.000    24250359.801    99301176.356       -2191.656          32.000  
G25  24336617.516                         512.020          25.000                                                                  
G22  24522115.707   128864579.171       -4680.435          41.000                                                                  
G13  24741058.570   130015122.1302       1689.958          30.000                                                                  
> 2025 04 04 08 56 35.0010000  0 11                     
G06  22941264.911   120557180.814       -2472.805          38.000    22941269.013    93940659.440       -1927.180          40.000  
G11  22217435.028   116753407.539       -1555.589          45.000    22217434.511    90976680.454       -1212.180          42.000  
G12  22336770.733   117380526.179        -911.654          44.000    22336774.072    91465352.084        -710.422          41.000  
G17  23780863.137   124969283.872       -3554.316          41.000    23780870.159    97378687.167       -2769.743          35.000  
G19  21567476.114   113337851.619       -2859.097          42.000                                                                  
G20  20830545.963   109465259.372       -1563.546          45.000                                                                  
G05  22227933.582   116808582.210         816.404          43.000    22227936.456    91019687.522         636.114          41.000  
G09  24250880.637   127439233.064       -2812.280          34.000    24250895.034    99303368.083       -2190.662          32.000  
G25  24336520.839                         513.877          24.000                                                                  
G22  24523006.244   128869259.091       -4678.800          41.000                                                                  
G13  24740736.509   130013431.5132       1691.614          31.000                                                                  
> 2025 04 04 08 56 36.0010000  0 11                     
G06  22941735.660   120559654.873       -2474.639          38.000    22941739.820    93942587.259       -1927.827          40.000  
G11  22217731.259   116754964.167       -1556.892          45.000    22217730.615    90977893.404       -1213.105          42.000  
G12  22336944.491   117381438.941        -913.248          44.000    22336947.793    91466063.335        -711.623          41.000  
G17  23781539.640   124972839.235       -3555.756          41.000    23781546.796    97381457.552       -2770.590          35.000  
G19  21568020.456   113340711.816       -2860.568          42.000                                                                  
G20  20830843.651   109466823.778       -1565.055          45.000                                                                  
G05  22227778.381   116807766.929         814.957          43.000    22227781.387    91019052.225         635.313          41.000  
G09  24251416.151   127442045.828       -2813.507          35.000    24251430.345    99305559.925       -2192.798          32.000  
G25  24336430.174                         512.075          24.000                                                                  
G22  24523896.722   128873938.587       -4679.987          40.000                                                                  
G13  24740415.937   130011740.1952       1691.824          33.000                                                                  
> 2025 04 04 08 56 37.0010000  0 11                     
G06  22942205.868   120562126.301       -2473.372          38.000    22942210.191    93944513.049       -1927.134          40.000  
G11  22218026.942   116756518.262       -1556.241          44.000    22218026.333    90979104.385       -1212.581          42.000  
G12  22337117.769   117382349.807        -913.232          44.000    22337121.130    91466773.071        -711.449          42.000  
G17  23782215.843   124976392.356       -3555.090          41.000    23782223.025    97384226.254       -2771.000          36.000  
G19  21568564.410   113343569.948       -2860.357          42.000                                                                  
G20  20831140.975   109468386.081       -1564.614          45.000                                                                  
G05  22227622.829   116806949.561         815.116          43.000    22227625.785    91018415.326         635.092          41.000  
G09  24251951.203   127444856.619       -2812.793          35.000    24251965.390    99307750.105       -2191.779          33.000  
G25  24336335.150                         512.754          24.000                                                                  
G22  24524786.739   128878615.499       -4678.666          40.000                                                                  
G13  24740093.366   130010046.253        1692.585          32.000                                                                  
> 2025 04 04 08 56 38.0010000  0 11                     
G06  22942676.008   120564597.397       -2470.674          38.000    22942680.508    93946438.600       -1925.542          40.000  
G11  22218322.667   116758072.110       -1554.102          45.000    22218322.061    90980315.168       -1210.934          42.000  
G12  22337291.151   117383261.019        -911.911          43.000    22337294.505    91467483.129        -710.555          41.000  
G17  23782891.978   124979945.534       -3553.929          41.000    23782899.214    97386994.914       -2768.798          36.000  
G19  21569108.274   113346428.260       -2858.563          42.000                                                                  
G20  20831438.263   109469948.562       -1563.094          45.000                                                                  
G05  22227467.250   116806132.358         816.746          43.000    22227470.294    91017778.559         635.945          41.000  
G09  24252486.178   127447667.650       -2811.603          35.000    24252500.389    99309940.509       -2190.338          32.000  
G25  24336236.714                         512.239          25.000                                                                  
G22  24525676.675   128883292.151       -4676.887          40.000                                                                  
G13  24739770.521   130008351.791        1693.662          33.000                                                                  
> 2025 04 04 08 56 39.0010000  0 11                     
G06  22943146.216   120567068.696       -2471.284          37.000    22943150.821    93948364.259       -1925.737          40.000  
G11  22218618.399   116759626.137       -1554.119          44.000    22218617.898    90981526.119       -1211.340          42.000  
G12  22337464.667   117384173.022        -912.459          43.000    22337468.079    91468193.788        -711.172          42.000  
G17  23783568.205   124983499.184       -3554.063          41.000    23783575.448    97389764.032       -2769.512          36.000  
G19  21569652.273   113349287.209       -2859.136          42.000                                                                  
G20  20831735.633   109471511.632       -1563.387          45.000                                                                  
G05  22227311.775   116805315.764         816.354          43.000    22227314.883    91017142.233         636.089          41.000  
G09  24253021.362   127450479.334       -2812.018          35.000    24253035.506    99312131.509       -2191.833          32.000  
G25  24336137.371                         512.842          24.000                                                                  
G22  24526566.698   128887968.971       -4676.806          40.000                                                                  
G13  24739448.030   130006657.248        1695.083          33.000                                                                  
> 2025 04 04 08 56 40.0010000  0 11                     
G06  22943616.399   120569540.621       -2468.280          38.000    22943621.168    93950290.448       -1923.513          40.000  
G11  22218914.288   116761180.897       -1551.149          44.000    22218913.832    90982737.601       -1208.518          42.000  
G12  22337638.498   117385086.391        -910.283          44.000    22337641.953    91468905.499        -709.145          42.000  
G17  23784244.576   124987053.893       -3551.164          41.000    23784251.871    97392533.952       -2767.528          36.000  
G19  21570196.494   113352147.319       -2856.719          42.000                                                                  
G20  20832033.278   109473075.867       -1560.869          45.000                                                                  
G05  22227156.571   116804500.288         819.051          43.000    22227159.621    91016506.819         638.079          41.000  
G09  24253556.586   127453292.248       -2809.747          35.000    24253570.756    99314323.375       -2189.758          32.000  
G25  24336032.691                         507.774          25.000                                                                  
G22  24527456.768   128892646.443       -4673.645          40.000                                                                  
G13  24739125.744   130004982.3063       1697.828          34.000                                                                  
> 2025 04 04 08 56 41.0010000  0 11                     
G06  22944086.516   120572011.422       -2470.594          38.000    22944091.354    93952215.725       -1925.337          40.000  
G11  22219209.945   116762734.583       -1553.533          44.000    22219209.456    90983948.274       -1210.501          42.000  
G12  22337812.208   117385999.269        -913.104          44.000    22337815.662    91469616.816        -711.293          42.000  
G17  23784920.943   124990607.838       -3553.931          41.000    23784928.166    97395303.213       -2769.111          36.000  
G19  21570740.645   113355006.789       -2859.746          42.000                                                                  
G20  20832330.824   109474639.426       -1563.495          45.000                                                                  
G05  22227001.256   116803684.198         816.016          43.000    22227004.346    91015870.892         635.954          42.000  
G09  24254091.828   127456104.576       -2812.573          35.000    24254106.013    99316514.777       -2190.979          32.000  
G25  24335931.458                         512.614          24.000                                                                  
G22  24528346.603   128897322.830       -4676.054          40.000                                                                  
G13  24738803.325   130003287.0172       1695.753          35.000                                                                  
> 2025 04 04 08 56 42.0010000  0 11                     
G06  22944556.413   120574481.015       -2471.135          38.000    22944561.284    93954140.087       -1925.813          40.000  
G11  22219505.415   116764287.175       -1554.626          44.000    22219504.907    90985158.083       -1211.408          42.000  
G12  22337985.946   117386911.664        -914.862          44.000    22337989.259    91470327.781        -712.963          42.000  
G17  23785597.121   124994160.956       -3554.860          40.000    23785604.385    97398071.884       -2769.784          36.000  
G19  21571284.634   113357865.607       -2861.151          42.000                                                                  
G20  20832628.177   109476202.327       -1564.896          45.000                                                                  
G05  22226845.781   116802867.416         814.341          43.000    22226849.037    91015234.445         634.846          42.000  
G09  24254626.953   127458916.278       -2813.269          34.000    24254641.167    99318705.714       -2191.125          32.000  
G25  24335829.289                         511.140          24.000                                                                  
G22  24529236.258   128901998.112       -4677.279          40.000                                                                  
G13  24738480.585   130001590.4872       1694.093          35.000                                                                  
> 2025 04 04 08 56 43.0010000  0 11                     
G06  22945026.226   120576950.178       -2469.955          37.000    22945031.190    93956064.102       -1924.644          40.000  
G11  22219800.797   116765839.321       -1552.726          44.000    22219800.243    90986367.560       -1210.036          42.000  
G12  22338159.633   117387824.222        -913.701          44.000    22338162.899    91471038.870        -711.742          41.000  
G17  23786273.241   124997713.966       -3553.422          40.000    23786280.470    97400840.488       -2769.333          36.000  
G19  21571828.564   113360724.424       -2859.917          42.000                                                                  
G20  20832925.616   109477765.222       -1563.871          45.000                                                                  
G05  22226690.389   116802050.610         815.900          43.000    22226693.518    91014597.996         635.541          42.000  
G09  24255162.069   127461728.102       -2812.842          34.000    24255176.207    99320896.830       -2192.053          32.000  
G25  24335728.467                         512.903          24.000                                                                  
G22  24530125.917   128906672.889       -4675.717          40.000                                                                  
G13  24738157.753   129999893.217        1696.374          37.000                                                                  
> 2025 04 04 08 56 44.0010000  0 11                     
G06  22945496.091   120579420.250       -2470.449          37.000    22945501.262    93957988.846       -1925.404          40.000  
G11  22220096.321   116767392.514       -1553.735          44.000    22220095.806    90987577.834       -1210.861          42.000  
G12  22338333.549   117388738.444        -915.052          44.000    22338336.872    91471751.240        -713.071          41.000  
G17  23786949.597   125001268.319       -3554.793          40.000    23786956.953    97403610.104       -2770.274          36.000  
G19  21572372.910   113363584.695       -2860.990          42.000                                                                  
G20  20833223.261   109479329.534       -1564.987          45.000                                                                  
G05  22226535.235   116801235.273         814.719          43.000    22226538.364    91013962.653         634.792          42.000  
G09  24255697.454   127464541.419       -2813.861          34.000    24255711.453    99323089.039       -2193.231          31.000  
G25  24335629.349                         511.970          24.000                                                                  
G22  24531015.702   128911348.652       -4676.390          39.000                                                                  
G13  24737835.071   129998196.772        1696.320          37.000                                                                  
> 2025 04 04 08 56 45.0010000  0 11                     
G06  22945966.291   120581890.517       -2469.315          37.000    22945971.244    93959913.712       -1923.991          40.000  
G11  22220391.921   116768945.904       -1552.170          44.000    22220391.480    90988788.271       -1209.634          42.000  
G12  22338507.732   117389653.488        -914.203          44.000    22338511.038    91472464.262        -712.339          42.000  
G17  23787626.029   125004823.217       -3554.345          40.000    23787633.375    97406380.096       -2768.909          36.000  
G19  21572917.336   113366445.642       -2859.948          42.000                                                                  
G20  20833521.071   109480894.505       -1564.027          45.000                                                                  
G05  22226380.214   116800420.575         815.724          43.000    22226383.340    91013327.826         635.744          42.000  
G09  24256232.940   127467355.493       -2813.489          34.000    24256246.861    99325281.757       -2191.541          31.000  
G25  24335528.585                         512.170          25.000                                                                  
G22  24531905.469   128916024.604       -4675.062          39.000                                                                  
G13  24737512.384   129996500.357        1697.794          37.000                                                                  
> 2025 04 04 08 56 46.0010000  0 11                     
G06  22946436.178   120584360.334       -2470.688          37.000    22946441.274    93961838.257       -1925.008          40.000  
G11  22220687.489   116770498.950       -1553.487          44.000    22220686.931    90989998.416       -1210.368          42.000  
G12  22338681.981   117390568.767        -916.223          44.000    22338685.269    91473177.491        -713.976          42.000  
G17  23788302.457   125008378.035       -3555.814          40.000    23788309.829    97409150.075       -2769.796          35.000  
G19  21573461.785   113369306.681       -2861.946          42.000                                                                  
G20  20833818.953   109482459.539       -1565.700          45.000                                                                  
G05  22226225.125   116799605.948         813.666          43.000    22226228.361    91012693.054         634.275          42.000  
G09  24256768.460   127470169.646       -2814.734          34.000    24256782.421    99327474.640       -2192.816          31.000  
G25  24335431.965                         510.020          24.000                                                                  
G22  24532795.077   128920700.175       -4675.571          39.000                                                                  
G13  24737189.462   129994803.357        1696.765          38.000                                                                  
> 2025 04 04 08 56 47.0010000  0 11                     
G06  22946906.171   120586830.727       -2470.675          37.000    22946911.421    93963763.206       -1925.299          39.000  
G11  22220983.205   116772052.630       -1554.173          44.000    22220982.494    90991209.092       -1210.966          42.000  
G12  22338856.376   117391485.291        -917.493          43.000    22338859.681    91473891.658        -714.581          42.000  
G17  23788978.990   125011933.782       -3557.109          40.000    23788986.495    97411920.804       -2771.038          35.000  
G19  21574006.459   113372168.754       -2862.745          42.000                                                                  
G20  20834116.965   109484025.611       -1566.749          45.000                                                                  
G05  22226070.343   116798792.337         812.964          42.000    22226073.535    91012059.084         633.547          41.000  
G09  24257304.121   127472984.899       -2815.448          33.000    24257318.061    99329668.422       -2195.764          31.000  
G25  24335335.475                         504.309          22.000                                                                  
G22  24533684.891   128925376.381       -4677.098          38.000                                                                  
G13  24736866.812   129993106.775        1696.259          38.000                                                                  
> 2025 04 04 08 56 48.0010000  0 11                     
G06  22947376.480   120589302.231       -2473.558          33.000    22947381.900    93965689.020       -1926.049          37.000  
G11  22221279.076   116773607.294       -1555.146          44.000    22221278.523    90992420.543       -1211.961          43.000  
G12  22339031.034   117392403.431        -918.924          44.000    22339034.317    91474607.069        -715.881          42.000  
G17  23789655.933   125015490.820       -3558.073          39.000    23789663.350    97414692.515       -2772.186          35.000  
G19  21574551.480   113375032.319       -2864.557          42.000                                                                  
G20  20834415.249   109485593.113       -1568.073          45.000                                                                  
G05  22225915.759   116797980.189         811.133          42.000    22225918.971    91011426.217         632.573          42.000  
G09  24257840.053   127475801.708       -2817.505          34.000    24257853.892    99331863.215       -2195.758          31.000  
G25  24335236.086                         501.022          21.000                                                                  
G22  24534574.930   128930053.494       -4677.250          38.000                                                                  
G13  24736544.290   129991410.986        1695.452          40.000                                                                  
> 2025 04 04 08 56 49.0010000  0 11                     
G06  22947846.936   120591774.294       -2471.918          36.000    22947852.381    93967615.316       -1926.901          39.000  
G11  22221574.937   116775162.720       -1555.793          43.000    22221574.609    90993632.521       -1212.060          43.000  
G12  22339206.054   117393323.054        -920.067          41.000    22339209.325    91475323.624        -716.984          40.000  
G17  23790333.017   125019048.939       -3558.848          39.000    23790340.477    97417465.097       -2773.062          35.000  
G19  21575096.588   113377897.027       -2865.267          42.000                                                                  
G20  20834713.727   109487161.774       -1569.197          45.000                                                                  
G05  22225761.463   116797169.195         810.382          42.000    22225764.687    91010794.332         631.174          42.000  
G09  24258376.210   127478619.664       -2818.542          34.000    24258390.095    99334059.156       -2197.162          30.000  
G25  24335136.762                         502.602          25.000                                                                  
G22  24535465.105   128934731.386       -4678.839          37.000                                                                  
G13  24736221.734   129989715.768        1694.564          39.000                                                                  
> 2025 04 04 08 56 50.0010000  0 11                     
G06  22948317.667   120594247.342       -2473.431          36.000    22948323.030    93969542.327       -1926.959          38.000  
G11  22221870.972   116776719.233       -1556.600          44.000    22221870.776    90994845.362       -1212.879          42.000  
G12  22339381.191   117394244.087        -921.394          45.000    22339384.509    91476041.357        -718.082          41.000  
G17  23791010.422   125022608.410       -3559.666          40.000    23791017.775    97420238.662       -2773.476          35.000  
G19  21575641.945   113380763.229       -2865.786          42.000                                                                  
G20  20835012.462   109488731.919       -1570.379          44.000                                                                  
G05  22225607.439   116796359.754         809.543          37.000    22225610.684    91010163.564         630.270          38.000  
G09  24258912.710   127481439.277       -2820.020          35.000    24258926.555    99336256.240       -2197.845          29.000  
G25  24335039.634                         502.602          24.000                                                                  
G22  24536355.265   128939410.216       -4679.299          39.000                                                                  
G13  24735899.276   129988021.290        1694.342          41.000                                                                  
> 2025 04 04 08 56 51.0010000  0 11                     
G06  22948788.310   120596720.252       -2473.643          36.000    22948793.644    93971469.250       -1927.162          36.000  
G11  22222167.092   116778275.677       -1556.885          45.000    22222166.962    90996058.200       -1213.386          44.000  
G12  22339556.682   117395165.821        -922.497          44.000    22339559.882    91476759.607        -718.868          42.000  
G17  23791687.852   125026168.150       -3560.596          40.000    23791695.151    97423012.521       -2774.537          34.000  
G19  21576187.471   113383629.877       -2867.301          42.000                                                                  
G20  20835311.369   109490302.427       -1571.092          45.000                                                                  
G05  22225453.457   116795550.680         808.452          40.000    22225456.804    91009533.097         630.143          39.000  
G09  24259449.237   127484259.351       -2819.952          37.000    24259463.010    99338453.565       -2197.723          31.000  
G25  24334942.278                         502.602          22.000                                                                  
G22  24537245.590   128944088.987       -4678.949          37.000                                                                  
G13  24735576.883   129986326.672        1694.191          38.000                                                                  
> 2025 04 04 08 56 52.0010000  0 11                     
G06  22949259.422                       -2467.871          33.000    22949264.509    93973397.454       -1920.006          35.000  
G11  22222463.721                       -1555.518          45.000    22222463.379    90997272.273       -1205.509          43.000  
G12  22339732.763                        -921.729          44.000    22339735.668    91477479.603        -711.786          41.000  
G17  23792365.703                       -3556.982          38.000    23792372.875    97425787.915       -2766.863          37.000  
G19  21576733.494                       -2867.041          41.000                                                                  
G20  20835610.711                       -1568.408          45.000                                                                  
G05  22225300.028                         810.645          40.000    22225303.256    91008904.247         637.448          39.000  
G09  24259986.201                       -2817.920          36.000    24260000.043    99340652.795       -2191.449          35.000  
G25  24334851.239                         502.602          22.000                                                                  
G22  24538136.274                       -4677.539          34.000                                                                  
G13  24735254.870                        1696.045          38.000                                                                  
> 2025 04 04 08 56 53.0010000  0 11                     
G06  22949729.446   120601641.2703      -2469.830          31.000    22949734.741    93975322.914       -1924.578          38.000  
G11  22222759.463   116781388.9473      -1552.423          44.000    22222759.238    90998483.774       -1209.890          43.000  
G12  22339908.013   117397008.0143       -919.240          45.000    22339910.989    91478197.348        -716.350          41.000  
G17  23793042.820   125033283.0293      -3556.858          39.000    23793050.088    97428560.940       -2771.691          33.000  
G19  21577278.828   113389364.9003      -2863.550          42.000                                                                  
G20  20835909.261   109493442.1373      -1567.741          45.000                                                                  
G05  22225145.791   116793928.8943        811.871          36.000    22225148.980    91008272.914         632.812          37.000  
G09  24260522.659   127489906.3663      -2817.523          36.000    24260536.507    99342849.669       -2195.239          35.000  
G25  24334744.187                         502.602          22.000                                                                  
G22  24539026.045   128953451.9043      -4674.156          35.000                                                                  
G13  24734932.006   129982944.0983       1698.816          42.000                                                                  
> 2025 04 04 08 56 54.0010000  0 10                     
G06  22950199.283   120604111.8612      -2472.786          32.000    22950204.895    93977248.081       -1926.611          39.000  
G11  22223055.225   116782943.3212      -1556.369          44.000    22223054.915    90999694.945       -1213.017          42.000  
G12  22340083.437   117397929.6062       -923.195          39.000    22340086.502    91478915.538        -719.741          35.000  
G17  23793720.036   125036841.6712      -3561.017          40.000    23793727.204    97431333.865       -2775.115          34.000  
G19  21577824.107   113392230.7812      -2868.260          41.000                                                                  
G20  20836207.870   109495011.8692      -1572.180          45.000                                                                  
G05  22224991.598   116793119.0512        807.722          42.000    22224994.809    91007641.866         628.792          41.000  
G09  24261059.168   127492725.8302      -2822.467          36.000    24261073.077    99345046.628       -2198.792          33.000  
G22  24539915.963   128958128.5182      -4678.661          35.000                                                                  
G13  24734608.885   129981246.7532       1695.358          40.000                                                                  
> 2025 04 04 08 56 55.0010000  0 10                     
G06  22950669.377   120606581.5251      -2468.865          36.000    22950674.864    93979172.930       -1924.451          39.000  
G11  22223350.908   116784496.8741      -1553.033          44.000    22223350.641    91000905.899       -1210.207          42.000  
G12  22340258.901   117398851.321        -921.354          44.000    22340261.979    91479633.716        -717.919          41.000  
G17  23794397.260   125040399.7481      -3558.207          40.000    23794404.351    97434106.772       -2772.187          35.000  
G19  21578369.534   113395096.2561      -2865.269          41.000                                                                  
G20  20836506.542   109496581.1681      -1569.383          45.000                                                                  
G05  22224837.486   116792308.7181        810.287          43.000    22224840.693    91007010.835         631.157          42.000  
G09  24261595.805   127495544.9661      -2819.043          35.000    24261609.790    99347243.806       -2197.260          32.000  
G22  24540805.817   128962804.2941      -4675.622          36.000                                                                  
G13  24734285.755   129979548.3211       1698.464          40.000                                                                  
> 2025 04 04 08 56 56.0010000  0 10                     
G06  22951139.721   120609053.532       -2473.500          38.000    22951145.303    93981099.097       -1927.208          40.000  
G11  22223647.011   116786052.661       -1557.538          44.000    22223646.663    91002118.183       -1213.689          42.000  
G12  22340434.722   117399775.444        -926.033          44.000    22340437.803    91480353.818        -721.623          41.000  
G17  23795074.833   125043960.415       -3562.610          40.000    23795081.907    97436881.292       -2775.839          36.000  
G19  21578915.492   113397964.438       -2869.777          42.000                                                                  
G20  20836805.679   109498153.112       -1573.587          45.000                                                                  
G05  22224683.756   116791501.041         805.473          43.000    22224687.011    91006381.474         627.957          41.000  
G09  24262132.863   127498366.812       -2823.743          34.000    24262147.946    99349439.6051      -2199.939          32.000  
G22  24541695.904   128967482.222       -4679.672          35.000                                                                  
G13  24733962.981   129977851.977        1694.781          40.000                                                                  
> 2025 04 04 08 56 57.0010000  0 10                     
G06  22951609.115   120611520.021       -2463.763          37.000    22951614.593    93983021.028       -1919.980          40.000  
G11  22223941.975   116787602.988       -1547.336          44.000    22223941.616    91003326.246       -1205.782          43.000  
G12  22340609.596   117400694.711        -916.654          44.000    22340612.736    91481070.155        -714.311          42.000  
G17  23795751.385   125047515.922       -3553.262          39.000    23795758.456    97439651.861       -2769.298          36.000  
G19  21579460.367   113400827.608       -2860.086          42.000                                                                  
G20  20837103.819   109499720.057       -1564.471          45.000                                                                  
G05  22224529.109   116790688.314         815.544          43.000    22224532.323    91005748.221         634.885          41.000  
G09  24262668.837   127501183.709       -2814.331          34.000    24262684.550                       -2198.213          31.000  
G22  24542584.949   128972154.728       -4669.025          34.000                                                                  
G13  24733639.072   129976149.914        1705.050          41.000                                                                  
> 2025 04 04 08 56 58.0010000  0 11                     
G06  22952077.050   120613978.925       -2461.817          37.000    22952082.531    93984937.069       -1918.390          40.000  
G11  22224235.529   116789145.913       -1545.979          43.000    22224235.234    91004528.500       -1204.841          42.000  
G12  22340783.232   117401607.182        -915.814          44.000    22340786.397    91481781.139        -713.634          42.000  
G17  23796426.579   125051064.285       -3551.056          39.000    23796433.721    97442416.808       -2767.500          35.000  
G19  21580003.835   113403683.816       -2859.459          42.000                                                                  
G20  20837400.656   109501279.956       -1563.160          45.000                                                                  
G05  22224373.177   116789868.616         816.396          43.000    22224376.301    91005109.452         636.086          41.000  
G09  24263203.712   127503993.684       -2814.008          34.000    24263217.761    99353820.2741      -2192.438          31.000  
G25  24333790.350                         632.016          21.000                                                                  
G22  24543472.532   128976819.821       -4668.534          33.000                                                                  
G13  24733313.653   129974440.210        1706.775          40.000                                                                  
> 2025 04 04 08 56 59.0010000  0 10                     
G06  22952545.927                       -2465.723          37.000    22952551.491    93986857.217       -1916.348          40.000  
G11  22224530.192                       -1547.607          44.000    22224529.831    91005734.908       -1202.796          42.000  
G12  22340958.052                        -920.605          41.000    22340961.274    91482496.852        -712.542          39.000  
G17  23797102.921                       -3557.227          39.000    23797110.092                       -2767.969          35.000  
G19  21580548.563                       -2862.500          42.000                                                                  
G20  20837698.696                       -1566.260          45.000                                                                  
G05  22224218.339                         812.598          43.000    22224221.413                         634.229          41.000  
G09  24263739.662                       -2816.357          34.000    24263753.617    99356014.400       -2191.980          32.000  
G22  24544361.118                       -4672.705          33.000                                                                  
G13  24732989.431                        1703.564          40.000                                                                  
> 2025 04 04 08 57 00.0010000  0 10                     
G06  22953014.302   120618903.9483      -2459.080          37.000    22953019.684    93988774.732       -1916.564          41.000  
G11  22224824.114   116792238.0023      -1543.405          44.000    22224823.717    91006938.695       -1202.122          42.000  
G12  22341132.234   117403441.7203       -913.745          40.000    22341135.435    91483210.297        -712.519          37.000  
G17  23797778.689   125058170.7693      -3550.073          38.000    23797785.779    97447954.1211      -2765.823          34.000  
G19  21581092.696   113409406.7683      -2857.599          42.000                                                                  
G20  20837996.100   109504408.3573      -1561.597          46.000                                                                  
G05  22224062.998   116788238.7613        818.600          44.000    22224065.973    91003834.6471        637.881          43.000  
G09  24264274.886   127509624.3793      -2812.073          31.000    24264286.109    99358206.269       -2191.596          32.000  
G22  24545248.623                       -4658.701          29.000                                                                  
G13  24732664.426   129971028.4803       1710.248          40.000                                                                  
> 2025 04 04 08 57 01.0010000  0 10                     
G06  22953482.816   120621366.037       -2453.593          37.000    22953488.177    93990693.232       -1912.047          41.000  
G11  22225118.292   116793784.215       -1537.739          44.000    22225117.984    91008143.552       -1198.279          42.000  
G12  22341306.754   117404358.8581       -909.692          44.000    22341309.960    91483925.340        -709.029          43.000  
G17  23798454.731   125061722.8501      -3544.665          38.000    23798461.798    97450722.378       -2761.883          35.000  
G19  21581637.083   113412267.564       -2852.733          42.000                                                                  
G20  20838293.838   109505972.819       -1556.710          46.000                                                                  
G05  22223907.861   116787423.702         823.722          38.000    22223910.795    91003199.583         641.532          35.000  
G09  24264810.220                       -2814.647          31.000    24264821.818                       -2191.583          30.000  
G22  24546132.299   128990795.6573      -4658.882          33.000                                                                  
G13  24732339.494   129969321.406        1715.967          41.000                                                                  
> 2025 04 04 08 57 02.0010000  0 11                     
G06  22953950.839   120623824.722       -2459.978          38.000    22953956.007    93992609.057       -1916.439          41.000  
G11  22225411.858   116795327.107       -1543.964          44.000    22225411.518    91009345.803       -1203.144          42.000  
G12  22341480.871   117405273.720        -916.530          43.000    22341484.273    91484638.233        -714.238          42.000  
G17  23799130.124   125065272.407       -3551.047          40.000    23799137.263    97453488.267       -2766.674          35.000  
G19  21582181.009   113415125.453       -2859.452          42.000                                                                  
G20  20838590.895   109507534.378       -1563.100          45.000                                                                  
G05  22223752.214   116786605.732         816.549          38.000    22223755.139    91002562.200         636.233          38.000  
G09  24265345.205   127515249.0223      -2813.251          34.000    24265356.932    99362579.6831      -2191.785          30.000  
G25  24333884.169                         518.594          26.000                                                                  
G22  24547021.574   128995468.5953      -4665.737          32.000                                                                  
G13  24732013.972   129967610.841        1709.366          40.000                                                                  
> 2025 04 04 08 57 03.0010000  0 11                     
G06  22954418.984   120626285.427       -2458.754          38.000    22954424.253    93994526.521       -1915.945          40.000  
G11  22225705.903   116796872.062       -1542.720          44.000    22225705.514    91010549.671       -1202.266          42.000  
G12  22341655.466   117406191.295        -915.705          42.000    22341658.925    91485353.220        -713.398          42.000  
G17  23799805.995   125068824.381       -3550.361          40.000    23799813.059    97456256.044       -2766.409          35.000  
G19  21582725.353   113417985.919       -2858.314          42.000                                                                  
G20  20838888.535   109509098.457       -1562.192          45.000                                                                  
G05  22223597.096   116785790.228         817.563          38.000    22223599.834    91001926.712         637.504          37.000  
G09  24265878.205   127518050.5963      -2813.385          31.000    24265889.305    99364759.8341      -2193.146          29.000  
G25  24333792.344                         518.594          25.000                                                                  
G22  24547907.963   129000126.5292      -4664.652          32.000                                                                  
G13  24731688.838   129965902.136        1711.149          40.000                                                                  
> 2025 04 04 08 57 04.0010000  0 11                     
G06  22954887.976   120628749.599       -2455.371          36.000    22954893.109    93996446.630       -1912.479          41.000  
G11  22226000.475   116798420.566       -1538.336          44.000    22226000.210    91011756.308       -1199.212          42.000  
G12  22341830.876   117407112.936        -912.507          42.000    22341834.226    91486071.377        -711.599          39.000  
G17  23800482.642   125072380.210       -3547.136          39.000    23800489.576    97459026.756       -2763.139          35.000  
G19  21583270.402   113420850.313       -2854.876          43.000                                                                  
G20  20839186.930   109510666.460       -1559.178          44.000                                                                  
G05  22223442.714   116784978.417         820.849          39.000    22223445.340    91001294.187         639.761          39.000  
G09  24266416.956   127520881.1413      -2810.071          31.000    24266424.561                       -2190.918          29.000  
G25  24333696.336                         518.594          24.000                                                                  
G22  24548797.158   129004798.8833      -4660.577          32.000                                                                  
G13  24731364.198   129964196.795        1714.973          40.000                                                                  
> 2025 04 04 08 57 05.0010000  0 10                     
G06  22955355.396   120631205.227       -2461.758          39.000    22955360.379    93998360.064       -1917.826          40.000  
G11  22226293.575   116799960.534       -1546.100          45.000    22226293.330    91012956.273       -1204.480          42.000  
G12  22342004.861   117408026.794        -920.256          41.000    22342008.214    91486783.450        -716.843          36.000  
G17  23801157.762   125075927.762       -3553.350          40.000    23801164.689    97461791.131       -2769.217          35.000  
G19  21583813.818   113423706.668       -2862.437          44.000                                                                  
G20  20839483.774   109512226.364       -1566.278          43.000                                                                  
G05  22223286.679   116784158.844         813.443          44.000    22223289.346    91000655.525         634.379          41.000  
G09  24266949.467   127523691.5872      -2816.803          32.000    24266960.768    99369141.0821      -2193.408          29.000  
G22  24549683.885                       -4664.977          32.000                                                                  
G13  24731037.890   129962482.650        1708.876          40.000                                                                  
> 2025 04 04 08 57 06.0010000  0 10                     
G06  22955822.978   120633663.6913      -2464.277          36.000    22955828.032    94000275.004       -1919.640          40.000  
G11  22226586.827                       -1543.945          31.000    22226586.717    91014157.850       -1207.179          37.000  
G12  22342179.248   117408943.7383       -923.153          44.000    22342182.608    91487497.543        -719.115          43.000  
G17  23801833.276   125079477.6073      -3556.554          40.000    23801840.196    97464557.256       -2771.474          33.000  
G19  21584357.877   113426565.8813      -2865.153          43.000                                                                  
G20  20839781.082   109513788.1603      -1568.993          45.000                                                                  
G05  22223131.166   116783342.0563        810.360          43.000    22223133.743    91000018.658         632.170          41.000  
G09  24267485.844   127526498.5103      -2820.544          35.000    24267495.667                       -2195.940          29.000  
G22  24550570.651                       -4666.132          31.000                                                                  
G13  24730711.946   129960768.2833       1705.719          40.000                                                                  
> 2025 04 04 08 57 07.0010000  0 10                     
G06  22956289.107   120636113.919       -2454.896          38.000    22956294.383    94002184.265       -1913.069          41.000  
G11  22226878.778   116803036.1843      -1539.577          44.000    22226878.739    91015353.611       -1199.295          41.000  
G12  22342352.319   117409852.9871       -914.565          45.000    22342355.808    91488206.457        -712.716          43.000  
G17  23802507.462   125083020.570       -3548.125          40.000    23802514.311    97467318.016       -2765.021          34.000  
G19  21584900.570   113429417.3311      -2856.527          43.000                                                                  
G20  20840077.031   109515343.1961      -1561.017          46.000                                                                  
G05  22222974.418   116782517.4651        819.060          44.000    22222976.965    90999376.549         638.305          42.000  
G09  24268015.666   127529304.798       -2812.573          33.000    24268028.992                       -2186.615          28.000  
G22  24551457.598   129018780.3663      -4657.606          30.000                                                                  
G13  24730384.595   129959048.497        1715.150          40.000                                                                  
> 2025 04 04 08 57 08.0010000  0 10                     
G06  22956755.396   120638564.232       -2450.582          38.000    22956760.683    94004093.584       -1909.495          40.000  
G11  22227170.783   116804571.1302      -1535.050          44.000    22227170.809    91016549.690       -1196.434          43.000  
G12  22342525.707   117410763.620        -911.902          36.000    22342529.081    91488916.014        -709.906          35.000  
G17  23803181.781   125086563.941       -3543.878          39.000    23803188.683    97470079.073       -2761.780          35.000  
G19  21585443.424   113432269.903       -2852.974          44.000                                                                  
G20  20840373.230   109516899.258       -1557.022          44.000                                                                  
G05  22222817.640   116781693.947         823.012          43.000    22222820.400    90998734.871         641.092          41.000  
G09  24268554.197   127532111.650       -2807.715          33.000    24268564.270    99375712.8171      -2188.226          30.000  
G22  24552343.625   129023435.6872      -4657.322          29.000                                                                  
G13  24730057.308   129957328.630        1719.949          40.000                                                                  
> 2025 04 04 08 57 09.0010000  0 10                     
G06  22957221.837   120641015.505       -2452.349          37.000    22957227.135    94006003.698       -1910.874          40.000  
G11  22227463.062   116806107.0422      -1536.555          44.000    22227462.896    91017746.510       -1197.423          42.000  
G12  22342699.319   117411675.714        -912.951          40.000    22342702.689    91489626.799        -711.725          38.000  
G17  23803856.307   125090108.741       -3545.760          40.000    23803863.083    97472841.253       -2763.161          35.000  
G19  21585986.603   113435123.953       -2854.747          43.000                                                                  
G20  20840669.624   109518456.806       -1558.623          45.000                                                                  
G05  22222661.221   116780871.938         820.535          43.000    22222663.999    90998094.333         639.824          41.000  
G09  24269087.986   127534920.079       -2809.167          33.000    24269098.867    99377901.297       -2189.258          30.000  
G22  24553232.016   129028093.3682      -4657.833          31.000                                                                  
G13  24729730.068   129955609.623        1718.485          42.000                                                                  
> 2025 04 04 08 57 10.0010000  0 10                     
G06  22957688.497   120643467.932       -2453.077          38.000    22957693.801    94007914.662       -1911.376          40.000  
G11  22227755.431   116807644.1762      -1537.860          44.000    22227755.407    91018944.264       -1198.104          42.000  
G12  22342873.267   117412589.731        -915.197          43.000    22342876.710    91490338.952        -712.938          40.000  
G17  23804531.146   125093654.962       -3547.186          40.000    23804537.960    97475604.555       -2763.995          35.000  
G19  21586529.983   113437979.639       -2856.672          42.000                                                                  
G20  20840966.318   109520015.947       -1560.229          45.000                                                                  
G05  22222505.157   116780051.515         819.385          44.000    22222507.839    90997455.040         638.633          41.000  
G09  24269624.047   127537730.141       -2810.370          34.000    24269634.964    99380090.920       -2189.752          31.000  
G22  24554122.068   129032752.2202      -4660.174          32.000                                                                  
G13  24729403.103   129953891.582        1717.229          41.000                                                                  
> 2025 04 04 08 57 11.0010000  0 10                     
G06  22958155.284   120645920.791       -2453.363          37.000    22958160.488    94009825.979       -1911.699          40.000  
G11  22228047.961   116809181.7822      -1538.061          44.000    22228048.090    91020142.407       -1198.420          42.000  
G12  22343047.327   117413504.816        -915.840          43.000    22343050.807    91491052.064        -713.581          42.000  
G17  23805206.159   125097202.029       -3547.821          39.000    23805212.908    97478368.503       -2764.282          35.000  
G19  21587073.553   113440836.231       -2857.246          42.000                                                                  
G20  20841263.110   109521576.007       -1560.505          45.000                                                                  
G05  22222349.076   116779232.001         818.877          43.000    22222351.829    90996816.469         637.942          41.000  
G09  24270158.561   127540541.258       -2812.079          33.000    24270170.462    99382281.412       -2191.083          30.000  
G22  24555008.681   129037411.4022      -4659.349          32.000                                                                  
G13  24729076.261   129952173.831        1717.466          41.000                                                                  
> 2025 04 04 08 57 12.0010000  0 11                     
G06  22958622.108   120648374.323       -2453.826          36.000    22958627.317    94011737.788       -1911.822          40.000  
G11  22228340.672   116810720.0902      -1538.135          44.000    22228340.779    91021341.095       -1198.564          42.000  
G12  22343221.698   117414421.249        -916.676          44.000    22343225.093    91491766.130        -714.396          42.000  
G17  23805881.402   125100750.100       -3548.572          39.000    23805888.021    97481133.253       -2765.209          35.000  
G19  21587617.415   113443693.988       -2857.924          42.000                                                                  
G20  20841560.217   109523137.187       -1561.274          45.000                                                                  
G05  22222193.339   116778413.628         818.288          43.000    22222196.079    90996178.787         637.528          42.000  
G09  24270693.716   127543353.555       -2812.268          33.000    24270706.330    99384472.835       -2191.480          29.000  
G25  24332901.182                         511.514          23.000                                                                  
G22  24555897.155   129042071.3752      -4659.327          32.000                                                                  
G13  24728749.447   129950456.524        1717.400          41.000                                                                  
> 2025 04 04 08 57 13.0010000  0 10                     
G06  22959088.976   120650827.627       -2453.132          37.000    22959094.144    94013649.491       -1911.830          40.000  
G11  22228633.410   116812258.338       -1538.526          44.000    22228633.504    91022539.723       -1198.739          42.000  
G12  22343396.124   117415338.167        -916.991          44.000    22343399.571    91492480.639        -714.797          42.000  
G17  23806556.513   125104298.396       -3548.659          39.000    23806563.239    97483898.099       -2764.712          35.000  
G19  21588161.291   113446552.100       -2858.548          42.000                                                                  
G20  20841857.411   109524698.711       -1561.761          45.000                                                                  
G05  22222037.726   116777595.608         817.747          43.000    22222040.446    90995541.377         637.065          42.000  
G09  24271229.037   127546166.271       -2813.684          33.000    24271242.104    99386664.568       -2191.656          30.000  
G22  24556785.117   129046730.6281      -4659.465          33.000                                                                  
G13  24728422.569   129948738.970        1717.363          41.000                                                                  
> 2025 04 04 08 57 14.0010000  0 11                     
G06  22959556.018   120653281.692       -2454.910          37.000    22959561.076    94015561.736       -1912.905          40.000  
G11  22228926.192   116813797.323       -1539.547          44.000    22228926.314    91023738.940       -1199.695          42.000  
G12  22343570.845   117416256.481        -919.343          44.000    22343574.275    91493196.188        -716.333          42.000  
G17  23807231.943   125107847.703       -3550.075          39.000    23807238.679    97486663.840       -2766.456          35.000  
G19  21588705.365   113449411.384       -2860.317          42.000                                                                  
G20  20842154.856   109526261.394       -1563.551          45.000                                                                  
G05  22221882.346   116776778.773         815.910          43.000    22221885.058    90994904.869         635.768          41.000  
G09  24271764.354   127548980.193       -2815.100          33.000    24271777.543    99388857.237       -2192.945          30.000  
G25  24332703.730                         510.833          25.000                                                                  
G22  24557670.620   129051391.211       -4661.677          33.000                                                                  
G13  24728095.790   129947021.944        1716.566          42.000                                                                  
> 2025 04 04 08 57 15.0010000  0 11                     
G06  22960023.332   120655737.246       -2457.099          38.000    22960028.341    94017475.155       -1914.459          40.000  
G11  22229219.270   116815337.887       -1541.738          44.000    22229219.467    91024939.369       -1201.394          42.000  
G12  22343745.873   117417176.959        -922.177          44.000    22343749.495    91493913.431        -718.249          42.000  
G17  23807907.786   125111398.962       -3553.023          39.000    23807914.419    97489431.008       -2768.283          35.000  
G19  21589249.841   113452272.708       -2863.019          42.000                                                                  
G20  20842452.624   109527826.073       -1566.229          45.000                                                                  
G05  22221727.291   116775963.943         813.286          43.000    22221729.960    90994269.940         633.873          41.000  
G09  24272300.191   127551796.264       -2818.030          32.000    24272313.226    99391064.5221      -2194.830          30.000  
G25  24332606.038                         506.497          25.000                                                                  
G22  24558558.050   129056053.283       -4663.738          33.000                                                                  
G13  24727769.394   129945306.277        1714.343          41.000                                                                  
> 2025 04 04 08 57 16.0010000  0 11                     
G06  22960490.783   120658193.809       -2456.101          37.000    22960495.925    94019389.357       -1914.148          40.000  
G11  22229512.735   116816879.531       -1541.453          44.000    22229512.807    91026140.645       -1201.210          42.000  
G12  22343921.416   117418099.117        -922.064          44.000    22343925.011    91494632.007        -718.473          42.000  
G17  23808583.906   125114951.538       -3552.291          39.000    23808590.476    97492199.262       -2767.925          36.000  
G19  21589794.598   113455135.528       -2862.811          42.000                                                                  
G20  20842750.673   109529392.218       -1566.026          45.000                                                                  
G05  22221572.593   116775150.618         813.324          44.000    22221575.156    90993636.188         633.615          41.000  
G09  24272836.238   127554613.808       -2817.163          32.000    24272849.553    99393260.081       -2195.288          30.000  
G25  24332502.632                         507.728          24.000                                                                  
G22  24559445.467   129060716.299       -4662.477          34.000                                                                  
G13  24727443.137   129943591.468        1715.333          41.000                                                                  
> 2025 04 04 08 57 17.0010000  0 11                     
G06  22960958.380   120660651.187       -2462.539          37.000    22960963.612    94021304.186       -1918.773          40.000  
G11  22229806.285   116818422.038       -1547.676          44.000    22229806.280    91027342.590       -1205.881          42.000  
G12  22344097.195   117419022.761        -929.102          44.000    22344100.771    91495351.743        -724.047          42.000  
G17  23809260.169   125118505.345       -3559.217          39.000    23809266.712    97494968.464       -2773.364          36.000  
G19  21590339.623   113457999.664       -2869.382          42.000                                                                  
G20  20843049.005   109530959.669       -1572.889          45.000                                                                  
G05  22221418.115   116774338.580         806.666          44.000    22221420.638    90993003.421         628.649          41.000  
G09  24273372.559   127557432.765       -2824.634          32.000    24273386.201    99395456.668       -2200.812          30.000  
G25  24332403.617                         503.222          24.000                                                                  
G22  24560333.261   129065380.230       -4669.109          34.000                                                                  
G13  24727116.976   129941877.336        1708.915          42.000                                                                  
> 2025 04 04 08 57 18.0010000  0 11                     
G06  22961425.661   120663107.370       -2456.248          37.000    22961431.139    94023218.067       -1914.041          40.000  
G11  22230099.618   116819963.371       -1541.485          44.000    22230099.655    91028543.649       -1201.154          42.000  
G12  22344272.765   117419945.859        -923.451          44.000    22344276.493    91496071.034        -719.547          42.000  
G17  23809936.221   125122058.273       -3553.601          39.000    23809942.952    97497736.968       -2768.969          36.000  
G19  21590884.398   113460863.093       -2863.843          42.000                                                                  
G20  20843347.224   109532526.368       -1567.086          45.000                                                                  
G05  22221263.364   116773525.801         812.433          44.000    22221265.842    90992370.103         632.985          41.000  
G09  24273908.690   127560251.046       -2818.585          32.000    24273922.645    99397652.734       -2195.166          31.000  
G25  24332303.316                         505.875          24.000                                                                  
G22  24561220.780   129070042.981       -4662.958          35.000                                                                  
G13  24726790.495   129940161.800        1715.541          41.000                                                                  
> 2025 04 04 08 57 19.0010000  0 11                     
G06  22961893.187   120665564.362       -2458.167          37.000    22961898.747    94025132.625       -1915.778          40.000  
G11  22230392.958   116821505.631       -1543.630          44.000    22230393.166    91029745.399       -1202.827          42.000  
G12  22344448.636   117420870.486        -926.396          44.000    22344452.459    91496791.508        -721.653          42.000  
G17  23810612.571   125125612.393       -3555.560          39.000    23810619.211    97500506.444       -2771.130          36.000  
G19  21591429.507   113463727.864       -2866.354          42.000                                                                  
G20  20843645.575   109534094.421       -1569.790          45.000                                                                  
G05  22221108.956   116772714.372         809.862          44.000    22221111.331    90991737.810         631.215          41.000  
G09  24274445.099   127563070.732       -2821.637          32.000    24274459.352    99399849.947       -2198.431          31.000  
G25  24332204.473                         503.438          24.000                                                                  
G22  24562108.548   129074706.595       -4665.130          35.000                                                                  
G13  24726464.149   129938446.999        1713.518          41.000                                                                  
> 2025 04 04 08 57 20.0010000  0 11                     
G06  22962360.617   120668020.767       -2456.084          37.000    22962366.139    94027046.710       -1913.625          40.000  
G11  22230686.292   116823047.341       -1541.158          44.000    22230686.631    91030946.750       -1201.011          42.000  
G12  22344624.570   117421795.173        -924.587          44.000    22344628.353    91497512.052        -720.425          42.000  
G17  23811288.850   125129166.319       -3554.076          39.000    23811295.571    97503275.716       -2769.045          36.000  
G19  21591974.685   113466592.557       -2864.456          42.000                                                                  
G20  20843943.965   109535662.330       -1567.751          45.000                                                                  
G05  22220954.402   116771902.817         811.681          43.000    22220956.936    90991105.443         632.559          42.000  
G09  24274981.537   127565890.383       -2819.574          32.000    24274996.066    99402047.088       -2196.613          31.000  
G25  24332104.823                         507.570          23.000                                                                  
G22  24562995.972   129079369.609       -4662.291          34.000                                                                  
G13  24726137.734   129936731.433        1716.077          41.000                                                                  
> 2025 04 04 08 57 21.0010000  0 11                     
G06  22962828.482   120670479.625       -2460.465          36.000    22962834.048    94028962.706       -1917.628          40.000  
G11  22230980.187   116824591.572       -1545.945          44.000    22230980.330    91032150.022       -1204.591          42.000  
G12  22344801.054   117422722.987        -929.929          44.000    22344804.854    91498235.009        -724.397          42.000  
G17  23811965.615   125132723.041       -3559.047          40.000    23811972.464    97506047.183       -2772.546          36.000  
G19  21592520.381   113469460.171       -2869.675          42.000                                                                  
G20  20844242.978   109537233.179       -1573.041          45.000                                                                  
G05  22220800.604   116771094.195         806.596          44.000    22220803.035    90990475.365         628.273          41.000  
G09  24275518.780   127568713.034       -2824.603          33.000    24275533.350    99404246.464       -2198.877          31.000  
G25  24332006.614                         500.148          24.000                                                                  
G22  24563883.953   129084035.082       -4667.531          35.000                                                                  
G13  24725811.664   129935018.150        1712.046          41.000                                                                  
> 2025 04 04 08 57 22.0010000  0 11                     
G06  22963295.395   120672933.234       -2450.968          36.000    22963300.977    94030874.553       -1909.526          40.000  
G11  22231273.120   116826130.579       -1536.078          43.000    22231273.154    91033349.248       -1197.169          42.000  
G12  22344976.737   117423646.180        -920.837          44.000    22344980.468    91498954.396        -717.712          42.000  
G17  23812641.438   125136274.828       -3548.977          40.000    23812648.323    97508814.830       -2765.217          36.000  
G19  21593065.135   113472323.016       -2860.381          42.000                                                                  
G20  20844541.047   109538799.208       -1563.438          46.000                                                                  
G05  22220645.836   116770280.768         815.896          43.000    22220648.226    90989841.531         635.569          41.000  
G09  24276055.130   127571530.936       -2815.491          33.000    24276069.895    99406442.311       -2193.402          31.000  
G25  24331907.438                         508.591          24.000                                                                  
G22  24564770.652   129088695.325       -4657.582          35.000                                                                  
G13  24725484.681   129933299.473        1721.814          42.000                                                                  
> 2025 04 04 08 57 23.0010000  0 11                     
G06  22963761.778   120675384.020       -2452.106          36.000    22963767.339    94032784.283       -1910.529          40.000  
G11  22231565.521   116827666.897       -1537.675          43.000    22231565.473    91034546.385       -1198.183          42.000  
G12  22345152.006   117424567.296        -922.882          44.000    22345155.808    91499672.140        -719.186          42.000  
G17  23813316.795   125139824.267       -3550.704          40.000    23813323.795    97511580.636       -2767.317          36.000  
G19  21593609.502   113475183.614       -2861.926          42.000                                                                  
G20  20844838.628   109540362.982       -1565.312          46.000                                                                  
G05  22220490.651   116769465.090         814.099          43.000    22220493.048    90989205.922         634.479          41.000  
G09  24276590.830   127574346.627       -2817.474          33.000    24276605.828    99408636.431       -2195.251          31.000  
G25  24331811.392   127864531.4583        508.346          25.000                                                                  
G22  24565656.691   129093352.789       -4658.729          35.000                                                                  
G13  24725156.896   129931577.876        1720.404          41.000                                                                  
> 2025 04 04 08 57 24.0010000  0 11                     
G06  22964228.655   120677837.617       -2455.640          36.000    22964234.359    94034696.157       -1913.113          40.000  
G11  22231858.379   116829206.023       -1541.007          44.000    22231858.296    91035745.701       -1200.434          42.000  
G12  22345328.049   117425491.845        -926.710          44.000    22345331.848    91500392.557        -722.037          42.000  
G17  23813992.761   125143376.825       -3554.403          39.000    23813999.793    97514348.849       -2769.728          36.000  
G19  21594154.446   113478047.477       -2865.943          42.000                                                                  
G20  20845136.899   109541929.976       -1568.924          46.000                                                                  
G05  22220335.988   116768652.633         810.522          43.000    22220338.529    90988572.850         631.511          41.000  
G09  24277127.341   127577165.665       -2820.801          33.000    24277142.494    99410833.040       -2197.900          31.000  
G25  24331714.230   127864024.9162        504.172          25.000                                                                  
G22  24566543.281   129098013.111       -4662.333          35.000                                                                  
G13  24724829.748   129929858.877        1717.279          41.000                                                                  
> 2025 04 04 08 57 25.0010000  0 11                     
G06  22964695.961   120680292.841       -2456.558          36.000    22964701.559    94036609.279       -1913.654          40.000  
G11  22232151.594   116830746.847       -1541.982          43.000    22232151.480    91036946.333       -1201.101          42.000  
G12  22345504.505   117426418.669        -928.102          44.000    22345508.242    91501114.745        -722.822          42.000  
G17  23814669.192   125146931.389       -3556.110          39.000    23814676.230    97517118.603       -2770.736          36.000  
G19  21594699.946   113480913.440       -2867.534          42.000                                                                  
G20  20845435.652   109543499.083       -1570.531          46.000                                                                  
G05  22220181.749   116767842.298         808.855          43.000    22220184.422    90987941.397         630.789          41.000  
G09  24277664.304   127579986.898       -2823.523          33.000    24277679.547    99413031.400       -2199.390          31.000  
G25  24331622.941   127863520.4142        504.567          25.000                                                                  
G22  24567430.283   129102674.995       -4662.748          36.000                                                                  
G13  24724502.923   129928141.374        1716.823          41.000                                                                  
> 2025 04 04 08 57 26.0010000  0 11                     
G06  22965163.142   120682747.597       -2455.424          37.000    22965168.525    94038522.077       -1912.798          40.000  
G11  22232444.817   116832287.278       -1540.684          43.000    22232444.567    91038146.688       -1200.404          42.000  
G12  22345680.970   117427345.733        -927.552          44.000    22345684.701    91501837.140        -722.773          42.000  
G17  23815345.691   125150485.855       -3554.767          39.000    23815352.684    97519888.324       -2769.863          36.000  
G19  21595245.392   113483779.457       -2866.371          42.000                                                                  
G20  20845734.247   109545068.214       -1569.539          46.000                                                                  
G05  22220027.544   116767031.993         809.920          43.000    22220030.283    90987310.020         631.092          41.000  
G09  24278201.020   127582808.207       -2822.046          33.000    24278216.581    99415229.856       -2198.572          32.000  
G25  24331532.038   127863015.6581        504.060          25.000                                                                  
G22  24568317.153   129107336.524       -4661.626          36.000                                                                  
G13  24724175.896   129926423.275        1718.138          42.000                                                                  
> 2025 04 04 08 57 27.0010000  0 11                     
G06  22965630.296   120685202.499       -2455.223          37.000    22965635.698    94040435.023       -1913.302          40.000  
G11  22232738.022   116833827.953       -1541.134          44.000    22232737.712    91039347.212       -1201.017          42.000  
G12  22345857.621   117428273.657        -928.648          44.000    22345861.355    91502560.201        -723.851          42.000  
G17  23816022.264   125154040.881       -3555.703          39.000    23816029.204    97522658.475       -2770.588          36.000  
G19  21595790.982   113486646.179       -2867.465          42.000                                                                  
G20  20846033.060   109546638.008       -1570.491          46.000                                                                  
G05  22219873.507   116766222.358         808.956          43.000    22219876.071    90986679.140         630.484          41.000  
G09  24278738.000   127585630.233       -2822.723          33.000    24278753.800    99417428.879       -2199.646          31.000  
G25  24331439.971   127862512.137         501.952          26.000                                                                  
G22  24569204.089   129111998.248       -4662.413          36.000                                                                  
G13  24723848.919   129924705.196        1717.750          41.000                                                                  
> 2025 04 04 08 57 28.0010000  0 11                     
G06  22966097.606   120687658.284       -2456.233          39.000    22966103.085    94042348.639       -1914.276          40.000  
G11  22233031.302   116835369.559       -1542.145          44.000    22233031.080    91040548.462       -1201.747          42.000  
G12  22346034.602   117429203.121        -930.555          44.000    22346038.225    91503284.448        -725.081          42.000  
G17  23816698.911   125157597.128       -3557.064          39.000    23816705.906    97525429.555       -2771.168          36.000  
G19  21596336.726   113489514.272       -2868.962          42.000                                                                  
G20  20846332.044   109548209.139       -1571.859          45.000                                                                  
G05  22219719.676   116765414.075         807.319          43.000    22219722.334    90986049.318         629.151          42.000  
G09  24279275.509   127588453.714       -2823.682          33.000    24279291.151    99419628.981       -2200.726          31.000  
G25  24331346.434                         501.363          25.000                                                                  
G22  24570091.131   129116660.827       -4663.018          37.000                                                                  
G13  24723522.114   129922987.858        1716.675          41.000                                                                  
> 2025 04 04 08 57 29.0010000  0 11                     
G06  22966565.130   120690115.159       -2457.017          38.000    22966570.594    94044263.051       -1914.614          40.000  
G11  22233324.797   116836912.278       -1542.773          44.000    22233324.653    91041750.573       -1202.261          42.000  
G12  22346211.751   117430134.285        -931.725          44.000    22346215.429    91504010.034        -726.326          42.000  
G17  23817375.916   125161154.772       -3557.977          39.000    23817382.903    97528201.791       -2772.565          35.000  
G19  21596882.844   113492383.894       -2869.990          42.000                                                                  
G20  20846631.371   109549781.811       -1573.120          46.000                                                                  
G05  22219566.176   116764607.310         806.403          43.000    22219568.784    90985420.686         628.005          41.000  
G09  24279812.983   127591278.774       -2825.366          33.000    24279828.784    99421830.300       -2201.343          31.000  
G25  24331252.815                         500.041          25.000                                                                  
G22  24570978.597   129121324.471       -4663.696          37.000                                                                  
G13  24723195.462   129921271.411        1716.023          42.000                                                                  
> 2025 04 04 08 57 30.0010000  0 11                     
G06  22967032.724   120692572.683       -2457.734          38.000    22967038.196    94046178.011       -1915.121          40.000  
G11  22233618.505   116838455.725       -1543.647          44.000    22233618.374    91042953.271       -1202.789          42.000  
G12  22346389.144   117431066.803        -933.060          44.000    22346392.908    91504736.677        -727.183          42.000  
G17  23818053.159   125164713.472       -3559.035          39.000    23818060.142    97530974.812       -2773.868          34.000  
G19  21597429.088   113495254.704       -2871.256          42.000                                                                  
G20  20846930.900   109551355.617       -1574.233          45.000                                                                  
G05  22219412.825   116763801.722         805.045          43.000    22219415.436    90984792.940         627.398          41.000  
G09  24280350.811   127594105.090       -2826.471          32.000    24280366.671    99424032.652       -2202.496          31.000  
G25  24331158.976                         497.159          25.000                                                                  
G22  24571865.950   129125988.883       -4664.644          37.000                                                                  
G13  24722869.003   129919555.480        1715.737          42.000                                                                  
> 2025 04 04 08 57 31.0010000  0 11                     
G06  22967500.619   120695031.001       -2461.787          37.000    22967506.061    94048093.570       -1918.324          40.000  
G11  22233912.470   116840000.021       -1547.712          44.000    22233912.236    91044156.612       -1206.045          42.000  
G12  22346566.984   117432000.792        -937.799          44.000    22346570.652    91505464.452        -730.878          42.000  
G17  23818730.628   125168273.342       -3563.501          39.000    23818737.435    97533748.733       -2776.733          35.000  
G19  21597975.570   113498126.797       -2875.630          42.000                                                                  
G20  20847230.567   109552930.692       -1578.778          46.000                                                                  
G05  22219259.758   116762997.393         800.673          44.000    22219262.323    90984166.214         623.808          42.000  
G09  24280889.100   127596932.756       -2831.512          33.000    24280904.704    99426236.053       -2206.451          30.000  
G25  24331066.418                         494.762          25.000                                                                  
G22  24572753.588   129130654.038       -4668.394          37.000                                                                  
G13  24722542.646   129917840.179        1711.937          42.000                                                                  
> 2025 04 04 08 57 32.0010000  0 11                     
G06  22967968.389   120697488.989       -2458.805          38.000    22967973.800    94050008.868       -1915.815          41.000  
G11  22234206.255   116841544.044       -1544.605          44.000    22234206.006    91045359.749       -1203.932          42.000  
G12  22346744.851   117432935.106        -935.559          44.000    22346748.456    91506192.481        -728.930          42.000  
G17  23819407.972   125171833.226       -3560.965          39.000    23819414.782    97536522.655       -2774.442          34.000  
G19  21598522.037   113500999.056       -2873.335          42.000                                                                  
G20  20847530.299   109554505.912       -1576.229          46.000                                                                  
G05  22219106.634   116762193.223         803.271          43.000    22219109.461    90983539.581         625.977          42.000  
G09  24281427.429   127599760.596       -2828.668          33.000    24281442.992    99428439.580       -2204.572          30.000  
G25  24330971.774                         494.912          26.000                                                                  
G22  24573641.126   129135318.920       -4665.830          38.000                                                                  
G13  24722216.134   129916124.403        1715.051          42.000                                                                  
> 2025 04 04 08 57 33.0010000  0 11                     
G06  22968436.263   120699947.412       -2458.337          38.000    22968441.547    94051924.525       -1915.415          41.000  
G11  22234500.292   116843088.593       -1544.312          44.000    22234499.882    91046563.274       -1203.212          42.000  
G12  22346922.836   117433870.540        -935.465          44.000    22346926.466    91506921.402        -729.132          42.000  
G17  23820085.432   125175393.930       -3560.621          38.000    23820092.323    97539297.229       -2774.354          34.000  
G19  21599068.829   113503872.292       -2873.458          42.000                                                                  
G20  20847830.248   109556082.071       -1576.147          46.000                                                                  
G05  22218953.721   116761390.009         803.134          44.000    22218956.696    90982913.701         625.793          42.000  
G09  24281965.673   127602589.497       -2829.516          32.000    24281981.507    99430643.974       -2205.042          30.000  
G25  24330878.504                         497.044          26.000                                                                  
G22  24574528.757   129139984.267       -4665.529          38.000                                                                  
G13  24721889.518   129914408.941        1715.442          42.000                                                                  
> 2025 04 04 08 57 34.0010000  0 11                     
G06  22968904.217   120702406.446       -2459.551          38.000    22968909.539    94053840.642       -1916.408          41.000  
G11  22234794.376   116844633.776       -1545.355          44.000    22234793.884    91047767.314       -1204.128          42.000  
G12  22347101.097   117434807.236        -937.384          44.000    22347104.669    91507651.295        -730.605          42.000  
G17  23820763.117   125178955.597       -3561.930          38.000    23820769.996    97542072.547       -2775.002          34.000  
G19  21599615.798   113506746.586       -2874.846          42.000                                                                  
G20  20848130.412   109557659.271       -1577.567          46.000                                                                  
G05  22218800.974   116760587.853         801.605          44.000    22218804.040    90982288.652         624.494          41.000  
G09  24282504.277   127605419.491       -2830.200          33.000    24282520.203    99432849.140       -2205.402          30.000  
G25  24330787.818                         494.978          25.000                                                                  
G22  24575416.562   129144650.183       -4665.982          38.000                                                                  
G13  24721563.109   129912693.875        1715.022          42.000                                                                  
> 2025 04 04 08 57 35.0010000  0 11                     
G06  22969372.351   120704865.777       -2460.645          38.000    22969377.609    94055756.987       -1917.039          41.000  
G11  22235088.407   116846179.344       -1547.085          44.000    22235087.987    91048971.658       -1205.350          42.000  
G12  22347279.626   117435744.943        -939.643          44.000    22347283.058    91508381.947        -731.928          42.000  
G17  23821440.935   125182517.962       -3564.313          38.000    23821447.723    97544848.488       -2778.014          35.000  
G19  21600162.898   113509621.713       -2876.761          42.000                                                                  
G20  20848430.702   109559237.312       -1580.041          46.000                                                                  
G05  22218648.483   116759786.503         799.694          44.000    22218651.507    90981664.226         622.724          41.000  
G09  24283043.128   127608250.385       -2832.465          33.000    24283058.960    99435055.036       -2206.897          30.000  
G25  24330694.049                         494.807          26.000                                                                  
G22  24576304.474   129149316.489       -4667.591          38.000                                                                  
G13  24721236.772   129910979.017        1713.465          42.000                                                                  
> 2025 04 04 08 57 36.0010000  0 11                     
G06  22969840.153   120707324.380       -2455.590          38.000    22969845.431    94057672.812       -1913.690          41.000  
G11  22235382.304   116847724.271       -1542.469          44.000    22235382.015    91050175.495       -1201.949          42.000  
G12  22347458.168   117436682.579        -935.296          44.000    22347461.460    91509112.599        -729.072          42.000  
G17  23822118.905   125186079.979       -3559.410          39.000    23822125.559    97547624.031       -2773.611          35.000  
G19  21600709.936   113512496.656       -2872.828          42.000                                                                  
G20  20848730.981   109560815.087       -1575.558          46.000                                                                  
G05  22218495.925   116758984.933         804.091          44.000    22218498.906    90981039.620         626.420          41.000  
G09  24283581.856   127611081.171       -2828.807          33.000    24283597.892    99437260.876       -2204.313          30.000  
G25  24330601.671                         498.855          25.000                                                                  
G22  24577192.255   129153982.098       -4662.975          39.000                                                                  
G13  24720910.167   129909263.290        1718.408          41.000                                                                  
> 2025 04 04 08 57 37.0010000  0 11                     
G06  22970307.345   120709779.926       -2454.412          38.000    22970312.738    94059586.214       -1912.764          41.000  
G11  22235675.834   116849266.161       -1540.885          43.000    22235675.496    91051376.960       -1200.533          42.000  
G12  22347635.987   117437617.819        -934.428          44.000    22347639.364    91509841.352        -728.382          42.000  
G17  23822796.284   125189639.267       -3558.438          39.000    23822802.877    97550397.507       -2772.806          36.000  
G19  21601256.525   113515368.979       -2871.937          42.000                                                                  
G20  20849030.757   109562390.253       -1574.455          46.000                                                                  
G05  22218342.902   116758180.742         805.012          44.000    22218345.938    90980412.985         627.265          41.000  
G09  24284120.134   127613909.359       -2827.301          33.000    24284135.939    99439476.6051      -2202.530          30.000  
G25  24330508.538                         497.190          26.000                                                                  
G22  24578079.629   129158644.643       -4661.437          39.000                                                                  
G13  24720583.009   129907544.318        1720.052          41.000                                                                  
> 2025 04 04 08 57 38.0010000  0 11                     
G06  22970774.682   120712235.672       -2453.995          38.000    22970780.118    94061499.775       -1912.319          41.000  
G11  22235969.389   116850808.317       -1540.549          43.000    22235968.906    91052578.640       -1200.335          42.000  
G12  22347814.133   117438553.922        -934.680          44.000    22347817.446    91510570.772        -728.299          42.000  
G17  23823473.717   125193199.142       -3558.598          39.000    23823480.298    97553171.438       -2772.942          35.000  
G19  21601803.350   113518242.000       -2871.549          42.000                                                                  
G20  20849330.581   109563966.113       -1574.627          45.000                                                                  
G05  22218190.075   116757377.255         804.956          44.000    22218193.047    90979786.892         627.174          42.000  
G09  24284658.495   127616738.299       -2827.308          33.000    24284674.384    99441681.069       -2203.780          31.000  
G25  24330414.347                         498.593          25.000                                                                  
G22  24578966.717   129163307.433       -4661.329          38.000                                                                  
G13  24720255.808   129905825.396        1720.790          40.000                                                                  
> 2025 04 04 08 57 39.0010000  0 11                     
G06  22971241.963   120714691.200       -2456.580          38.000    22971247.446    94063413.176       -1914.268          41.000  
G11  22236262.767   116852350.322       -1542.933          43.000    22236262.308    91053780.211       -1202.373          42.000  
G12  22347992.315   117439490.490        -937.871          44.000    22347995.670    91511300.561        -730.908          42.000  
G17  23824151.151   125196759.142       -3561.209          39.000    23824157.734    97555945.462       -2775.107          35.000  
G19  21602350.225   113521115.329       -2874.585          42.000                                                                  
G20  20849630.473   109565542.230       -1577.278          46.000                                                                  
G05  22218037.251   116756574.047         802.120          44.000    22218040.201    90979161.028         624.809          41.000  
G09  24285196.941   127619567.649       -2831.032          33.000    24285212.947    99443885.675       -2204.809          30.000  
G25  24330316.048                         496.401          25.000                                                                  
G22  24579854.016   129167970.001       -4663.449          39.000                                                                  
G13  24719928.615   129904106.125        1718.368          41.000                                                                  
> 2025 04 04 08 57 40.0010000  0 10                     
G06  22971709.520   120717148.454       -2455.436          38.000    22971715.068    94065327.903       -1913.422          41.000  
G11  22236556.544   116853894.090       -1541.947          43.000    22236556.063    91054983.156       -1202.003          42.000  
G12  22348171.051   117440429.427        -937.362          44.000    22348174.407    91512032.216        -730.754          42.000  
G17  23824828.961   125200321.256       -3560.723          39.000    23824835.736    97558721.124       -2774.415          35.000  
G19  21602897.423   113523990.863       -2874.017          42.000                                                                  
G20  20849930.830   109567120.531       -1576.780          46.000                                                                  
G05  22217884.830   116755773.024         802.462          44.000    22217887.749    90978536.853         625.307          41.000  
G09  24285735.765   127622399.204       -2830.317          33.000    24285751.976    99446092.185       -2205.463          31.000  
G22  24580741.642   129172634.322       -4662.533          39.000                                                                  
G13  24719601.730   129902388.426        1719.127          41.000                                                                  
> 2025 04 04 08 57 41.0010000  0 11                     
G06  22972176.595   120719603.335       -2455.052          38.000    22972182.195    94067240.780       -1913.259          41.000  
G11  22236849.872   116855435.590       -1542.191          43.000    22236849.445    91056184.291       -1201.447          42.000  
G12  22348349.402   117441366.700        -938.110          44.000    22348352.741    91512762.550        -731.232          42.000  
G17  23825506.414   125203881.352       -3560.640          39.000    23825513.150    97561495.231       -2774.567          35.000  
G19  21603444.182   113526864.546       -2874.266          42.000                                                                  
G20  20850230.846   109568696.966       -1577.343          46.000                                                                  
G05  22217732.047   116754970.114         802.176          44.000    22217735.020    90977911.210         625.076          41.000  
G09  24286274.289   127625228.956       -2830.246          33.000    24286290.524    99448297.186       -2205.391          30.000  
G25  24330127.150                         497.930          24.000                                                                  
G22  24581628.728   129177296.272       -4662.273          39.000                                                                  
G13  24719274.280   129900668.205        1719.791          40.000                                                                  
> 2025 04 04 08 57 42.0010000  0 11                     
G06  22972643.790   120722058.415       -2454.924          38.000    22972649.442    94069153.832       -1913.229          41.000  
G11  22237143.327   116856977.305       -1541.612          43.000    22237142.842    91057385.647       -1201.378          42.000  
G12  22348527.921   117442304.815        -938.233          43.000    22348531.232    91513493.536        -731.186          42.000  
G17  23826183.917   125207442.032       -3560.471          39.000    23826190.786    97564269.777       -2774.539          35.000  
G19  21603991.104   113529738.933       -2874.646          42.000                                                                  
G20  20850530.892   109570274.066       -1577.328          46.000                                                                  
G05  22217579.362   116754167.900         802.034          44.000    22217582.295    90977286.109         624.893          41.000  
G09  24286813.157   127628059.498       -2830.951          33.000    24286829.411    99450502.829       -2206.221          30.000  
G25  24330029.141                         495.010          24.000                                                                  
G22  24582515.930   129181958.483       -4662.162          39.000                                                                  
G13  24718946.887   129898948.054        1720.300          40.000                                                                  
> 2025 04 04 08 57 43.0010000  0 11                     
G06  22973110.971   120724513.505       -2455.721          38.000    22973116.617    94071066.868       -1913.243          41.000  
G11  22237436.648   116858519.117       -1542.283          43.000    22237436.253    91058587.050       -1201.822          42.000  
G12  22348706.539   117443243.623        -939.571          44.000    22348709.827    91514225.069        -731.887          42.000  
G17  23826861.576   125211003.081       -3561.534          39.000    23826868.466    97567044.637       -2775.404          35.000  
G19  21604538.090   113532613.813       -2875.585          42.000                                                                  
G20  20850831.013   109571851.651       -1578.304          45.000                                                                  
G05  22217426.749   116753366.197         800.954          44.000    22217429.748    90976661.408         624.134          41.000  
G09  24287352.136   127630890.569       -2831.746          33.000    24287368.248    99452708.854       -2206.414          30.000  
G25  24329932.272                         489.411          24.000                                                                  
G22  24583403.123   129186620.727       -4662.845          40.000                                                                  
G13  24718619.485   129897227.739        1719.509          40.000                                                                  
> 2025 04 04 08 57 44.0010000  0 11                     
G06  22973578.231   120726969.681       -2457.036          38.000    22973584.069    94072980.782       -1914.617          41.000  
G11  22237730.321   116860062.074       -1544.022          43.000    22237729.857    91059789.352       -1203.077          42.000  
G12  22348885.651   117444184.187        -941.991          44.000    22348888.804    91514957.968        -733.942          42.000  
G17  23827539.557   125214565.608       -3563.963          39.000    23827546.447    97569820.611       -2777.245          35.000  
G19  21605085.444   113535490.303       -2877.864          42.000                                                                  
G20  20851131.416   109573430.809       -1580.479          45.000                                                                  
G05  22217274.391   116752566.065         798.823          44.000    22217277.430    90976037.936         622.523          41.000  
G09  24287891.227   127633723.304       -2834.370          32.000    24287907.419    99454916.134       -2208.096          29.000  
G25  24329836.632                         485.304          23.000                                                                  
G22  24584290.592   129191284.025       -4664.263          39.000                                                                  
G13  24718292.306   129895508.354        1718.496          40.000                                                                  
> 2025 04 04 08 57 45.0010000  0 10                     
G06  22974045.980   120729427.401       -2458.436          38.000    22974051.759    94074895.865       -1915.601          41.000  
G11  22238024.223   116861606.618       -1544.998          43.000    22238023.879    91060992.909       -1204.123          42.000  
G12  22349065.042   117445126.948        -943.573          44.000    22349068.269    91515692.605        -735.444          42.000  
G17  23828217.834   125218129.995       -3565.140          39.000    23828224.747    97572598.058       -2777.799          35.000  
G19  21605633.198   113538368.828       -2879.412          42.000                                                                  
G20  20851432.326   109575011.979       -1581.978          46.000                                                                  
G05  22217122.471   116751767.948         797.369          44.000    22217125.600    90975416.024         621.326          41.000  
G09  24288430.852   127636558.081       -2835.078          33.000    24288446.953    99457125.173       -2210.076          29.000  
G22  24585178.254   129195948.921       -4665.233          40.000                                                                  
G13  24717965.365   129893790.384        1717.429          40.000                                                                  
> 2025 04 04 08 57 46.0010000  0 11                     
G06  22974514.006   120731886.387       -2459.354          39.000    22974519.736    94076811.967       -1916.510          41.000  
G11  22238318.359   116863152.529       -1546.716          44.000    22238318.067    91062197.494       -1205.131          42.000  
G12  22349244.868   117446071.666        -945.505          44.000    22349248.102    91516428.730        -736.700          42.000  
G17  23828896.397   125221696.065       -3566.649          39.000    23828903.251    97575376.836       -2779.453          35.000  
G19  21606181.324   113541249.137       -2881.273          42.000                                                                  
G20  20851733.522   109576594.912       -1583.785          46.000                                                                  
G05  22216970.986   116750971.594         795.715          44.000    22216974.036    90974795.495         619.817          41.000  
G09  24288970.751   127639394.720       -2837.324          33.000    24288986.938    99459335.572       -2211.683          29.000  
G25  24329646.403                         490.002          23.000                                                                  
G22  24586066.253   129200615.129       -4666.533          40.000                                                                  
G13  24717638.500   129892073.531        1716.521          40.000                                                                  
> 2025 04 04 08 57 47.0010000  0 11                     
G06  22974982.107   120734346.480       -2460.291          39.000    22974987.923    94078728.913       -1917.214          40.000  
G11  22238612.677   116864699.573       -1547.473          44.000    22238612.430    91063402.983       -1205.620          42.000  
G12  22349425.037   117447018.139        -946.994          44.000    22349428.275    91517166.261        -737.847          42.000  
G17  23829575.156   125225263.554       -3568.006          39.000    23829582.080    97578156.694       -2780.652          35.000  
G19  21606729.616   113544131.011       -2882.351          42.000                                                                  
G20  20852034.998   109578179.400       -1585.047          45.000                                                                  
G05  22216819.668   116750176.835         794.396          44.000    22216822.686    90974176.204         618.989          41.000  
G09  24289510.995   127642233.013       -2838.526          33.000    24289527.054    99461547.167       -2212.207          28.000  
G25  24329551.228                         483.865          23.000                                                                  
G22  24586954.542   129205282.469       -4667.755          40.000                                                                  
G13  24717312.043   129890357.621        1715.713          40.000                                                                  
> 2025 04 04 08 57 48.0010000  0 10                     
G06  22975450.383   120736807.443       -2461.280          39.000    22975456.234    94080646.553       -1917.991          40.000  
G11  22238907.263   116866247.541       -1548.420          44.000    22238907.126    91064609.220       -1206.727          42.000  
G12  22349605.448   117447966.178        -948.813          44.000    22349608.642    91517904.986        -739.344          42.000  
G17  23830254.320   125228832.310       -3569.158          39.000    23830261.183    97580937.547       -2781.362          35.000  
G19  21607278.213   113547014.294       -2883.788          42.000                                                                  
G20  20852336.831   109579765.257       -1586.567          45.000                                                                  
G05  22216668.667   116749383.434         792.705          44.000    22216671.748    90973557.986         617.518          41.000  
G09  24290051.374   127645072.744       -2840.218          33.000    24290067.468    99463759.935       -2213.194          27.000  
G22  24587842.903   129209950.684       -4668.716          40.000                                                                  
G13  24716985.655   129888642.464        1714.395          40.000                                                                  
> 2025 04 04 08 57 49.0010000  0 11                     
G06  22975918.905   120739269.157       -2462.064          38.000    22975924.531    94082564.763       -1918.600          41.000  
G11  22239201.971   116867796.330       -1549.260          44.000    22239201.868    91065816.043       -1206.996          42.000  
G12  22349786.243   117448915.610        -950.001          44.000    22349789.295    91518644.810        -740.412          42.000  
G17  23830933.631   125232402.208       -3570.577          39.000    23830940.574    97583719.260       -2782.057          35.000  
G19  21607827.138   113549898.809       -2885.221          42.000                                                                  
G20  20852638.846   109581352.311       -1587.636          45.000                                                                  
G05  22216517.951   116748591.256         791.520          44.000    22216520.992    90972940.714         616.761          41.000  
G09  24290591.988   127647913.807       -2841.996          32.000    24290608.201    99465973.795       -2214.439          27.000  
G25  24329261.481                         667.908          23.000                                                                  
G22  24588731.429   129214619.653       -4669.494          40.000                                                                  
G13  24716659.417   129886927.855        1714.181          40.000                                                                  
> 2025 04 04 08 57 50.0010000  0 11                     
G06  22976387.403   120741731.532       -2462.614          38.000    22976393.168    94084483.508       -1919.126          40.000  
G11  22239496.797   116869345.870       -1550.031          44.000    22239496.647    91067023.489       -1207.881          42.000  
G12  22349967.101   117449866.428        -951.776          44.000    22349970.194    91519385.693        -741.671          42.000  
G17  23831613.224   125235973.119       -3571.584          39.000    23831620.142    97586501.809       -2783.046          35.000  
G19  21608376.200   113552784.519       -2886.483          42.000                                                                  
G20  20852941.035   109582940.552       -1589.097          45.000                                                                  
G05  22216367.439   116747800.284         790.024          44.000    22216370.484    90972324.362         615.446          41.000  
G09  24291132.968   127650756.065       -2843.232          33.000    24291149.241    99468188.602       -2216.164          28.000  
G25  24329150.805                         657.044          20.000                                                                  
G22  24589620.100   129219289.325       -4670.417          40.000                                                                  
G13  24716333.204   129885213.818        1713.395          40.000                                                                  
> 2025 04 04 08 57 51.0010000  0 10                     
G06  22976856.511   120744196.570       -2464.685          38.000    22976862.235    94086404.306       -1920.700          40.000  
G11  22239792.126   116870898.123       -1552.424          43.000    22239792.043    91068233.025       -1209.430          42.000  
G12  22350148.626   117450820.539        -954.056          44.000    22350151.728    91520129.167        -743.638          42.000  
G17  23832293.389   125239547.045       -3573.643          40.000    23832300.299    97589286.714       -2785.047          35.000  
G19  21608925.857   113555673.392       -2889.202          42.000                                                                  
G20  20853243.885   109584531.899       -1591.148          45.000                                                                  
G05  22216217.525   116747012.425         787.747          44.000    22216220.575    90971710.451         613.967          41.000  
G09  24291674.900   127653601.499       -2845.516          34.000    24291690.769    99470405.917       -2221.592          28.000  
G22  24590509.208   129223961.698       -4672.525          40.000                                                                  
G13  24716007.443   129883502.284        1711.579          40.000                                                                  
> 2025 04 04 08 57 52.0010000  0 10                     
G06  22977325.226   120746659.223       -2464.208          38.000    22977330.891    94088323.242       -1920.082          41.000  
G11  22240087.000   116872448.004       -1551.418          43.000    22240087.005    91069440.744       -1209.259          42.000  
G12  22350329.740   117451772.946        -954.233          44.000    22350332.813    91520871.270        -743.553          42.000  
G17  23832973.056   125243118.975       -3573.456          40.000    23832980.006    97592070.007       -2784.351          36.000  
G19  21609475.216   113558560.337       -2888.599          42.000                                                                  
G20  20853546.295   109586121.339       -1591.103          45.000                                                                  
G05  22216067.213   116746222.665         787.909          44.000    22216070.322    90971095.039         614.238          41.000  
G09  24292216.294   127656445.112       -2845.645          34.000    24292231.974    99472628.6291      -2217.715          28.000  
G22  24591397.886   129228631.664       -4671.301          40.000                                                                  
G13  24715681.294   129881788.195        1712.668          40.000                                                                  
> 2025 04 04 08 57 53.0010000  0 10                     
G06  22977794.192   120749123.596       -2464.500          37.000    22977799.840    94090243.544       -1920.344          40.000  
G11  22240382.226   116873999.737       -1552.042          44.000    22240382.310    91070649.878       -1209.322          42.000  
G12  22350511.351   117452727.766        -955.489          44.000    22350514.608    91521615.307        -744.445          42.000  
G17  23833653.132   125246692.987       -3574.296          40.000    23833660.068    97594854.973       -2785.357          36.000  
G19  21610025.050   113561449.560       -2889.974          42.000                                                                  
G20  20853849.195   109587713.011       -1592.200          45.000                                                                  
G05  22215917.438   116745435.141         787.127          44.000    22215920.497    90970481.412         613.168          42.000  
G09  24292758.071   127659291.105       -2847.307          33.000    24292773.973    99474846.216       -2218.121          28.000  
G22  24592286.915   129233303.427       -4672.118          40.000                                                                  
G13  24715355.368   129880075.689        1712.483          40.000                                                                  
> 2025 04 04 08 57 54.0010000  0 10                     
G06  22978263.331   120751588.812       -2465.431          38.000    22978268.907    94092164.449       -1920.996          41.000  
G11  22240677.682   116875552.304       -1552.957          44.000    22240677.809    91071859.672       -1210.110          42.000  
G12  22350693.383   117453684.040        -956.907          45.000    22350696.658    91522360.435        -745.615          42.000  
G17  23834333.425   125250268.194       -3575.994          39.000    23834340.433    97597640.838       -2786.374          36.000  
G19  21610575.137   113564340.067       -2891.065          42.000                                                                  
G20  20854152.394   109589305.951       -1593.613          45.000                                                                  
G05  22215767.881   116744648.921         785.577          44.000    22215770.827    90969868.755         612.157          41.000  
G09  24293300.059   127662138.304       -2847.703          34.000    24293316.384    99477064.837       -2219.273          28.000  
G22  24593176.020   129237976.019       -4673.069          40.000                                                                  
G13  24715029.690   129878363.868        1711.249          40.000                                                                  
> 2025 04 04 08 57 55.0010000  0 10                     
G06  22978732.833   120754056.013       -2468.840          37.000    22978738.366    94094086.948       -1923.920          41.000  
G11  22240973.610   116877106.945       -1556.345          43.000    22240973.741    91073071.074       -1212.434          42.000  
G12  22350875.704   117454642.994        -960.859          44.000    22350879.141    91523107.674        -748.815          41.000  
G17  23835014.244   125253845.785       -3579.696          39.000    23835021.319    97600428.570       -2789.842          36.000  
G19  21611125.632   113567233.074       -2894.749          42.000                                                                  
G20  20854456.086   109590901.370       -1597.469          45.000                                                                  
G05  22215618.790   116743865.165         781.761          44.000    22215621.632    90969258.061         609.120          41.000  
G09  24293842.378   127664988.120       -2850.958          33.000    24293859.371                       -2220.167          27.000  
G22  24594065.507   129242650.583       -4676.122          40.000                                                                  
G13  24714704.190   129876653.853        1708.964          39.000                                                                  
> 2025 04 04 08 57 56.0010000  0 10                     
G06  22979202.309   120756522.831       -2469.378          38.000    22979207.840    94096009.130       -1924.019          41.000  
G11  22241269.413   116878661.278       -1557.069          43.000    22241269.583    91074282.248       -1213.178          42.000  
G12  22351058.228   117455602.273        -962.449          45.000    22351061.751    91523855.152        -749.873          41.000  
G17  23835695.140   125257423.302       -3579.484          40.000    23835702.248    97603216.230       -2789.147          36.000  
G19  21611676.189   113570126.263       -2896.758          42.000                                                                  
G20  20854759.776   109592496.858       -1597.644          45.000                                                                  
G05  22215469.680   116743081.548         780.503          44.000    22215472.471    90968647.442         608.115          41.000  
G09  24294384.956   127667838.202       -2853.840          34.000    24294402.186                       -2224.085          26.000  
G22  24594954.943   129247324.866       -4677.308          40.000                                                                  
G13  24714378.663   129874943.389        1707.425          39.000                                                                  
> 2025 04 04 08 57 57.0010000  0 10                     
G06  22979670.850   120758985.040       -2464.218          38.000    22979676.383    94097927.724       -1920.045          40.000  
G11  22241564.330   116880211.042       -1551.607          43.000    22241564.323    91075489.860       -1209.177          42.000  
G12  22351239.894   117456557.575        -957.716          45.000    22351243.573    91524599.550        -746.195          42.000  
G17  23836375.143   125260996.617       -3575.345          40.000    23836382.274    97606000.666       -2785.976          37.000  
G19  21612225.971   113573015.269       -2891.582          42.000                                                                  
G20  20855062.494   109594088.282       -1593.726          45.000                                                                  
G05  22215319.748   116742293.776         785.546          44.000    22215322.497    90968033.609         611.861          41.000  
G09  24294926.507   127670684.176       -2848.855          34.000    24294944.293    99483734.9291      -2219.158          26.000  
G22  24595843.563   129251994.501       -4671.573          40.000                                                                  
G13  24714052.177   129873228.156        1712.705          39.000                                                                  
> 2025 04 04 08 57 58.0010000  0 10                     
G06  22980139.794   120761449.207       -2463.464          38.000    22980145.233    94099847.866       -1919.547          40.000  
G11  22241859.598   116881762.840       -1551.248          43.000    22241859.606    91076699.038       -1208.696          42.000  
G12  22351422.225   117457515.498        -957.585          44.000    22351425.915    91525346.015        -746.287          42.000  
G17  23837055.577   125264572.263       -3575.149          39.000    23837062.634    97608786.880       -2785.883          36.000  
G19  21612776.245   113575906.753       -2891.008          42.000                                                                  
G20  20855365.823   109595682.103       -1593.393          45.000                                                                  
G05  22215170.243   116741508.461         785.601          44.000    22215172.979    90967421.673         612.270          42.000  
G09  24295468.687   127673532.630       -2848.665          34.000    24295487.469    99485954.621       -2220.461          26.000  
G22  24596732.535   129256666.142       -4671.067          41.000                                                                  
G13  24713726.146   129871514.666        1714.033          39.000                                                                  
> 2025 04 04 08 57 59.0010000  0 10                     
G06  22980608.948   120763913.880       -2465.026          37.000    22980614.298    94101768.374       -1920.857          40.000  
G11  22242154.907   116883315.196       -1552.724          43.000    22242154.932    91077908.674       -1209.982          42.000  
G12  22351604.772   117458474.604        -959.641          44.000    22351608.352    91526093.371        -747.592          42.000  
G17  23837736.097   125268148.776       -3576.782          40.000    23837743.279    97611573.748       -2787.281          36.000  
G19  21613326.719   113578799.260       -2893.018          42.000                                                                  
G20  20855669.268   109597276.907       -1595.426          45.000                                                                  
G05  22215021.025   116740724.128         783.714          44.000    22215023.719    90966810.505         610.706          42.000  
G09  24296011.217   127676382.141       -2849.842          34.000    24296030.779    99488175.026       -2220.988          27.000  
G22  24597621.553   129261338.277       -4672.400          41.000                                                                  
G13  24713400.180   129869801.560        1713.201          39.000                                                                  
> 2025 04 04 08 58 00.0010000  0 10                     
G06  22981078.161   120766379.058       -2465.688          38.000    22981083.445    94103689.300       -1921.300          40.000  
G11  22242450.399   116884868.131       -1553.402          43.000    22242450.390    91079118.745       -1210.417          43.000  
G12  22351787.562   117459434.909        -961.086          43.000    22351791.115    91526841.663        -748.814          42.000  
G17  23838416.843   125271726.162       -3577.979          39.000    23838424.096    97614361.309       -2788.014          37.000  
G19  21613877.390   113581692.770       -2894.219          43.000                                                                  
G20  20855972.928   109598872.696       -1596.451          45.000                                                                  
G05  22214871.865   116739940.806         782.637          44.000    22214874.589    90966200.129         609.855          41.000  
G09  24296553.938   127679232.774       -2851.498          34.000    24296575.449    99490396.290       -2221.658          27.000  
G22  24598510.747   129266010.961       -4673.153          40.000                                                                  
G13  24713074.286   129868088.869        1711.970          39.000                                                                  
> 2025 04 04 08 58 01.0010000  0 10                     
G06  22981547.621   120768846.040       -2468.975          38.000    22981552.917    94105611.621       -1923.556          40.000  
G11  22242746.200   116886422.911       -1556.442          43.000    22242746.313    91080330.275       -1212.929          43.000  
G12  22351970.778   117460397.676        -964.662          44.000    22351974.294    91527591.884        -751.821          42.000  
G17  23839097.988   125275305.709       -3581.501          39.000    23839105.296    97617150.563       -2790.674          37.000  
G19  21614428.532   113584588.590       -2897.845          43.000                                                                  
G20  20856277.031   109600470.760       -1599.883          45.000                                                                  
G05  22214723.240   116739159.766         779.007          44.000    22214725.973    90965591.542         607.111          41.000  
G09  24297097.009   127682085.666       -2854.733          35.000    24297117.956    99492619.541       -2226.901          27.000  
G22  24599400.309   129270685.459       -4676.421          40.000                                                                  
G13  24712748.692   129866377.770        1709.454          39.000                                                                  
> 2025 04 04 08 58 02.0010000  0 10                     
G06  22982016.935   120771311.795       -2458.120          39.000    22982022.100    94107532.996       -1915.459          40.000  
G11  22243041.920   116887976.575       -1545.819          43.000    22243041.903    91081540.903       -1204.541          42.000  
G12  22352153.958   117461359.926        -954.701          44.000    22352157.409    91528341.684        -744.028          42.000  
G17  23839779.064   125278884.438       -3570.965          40.000    23839786.367    97619939.154       -2782.439          37.000  
G19  21614979.519   113587483.709       -2887.725          43.000                                                                  
G20  20856580.938   109602068.111       -1589.712          45.000                                                                  
G05  22214574.505   116738378.007         789.467          44.000    22214577.233    90964982.380         615.160          41.000  
G09  24297639.790   127684937.966       -2844.639          35.000    24297662.253                       -2219.211          27.000  
G22  24600289.731   129275358.789       -4665.653          40.000                                                                  
G13  24712422.775   129864665.376        1719.912          39.000                                                                  
> 2025 04 04 08 58 03.0010000  0 10                     
G06  22982484.917   120773770.647       -2465.008          39.000    22982490.027    94109448.984       -1920.824          40.000  
G11  22243336.241   116889523.344       -1552.763          43.000    22243336.334    91082746.195       -1210.177          42.000  
G12  22352335.937   117462315.899        -962.412          44.000    22352339.177    91529086.593        -749.918          42.000  
G17  23840458.855   125282456.567       -3578.180          40.000    23840466.136    97622722.644       -2787.917          37.000  
G19  21615529.232   113590372.391       -2895.214          43.000                                                                  
G20  20856883.494   109603659.004       -1597.108          45.000                                                                  
G05  22214424.435   116737589.825         781.736          44.000    22214427.243    90964368.214         609.017          41.000  
G09  24298181.253   127687783.942       -2852.527          34.000    24298203.920    99497082.6301      -2221.433          27.000  
G22  24601177.766   129280025.211       -4672.869          40.000                                                                  
G13  24712095.675   129862945.856        1713.487          39.000                                                                  
> 2025 04 04 08 58 04.0010000  0 10                     
G06  22982953.378   120776232.376       -2461.669          39.000    22982958.512    94111367.232       -1918.376          40.000  
G11  22243631.166   116891073.071       -1549.623          43.000    22243631.269    91083953.769       -1207.637          42.000  
G12  22352518.467   117463275.444        -960.072          44.000    22352521.715    91529834.279        -747.896          42.000  
G17  23841139.236   125286031.986       -3575.395          40.000    23841146.582    97625508.676       -2786.232          37.000  
G19  21616079.548   113593264.467       -2892.120          43.000                                                                  
G20  20857186.877   109605253.261       -1594.440          45.000                                                                  
G05  22214275.082   116736804.990         784.580          44.000    22214277.804    90963756.650         611.387          41.000  
G09  24298723.425   127690633.293       -2850.026          34.000    24298745.098    99499302.921       -2220.630          27.000  
G22  24602066.309   129284694.509       -4668.987          40.000                                                                  
G13  24711768.892   129861229.108        1716.373          39.000                                                                  
> 2025 04 04 08 58 05.0010000  0 10                     
G06  22983422.256   120778696.089       -2473.748          39.000    22983427.388    94113286.968       -1927.151          40.000  
G11  22243926.383   116892624.827       -1561.607          43.000    22243926.585    91085162.893       -1216.314          42.000  
G12  22352701.532   117464237.617        -972.402          44.000    22352704.826    91530583.993        -757.190          42.000  
G17  23841820.066   125289609.706       -3587.790          39.000    23841827.384    97628296.475       -2794.788          37.000  
G19  21616630.402   113596158.996       -2904.363          43.000                                                                  
G20  20857490.739   109606849.947       -1606.659          45.000                                                                  
G05  22214126.135   116736022.594         772.455          45.000    22214128.937    90963146.981         602.245          41.000  
G09  24299265.970   127693485.150       -2861.771          34.000    24299285.195                       -2226.935          26.000  
G22  24602955.155   129289365.790       -4680.782          40.000                                                                  
G13  24711442.455   129859514.111        1705.929          39.000                                                                  
