     3.02           OBSERVATION DATA    M (MIXED)           RINEX VERSION / TYPE
GPP.DLL V3.2.21                         20250314 013026 UTC PGM / RUN BY / DATE 
NAV00VNM                                                    MARKER NAME         
JNAV00VNM                                                   MARKER NUMBER       
Non Geodetic                                                MARKER TYPE         
                                                            OBSERVER / AGENCY   
5426R48968          NetR9               5.54                REC # / TYPE / VERS 
                    GE                                      ANT # / TYPE        
 -1626582.4355  5730515.6492  2271871.3129                  APPROX POSITION XYZ 
        0.0000       -0.0000       -0.0000                  ANTENNA: DELTA H/E/N
G   16 L1C L2W L2X L5X C1C C2W C2X C5X D1C D2W D2X D5X S1C  SYS / # / OBS TYPES 
       S2W S2X S5X                                          SYS / # / OBS TYPES 
G L2W   0.0000                                              SYS / PHASE SHIFT   
G L2X   0.0000                                              SYS / PHASE SHIFT   
G L5X   0.0000                                              SYS / PHASE SHIFT   
G L1C                                                       SYS / PHASE SHIFT   
 C1C          C1P          C2C          C2P                 GLONASS COD/PHS/BIS 
     1.000                                                  INTERVAL            
  2025     3    13     8    50   56.0000000     GPS         TIME OF FIRST OBS   
  2025     3    13     9     0   52.0000000     GPS         TIME OF LAST OBS    
    18    18  2441     7                                    LEAP SECONDS        
    12                                                      # OF SATELLITES     
   G04   415    29   415   415   415    29   415   415   415PRN / # OF OBS      
          28   412   412   415    29   415   415            PRN / # OF OBS      
   G05   597   597   597     0   597   597   597     0   597PRN / # OF OBS      
         596   596     0   597   597   597     0            PRN / # OF OBS      
   G06   597   597   597   597   597   597   597   597   597PRN / # OF OBS      
         596   596   596   597   597   597   597            PRN / # OF OBS      
   G09   597   597   597   597   597   597   597   597   597PRN / # OF OBS      
         596   596   596   597   597   597   597            PRN / # OF OBS      
   G11   597   597   597   597   597   597   597   597   597PRN / # OF OBS      
         596   596   596   597   597   597   597            PRN / # OF OBS      
   G12   597   597   597     0   597   597   597     0   597PRN / # OF OBS      
         596   596     0   597   597   597     0            PRN / # OF OBS      
   G14   597   597   597   597   597   597   597   597   597PRN / # OF OBS      
         596   596   596   597   597   597   597            PRN / # OF OBS      
   G17   597   597   597     0   597   597   597     0   597PRN / # OF OBS      
         596   596     0   597   597   597     0            PRN / # OF OBS      
   G19   597   597     0     0   597   597     0     0   597PRN / # OF OBS      
         596     0     0   597   597     0     0            PRN / # OF OBS      
   G20   597   597     0     0   597   597     0     0   597PRN / # OF OBS      
         596     0     0   597   597     0     0            PRN / # OF OBS      
   G22   597   597     0     0   597   597     0     0   597PRN / # OF OBS      
         596     0     0   597   597     0     0            PRN / # OF OBS      
   G24   500   493   500   500   500   493   500   500   500PRN / # OF OBS      
         491   498   498   500   493   500   500            PRN / # OF OBS      
                                                            END OF HEADER       
> 2025 03 13 08 50 56.0000000  0 12
G24 133634565.30115 104130945.70313 104130979.70115  99792041.19316  25429814.867    25429848.719    25429848.801    25429855.035       -1174.477           0.000           0.000           0.000          30.000          18.000          32.000          38.000  
G22 110328596.36418  85970006.27016                                  20994834.719    20994851.477                                       -1784.238           0.000                                          48.000          37.000                                  
G20 113824138.65617  88694666.35115                                  21660009.031    21660029.062                                        2577.082           0.000                                          45.000          33.000                                  
G19 109076370.92618  84994408.74116                                  20756541.984    20756554.828                                         600.219           0.000                                          48.000          39.000                                  
G17 115218277.90117  89780242.20516  89780521.19217                  21925309.945    21925328.527    21925327.875                        -454.605           0.000           0.000                          44.000          40.000          44.000                  
G14 115534651.59617  90026858.36915  90026802.35417  86275673.86818  21985515.211    21985537.309    21985537.133    21985544.469       -3203.727           0.000           0.000           0.000          42.000          30.000          46.000          48.000  
G12 126582840.63516  98636071.42614  98636128.43816                  24087911.578    24087931.547    24087932.129                        3283.648           0.000           0.000                          37.000          26.000          36.000                  
G11 114775884.99217  89435976.40916  89436042.42218  85709417.87018  21841121.609    21841138.887    21841138.562    21841144.660         561.973           0.000           0.000           0.000          46.000          36.000          48.000          50.000  
G09 125159447.05915  97526965.32514  97526881.33416  93463241.31217  23817042.742    23817074.676    23817074.074    23817079.492        1195.324           0.000           0.000           0.000          34.000          29.000          38.000          42.000  
G06 111538638.39217  86913362.19518  86913310.18718  83291921.63118  21225094.984    21225112.422    21225112.836    21225115.105        -906.625           0.000           0.000           0.000          47.000          48.000          48.000          52.000  
G05 131907118.94215 102784895.20814 102784811.14415                  25101089.789    25101115.465    25101116.055                        3709.730           0.000           0.000                          35.000          25.000          35.000                  
G04 132048346.80015                 102894936.49816  98607630.51116  25127959.367                    25127986.727    25127993.906         262.234                           0.000           0.000          31.000                          36.000          38.000  
> 2025 03 13 08 50 57.0000000  0 12
G24 133635739.824 5 104131860.893 3 104131894.912 5  99792918.286 6  25430037.750    25430072.258    25430072.699    25430078.449       -1174.887        -915.190        -915.211        -877.093          30.000          18.000          33.000          38.000  
G22 110330380.800 8  85971396.739 6                                  20995174.602    20995191.098                                       -1784.707       -1390.470                                          48.000          37.000                                  
G20 113821561.742 7  88692658.374 5                                  21659519.367    21659538.559                                        2576.715        2007.977                                          45.000          33.000                                  
G19 109075770.843 8  84993941.142 6                                  20756427.812    20756440.730                                         599.938         467.599                                          48.000          38.000                                  
G17 115218732.565 7  89780596.491 6  89780875.489 7                  21925396.008    21925415.000    21925414.465                        -454.762        -354.286        -354.297                          44.000          40.000          44.000                  
G14 115537855.416 7  90029354.849 5  90029298.850 7  86278066.329 8  21986124.969    21986146.953    21986146.930    21986154.199       -3204.043       -2496.479       -2496.496       -2392.461          42.000          30.000          45.000          48.000  
G12 126579557.157 6  98633512.878 4  98633569.882 6                  24087287.227    24087306.754    24087307.277                        3283.410        2558.548        2558.556                          37.000          27.000          36.000                  
G11 114775323.158 7  89435538.628 5  89435604.629 7  85708998.323 8  21841014.852    21841031.988    21841031.555    21841037.754         561.754         437.781         437.793         419.548          46.000          35.000          47.000          50.000  
G09 125158251.827 5  97526033.994 4  97525949.994 6  93462348.780 6  23816815.141    23816847.348    23816846.941    23816852.078        1195.133         931.331         931.340         892.531          35.000          27.000          38.000          41.000  
G06 111539545.066 7  86914068.697 8  86914016.691 8  83292598.695 8  21225267.547    21225285.066    21225285.344    21225287.660        -906.754        -706.501        -706.505        -677.064          47.000          48.000          48.000          52.000  
G05 131903409.103 5 102782004.433 4 102781920.440 5                  25100384.312    25100409.492    25100410.180                        3709.898        2890.775        2890.703                          34.000          24.000          35.000                  
G04 132048084.985 5                 102894732.484 6  98607434.975 6  25127910.086                    25127936.520    25127944.113         261.973                         204.014         195.535          31.000                          36.000          38.000  
> 2025 03 13 08 50 58.0000000  0 12
G24 133636914.533 5 104132776.248 3 104132810.275 5  99793795.503 6  25430261.031    25430295.832    25430296.590    25430301.969       -1174.676        -915.355        -915.364        -877.216          31.000          18.000          33.000          38.000  
G22 110332165.725 8  85972787.586 6                                  20995514.359    20995530.859                                       -1785.184       -1390.848                                          48.000          37.000                                  
G20 113818985.224 7  88690650.710 5                                  21659028.805    21659048.328                                        2576.293        2007.664                                          45.000          33.000                                  
G19 109075170.932 7  84993473.684 6                                  20756313.633    20756326.723                                         599.820         467.458                                          47.000          38.000                                  
G17 115219187.428 7  89780950.928 6  89781229.926 7                  21925482.508    21925501.551    21925501.055                        -454.902        -354.437        -354.437                          44.000          40.000          44.000                  
G14 115541059.541 7  90031851.573 5  90031795.569 7  86280459.013 8  21986734.875    21986756.617    21986756.586    21986763.941       -3204.145       -2496.725       -2496.718       -2392.683          43.000          30.000          45.000          48.000  
G12 126576273.916 6  98630954.517 4  98631011.519 6                  24086662.891    24086682.113    24086682.770                        3283.129        2558.361        2558.363                          37.000          27.000          37.000                  
G11 114774761.565 7  89435101.031 5  89435167.033 7  85708578.962 8  21840907.672    21840925.145    21840924.816    21840930.895         561.504         437.598         437.596         419.360          46.000          35.000          47.000          50.000  
G09 125157056.877 5  97525102.878 4  97525018.875 6  93461456.460 6  23816588.086    23816619.883    23816619.645    23816624.586        1195.043         931.115         931.120         892.321          34.000          29.000          38.000          41.000  
G06 111540451.894 7  86914775.318 8  86914723.313 8  83293275.875 8  21225440.164    21225457.645    21225457.859    21225460.203        -906.883        -706.621        -706.622        -677.180          47.000          48.000          48.000          52.000  
G05 131899699.327 5 102779113.699 3 102779029.706 5                  25099679.039    25099703.586    25099704.262                        3709.910        2890.733        2890.734                          35.000          23.000          34.000                  
G04 132047823.512 5                 102894528.746 6  98607239.732 6  25127860.125                    25127886.789    25127894.402         261.562                         203.738         195.244          30.000                          36.000          38.000  
> 2025 03 13 08 50 59.0000000  0 12
G24 133638089.517 5 104133691.826 3 104133725.773 5  99794672.899 6  25430484.148    25430519.375    25430520.266    25430525.730       -1175.156        -915.578        -915.498        -877.397          30.000          18.000          33.000          39.000  
G22 110333951.142 8  85974178.819 6                                  20995853.984    20995870.586                                       -1785.688       -1391.233                                          48.000          37.000                                  
G20 113816409.106 7  88688643.354 5                                  21658538.516    21658558.133                                        2575.836        2007.355                                          45.000          33.000                                  
G19 109074571.208 7  84993006.368 6                                  20756199.523    20756212.398                                         599.613         467.316                                          47.000          38.000                                  
G17 115219642.475 7  89781305.507 6  89781584.505 7                  21925569.039    21925588.152    21925587.590                        -455.137        -354.579        -354.579                          44.000          40.000          44.000                  
G14 115544263.961 7  90034348.518 5  90034292.517 7  86282851.923 8  21987344.703    21987366.570    21987366.086    21987373.574       -3204.594       -2496.945       -2496.948       -2392.910          42.000          31.000          45.000          48.000  
G12 126572990.923 6  98628396.342 4  98628453.354 6                  24086037.703    24086057.262    24086058.133                        3282.844        2558.174        2558.165                          37.000          27.000          36.000                  
G11 114774200.225 7  89434663.632 5  89434729.635 7  85708159.790 8  21840800.852    21840818.203    21840817.727    21840824.016         561.148         437.398         437.398         419.172          46.000          35.000          47.000          50.000  
G09 125155862.199 5  97524171.956 4  97524087.974 6  93460564.343 6  23816361.656    23816392.461    23816392.395    23816397.262        1194.586         930.923         930.900         892.117          35.000          29.000          38.000          41.000  
G06 111541358.875 7  86915482.058 8  86915430.059 8  83293953.171 8  21225612.906    21225630.152    21225630.535    21225632.785        -907.098        -706.740        -706.745        -677.296          47.000          48.000          48.000          52.000  
G05 131895989.578 5 102776223.001 4 102776139.005 5                  25098971.844    25098997.695    25098998.180                        3709.902        2890.698        2890.701                          34.000          24.000          34.000                  
G04 132047562.414 4                 102894325.295 6  98607044.779 6  25127809.719                    25127836.766    25127844.594         261.137                         203.452         194.953          29.000                          36.000          38.000  
> 2025 03 13 08 51  0.0000000  0 12
G24 133639264.61935 104134607.48433 104134641.492 5  99795550.404 6  25430708.695    25430743.051    25430743.863    25430749.285       -1175.504        -915.801        -915.719        -877.505          30.000          18.000          33.000          38.000  
G22 110335737.079 7  85975570.459 6                                  20996193.992    20996210.480                                       -1786.172       -1391.639                                          47.000          37.000                                  
G20 113813833.413 7  88686636.329 5                                  21658048.164    21658068.027                                        2575.492        2007.026                                          45.000          33.000                                  
G19 109073971.693 7  84992539.213 6                                  20756085.328    20756098.234                                         599.438         467.155                                          47.000          38.000                                  
G17 115220097.736 7  89781660.255 6  89781939.252 7                  21925656.469    21925674.625    21925674.172                        -455.402        -354.748        -354.746                          44.000          40.000          44.000                  
G14 115547468.700 7  90036845.714 5  90036789.711 7  86285245.068 8  21987954.398    21987976.316    21987975.977    21987983.539       -3204.766       -2497.196       -2497.194       -2393.146          42.000          30.000          46.000          48.000  
G12 126569708.182 6  98625838.356 4  98625895.390 6                  24085412.734    24085432.488    24085433.512                        3282.781        2557.987        2557.965                          37.000          27.000          36.000                  
G11 114773639.157 7  89434226.441 5  89434292.445 7  85707740.823 8  21840693.898    21840711.348    21840711.082    21840717.273         560.914         437.191         437.190         418.967          46.000          35.000          47.000          50.000  
G09 125154667.822 5  97523241.299 4  97523157.295 6  93459672.438 6  23816133.727    23816165.109    23816164.867    23816170.074        1194.199         930.657         930.679         891.906          35.000          28.000          39.000          41.000  
G06 111542266.031 7  86916188.939 8  86916136.934 8  83294630.595 8  21225785.453    21225802.898    21225803.094    21225805.422        -907.316        -706.880        -706.875        -677.425          47.000          48.000          48.000          52.000  
G05 131892279.863 5 102773332.299 3 102773248.321 5                  25098265.445    25098291.797    25098292.445                        3709.828        2890.702        2890.684                          34.000          23.000          34.000                  
G04 132047301.71034                 102894122.174 6  98606850.127 6  25127760.000                    25127787.363    25127795.035         260.484                         203.121         194.652          29.000                          36.000          38.000  
> 2025 03 13 08 51  1.0000000  0 12
G24 133640439.978 5 104135523.317 3 104135557.355 5  99796428.101 6  25430931.828    25430966.676    25430967.492    25430972.996       -1175.270        -915.833        -915.863        -877.697          30.000          18.000          34.000          38.000  
G22 110337523.506 7  85976962.474 6                                  20996533.633    20996550.398                                       -1786.613       -1392.016                                          47.000          37.000                                  
G20 113811258.122 7  88684629.620 5                                  21657558.688    21657577.816                                        2575.027        2006.709                                          45.000          32.000                                  
G19 109073372.366 7  84992072.210 6                                  20755971.414    20755984.238                                         599.223         467.003                                          47.000          38.000                                  
G17 115220553.186 7  89782015.147 6  89782294.145 7                  21925742.555    21925761.371    21925760.738                        -455.500        -354.892        -354.894                          44.000          40.000          44.000                  
G14 115550673.741 7  90039343.146 5  90039287.141 7  86287638.438 8  21988564.367    21988586.258    21988585.918    21988593.352       -3205.199       -2497.432       -2497.430       -2393.370          42.000          30.000          46.000          48.000  
G12 126566425.689 6  98623280.599 4  98623337.612 6                  24084787.875    24084807.926    24084808.590                        3282.238        2557.757        2557.778                          37.000          26.000          37.000                  
G11 114773078.341 7  89433789.457 5  89433855.457 7  85707322.042 8  21840587.195    21840604.574    21840604.301    21840610.512         560.703         436.985         436.988         418.781          46.000          35.000          47.000          50.000  
G09 125153473.718 5  97522310.828 5  97522226.834 6  93458780.749 7  23815906.484    23815937.977    23815937.645    23815942.746        1194.047         930.471         930.461         891.688          35.000          30.000          39.000          42.000  
G06 111543173.334 7  86916895.932 8  86916843.929 8  83295308.132 8  21225958.102    21225975.422    21225975.594    21225978.066        -907.387        -706.993        -706.995        -677.537          47.000          48.000          48.000          52.000  
G05 131888570.209 5 102770441.688 3 102770357.681 5                  25097560.203    25097585.859    25097586.480                        3709.570        2890.611        2890.640                          34.000          23.000          34.000                  
G04 132047041.393 4                 102893919.341 5  98606655.738 6  25127709.352                    25127737.984    25127745.406         260.254                         202.833         194.389          29.000                          35.000          38.000  
> 2025 03 13 08 51  2.0000000  0 12
G24 133641615.550 5 104136439.356 3 104136473.366 5  99797305.947 6  25431155.766    25431190.445    25431191.273    25431196.680       -1175.688        -916.039        -916.011        -877.845          31.000          19.000          33.000          38.000  
G22 110339310.419 7  85978354.873 6                                  20996873.742    20996890.379                                       -1787.168       -1392.399                                          47.000          38.000                                  
G20 113808683.236 7  88682623.224 5                                  21657068.445    21657087.691                                        2574.762        2006.396                                          45.000          32.000                                  
G19 109072773.228 7  84991605.351 6                                  20755857.062    20755870.230                                         599.086         466.859                                          47.000          38.000                                  
G17 115221008.828 7  89782370.188 6  89782649.188 7                  21925830.023    21925848.105    21925847.562                        -455.719        -355.041        -355.043                          44.000          41.000          44.000                  
G14 115553879.084 7  90041840.806 5  90041784.804 7  86290032.032 8  21989173.906    21989196.191    21989195.879    21989203.359       -3205.465       -2497.660       -2497.663       -2393.594          42.000          30.000          46.000          48.000  
G12 126563143.441 6  98620723.007 4  98620780.017 6                  24084163.258    24084183.426    24084184.066                        3282.070        2557.592        2557.595                          36.000          26.000          37.000                  
G11 114772517.784 7  89433352.661 5  89433418.666 7  85706903.452 8  21840480.461    21840497.863    21840497.566    21840503.859         560.406         436.796         436.791         418.590          46.000          35.000          47.000          50.000  
G09 125152279.905 5  97521380.585 4  97521296.588 6  93457889.266 7  23815679.023    23815710.895    23815710.414    23815715.578        1193.664         930.243         930.246         891.483          35.000          29.000          39.000          42.000  
G06 111544080.794 7  86917603.047 8  86917551.042 8  83295985.785 8  21226130.547    21226148.078    21226148.406    21226150.711        -907.484        -707.116        -707.113        -677.652          47.000          48.000          48.000          52.000  
G05 131884860.564 5 102767551.062 4 102767467.077 5                  25096854.625    25096880.160    25096880.391                        3709.340        2890.625        2890.604                          34.000          24.000          34.000                  
G04 132046781.444 4                 102893716.814 5  98606461.654 6  25127659.367                    25127688.887    25127695.973         259.824                         202.526         194.084          29.000                          35.000          38.000  
> 2025 03 13 08 51  3.0000000  0 12
G24 133642791.262 5 104137355.490 3 104137389.492 5  99798183.908 6  25431380.273    25431414.156    25431414.695    25431420.488       -1176.000        -916.133        -916.126        -877.962          31.000          18.000          33.000          39.000  
G22 110341097.783 7  85979747.618 6                                  20997214.219    20997230.320                                       -1787.613       -1392.745                                          47.000          38.000                                  
G20 113806108.704 7  88680617.106 5                                  21656578.188    21656597.832                                        2574.418        2006.118                                          45.000          32.000                                  
G19 109072174.240 7  84991138.608 6                                  20755743.141    20755756.277                                         598.914         466.743                                          47.000          38.000                                  
G17 115221464.610 7  89782725.342 6  89783004.345 7                  21925916.805    21925934.840    21925934.668                        -455.828        -355.154        -355.158                          44.000          41.000          44.000                  
G14 115557084.678 7  90044338.669 5  90044282.666 7  86292425.814 8  21989784.453    21989806.234    21989805.926    21989813.410       -3205.746       -2497.863       -2497.862       -2393.782          42.000          30.000          46.000          48.000  
G12 126559861.403 6  98618165.594 4  98618222.601 6                  24083538.781    24083558.902    24083559.422                        3282.148        2557.413        2557.416                          36.000          24.000          37.000                  
G11 114771957.430 7  89432916.033 5  89432982.035 8  85706485.016 8  21840374.133    21840391.316    21840390.918    21840397.191         560.258         436.628         436.631         418.435          46.000          35.000          48.000          50.000  
G09 125151086.293 5  97520450.515 4  97520366.519 6  93456997.945 6  23815452.375    23815483.801    23815483.707    23815488.477        1193.305         930.070         930.069         891.321          35.000          29.000          39.000          41.000  
G06 111544988.365 7  86918310.249 8  86918258.242 8  83296663.520 8  21226303.227    21226320.840    21226321.172    21226323.496        -907.660        -707.202        -707.200        -677.736          47.000          48.000          48.000          52.000  
G05 131881150.925 5 102764660.452 3 102764576.455 5                  25096147.961    25096174.340    25096174.188                        3709.820        2890.610        2890.623                          34.000          22.000          34.000                  
G04 132046521.845 4                 102893514.536 5  98606267.806 6  25127610.164                    25127639.434    25127646.512         259.340                         202.278         193.848          28.000                          35.000          38.000  
> 2025 03 13 08 51  4.0000000  0 12
G24 133643967.208 5 104138271.800 3 104138305.797 5  99799062.031 6  25431603.117    25431637.797    25431638.262    25431644.305       -1176.293        -916.310        -916.306        -878.122          30.000          18.000          33.000          39.000  
G22 110342885.654 7  85981140.761 6                                  20997554.359    20997570.660                                       -1788.188       -1393.143                                          47.000          38.000                                  
G20 113803534.592 7  88678611.313 5                                  21656088.750    21656107.887                                        2573.941        2005.793                                          45.000          32.000                                  
G19 109071575.452 7  84990672.020 6                                  20755629.453    20755642.371                                         598.738         466.588                                          47.000          38.000                                  
G17 115221920.590 7  89783080.648 6  89783359.649 7                  21926004.078    21926021.699    21926021.676                        -456.062        -355.305        -355.304                          44.000          41.000          44.000                  
G14 115560290.581 7  90046836.779 4  90046780.769 7  86294819.828 8  21990394.398    21990416.367    21990416.102    21990423.461       -3206.156       -2498.110       -2498.103       -2394.014          42.000          29.000          46.000          48.000  
G12 126556579.607 5  98615608.355 4  98615665.368 6                  24082913.273    24082934.371    24082934.828                        3281.773        2557.239        2557.233                          35.000          24.000          37.000                  
G11 114771397.342 7  89432479.614 6  89432545.610 8  85706066.778 8  21840267.625    21840284.668    21840284.484    21840290.578         559.906         436.419         436.425         418.238          47.000          36.000          48.000          50.000  
G09 125149892.986 5  97519520.680 4  97519436.669 6  93456106.848 6  23815225.820    23815256.707    23815256.527    23815261.336        1193.106         929.835         929.850         891.097          35.000          29.000          39.000          41.000  
G06 111545896.107 7  86919017.581 8  86918965.575 8  83297341.382 8  21226476.062    21226493.547    21226493.910    21226496.172        -907.812        -707.332        -707.333        -677.861          47.000          48.000          48.000          52.000  
G05 131877441.328 5 102761769.879 3 102761685.867 5                  25095442.227    25095468.520    25095468.379                        3709.570        2890.573        2890.587                          34.000          22.000          34.000                  
G04 132046262.614 4                 102893312.578 5  98606074.256 6  25127562.211                    25127589.676    25127596.996         258.910                         201.958         193.550          29.000                          35.000          37.000  
> 2025 03 13 08 51  5.0000000  0 12
G24 133645143.430 5 104139188.293 3 104139222.342 5  99799940.374 6  25431826.430    25431861.500    25431861.504    25431868.172       -1176.191        -916.494        -916.545        -878.343          32.000          19.000          34.000          38.000  
G22 110344674.101 7  85982534.357 6                                  20997894.797    20997911.117                                       -1788.742       -1393.596                                          47.000          38.000                                  
G20 113800960.971 7  88676605.903 5                                  21655598.992    21655618.137                                        2573.332        2005.410                                          45.000          33.000                                  
G19 109070976.947 7  84990205.656 6                                  20755515.211    20755528.441                                         598.398         466.364                                          47.000          38.000                                  
G17 115222376.853 7  89783436.176 6  89783715.178 7                  21926090.766    21926108.492    21926108.270                        -456.352        -355.528        -355.529                          45.000          41.000          44.000                  
G14 115563496.875 7  90049335.190 5  90049279.175 7  86297214.134 8  21991004.188    21991026.453    21991025.988    21991033.574       -3206.371       -2498.411       -2498.406       -2394.307          42.000          30.000          46.000          48.000  
G12 126553298.164 6  98613051.401 4  98613108.404 6                  24082289.492    24082309.957    24082310.141                        3281.297        2556.954        2556.965                          36.000          26.000          36.000                  
G11 114770837.595 7  89432043.452 6  89432109.452 8  85705648.796 8  21840161.156    21840178.145    21840178.105    21840184.012         559.633         436.162         436.158         417.982          47.000          36.000          48.000          50.000  
G09 125148700.028 5  97518591.099 4  97518507.114 6  93455216.023 7  23814997.609    23815029.781    23815029.113    23815034.277        1192.941         929.582         929.555         890.825          35.000          28.000          39.000          42.000  
G06 111546804.084 7  86919725.097 8  86919673.093 8  83298019.419 8  21226648.703    21226666.383    21226666.609    21226668.957        -908.066        -707.516        -707.519        -678.037          47.000          48.000          48.000          52.000  
G05 131873731.837 5 102758879.363 3 102758795.37815                  25094735.555    25094762.609    25094762.871                        3709.476        2890.516        2890.552                          34.000          22.000          34.000                  
G04 132046003.891 4                 102893110.983 5  98605881.067 6  25127512.305                    25127540.000    25127547.688         258.484                         201.595         193.189          28.000                          35.000          37.000  
> 2025 03 13 08 51  6.0000000  0 12
G24 133646319.888 5 104140104.999 3 104140139.045 5  99800818.884 6  25432049.883    25432085.430    25432085.160    25432092.184       -1176.699        -916.705        -916.703        -878.510          30.000          19.000          33.000          39.000  
G22 110346463.059 7  85983928.347 6                                  20998235.281    20998251.566                                       -1789.160       -1393.990                                          47.000          38.000                                  
G20 113798387.776 7  88674600.819 5                                  21655109.297    21655128.547                                        2572.953        2005.084                                          45.000          33.000                                  
G19 109070378.639 7  84989739.444 6                                  20755401.578    20755414.555                                         598.305         466.213                                          47.000          38.000                                  
G17 115222833.314 7  89783791.857 6  89784070.859 7                  21926177.281    21926195.375    21926195.250                        -456.484        -355.681        -355.681                          45.000          41.000          44.000                  
G14 115566703.480 7  90051833.832 5  90051777.826 7  86299608.673 8  21991614.336    21991636.637    21991636.242    21991643.766       -3206.734       -2498.642       -2498.651       -2394.539          42.000          30.000          46.000          48.000  
G12 126550016.975 6  98610494.637 4  98610551.649 6                  24081665.023    24081685.680    24081686.422                        3281.035        2556.764        2556.754                          36.000          26.000          37.000                  
G11 114770278.116 7  89431607.503 6  89431673.503 8  85705231.011 8  21840054.586    21840071.762    21840071.730    21840077.559         559.375         435.949         435.949         417.786          47.000          36.000          48.000          50.000  
G09 125147507.391 5  97517661.792 4  97517577.779 6  93454325.416 6  23814770.133    23814802.863    23814802.348    23814807.285        1192.656         929.306         929.334         890.607          34.000          28.000          39.000          41.000  
G06 111547712.233 7  86920432.750 8  86920380.747 8  83298697.588 8  21226821.406    21226839.172    21226839.551    21226841.750        -908.203        -707.652        -707.653        -678.169          47.000          48.000          48.000          52.000  
G05 131870022.400 5 102755988.900 3 102755904.921 5                  25094029.430    25094056.746    25094056.492                        3709.770        2890.463        2890.457                          34.000          22.000          34.000                  
G04 132045745.552 4                 102892909.684 5  98605688.157 6  25127462.414                    25127490.984    25127498.535         258.043                         201.299         192.910          28.000                          35.000          37.000  
> 2025 03 13 08 51  7.0000000  0 12
G24 133647496.514 5 104141021.866 3 104141055.881 5  99801697.511 6  25432274.766    25432309.441    25432309.258    25432316.078       -1176.359        -916.867        -916.836        -878.628          31.000          19.000          34.000          39.000  
G22 110348252.469 7  85985322.691 6                                  20998575.750    20998592.035                                       -1789.613       -1394.345                                          47.000          38.000                                  
G20 113795814.938 7  88672596.021 5                                  21654619.484    21654638.852                                        2572.723        2004.798                                          45.000          33.000                                  
G19 109069780.477 7  84989273.344 6                                  20755287.695    20755300.711                                         598.094         466.099                                          46.000          38.000                                  
G17 115223289.927 7  89784147.657 6  89784426.657 7                  21926264.734    21926282.148    21926282.055                        -456.637        -355.800        -355.798                          45.000          41.000          44.000                  
G14 115569910.348 7  90054332.685 4  90054276.681 7  86302003.407 8  21992224.812    21992246.922    21992246.500    21992254.039       -3207.051       -2498.854       -2498.856       -2394.734          43.000          29.000          46.000          48.000  
G12 126546735.996 6  98607938.046 4  98607995.058 6                  24081041.352    24081061.371    24081062.219                        3280.973        2556.591        2556.591                          37.000          26.000          36.000                  
G11 114769718.851 7  89431171.718 6  89431237.719 7  85704813.391 8  21839948.102    21839965.500    21839965.125    21839971.184         559.125         435.785         435.784         417.620          47.000          36.000          47.000          50.000  
G09 125146314.954 5  97516732.618 4  97516648.631 6  93453434.983 6  23814543.367    23814575.941    23814575.113    23814580.379        1192.074         929.174         929.148         890.434          34.000          29.000          39.000          41.000  
G06 111548620.494 7  86921140.488 8  86921088.482 8  83299375.834 8  21226994.266    21227011.945    21227012.305    21227014.633        -908.316        -707.738        -707.735        -678.246          47.000          48.000          48.000          52.000  
G05 131866312.969 5 102753098.441 3 102753014.450 5                  25093324.477    25093350.770    25093350.602                        3709.219        2890.459        2890.471                          34.000          22.000          33.000                  
G04 132045487.535 4                 102892708.655 5  98605495.521 6  25127413.656                    25127442.012    25127449.438         257.633                         201.029         192.637          28.000                          35.000          37.000  
> 2025 03 13 08 51  8.0000000  0 12
G24 133648673.322 5 104141938.858 3 104141972.860 5  99802576.299 6  25432498.664    25432533.477    25432533.418    25432540.109       -1176.981        -916.992        -916.980        -878.788          31.000          19.000          34.000          39.000  
G22 110350042.377 7  85986717.420 6                                  20998915.891    20998932.477                                       -1790.156       -1394.729                                          47.000          38.000                                  
G20 113793242.509 7  88670591.544 5                                  21654129.398    21654149.316                                        2572.270        2004.477                                          45.000          33.000                                  
G19 109069182.518 7  84988807.407 6                                  20755173.992    20755186.895                                         597.852         465.937                                          46.000          38.000                                  
G17 115223746.731 7  89784503.610 6  89784782.605 7                  21926351.445    21926369.152    21926368.977                        -456.863        -355.953        -355.948                          45.000          41.000          44.000                  
G14 115573117.516 7  90056831.767 4  90056775.775 7  86304398.371 8  21992835.109    21992857.121    21992856.879    21992864.355       -3207.301       -2499.082       -2499.094       -2394.964          43.000          29.000          46.000          48.000  
G12 126543455.273 6  98605381.630 4  98605438.652 6                  24080416.805    24080437.051    24080437.598                        3280.641        2556.416        2556.407                          36.000          25.000          36.000                  
G11 114769159.846 7  89430736.138 6  89430802.136 7  85704395.960 8  21839842.078    21839859.156    21839858.617    21839864.734         558.902         435.579         435.583         417.431          47.000          36.000          47.000          50.000  
G09 125145122.815 5  97515803.697 4  97515719.702 6  93452544.757 7  23814316.289    23814349.035    23814348.699    23814353.434        1191.828         928.922         928.930         890.225          34.000          28.000          39.000          42.000  
G06 111549528.916 7  86921848.352 8  86921796.348 8  83300054.209 8  21227167.539    21227184.812    21227185.148    21227187.457        -908.574        -707.865        -707.866        -678.374          47.000          48.000          48.000          52.000  
G05 131862603.566 5 102750208.005 3 102750124.019 5                  25092618.445    25092644.922    25092644.457                        3709.383        2890.436        2890.431                          34.000          22.000          33.000                  
G04 132045229.911 4                 102892507.936 5  98605303.160 6  25127365.141                    25127393.004    25127400.211         257.633                         200.719         192.361          28.000                          34.000          37.000  
> 2025 03 13 08 51  9.0000000  0 12
G24 133649850.395 5 104142856.047 3 104142890.051 5  99803455.250 6  25432724.352    25432757.555    25432758.070    25432764.152       -1177.504        -917.189        -917.191        -878.950          31.000          19.000          34.000          39.000  
G22 110351832.811 7  85988112.564 6                                  20999257.094    20999273.398                                       -1790.730       -1395.144                                          47.000          38.000                                  
G20 113790670.514 7  88668587.397 5                                  21653640.039    21653659.887                                        2571.773        2004.147                                          45.000          32.000                                  
G19 109068584.774 7  84988341.634 6                                  20755059.953    20755073.180                                         597.535         465.773                                          46.000          38.000                                  
G17 115224203.756 7  89784859.731 6  89785138.728 7                  21926438.281    21926456.098    21926455.730                        -457.086        -356.121        -356.122                          45.000          41.000          44.000                  
G14 115576325.017 7  90059331.127 5  90059275.124 7  86306793.576 8  21993445.844    21993467.586    21993467.234    21993474.773       -3207.719       -2499.360       -2499.349       -2395.205          42.000          30.000          46.000          48.000  
G12 126540174.825 6  98602825.463 4  98602882.471 6                  24079792.500    24079812.809    24079812.965                        3280.270        2556.167        2556.180                          36.000          26.000          36.000                  
G11 114768601.126 7  89430300.780 5  89430366.780 7  85703978.741 8  21839735.336    21839752.688    21839752.227    21839758.492         558.551         435.359         435.356         417.218          47.000          35.000          47.000          50.000  
G09 125143930.976 5  97514875.007 4  97514791.014 6  93451654.768 6  23814088.797    23814122.203    23814121.910    23814126.633        1191.758         928.690         928.687         889.989          34.000          29.000          39.000          41.000  
G06 111550437.523 7  86922556.363 8  86922504.357 8  83300732.718 8  21227340.305    21227357.746    21227357.906    21227360.324        -908.660        -708.011        -708.009        -678.509          47.000          48.000          48.000          52.000  
G05 131858894.244 5 102747317.638 3 102747233.638 5                  25091912.859    25091939.062    25091938.621                        3709.539        2890.367        2890.381                          34.000          22.000          33.000                  
G04 132044972.713 4                 102892307.534 5  98605111.107 6  25127316.070                    25127344.180    25127351.113         256.855                         200.402         192.053          28.000                          34.000          37.000  
> 2025 03 13 08 51 10.0000000  0 12
G24 133651027.70835 104143773.39733 104143807.406 5  99804334.356 6  25432947.445    25432981.602    25432982.469    25432988.258       -1177.719        -917.386        -917.355        -879.106          31.000          20.000          33.000          39.000  
G22 110353623.717 7  85989508.072 6                                  20999597.773    20999614.316                                       -1791.133       -1395.507                                          47.000          38.000                                  
G20 113788098.912 7  88666583.564 5                                  21653151.102    21653170.480                                        2571.406        2003.833                                          45.000          33.000                                  
G19 109067987.213 7  84987876.005 6                                  20754946.695    20754959.574                                         597.488         465.629                                          46.000          38.000                                  
G17 115224660.957 7  89785215.986 6  89785494.981 7                  21926525.078    21926543.180    21926543.016                        -457.227        -356.255        -356.254                          45.000          41.000          44.000                  
G14 115579532.811 7  90061830.703 5  90061774.696 7  86309189.000 8  21994056.039    21994078.109    21994077.828    21994085.184       -3207.906       -2499.576       -2499.572       -2395.423          42.000          30.000          46.000          48.000  
G12 126536894.606 6  98600269.463 4  98600326.466 6                  24079168.602    24079188.344    24079188.684                        3280.164        2556.000        2556.005                          36.000          26.000          36.000                  
G11 114768042.644 7  89429865.605 5  89429931.604 8  85703561.701 8  21839628.852    21839646.289    21839646.180    21839652.082         558.395         435.175         435.176         417.040          47.000          35.000          48.000          50.000  
G09 125142739.426 5  97513946.538 4  97513862.543 6  93450764.987 6  23813863.836    23813895.395    23813895.215    23813899.961        1191.617         928.469         928.472         889.781          34.000          29.000          39.000          41.000  
G06 111551346.275 7  86923264.485 8  86923212.476 8  83301411.334 8  21227513.453    21227530.723    21227530.961    21227533.289        -908.816        -708.122        -708.119        -678.616          47.000          48.000          49.000          52.000  
G05 131855184.952 5 102744427.290 3 102744343.269 5                  25091207.023    25091233.070    25091233.195                        3709.274        2890.348        2890.370                          33.000          22.000          33.000                  
G04 132044715.891 4                 102892107.405 5  98604919.334 6  25127267.633                    25127294.484    25127302.328         256.926                         200.129         191.773          28.000                          34.000          36.000  
> 2025 03 13 08 51 11.0000000  0 12
G24 133652205.031 5 104144690.779 3 104144724.812 5  99805213.575 6  25433169.492    25433205.664    25433206.652    25433212.273       -1177.250        -917.382        -917.406        -879.218          30.000          19.000          34.000          39.000  
G22 110355415.050 7  85990903.911 6                                  20999938.734    20999955.262                                       -1791.605       -1395.839                                          47.000          38.000                                  
G20 113785527.656 7  88664579.998 5                                  21652661.945    21652681.215                                        2571.051        2003.566                                          45.000          32.000                                  
G19 109067389.780 7  84987410.475 6                                  20754832.820    20754845.801                                         597.301         465.529                                          46.000          38.000                                  
G17 115225118.287 7  89785572.345 6  89785851.346 7                  21926611.766    21926630.152    21926629.945                        -457.438        -356.360        -356.364                          45.000          41.000          44.000                  
G14 115582740.833 7  90064330.456 4  90064274.450 7  86311584.600 8  21994666.070    21994688.504    21994688.191    21994695.641       -3208.031       -2499.753       -2499.754       -2395.600          42.000          29.000          46.000          48.000  
G12 126533614.592 6  98597713.619 4  98597770.603 6                  24078544.477    24078564.191    24078564.531                        3279.844        2555.843        2555.863                          36.000          27.000          36.000                  
G11 114767484.348 7  89429430.578 5  89429496.579 8  85703144.803 8  21839522.375    21839540.035    21839539.684    21839545.887         558.258         435.026         435.025         416.899          47.000          35.000          48.000          50.000  
G09 125141548.093 5  97513018.238 4  97512934.235 6  93449875.353 6  23813637.578    23813668.605    23813668.652    23813673.285        1191.289         928.300         928.308         889.634          34.000          29.000          39.000          41.000  
G06 111552255.114 7  86923972.675 8  86923920.669 8  83302090.017 8  21227686.492    21227703.586    21227704.035    21227706.285        -908.926        -708.190        -708.192        -678.683          47.000          48.000          49.000          52.000  
G05 131851475.628 5 102741536.901 3 102741452.905 5                  25090499.359    25090527.156    25090527.395                        3709.234        2890.389        2890.364                          33.000          22.000          33.000                  
G04 132044459.378 4                 102891907.536 5  98604727.795 6  25127219.578                    25127245.574    25127253.270         256.188                         199.869         191.540          28.000                          34.000          36.000  
> 2025 03 13 08 51 12.0000000  0 12
G24 133653382.643 5 104145608.397 3 104145642.412 5  99806092.935 6  25433393.617    25433429.957    25433430.758    25433436.461       -1177.656        -917.618        -917.601        -879.360          30.000          18.000          34.000          39.000  
G22 110357206.886 7  85992300.150 6                                  21000279.500    21000295.992                                       -1792.184       -1396.239                                          47.000          37.000                                  
G20 113782956.812 7  88662576.749 5                                  21652172.398    21652192.184                                        2570.559        2003.249                                          45.000          32.000                                  
G19 109066792.547 7  84986945.098 6                                  20754719.391    20754732.125                                         597.141         465.377                                          46.000          39.000                                  
G17 115225575.815 7  89785928.860 6  89786207.857 7                  21926698.750    21926717.141    21926717.051                        -457.633        -356.515        -356.511                          45.000          41.000          44.000                  
G14 115585949.162 7  90066830.442 5  90066774.446 7  86313980.429 8  21995277.508    21995299.027    21995298.355    21995306.172       -3208.520       -2499.986       -2499.996       -2395.829          42.000          30.000          45.000          48.000  
G12 126530334.823 6  98595157.948 4  98595214.961 6                  24077920.570    24077939.938    24077940.141                        3279.590        2555.671        2555.642                          37.000          27.000          37.000                  
G11 114766926.318 7  89428995.754 5  89429061.755 8  85702728.102 8  21839416.344    21839433.879    21839433.520    21839439.758         557.895         434.824         434.825         416.701          47.000          35.000          48.000          50.000  
G09 125140357.038 5  97512090.148 4  97512006.154 6  93448985.939 7  23813410.547    23813441.934    23813441.875    23813446.629        1191.008         928.090         928.081         889.414          35.000          29.000          40.000          42.000  
G06 111553164.117 7  86924680.994 8  86924628.987 8  83302768.822 8  21227859.164    21227876.621    21227876.855    21227879.207        -909.168        -708.319        -708.318        -678.805          47.000          48.000          49.000          52.000  
G05 131847766.336 5 102738646.556 3 102738562.562 5                  25089794.438    25089821.516    25089820.988                        3708.918        2890.344        2890.343                          34.000          21.000          32.000                  
G04 132044203.251 4                 102891707.972 5  98604536.557 6  25127170.539                    25127196.742    25127204.457         255.816                         199.564         191.238          28.000                          33.000          36.000  
> 2025 03 13 08 51 13.0000000  0 12
G24 133654560.523 5 104146526.229 3 104146560.251 5  99806972.525 6  25433618.648    25433654.062    25433654.625    25433660.590       -1178.066        -917.831        -917.839        -879.591          30.000          19.000          34.000          39.000  
G22 110358999.309 7  85993696.841 6                                  21000620.539    21000637.098                                       -1792.641       -1396.691                                          47.000          37.000                                  
G20 113780386.469 7  88660573.898 5                                  21651683.164    21651703.051                                        2570.078        2002.852                                          45.000          32.000                                  
G19 109066195.598 7  84986479.948 6                                  20754605.797    20754618.438                                         596.855         465.150                                          46.000          38.000                                  
G17 115226033.642 7  89786285.605 6  89786564.598 7                  21926785.828    21926804.402    21926804.191                        -458.004        -356.745        -356.741                          45.000          41.000          44.000                  
G14 115589157.891 7  90069330.757 4  90069274.751 7  86316376.553 8  21995887.781    21995909.617    21995909.332    21995916.820       -3208.891       -2500.315       -2500.304       -2396.125          42.000          29.000          45.000          48.000  
G12 126527055.418 6  98592602.570 4  98592659.578 6                  24077295.602    24077315.785    24077316.484                        3279.160        2555.378        2555.383                          37.000          25.000          37.000                  
G11 114766368.636 7  89428561.206 6  89428627.210 8  85702311.660 8  21839310.312    21839327.746    21839327.414    21839333.539         557.477         434.548         434.545         416.441          47.000          36.000          48.000          50.000  
G09 125139166.367 5  97511162.360 4  97511078.362 6  93448096.815 7  23813183.648    23813215.430    23813215.445    23813220.063        1190.465         927.788         927.793         889.125          35.000          29.000          39.000          42.000  
G06 111554073.373 7  86925389.507 8  86925337.504 8  83303447.819 8  21228032.312    21228049.633    21228049.785    21228052.238        -909.301        -708.514        -708.517        -678.997          47.000          48.000          49.000          52.000  
G05 131844057.179 5 102735756.308 3 102735672.309 5                  25089088.555    25089115.582    25089115.246                        3709.234        2890.248        2890.253                          33.000          22.000          33.000                  
G04 132043947.608 4                 102891508.782 5  98604345.668 6  25127122.078                    25127147.734    25127155.594         255.383                         199.189         190.889          28.000                          33.000          36.000  
> 2025 03 13 08 51 14.0000000  0 12
G24 133655738.649 5 104147444.255 3 104147478.247 5  99807852.266 6  25433842.750    25433878.281    25433879.109    25433884.707       -1178.090        -918.026        -917.996        -879.741          30.000          19.000          34.000          39.000  
G22 110360792.235 7  85995093.919 6                                  21000961.422    21000978.234                                       -1793.066       -1397.078                                          47.000          37.000                                  
G20 113777816.541 7  88658571.364 5                                  21651194.359    21651213.859                                        2569.699        2002.534                                          45.000          33.000                                  
G19 109065598.850 7  84986014.948 6                                  20754492.188    20754504.863                                         596.633         465.000                                          46.000          38.000                                  
G17 115226491.647 7  89786642.489 6  89786921.490 7                  21926873.000    21926891.605    21926891.215                        -458.008        -356.884        -356.892                          44.000          41.000          44.000                  
G14 115592366.925 7  90071831.294 4  90071775.292 7  86318772.907 8  21996498.555    21996520.215    21996519.812    21996527.496       -3209.090       -2500.537       -2500.541       -2396.354          42.000          29.000          46.000          48.000  
G12 126523776.254 6  98590047.389 4  98590104.396 6                  24076672.828    24076691.719    24076692.223                        3279.098        2555.181        2555.182                          37.000          26.000          37.000                  
G11 114765811.215 7  89428126.860 5  89428192.864 8  85701895.414 8  21839203.984    21839221.641    21839221.285    21839227.539         557.328         434.345         434.346         416.246          47.000          35.000          49.000          50.000  
G09 125137975.963 5  97510234.780 4  97510150.786 6  93447207.894 7  23812958.023    23812988.910    23812988.375    23812993.633        1190.348         927.581         927.576         888.921          35.000          29.000          39.000          42.000  
G06 111554982.793 7  86926098.149 8  86926046.143 8  83304126.931 8  21228205.406    21228222.648    21228223.016    21228225.293        -909.410        -708.642        -708.639        -679.112          47.000          48.000          49.000          52.000  
G05 131840348.082 5 102732866.105 3 102732782.111 5                  25088382.125    25088409.773    25088409.578                        3709.308        2890.203        2890.197                          33.000          21.000          32.000                  
G04 132043692.345 4                 102891309.919 5  98604155.061 6  25127073.555                    25127098.828    25127107.059         255.055                         198.863         190.607          29.000                          33.000          36.000  
> 2025 03 13 08 51 15.0000000  0 12
G24 133656916.926 5 104148362.364 3 104148396.328 5  99808732.121 6  25434066.297    25434102.594    25434103.625    25434109.070       -1178.469        -918.109        -918.081        -879.855          30.000          20.000          34.000          39.000  
G22 110362585.606 7  85996491.346 6                                  21001302.992    21001319.547                                       -1793.633       -1397.427                                          47.000          38.000                                  
G20 113775246.970 7  88656569.111 5                                  21650705.578    21650724.957                                        2569.359        2002.253                                          45.000          33.000                                  
G19 109065002.243 7  84985550.064 6                                  20754378.508    20754391.254                                         596.520         464.884                                          46.000          38.000                                  
G17 115226949.801 7  89786999.492 6  89787278.490 7                  21926960.141    21926978.820    21926978.309                        -458.148        -357.003        -357.000                          45.000          41.000          44.000                  
G14 115595576.213 7  90074332.041 4  90074276.034 7  86321169.448 8  21997109.062    21997130.832    21997130.465    21997138.164       -3209.457       -2500.747       -2500.742       -2396.541          42.000          28.000          45.000          48.000  
G12 126520497.275 6  98587492.347 4  98587549.364 6                  24076047.625    24076067.824    24076068.457                        3278.922        2555.042        2555.031                          37.000          24.000          37.000                  
G11 114765253.996 7  89427692.672 5  89427758.678 8  85701479.319 8  21839097.961    21839115.738    21839115.266    21839121.430         557.098         434.188         434.186         416.095          46.000          35.000          48.000          50.000  
G09 125136785.803 5  97509307.389 4  97509223.394 6  93446319.144 7  23812731.680    23812762.516    23812762.164    23812767.121        1190.137         927.391         927.392         888.749          35.000          29.000          39.000          42.000  
G06 111555892.317 7  86926806.873 8  86926754.865 8  83304806.126 8  21228378.406    21228395.750    21228396.117    21228398.379        -909.629        -708.724        -708.722        -679.195          47.000          48.000          49.000          52.000  
G05 131836638.962 5 102729975.885 3 102729891.891 5                  25087677.969    25087703.887    25087703.750                        3709.000        2890.220        2890.220                          34.000          21.000          32.000                  
G04 132043437.44714                 102891111.269 5  98603964.719 6  25127025.141                    25127050.836    25127058.492         254.941                         198.650         190.342          28.000                          33.000          36.000  
> 2025 03 13 08 51 16.0000000  0 12
G24 133658095.42635 104149280.65533 104149314.673 5  99809612.172 6  25434290.125    25434326.738    25434328.113    25434333.379       -1178.656        -918.193        -918.345        -880.051          30.000          20.000          34.000          40.000  
G22 110364379.500 8  85997889.185 6                                  21001644.773    21001661.004                                       -1794.250       -1397.840                                          48.000          38.000                                  
G20 113772677.831 7  88654567.191 5                                  21650216.414    21650236.070                                        2568.898        2001.919                                          45.000          33.000                                  
G19 109064405.861 7  84985085.351 6                                  20754264.969    20754277.777                                         596.270         464.713                                          46.000          38.000                                  
G17 115227408.176 7  89787356.663 6  89787635.664 7                  21927047.367    21927065.988    21927065.891                        -458.469        -357.171        -357.174                          45.000          41.000          44.000                  
G14 115598785.837 7  90076833.039 4  90076777.029 7  86323566.236 8  21997720.008    21997741.543    21997741.238    21997748.926       -3209.805       -2500.998       -2500.995       -2396.788          42.000          29.000          45.000          48.000  
G12 126517218.596 6  98584937.553 4  98584994.565 6                  24075423.867    24075443.949    24075444.426                        3278.523        2554.794        2554.799                          37.000          26.000          37.000                  
G11 114764697.072 7  89427258.713 6  89427324.712 8  85701063.440 8  21838992.148    21839009.855    21839009.383    21839015.422         556.777         433.959         433.966         415.880          46.000          36.000          48.000          50.000  
G09 125135595.941 5  97508380.246 4  97508296.246 6  93445430.629 7  23812504.664    23812536.004    23812535.543    23812540.742        1189.680         927.143         927.149         888.516          35.000          29.000          39.000          42.000  
G06 111556802.022 7  86927515.738 8  86927463.731 8  83305485.455 8  21228551.391    21228568.934    21228569.281    21228571.457        -909.746        -708.865        -708.866        -679.330          47.000          48.000          48.000          52.000  
G05 131832929.928 5 102727085.739 3 102727001.735 5                  25086971.602    25086997.969    25086997.719                        3709.062        2890.146        2890.156                          34.000          21.000          32.000                  
G04 132043182.933 4                 102890912.999 5  98603774.682 6  25126976.453                    25127002.645    25127010.102         254.016                         198.270         190.037          26.000                          32.000          36.000  
> 2025 03 13 08 51 17.0000000  0 12
G24 133659274.131 5 104150199.121 3 104150233.145 5  99810492.366 6  25434514.781    25434550.926    25434552.102    25434557.797       -1178.770        -918.466        -918.472        -880.193          30.000          20.000          33.000          40.000  
G22 110366173.880 7  85999287.400 6                                  21001986.133    21002002.492                                       -1794.629       -1398.214                                          47.000          38.000                                  
G20 113770109.102 7  88652565.594 5                                  21649727.430    21649747.336                                        2568.574        2001.597                                          45.000          32.000                                  
G19 109063809.670 7  84984620.790 6                                  20754151.266    20754164.414                                         596.125         464.560                                          46.000          37.000                                  
G17 115227866.747 7  89787713.993 6  89787992.989 7                  21927135.023    21927153.336    21927153.102                        -458.637        -357.331        -357.324                          45.000          41.000          44.000                  
G14 115601995.753 7  90079334.265 4  90079278.264 7  86325963.251 8  21998330.703    21998352.398    21998352.098    21998359.793       -3210.090       -2501.226       -2501.235       -2397.015          42.000          29.000          45.000          48.000  
G12 126513940.167 6  98582382.936 4  98582439.958 6                  24074800.430    24074819.914    24074820.352                        3278.340        2554.617        2554.607                          37.000          27.000          37.000                  
G11 114764140.398 7  89426824.951 5  89426890.949 8  85700647.753 8  21838886.141    21838903.879    21838903.453    21838909.465         556.566         433.762         433.763         415.687          46.000          35.000          48.000          50.000  
G09 125134406.363 5  97507453.309 4  97507369.317 6  93444542.321 7  23812277.828    23812309.699    23812309.004    23812314.512        1189.414         926.937         926.929         888.308          35.000          28.000          39.000          42.000  
G06 111557711.885 7  86928224.725 8  86928172.719 8  83306164.906 8  21228724.438    21228742.039    21228742.156    21228744.621        -909.906        -708.988        -708.988        -679.450          47.000          48.000          48.000          52.000  
G05 131829220.937 5 102724195.622 3 102724111.624 5                  25086266.273    25086292.012    25086292.020                        3709.058        2890.116        2890.111                          34.000          21.000          33.000                  
G04 132042928.78734                 102890714.971 5  98603584.930 6  25126925.852                    25126953.812    25126961.805         253.961                         198.028         189.752          28.000                          32.000          37.000  
> 2025 03 13 08 51 18.0000000  0 11
G24 133660453.056 5 104151117.766 3 104151151.770 5  99811372.715 6  25434738.523    25434775.172    25434776.082    25434782.059       -1178.992        -918.645        -918.624        -880.349          30.000          19.000          33.000          39.000  
G22 110367968.751 7  86000686.001 6                                  21002327.836    21002344.141                                       -1795.164       -1398.602                                          47.000          38.000                                  
G20 113767540.776 7  88650564.311 5                                  21649238.867    21649258.629                                        2568.145        2001.284                                          45.000          33.000                                  
G19 109063213.671 7  84984156.377 6                                  20754037.906    20754050.977                                         595.840         464.414                                          46.000          38.000                                  
G17 115228325.505 7  89788071.463 6  89788350.460 7                  21927222.094    21927240.582    21927240.027                        -458.859        -357.470        -357.471                          45.000          41.000          44.000                  
G14 115605205.966 7  90081835.732 4  90081779.729 7  86328360.484 8  21998941.914    21998963.293    21998962.887    21998970.695       -3210.410       -2501.467       -2501.465       -2397.233          42.000          29.000          45.000          48.000  
G12 126510661.996 6  98579828.526 4  98579885.545 6                  24074176.984    24074195.988    24074196.430                        3278.164        2554.409        2554.413                          37.000          25.000          37.000                  
G11 114763583.973 7  89426391.377 5  89426457.378 8  85700232.249 8  21838780.398    21838797.941    21838797.527    21838803.652         556.266         433.574         433.571         415.504          46.000          35.000          48.000          50.000  
G09 125133217.068 5  97506526.595 5  97506442.597 6  93443654.222 7  23812052.000    23812083.375    23812082.965    23812088.156        1189.023         926.714         926.720         888.098          35.000          30.000          39.000          42.000  
G06 111558621.905 7  86928933.835 8  86928881.828 8  83306844.466 8  21228897.656    21228915.152    21228915.281    21228917.734        -910.106        -709.110        -709.110        -679.560          47.000          48.000          49.000          52.000  
G05 131825511.984 5 102721305.531 3 102721221.531 5                  25085559.883    25085586.230    25085586.211                        3708.805        2890.091        2890.093                          34.000          22.000          33.000                  
> 2025 03 13 08 51 19.0000000  0 11
G24 133661632.212 5 104152036.560 3 104152070.575 5  99812253.246 6  25434962.797    25434999.594    25434999.891    25435006.352       -1179.184        -918.794        -918.806        -880.531          30.000          19.000          33.000          40.000  
G22 110369764.154 7  86002085.013 6                                  21002669.000    21002685.641                                       -1795.629       -1399.012                                          47.000          38.000                                  
G20 113764972.899 7  88648563.379 5                                  21648750.508    21648769.957                                        2567.652        2000.932                                          45.000          33.000                                  
G19 109062617.895 7  84983692.137 6                                  20753924.430    20753937.676                                         595.672         464.240                                          46.000          38.000                                  
G17 115228784.504 7  89788429.125 6  89788708.123 7                  21927309.805    21927327.887    21927327.531                        -459.020        -357.662        -357.663                          45.000          41.000          44.000                  
G14 115608416.528 7  90084337.457 4  90084281.461 7  86330757.974 8  21999552.531    21999574.238    21999573.875    21999581.691       -3210.691       -2501.726       -2501.733       -2397.491          43.000          29.000          45.000          48.000  
G12 126507384.117 6  98577274.352 4  98577331.360 6                  24073553.023    24073572.223    24073572.910                        3277.758        2554.174        2554.185                          37.000          27.000          36.000                  
G11 114763027.847 7  89425958.045 5  89426024.040 7  85699816.971 8  21838674.672    21838692.020    21838691.555    21838697.766         556.000         433.332         433.338         415.278          46.000          35.000          47.000          50.000  
G09 125132028.086 5  97505600.128 4  97505516.132 6  93442766.357 7  23811825.062    23811857.168    23811856.359    23811861.906        1188.816         926.467         926.464         887.865          34.000          29.000          39.000          42.000  
G06 111559532.121 7  86929643.093 8  86929591.088 8  83307524.176 8  21229070.773    21229088.320    21229088.664    21229090.969        -910.344        -709.259        -709.259        -679.710          47.000          48.000          49.000          52.000  
G05 131821803.087 5 102718415.510 3 102718331.505 5                  25084854.273    25084880.551    25084880.430                        3708.832        2890.021        2890.026                          34.000          22.000          34.000                  
> 2025 03 13 08 51 20.0000000  0 11
G24 133662811.611 5 104152955.572 3 104152989.534 5  99813133.935 6  25435187.672    25435224.098    25435224.637    25435230.910       -1179.914        -919.012        -918.959        -880.689          30.000          19.000          33.000          40.000  
G22 110371560.061 7  86003484.422 6                                  21003010.656    21003027.461                                       -1796.070       -1399.409                                          47.000          37.000                                  
G20 113762405.437 7  88646562.766 5                                  21648261.805    21648281.156                                        2567.328        2000.613                                          45.000          33.000                                  
G19 109062022.327 7  84983228.060 6                                  20753811.734    20753824.340                                         595.430         464.077                                          46.000          38.000                                  
G17 115229243.699 7  89788786.934 6  89789065.935 7                  21927397.508    21927415.406    21927414.805                        -459.336        -357.809        -357.812                          44.000          41.000          44.000                  
G14 115611627.389 7  90086839.430 5  90086783.431 7  86333155.692 8  22000163.312    22000185.266    22000184.977    22000192.633       -3210.938       -2501.973       -2501.969       -2397.717          42.000          30.000          45.000          48.000  
G12 126504106.478 6  98574720.346 4  98574777.356 6                  24072929.141    24072948.480    24072949.098                        3277.500        2554.006        2554.005                          37.000          26.000          36.000                  
G11 114762471.978 7  89425524.905 5  89425590.904 7  85699401.882 8  21838569.109    21838586.277    21838585.773    21838591.984         555.766         433.140         433.136         415.089          46.000          35.000          47.000          50.000  
G09 125130839.410 5  97504673.892 4  97504589.888 6  93441878.709 7  23811597.945    23811630.922    23811630.137    23811635.633        1188.383         926.235         926.245         887.649          35.000          29.000          39.000          42.000  
G06 111560442.498 7  86930352.483 8  86930300.477 8  83308204.009 8  21229244.211    21229261.598    21229261.742    21229264.168        -910.457        -709.390        -709.389        -679.832          47.000          48.000          48.000          52.000  
G05 131818094.233 5 102715525.503 3 102715441.507 5                  25084148.781    25084174.664    25084174.492                        3708.988        2890.007        2889.998                          33.000          22.000          34.000                  
> 2025 03 13 08 51 21.0000000  0 11
G24 133663991.10135 104153874.64433 104153908.641 5  99814014.772 6  25435413.273    25435448.578    25435448.676    25435455.449       -1179.703        -919.229        -919.106        -880.838          30.000          19.000          33.000          40.000  
G22 110373356.424 7  86004884.183 6                                  21003352.617    21003369.363                                       -1796.598       -1399.761                                          47.000          38.000                                  
G20 113759838.348 7  88644562.445 5                                  21647774.023    21647792.719                                        2566.840        2000.321                                          45.000          34.000                                  
G19 109061426.907 7  84982764.099 6                                  20753698.250    20753711.121                                         595.355         463.962                                          46.000          38.000                                  
G17 115229703.042 7  89789144.863 6  89789423.866 7                  21927485.406    21927502.660    21927502.539                        -459.352        -357.928        -357.931                          44.000          41.000          44.000                  
G14 115614838.510 7  90089341.602 4  90089285.600 7  86335553.603 8  22000774.469    22000796.336    22000796.023    22000803.816       -3211.246       -2502.171       -2502.169       -2397.912          42.000          29.000          45.000          48.000  
G12 126500829.072 6  98572166.549 4  98572223.542 6                  24072305.734    24072324.879    24072325.266                        3277.191        2553.797        2553.814                          37.000          25.000          36.000                  
G11 114761916.325 7  89425091.933 6  89425157.932 8  85698986.955 8  21838463.578    21838480.539    21838480.082    21838486.211         555.535         432.972         432.973         414.927          46.000          36.000          48.000          50.000  
G09 125129650.957 5  97503747.840 4  97503663.832 6  93440991.249 7  23811372.500    23811404.797    23811404.359    23811409.344        1188.293         926.053         926.056         887.460          34.000          29.000          40.000          42.000  
G06 111561352.988 7  86931061.961 8  86931009.956 8  83308883.924 8  21229417.289    21229434.895    21229435.043    21229437.422        -910.473        -709.478        -709.479        -679.915          47.000          48.000          49.000          52.000  
G05 131814385.392 5 102712635.503 3 102712551.496 5                  25083442.695    25083468.953    25083468.836                        3708.918        2890.000        2890.011                          33.000          22.000          34.000                  
> 2025 03 13 08 51 22.0000000  0 11
G24 133665170.84035 104154793.89833 104154827.932 5  99814895.701 6  25435637.922    25435673.258    25435673.293    25435680.195       -1179.828        -919.447        -919.292        -880.929          30.000          18.000          33.000          40.000  
G22 110375153.282 7  86006284.326 6                                  21003694.547    21003711.328                                       -1797.027       -1400.143                                          47.000          37.000                                  
G20 113757271.661 7  88642562.433 5                                  21647285.195    21647304.227                                        2566.547        2000.012                                          45.000          33.000                                  
G19 109060831.682 7  84982300.293 6                                  20753584.820    20753597.852                                         595.141         463.806                                          46.000          38.000                                  
G17 115230162.581 7  89789502.943 6  89789781.943 7                  21927572.953    21927590.074    21927589.836                        -459.676        -358.080        -358.077                          44.000          41.000          44.000                  
G14 115618049.930 7  90091844.004 5  90091788.003 7  86337951.740 8  22001385.625    22001407.438    22001407.230    22001414.957       -3211.625       -2502.402       -2502.403       -2398.136          42.000          30.000          45.000          48.000  
G12 126497551.907 6  98569612.900 4  98569669.905 6                  24071681.836    24071701.262    24071701.504                        3276.977        2553.648        2553.637                          37.000          27.000          36.000                  
G11 114761360.926 7  89424659.163 6  89424725.159 7  85698572.215 8  21838357.633    21838374.863    21838374.418    21838380.488         555.324         432.770         432.773         414.740          46.000          36.000          47.000          50.000  
G09 125128462.799 5  97502822.001 4  97502737.991 6  93440103.988 7  23811146.398    23811178.746    23811178.270    23811183.375        1187.992         925.839         925.841         887.261          35.000          29.000          39.000          42.000  
G06 111562263.640 7  86931771.564 8  86931719.554 8  83309563.958 8  21229590.836    21229608.207    21229608.578    21229610.746        -910.785        -709.603        -709.598        -680.035          47.000          48.000          48.000          52.000  
G05 131810676.584 5 102709745.527 3 102709661.526 5                  25082736.039    25082763.277    25082763.133                        3708.856        2889.976        2889.970                          33.000          22.000          34.000                  
> 2025 03 13 08 51 23.0000000  0 11
G24 133666350.786 4 104155713.305 3 104155747.355 5  99815776.803 6  25435863.336    25435897.887    25435898.066    25435904.781       -1180.188        -919.408        -919.422        -881.102          29.000          19.000          33.000          40.000  
G22 110376950.618 7  86007684.844 6                                  21004036.828    21004053.316                                       -1797.676       -1400.518                                          47.000          38.000                                  
G20 113754705.365 7  88640562.736 5                                  21646796.641    21646815.840                                        2566.094        1999.697                                          45.000          33.000                                  
G19 109060236.642 7  84981836.627 6                                  20753472.078    20753484.516                                         594.926         463.666                                          46.000          39.000                                  
G17 115230622.300 7  89789861.164 6  89790140.165 7                  21927660.328    21927677.605    21927677.480                        -459.840        -358.221        -358.222                          44.000          41.000          44.000                  
G14 115621261.643 7  90094346.628 5  90094290.631 7  86340350.091 8  22001997.008    22002018.543    22002018.539    22002026.160       -3211.887       -2502.624       -2502.628       -2398.352          42.000          30.000          46.000          48.000  
G12 126494274.991 6  98567059.471 4  98567116.477 6                  24071058.680    24071077.562    24071077.875                        3276.777        2553.430        2553.428                          37.000          27.000          36.000                  
G11 114760805.769 7  89424226.582 6  89424292.579 8  85698157.657 8  21838251.742    21838269.199    21838269.000    21838274.941         555.000         432.581         432.580         414.558          46.000          36.000          48.000          50.000  
G09 125127274.897 5  97501896.366 4  97501812.372 6  93439216.935 7  23810920.555    23810952.613    23810952.414    23810957.355        1188.031         925.635         925.619         887.053          35.000          29.000          39.000          42.000  
G06 111563174.427 7  86932481.268 8  86932429.260 8  83310244.095 8  21229763.945    21229781.434    21229781.836    21229784.086        -910.859        -709.705        -709.706        -680.137          47.000          48.000          48.000          52.000  
G05 131806967.799 5 102706855.584 3 102706771.586 5                  25082030.211    25082057.504    25082056.832                        3708.898        2889.942        2889.940                          33.000          21.000          34.000                  
> 2025 03 13 08 51 24.0000000  0 11
G24 133667530.95834 104156632.95833 104156666.972 5  99816658.111 6  25436087.773    25436122.617    25436122.574    25436129.367       -1180.191        -919.368        -919.617        -881.308          29.000          19.000          33.000          40.000  
G22 110378748.508 7  86009085.793 6                                  21004378.953    21004395.309                                       -1798.191       -1400.949                                          47.000          38.000                                  
G20 113752139.537 7  88638563.401 5                                  21646307.781    21646327.648                                        2565.535        1999.334                                          45.000          32.000                                  
G19 109059641.853 7  84981373.157 6                                  20753358.648    20753371.434                                         594.668         463.469                                          46.000          38.000                                  
G17 115231082.269 7  89790219.579 6  89790498.575 7                  21927747.461    21927765.211    21927765.121                        -460.199        -358.415        -358.410                          44.000          41.000          44.000                  
G14 115624473.711 7  90096849.529 4  90096793.534 7  86342748.710 8  22002607.523    22002629.910    22002630.043    22002637.324       -3212.262       -2502.901       -2502.904       -2398.619          42.000          28.000          46.000          48.000  
G12 126490998.386 6  98564506.276 4  98564563.281 6                  24070435.047    24070454.012    24070454.344                        3276.488        2553.195        2553.196                          37.000          27.000          36.000                  
G11 114760250.924 7  89423794.241 5  89423860.238 8  85697743.335 8  21838146.312    21838163.633    21838163.477    21838169.320         554.703         432.342         432.341         414.322          46.000          35.000          48.000          50.000  
G09 125126087.334 5  97500971.011 5  97500887.004 6  93438330.134 7  23810694.633    23810726.586    23810726.738    23810731.387        1187.125         925.355         925.368         886.802          34.000          30.000          39.000          42.000  
G06 111564085.424 7  86933191.140 8  86933139.136 8  83310924.390 8  21229937.469    21229954.828    21229954.988    21229957.457        -911.074        -709.872        -709.876        -680.295          47.000          48.000          48.000          52.000  
G05 131803259.113 5 102703965.693 3 102703881.715 5                  25081324.383    25081351.715    25081350.969                        3708.457        2889.891        2889.871                          33.000          21.000          33.000                  
> 2025 03 13 08 51 25.0000000  0 11
G24 133668711.32034 104157552.66933 104157586.717 5  99817539.559 6  25436312.227    25436347.211    25436347.004    25436353.992       -1180.133        -919.329        -919.745        -881.447          28.000          18.000          33.000          40.000  
G22 110380546.867 8  86010487.113 6                                  21004721.055    21004737.594                                       -1798.562       -1401.320                                          48.000          38.000                                  
G20 113749574.091 7  88636564.363 5                                  21645819.883    21645839.441                                        2565.277        1999.038                                          45.000          33.000                                  
G19 109059047.228 7  84980909.812 6                                  20753245.938    20753258.246                                         594.691         463.345                                          46.000          38.000                                  
G17 115231542.407 7  89790578.128 6  89790857.123 7                  21927835.727    21927852.738    21927852.582                        -460.223        -358.549        -358.548                          44.000          41.000          44.000                  
G14 115627686.058 7  90099352.659 5  90099296.659 7  86345147.535 8  22003219.297    22003241.141    22003241.281    22003248.625       -3212.422       -2503.130       -2503.125       -2398.825          42.000          30.000          45.000          48.000  
G12 126487722.001 6  98561953.270 4  98562010.267 6                  24069811.680    24069830.543    24069830.844                        3276.215        2553.005        2553.014                          38.000          26.000          37.000                  
G11 114759696.314 7  89423362.082 5  89423428.080 8  85697329.184 8  21838040.586    21838058.027    21838058.023    21838063.777         554.492         432.159         432.158         414.150          46.000          35.000          48.000          50.000  
G09 125124900.032 5  97500045.844 5  97499961.847 6  93437443.519 7  23810468.602    23810500.719    23810500.453    23810505.473        1187.066         925.167         925.158         886.614          35.000          30.000          39.000          42.000  
G06 111564996.558 7  86933901.119 8  86933849.112 8  83311604.786 8  21230110.984    21230128.102    21230128.512    21230130.824        -911.195        -709.979        -709.976        -680.396          47.000          48.000          48.000          52.000  
G05 131799550.435 5 102701075.835 3 102700991.837 5                  25080618.766    25080645.816    25080645.074                        3708.891        2889.858        2889.878                          33.000          22.000          33.000                  
> 2025 03 13 08 51 26.0000000  0 11
G24 133669891.921 4 104158472.624 3 104158506.639 5  99818421.124 6  25436534.656    25436572.035    25436571.969    25436578.570       -1180.566        -919.955        -919.922        -881.565          29.000          18.000          33.000          40.000  
G22 110382345.711 8  86011888.806 6                                  21005063.258    21005079.875                                       -1799.047       -1401.693                                          48.000          38.000                                  
G20 113747009.036 7  88634565.628 5                                  21645331.617    21645351.379                                        2564.809        1998.735                                          45.000          33.000                                  
G19 109058452.781 7  84980446.607 6                                  20753132.312    20753145.180                                         594.352         463.205                                          46.000          38.000                                  
G17 115232002.724 7  89790936.816 6  89791215.810 7                  21927922.844    21927940.367    21927940.109                        -460.418        -358.688        -358.687                          44.000          41.000          44.000                  
G14 115630898.688 6  90101856.012 4  90101800.006 7  86347546.573 8  22003830.375    22003852.500    22003852.383    22003860.051       -3212.758       -2503.353       -2503.347       -2399.039          41.000          29.000          45.000          48.000  
G12 126484445.859 6  98559400.446 4  98559457.441 6                  24069187.859    24069207.066    24069207.625                        3275.992        2552.824        2552.826                          38.000          27.000          37.000                  
G11 114759141.941 7  89422930.111 6  89422996.109 8  85696915.215 8  21837935.195    21837952.512    21837952.430    21837958.293         554.219         431.971         431.971         413.969          46.000          36.000          48.000          50.000  
G09 125123713.000 5  97499120.892 5  97499036.902 6  93436557.113 7  23810243.062    23810274.738    23810273.875    23810279.605        1186.914         924.952         924.945         886.407          34.000          30.000          38.000          43.000  
G06 111565907.834 7  86934611.208 8  86934559.203 8  83312285.287 8  21230284.102    21230301.684    21230301.766    21230304.207        -911.383        -710.089        -710.090        -680.502          47.000          48.000          49.000          52.000  
G05 131795841.799 5 102698186.004 3 102698101.986 5                  25079913.477    25079940.141    25079939.332                        3708.734        2889.831        2889.851                          34.000          21.000          33.000                  
> 2025 03 13 08 51 27.0000000  0 11
G24 133671072.716 4 104159392.732 3 104159426.730 5  99819302.879 6  25436759.953    25436796.742    25436796.656    25436803.328       -1180.738        -920.108        -920.092        -881.755          28.000          19.000          33.000          40.000  
G22 110384145.072 8  86013290.905 6                                  21005405.953    21005422.336                                       -1799.578       -1402.099                                          48.000          38.000                                  
G20 113744444.416 7  88632567.229 5                                  21644843.570    21644863.387                                        2564.434        1998.399                                          45.000          33.000                                  
G19 109057858.554 7  84979983.576 6                                  20753019.203    20753032.055                                         594.117         463.031                                          46.000          38.000                                  
G17 115232463.259 7  89791295.673 6  89791574.670 7                  21928009.898    21928027.895    21928027.609                        -460.621        -358.857        -358.860                          44.000          41.000          44.000                  
G14 115634111.645 7  90104359.603 4  90104303.607 7  86349945.857 8  22004441.891    22004463.992    22004463.719    22004471.453       -3213.070       -2503.590       -2503.600       -2399.283          42.000          29.000          45.000          48.000  
G12 126481170.007 6  98556847.820 4  98556904.832 6                  24068565.312    24068583.621    24068584.617                        3275.824        2552.626        2552.608                          38.000          26.000          36.000                  
G11 114758587.846 7  89422498.358 6  89422564.356 8  85696501.450 8  21837829.602    21837847.051    21837847.055    21837852.836         553.949         431.753         431.753         413.765          46.000          36.000          48.000          50.000  
G09 125122526.274 5  97498196.182 5  97498112.186 6  93435670.932 7  23810016.344    23810049.082    23810047.844    23810053.695        1186.441         924.710         924.717         886.180          34.000          30.000          38.000          42.000  
G06 111566819.288 7  86935321.434 8  86935269.429 8  83312965.925 8  21230457.797    21230475.066    21230475.305    21230477.656        -911.484        -710.226        -710.226        -680.637          47.000          48.000          48.000          52.000  
G05 131792133.201 5 102695296.163 3 102695212.176 5                  25079207.859    25079234.434    25079233.605                        3708.551        2889.841        2889.810                          33.000          22.000          32.000                  
> 2025 03 13 08 51 28.0000000  0 11
G24 133672253.707 4 104160312.946 2 104160346.990 5  99820184.780 6  25436984.523    25437021.312    25437021.340    25437028.031       -1180.898        -920.214        -920.260        -881.901          29.000          17.000          33.000          39.000  
G22 110385944.930 8  86014693.388 6                                  21005748.531    21005764.906                                       -1800.074       -1402.483                                          48.000          38.000                                  
G20 113741880.206 7  88630569.155 5                                  21644355.344    21644375.281                                        2564.078        1998.074                                          45.000          33.000                                  
G19 109057264.525 7  84979520.699 6                                  20752906.016    20752918.945                                         593.980         462.877                                          46.000          39.000                                  
G17 115232923.994 7  89791654.686 6  89791933.682 7                  21928097.227    21928115.719    21928115.531                        -460.742        -359.013        -359.012                          44.000          41.000          44.000                  
G14 115637324.912 7  90106863.449 4  90106807.443 7  86352345.368 8  22005053.430    22005075.418    22005075.215    22005082.891       -3213.375       -2503.846       -2503.837       -2399.512          42.000          29.000          45.000          48.000  
G12 126477894.403 6  98554295.410 4  98554352.415 6                  24067942.570    24067960.301    24067961.191                        3275.309        2552.409        2552.418                          37.000          27.000          36.000                  
G11 114758034.014 7  89422066.805 5  89422132.802 8  85696087.884 8  21837724.172    21837741.504    21837741.484    21837747.430         553.730         431.552         431.553         413.566          46.000          35.000          48.000          50.000  
G09 125121339.834 5  97497271.696 4  97497187.698 6  93434784.968 7  23809790.617    23809823.293    23809822.266    23809827.891        1186.141         924.486         924.488         885.965          35.000          28.000          39.000          42.000  
G06 111567730.904 7  86936031.788 8  86935979.785 8  83313646.683 8  21230631.305    21230648.496    21230648.719    21230651.125        -911.719        -710.354        -710.356        -680.758          47.000          48.000          48.000          52.000  
G05 131788424.673 5 102692406.405 3 102692322.408 5                  25078502.477    25078528.688    25078528.184                        3708.496        2889.758        2889.767                          33.000          22.000          32.000                  
> 2025 03 13 08 51 29.0000000  0 11
G24 133673434.890 4 104161233.361 2 104161267.387 5  99821066.828 6  25437208.289    25437245.934    25437246.324    25437252.859       -1181.434        -920.415        -920.397        -882.048          29.000          17.000          33.000          39.000  
G22 110387745.268 8  86016096.245 6                                  21006090.836    21006107.492                                       -1800.594       -1402.857                                          48.000          38.000                                  
G20 113739316.394 7  88628571.389 5                                  21643867.758    21643887.258                                        2563.547        1997.767                                          45.000          33.000                                  
G19 109056670.674 7  84979057.958 6                                  20752793.188    20752805.988                                         593.707         462.741                                          46.000          38.000                                  
G17 115233384.905 7  89792013.837 6  89792292.835 7                  21928184.750    21928203.332    21928203.293                        -461.016        -359.151        -359.152                          44.000          41.000          44.000                  
G14 115640538.459 7  90109367.503 4  90109311.502 7  86354745.090 8  22005665.289    22005686.832    22005686.906    22005694.363       -3213.742       -2504.054       -2504.058       -2399.722          42.000          29.000          45.000          48.000  
G12 126474619.029 6  98551743.179 4  98551800.192 6                  24067318.812    24067336.871    24067337.215                        3275.266        2552.231        2552.223                          37.000          27.000          36.000                  
G11 114757480.419 7  89421635.441 5  89421701.439 8  85695674.493 8  21837618.828    21837636.250    21837636.238    21837642.051         553.602         431.364         431.364         413.391          46.000          35.000          48.000          50.000  
G09 125120153.660 5  97496347.419 5  97496263.407 6  93433899.197 7  23809566.063    23809597.484    23809596.812    23809602.211        1185.863         924.277         924.291         885.771          35.000          30.000          39.000          42.000  
G06 111568642.661 7  86936742.253 8  86936690.246 8  83314327.542 8  21230804.945    21230822.078    21230822.316    21230824.641        -911.777        -710.465        -710.461        -680.859          47.000          48.000          48.000          52.000  
G05 131784716.167 5 102689516.672 3 102689432.658 5                  25077796.391    25077823.004    25077822.262                        3708.586        2889.733        2889.750                          33.000          21.000          32.000                  
> 2025 03 13 08 51 30.0000000  0 11
G24 133674616.269 4 104162153.912 2 104162187.930 5  99821949.022 6  25437435.258    25437470.695    25437471.145    25437477.770       -1181.363        -920.552        -920.543        -882.195          28.000          17.000          33.000          39.000  
G22 110389546.094 8  86017499.484 6                                  21006433.562    21006450.133                                       -1801.078       -1403.239                                          48.000          38.000                                  
G20 113736752.982 7  88626573.936 5                                  21643380.117    21643399.406                                        2563.176        1997.452                                          45.000          33.000                                  
G19 109056077.009 7  84978595.367 6                                  20752679.680    20752693.074                                         593.512         462.591                                          46.000          38.000                                  
G17 115233846.008 7  89792373.138 6  89792652.134 7                  21928272.508    21928291.020    21928291.000                        -461.234        -359.301        -359.299                          44.000          41.000          45.000                  
G14 115643752.295 7  90111871.789 4  90111815.786 7  86357145.028 8  22006276.922    22006298.457    22006298.516    22006306.004       -3214.004       -2504.286       -2504.284       -2399.938          42.000          29.000          45.000          48.000  
G12 126471343.906 6  98549191.141 4  98549248.152 6                  24066694.500    24066713.504    24066714.047                        3274.957        2552.038        2552.039                          37.000          27.000          36.000                  
G11 114756927.071 7  89421204.270 5  89421270.270 8  85695261.288 8  21837513.797    21837530.941    21837530.766    21837536.793         553.238         431.171         431.169         413.205          46.000          35.000          48.000          50.000  
G09 125118967.763 5  97495423.344 4  97495339.350 6  93433013.639 7  23809339.914    23809371.551    23809371.402    23809376.543        1185.723         924.075         924.058         885.558          35.000          29.000          39.000          42.000  
G06 111569554.568 7  86937452.833 8  86937400.826 8  83315008.514 8  21230978.266    21230995.512    21230995.820    21230998.152        -912.016        -710.580        -710.580        -680.972          47.000          48.000          48.000          52.000  
G05 131781007.710 5 102686626.951 3 102686542.966 5                  25077091.047    25077117.355    25077116.629                        3708.652        2889.721        2889.691                          34.000          21.000          33.000                  
> 2025 03 13 08 51 31.0000000  0 11
G24 133675797.87614                 104163108.689 5  99822831.394 6  25437660.438                    25437696.438    25437702.719       -1181.586                        -920.760        -882.371          28.000                          33.000          39.000  
G22 110391347.430 8  86018903.119 6                                  21006775.961    21006792.938                                       -1801.566       -1403.635                                          48.000          38.000                                  
G20 113734189.989 7  88624576.805 5                                  21642892.461    21642911.738                                        2562.812        1997.131                                          45.000          33.000                                  
G19 109055483.549 7  84978132.935 6                                  20752566.703    20752580.027                                         593.492         462.432                                          46.000          38.000                                  
G17 115234307.322 7  89792732.600 6  89793011.596 7                  21928359.758    21928378.820    21928378.887                        -461.465        -359.462        -359.462                          44.000          41.000          45.000                  
G14 115646966.456 7  90114376.322 5  90114320.320 7  86359545.208 8  22006888.242    22006910.246    22006910.285    22006917.688       -3214.289       -2504.533       -2504.534       -2400.180          42.000          30.000          46.000          48.000  
G12 126468069.061 6  98546639.314 4  98546696.322 6                  24066072.055    24066090.437    24066090.977                        3274.770        2551.827        2551.831                          37.000          28.000          36.000                  
G11 114756373.999 7  89420773.312 5  89420839.306 8  85694848.287 8  21837408.453    21837425.891    21837425.539    21837431.523         552.922         430.958         430.964         413.001          46.000          35.000          48.000          50.000  
G09 125117782.159 5  97494499.510 4  97494415.513 6  93432128.294 7  23809113.586    23809146.016    23809145.887    23809151.004        1185.445         923.835         923.837         885.346          35.000          29.000          39.000          42.000  
G06 111570466.644 7  86938163.543 8  86938111.539 8  83315689.613 8  21231151.609    21231169.098    21231169.371    21231171.715        -912.211        -710.710        -710.713        -681.099          47.000          48.000          48.000          52.000  
G05 131777299.306 5 102683737.291 3 102683653.304 5                  25076385.781    25076411.582    25076410.770                        3708.426        2889.659        2889.662                          33.000          22.000          33.000                  
> 2025 03 13 08 51 32.0000000  0 10
G22 110393149.244 8  86020307.131 6                                  21007118.555    21007135.750                                       -1802.039       -1404.012                                          48.000          38.000                                  
G20 113731627.396 7  88622579.984 5                                  21642404.617    21642424.145                                        2562.418        1996.821                                          45.000          33.000                                  
G19 109054890.273 7  84977670.643 6                                  20752454.172    20752467.160                                         593.070         462.292                                          46.000          38.000                                  
G17 115234768.813 7  89793092.201 6  89793371.202 7                  21928447.812    21928466.746    21928466.785                        -461.574        -359.601        -359.606                          44.000          41.000          44.000                  
G14 115650180.900 7  90116881.084 4  90116825.079 7  86361945.600 8  22007500.352    22007522.078    22007521.770    22007529.324       -3214.523       -2504.761       -2504.759       -2400.392          42.000          29.000          46.000          48.000  
G12 126464794.434 6  98544087.671 4  98544144.675 6                  24065448.117    24065467.422    24065467.883                        3274.461        2551.643        2551.646                          37.000          26.000          36.000                  
G11 114755821.167 7  89420342.538 6  89420408.533 7  85694435.465 8  21837303.383    21837320.664    21837320.113    21837326.312         552.684         430.774         430.773         412.822          46.000          36.000          47.000          50.000  
G09 125116596.844 5  97493575.895 4  97493491.887 6  93431243.160 7  23808888.070    23808920.621    23808920.492    23808925.480        1185.246         923.614         923.626         885.134          34.000          29.000          39.000          42.000  
G06 111571378.862 7  86938874.364 8  86938822.360 8  83316370.819 8  21231325.797    21231342.723    21231342.910    21231345.281        -912.246        -710.822        -710.821        -681.205          47.000          48.000          48.000          52.000  
G05 131773590.937 5 102680847.658 3 102680763.655 5                  25075680.086    25075705.887    25075705.422                        3708.316        2889.634        2889.649                          33.000          22.000          34.000                  
> 2025 03 13 08 51 33.0000000  0 10
G22 110394951.596 7  86021711.556 6                                  21007462.031    21007478.832                                       -1802.676       -1404.425                                          47.000          39.000                                  
G20 113729065.255 7  88620583.521 5                                  21641917.172    21641936.508                                        2561.891        1996.463                                          45.000          33.000                                  
G19 109054297.237 7  84977208.541 6                                  20752341.359    20752354.277                                         592.934         462.102                                          46.000          38.000                                  
G17 115235230.541 7  89793451.987 6  89793730.984 7                  21928535.656    21928554.562    21928554.270                        -461.891        -359.785        -359.783                          45.000          41.000          44.000                  
G14 115653395.685 7  90119386.107 5  90119330.104 7  86364346.250 8  22008111.812    22008133.645    22008133.406    22008141.055       -3214.945       -2505.023       -2505.025       -2400.650          42.000          30.000          45.000          48.000  
G12 126461520.121 6  98541536.272 4  98541593.269 6                  24064826.016    24064844.383    24064843.832                        3274.227        2551.399        2551.406                          38.000          28.000          37.000                  
G11 114755268.632 7  89419911.995 5  89419977.991 7  85694022.866 8  21837198.094    21837215.516    21837214.906    21837221.141         552.363         430.543         430.542         412.599          46.000          35.000          47.000          50.000  
G09 125115411.832 5  97492652.518 4  97492568.513 6  93430358.261 7  23808662.750    23808695.059    23808695.078    23808699.992        1184.699         923.377         923.374         884.898          35.000          27.000          39.000          42.000  
G06 111572291.277 7  86939585.340 8  86939533.336 8  83317052.174 8  21231498.875    21231516.332    21231516.656    21231518.895        -912.559        -710.976        -710.976        -681.355          47.000          48.000          48.000          52.000  
G05 131769882.627 5 102677958.091 3 102677874.072 5                  25074973.555    25075000.121    25074999.777                        3708.531        2889.566        2889.583                          33.000          21.000          34.000                  
> 2025 03 13 08 51 34.0000000  0 10
G22 110396754.475 7  86023116.392 6                                  21007805.305    21007821.809                                       -1803.141       -1404.836                                          47.000          38.000                                  
G20 113726503.556 7  88618587.400 5                                  21641429.758    21641449.008                                        2561.578        1996.122                                          45.000          33.000                                  
G19 109053704.425 7  84976746.610 6                                  20752228.539    20752241.492                                         592.680         461.931                                          46.000          38.000                                  
G17 115235692.497 7  89793811.953 6  89794090.952 7                  21928623.742    21928642.598    21928642.090                        -462.113        -359.966        -359.967                          45.000          41.000          44.000                  
G14 115656610.801 7  90121891.386 5  90121835.386 7  86366747.145 8  22008723.617    22008745.430    22008745.184    22008752.871       -3215.145       -2505.279       -2505.282       -2400.895          42.000          30.000          45.000          48.000  
G12 126458246.085 6  98538985.075 4  98539042.081 6                  24064202.453    24064221.328    24064221.406                        3273.922        2551.198        2551.188                          38.000          28.000          37.000                  
G11 114754716.385 7  89419481.674 5  89419547.674 8  85693610.480 8  21837092.852    21837110.250    21837110.004    21837116.066         552.133         430.321         430.317         412.386          46.000          35.000          48.000          50.000  
G09 125114227.148 5  97491729.396 4  97491645.395 6  93429473.601 7  23808437.555    23808469.621    23808469.742    23808474.594        1184.527         923.123         923.118         884.660          35.000          28.000          39.000          43.000  
G06 111573203.889 7  86940296.470 8  86940244.464 8  83317733.668 8  21231672.703    21231690.008    21231690.262    21231692.605        -912.723        -711.130        -711.128        -681.495          47.000          48.000          49.000          52.000  
G05 131766174.398 5 102675068.594 3 102674984.573 5                  25074268.031    25074294.629    25074294.461                        3707.871        2889.498        2889.499                          33.000          21.000          34.000                  
> 2025 03 13 08 51 35.0000000  0 10
G22 110398557.813 7  86024521.590 6                                  21008148.570    21008165.090                                       -1803.609       -1405.198                                          47.000          38.000                                  
G20 113723942.236 7  88616591.574 5                                  21640942.250    21640961.559                                        2561.148        1995.826                                          45.000          33.000                                  
G19 109053111.772 7  84976284.805 6                                  20752115.648    20752128.785                                         592.516         461.805                                          46.000          38.000                                  
G17 115236154.617 7  89794172.045 6  89794451.040 7                  21928712.016    21928730.520    21928730.309                        -462.230        -360.092        -360.088                          44.000          41.000          45.000                  
G14 115659826.185 7  90124396.878 4  90124340.877 7  86369148.237 8  22009335.539    22009357.277    22009357.051    22009364.727       -3215.570       -2505.491       -2505.491       -2401.092          42.000          29.000          45.000          48.000  
G12 126454972.270 6  98536434.061 4  98536491.062 6                  24063580.031    24063598.512    24063598.832                        3273.746        2551.014        2551.019                          38.000          26.000          37.000                  
G11 114754164.357 7  89419051.536 5  89419117.529 8  85693198.262 8  21836987.922    21837005.285    21837005.023    21837011.047         551.941         430.139         430.145         412.218          46.000          35.000          48.000          50.000  
G09 125113042.713 5  97490806.464 4  97490722.466 6  93428589.128 7  23808211.914    23808244.102    23808244.422    23808249.133        1184.168         922.932         922.929         884.474          34.000          28.000          39.000          42.000  
G06 111574116.615 7  86941007.685 8  86940955.682 8  83318415.253 8  21231846.297    21231863.539    21231864.063    21231866.301        -912.816        -711.215        -711.218        -681.585          47.000          48.000          49.000          52.000  
G05 131762466.180 5 102672179.062 3 102672095.053 5                  25073562.312    25073588.941    25073588.680                        3708.320        2889.531        2889.520                          33.000          21.000          34.000                  
> 2025 03 13 08 51 36.0000000  0 10
G22 110400361.618 7  86025927.151 6                                  21008491.891    21008508.348                                       -1804.035       -1405.562                                          47.000          38.000                                  
G20 113721381.307 7  88614596.056 5                                  21640454.750    21640474.320                                        2560.730        1995.518                                          45.000          33.000                                  
G19 109052519.288 7  84975823.129 6                                  20752003.016    20752016.004                                         592.344         461.676                                          46.000          38.000                                  
G17 115236616.907 7  89794532.268 6  89794811.268 7                  21928800.469    21928818.457    21928818.117                        -462.398        -360.223        -360.228                          44.000          41.000          44.000                  
G14 115663041.848 7  90126902.587 4  90126846.589 7  86371549.541 8  22009947.328    22009969.293    22009969.027    22009976.660       -3215.816       -2505.709       -2505.712       -2401.303          42.000          29.000          45.000          48.000  
G12 126451698.691 6  98533883.223 4  98533940.222 6                  24062956.641    24062975.637    24062975.875                        3273.477        2550.838        2550.840                          37.000          27.000          37.000                  
G11 114753612.564 7  89418621.574 5  89418687.564 8  85692786.214 8  21836882.430    21836900.270    21836899.961    21836905.977         551.738         429.961         429.964         412.048          46.000          35.000          48.000          50.000  
G09 125111858.524 5  97489883.730 4  97489799.738 6  93427704.848 7  23807986.672    23808018.676    23808019.027    23808023.734        1183.984         922.733         922.728         884.279          34.000          29.000          39.000          42.000  
G06 111575029.479 7  86941719.013 8  86941667.007 8  83319096.941 8  21232020.141    21232037.336    21232037.781    21232040.020        -912.926        -711.328        -711.325        -681.688          47.000          48.000          48.000          52.000  
G05 131758757.970 5 102669289.561 3 102669205.552 5                  25072856.531    25072883.461    25072883.840                        3708.262        2889.501        2889.501                          33.000          21.000          34.000                  
> 2025 03 13 08 51 37.0000000  0 10
G22 110402165.915 7  86027333.093 6                                  21008835.133    21008851.633                                       -1804.449       -1405.941                                          47.000          38.000                                  
G20 113718820.775 7  88612600.846 5                                  21639967.719    21639987.148                                        2560.355        1995.211                                          45.000          33.000                                  
G19 109051926.987 7  84975361.601 6                                  20751890.281    20751903.469                                         592.215         461.528                                          46.000          38.000                                  
G17 115237079.377 7  89794892.633 6  89795171.633 7                  21928888.477    21928906.340    21928905.793                        -462.555        -360.366        -360.365                          44.000          41.000          45.000                  
G14 115666257.801 7  90129408.519 4  90129352.519 7  86373951.057 8  22010558.961    22010581.238    22010580.840    22010588.598       -3216.039       -2505.932       -2505.930       -2401.516          42.000          29.000          45.000          48.000  
G12 126448425.349 6  98531332.582 4  98531389.581 6                  24062333.672    24062352.746    24062352.883                        3273.285        2550.641        2550.642                          37.000          27.000          37.000                  
G11 114753061.014 7  89418191.800 5  89418257.795 8  85692374.350 8  21836777.383    21836795.320    21836795.027    21836801.016         551.395         429.774         429.769         411.863          46.000          35.000          48.000          50.000  
G09 125110674.615 5  97488961.210 4  97488877.226 6  93426820.775 7  23807760.688    23807793.336    23807793.344    23807798.418        1183.949         922.520         922.512         884.073          34.000          29.000          39.000          42.000  
G06 111575942.485 7  86942430.448 8  86942378.445 8  83319778.735 8  21232194.023    21232211.195    21232211.691    21232213.734        -913.035        -711.435        -711.438        -681.794          47.000          48.000          48.000          52.000  
G05 131755049.791 5 102666400.060 3 102666316.073 5                  25072150.992    25072177.797    25072178.684                        3708.133        2889.501        2889.479                          33.000          22.000          34.000                  
> 2025 03 13 08 51 38.0000000  0 10
G22 110403970.717 7  86028739.432 6                                  21009178.492    21009195.102                                       -1805.066       -1406.339                                          47.000          38.000                                  
G20 113716260.664 7  88610605.963 5                                  21639480.586    21639500.094                                        2559.883        1994.883                                          45.000          34.000                                  
G19 109051334.897 7  84974900.231 6                                  20751777.812    20751790.676                                         591.969         461.370                                          46.000          38.000                                  
G17 115237542.056 7  89795253.161 6  89795532.162 7                  21928977.125    21928994.301    21928994.055                        -462.781        -360.528        -360.528                          44.000          41.000          44.000                  
G14 115669474.066 7  90131914.693 5  90131858.697 7  86376352.811 8  22011171.398    22011193.305    22011192.992    22011200.652       -3216.344       -2506.174       -2506.178       -2401.754          42.000          30.000          45.000          48.000  
G12 126445152.285 6  98528782.138 4  98528839.147 6                  24061711.148    24061729.781    24061729.793                        3272.969        2550.444        2550.433                          37.000          25.000          37.000                  
G11 114752509.731 7  89417762.239 5  89417828.231 8  85691962.686 8  21836672.695    21836690.516    21836690.367    21836696.164         551.168         429.562         429.564         411.664          46.000          35.000          48.000          50.000  
G09 125109491.009 5  97488038.943 4  97487954.947 6  93425936.924 7  23807535.930    23807568.219    23807568.152    23807573.207        1183.426         922.268         922.280         883.851          34.000          29.000          39.000          42.000  
G06 111576855.661 7  86943142.017 8  86943090.013 8  83320460.657 8  21232367.617    21232384.859    21232385.340    21232387.461        -913.297        -711.569        -711.568        -681.922          47.000          48.000          48.000          52.000  
G05 131751341.697 5 102663510.648 3 102663426.664 5                  25071444.688    25071472.250    25071473.094                        3707.871        2889.412        2889.409                          33.000          22.000          34.000                  
> 2025 03 13 08 51 39.0000000  0 10
G22 110405776.061 7  86030146.188 6                                  21009522.086    21009538.723                                       -1805.625       -1406.757                                          47.000          38.000                                  
G20 113713701.016 7  88608611.442 5                                  21638993.250    21639013.078                                        2559.461        1994.521                                          45.000          33.000                                  
G19 109050743.051 7  84974439.054 6                                  20751665.242    20751678.148                                         591.699         461.177                                          46.000          39.000                                  
G17 115238004.983 7  89795613.881 6  89795892.880 7                  21929065.180    21929082.508    21929082.219                        -463.023        -360.719        -360.719                          44.000          41.000          44.000                  
G14 115672690.682 7  90134421.147 5  90134365.149 7  86378754.825 8  22011783.172    22011805.457    22011805.137    22011812.805       -3216.824       -2506.454       -2506.452       -2402.014          42.000          30.000          45.000          48.000  
G12 126441879.522 6  98526231.940 4  98526288.939 6                  24061088.383    24061106.984    24061107.035                        3272.602        2550.198        2550.208                          37.000          27.000          37.000                  
G11 114751958.755 7  89417332.909 6  89417398.905 8  85691551.252 8  21836567.953    21836585.586    21836585.355    21836591.277         550.867         429.330         429.327         411.435          46.000          36.000          48.000          50.000  
G09 125108307.730 5  97487116.911 4  97487032.921 6  93425053.324 7  23807311.234    23807343.012    23807342.637    23807347.879        1183.203         922.032         922.025         883.600          35.000          28.000          39.000          42.000  
G06 111577769.041 7  86943853.746 8  86943801.742 8  83321142.730 8  21232541.219    21232558.703    21232559.133    21232561.316        -913.453        -711.728        -711.729        -682.074          47.000          48.000          48.000          52.000  
G05 131747633.678 5 102660621.323 3 102660537.315 5                  25070739.672    25070766.730    25070767.684                        3708.012        2889.325        2889.349                          33.000          21.000          34.000                  
> 2025 03 13 08 51 40.0000000  0 10
G22 110407581.896 7  86031553.332 6                                  21009865.609    21009882.195                                       -1806.035       -1407.143                                          47.000          38.000                                  
G20 113711141.769 7  88606617.236 5                                  21638506.227    21638525.965                                        2559.059        1994.206                                          45.000          33.000                                  
G19 109050151.391 7  84973978.020 6                                  20751552.531    20751565.523                                         591.539         461.034                                          46.000          39.000                                  
G17 115238468.097 7  89795974.749 6  89796253.750 7                  21929153.133    21929170.648    21929170.109                        -463.242        -360.869        -360.869                          44.000          41.000          44.000                  
G14 115675907.589 7  90136927.829 5  90136871.825 7  86381157.061 8  22012395.836    22012417.613    22012417.570    22012424.879       -3217.145       -2506.683       -2506.676       -2402.236          42.000          30.000          45.000          48.000  
G12 126438607.005 6  98523681.938 4  98523738.937 6                  24060465.734    24060484.230    24060484.789                        3272.398        2550.002        2550.003                          37.000          26.000          37.000                  
G11 114751408.030 7  89416903.779 6  89416969.777 8  85691140.005 8  21836462.898    21836480.672    21836480.414    21836486.461         550.648         429.130         429.127         411.247          46.000          36.000          48.000          50.000  
G09 125107124.728 5  97486195.103 4  97486111.116 6  93424169.925 7  23807086.211    23807117.848    23807117.441    23807122.816        1182.895         921.808         921.805         883.399          35.000          29.000          39.000          42.000  
G06 111578682.575 7  86944565.597 8  86944513.589 8  83321824.920 8  21232715.039    21232732.523    21232732.703    21232735.137        -913.504        -711.852        -711.847        -682.189          47.000          48.000          48.000          52.000  
G05 131743925.695 5 102657731.978 3 102657647.996 5                  25070034.492    25070061.023    25070061.734                        3708.066        2889.344        2889.319                          33.000          21.000          34.000                  
> 2025 03 13 08 51 41.0000000  0 10
G22 110409388.199 7  86032960.835 6                                  21010209.508    21010225.922                                       -1806.480       -1407.504                                          47.000          38.000                                  
G20 113708582.906 7  88604623.327 5                                  21638019.469    21638039.051                                        2558.590        1993.909                                          45.000          33.000                                  
G19 109049559.899 7  84973517.121 6                                  20751439.945    20751452.984                                         591.496         460.899                                          46.000          38.000                                  
G17 115238931.382 7  89796335.749 6  89796614.747 7                  21929240.938    21929258.895    21929258.496                        -463.355        -361.000        -360.997                          44.000          41.000          44.000                  
G14 115679124.771 7  90139434.727 5  90139378.718 7  86383559.497 8  22013007.883    22013029.746    22013029.770    22013037.086       -3217.398       -2506.897       -2506.893       -2402.436          42.000          30.000          45.000          48.000  
G12 126435334.715 6  98521132.107 4  98521189.119 6                  24059842.141    24059861.539    24059862.770                        3272.320        2549.831        2549.818                          36.000          25.000          37.000                  
G11 114750857.535 7  89416474.833 6  89416540.825 7  85690728.926 8  21836358.289    21836376.051    21836375.543    21836381.691         550.359         428.947         428.952         411.078          45.000          36.000          47.000          50.000  
G09 125105942.006 5  97485273.501 4  97485189.513 6  93423286.726 7  23806861.148    23806892.805    23806892.242    23806897.875        1182.578         921.602         921.603         883.199          34.000          28.000          38.000          42.000  
G06 111579596.239 7  86945277.544 8  86945225.538 8  83322507.202 8  21232889.203    21232906.406    21232906.582    21232909.004        -913.738        -711.947        -711.949        -682.282          47.000          48.000          48.000          52.000  
G05 131740217.748 5 102654842.667 3 102654758.696 5                  25069329.570    25069355.594    25069356.289                        3707.848        2889.312        2889.300                          33.000          21.000          33.000                  
> 2025 03 13 08 51 42.0000000  0 10
G22 110411194.958 7  86034368.705 6                                  21010553.414    21010569.910                                       -1807.094       -1407.869                                          47.000          37.000                                  
G20 113706024.422 7  88602629.711 5                                  21637532.797    21637552.113                                        2558.324        1993.616                                          45.000          33.000                                  
G19 109048968.570 7  84973056.349 6                                  20751327.242    20751340.449                                         591.250         460.772                                          46.000          38.000                                  
G17 115239394.827 7  89796696.868 6  89796975.871 7                  21929329.039    21929347.051    21929346.785                        -463.539        -361.119        -361.124                          44.000          41.000          44.000                  
G14 115682342.222 7  90141941.827 5  90141885.815 7  86385962.135 8  22013620.375    22013641.949    22013641.805    22013649.367       -3217.652       -2507.100       -2507.097       -2402.638          42.000          30.000          45.000          48.000  
G12 126432062.661 6  98518582.474 4  98518639.487 6                  24059219.945    24059238.820    24059240.562                        3271.891        2549.634        2549.632                          37.000          25.000          37.000                  
G11 114750307.262 7  89416046.054 5  89416112.045 7  85690318.017 8  21836253.594    21836271.246    21836270.883    21836277.047         550.230         428.779         428.780         410.909          46.000          35.000          47.000          50.000  
G09 125104759.534 5  97484352.108 4  97484268.109 6  93422403.716 7  23806635.531    23806667.809    23806667.531    23806672.906        1182.289         921.393         921.404         883.010          34.000          29.000          39.000          42.000  
G06 111580510.021 7  86945989.585 8  86945937.579 8  83323189.576 8  21233062.891    21233080.211    21233080.473    21233082.883        -913.922        -712.040        -712.041        -682.374          47.000          48.000          48.000          52.000  
G05 131736509.807 5 102651953.378 3 102651869.378 5                  25068624.016    25068649.887    25068650.504                        3708.024        2889.289        2889.318                          34.000          22.000          33.000                  
> 2025 03 13 08 51 43.0000000  0 10
G22 110413002.214 7  86035776.948 6                                  21010897.062    21010913.836                                       -1807.426       -1408.244                                          47.000          38.000                                  
G20 113703466.348 7  88600636.411 5                                  21637045.836    21637065.395                                        2557.828        1993.300                                          45.000          33.000                                  
G19 109048377.436 7  84972595.726 6                                  20751214.766    20751227.863                                         590.969         460.622                                          46.000          38.000                                  
G17 115239858.467 7  89797058.146 6  89797337.146 7                  21929417.180    21929435.371    21929434.977                        -463.859        -361.278        -361.275                          45.000          41.000          45.000                  
G14 115685559.977 7  90144449.159 5  90144393.151 7  86388364.999 8  22014231.883    22014254.273    22014253.805    22014261.727       -3217.934       -2507.332       -2507.336       -2402.865          42.000          30.000          45.000          48.000  
G12 126428790.868 6  98516033.037 4  98516090.039 6                  24058597.406    24058616.062    24058617.570                        3271.816        2549.437        2549.448                          37.000          26.000          37.000                  
G11 114749757.245 7  89415617.477 5  89415683.468 7  85689907.299 8  21836148.977    21836166.605    21836166.301    21836172.316         549.887         428.577         428.577         410.718          46.000          35.000          47.000          50.000  
G09 125103577.346 5  97483430.921 4  97483346.927 6  93421520.919 7  23806411.547    23806442.812    23806442.348    23806447.891        1182.035         921.187         921.182         882.797          34.000          28.000          38.000          42.000  
G06 111581423.962 7  86946701.749 8  86946649.745 8  83323872.067 8  21233236.734    21233254.215    21233254.395    21233256.785        -914.086        -712.164        -712.166        -682.492          47.000          48.000          49.000          52.000  
G05 131732801.909 5 102649064.113 3 102648980.122 5                  25067917.703    25067944.285    25067944.625                        3707.965        2889.264        2889.256                          34.000          21.000          34.000                  
> 2025 03 13 08 51 44.0000000  0 10
G22 110414810.010 7  86037185.618 6                                  21011241.195    21011257.844                                       -1808.098       -1408.670                                          47.000          37.000                                  
G20 113700908.732 7  88598643.469 5                                  21636559.008    21636578.625                                        2557.387        1992.942                                          45.000          33.000                                  
G19 109047786.549 7  84972135.296 6                                  20751102.281    20751115.500                                         590.680         460.430                                          46.000          38.000                                  
G17 115240322.339 7  89797419.601 6  89797698.606 7                  21929505.391    21929523.547    21929523.594                        -463.977        -361.455        -361.460                          45.000          41.000          44.000                  
G14 115688778.068 7  90146956.748 4  90146900.754 7  86390768.113 8  22014844.633    22014866.637    22014866.227    22014874.051       -3218.281       -2507.590       -2507.603       -2403.113          42.000          29.000          45.000          48.000  
G12 126425519.359 6  98513483.812 4  98513540.819 6                  24057975.445    24057993.695    24057994.293                        3271.336        2549.225        2549.220                          36.000          27.000          36.000                  
G11 114749207.519 7  89415189.124 5  89415255.121 8  85689496.800 8  21836044.086    21836061.930    21836061.531    21836067.746         549.688         428.353         428.347         410.500          46.000          35.000          48.000          50.000  
G09 125102395.458 5  97482509.971 4  97482425.989 6  93420638.360 7  23806186.547    23806217.984    23806217.367    23806222.949        1181.629         920.950         920.938         882.559          34.000          29.000          38.000          42.000  
G06 111582338.101 7  86947414.066 8  86947362.061 8  83324554.705 8  21233410.812    21233428.172    21233428.359    21233430.754        -914.234        -712.317        -712.316        -682.637          47.000          48.000          49.000          52.000  
G05 131729094.096 5 102646174.905 3 102646090.923 5                  25067212.336    25067238.676    25067238.973                        3707.660        2889.208        2889.199                          33.000          22.000          34.000                  
> 2025 03 13 08 51 45.0000000  0 10
G22 110416618.308 7  86038594.677 6                                  21011585.375    21011601.836                                       -1808.570       -1409.059                                          47.000          37.000                                  
G20 113698351.528 7  88596650.858 5                                  21636072.391    21636092.090                                        2556.992        1992.611                                          45.000          33.000                                  
G19 109047195.869 7  84971675.029 6                                  20750989.852    20751003.125                                         590.582         460.267                                          46.000          38.000                                  
G17 115240786.415 7  89797781.219 6  89798060.221 7                  21929593.719    21929611.863    21929611.719                        -464.160        -361.618        -361.616                          45.000          41.000          45.000                  
G14 115691996.471 7  90149464.597 4  90149408.594 7  86393171.460 8  22015456.914    22015479.078    22015478.863    22015486.543       -3218.555       -2507.849       -2507.840       -2403.348          42.000          28.000          45.000          48.000  
G12 126422248.115 6  98510934.799 4  98510991.813 6                  24057352.203    24057371.309    24057371.559                        3271.156        2549.013        2549.006                          36.000          27.000          36.000                  
G11 114748658.066 7  89414760.985 5  89414826.981 8  85689086.499 8  21835939.516    21835957.363    21835957.137    21835963.145         549.363         428.139         428.141         410.301          46.000          35.000          48.000          50.000  
G09 125101213.885 5  97481589.278 4  97481505.292 6  93419756.022 7  23805961.430    23805993.055    23805992.770    23805998.031        1181.344         920.693         920.697         882.338          34.000          28.000          38.000          42.000  
G06 111583252.406 7  86948126.513 8  86948074.509 8  83325237.470 8  21233584.914    21233602.004    21233602.375    21233604.730        -914.379        -712.448        -712.448        -682.765          47.000          48.000          49.000          52.000  
G05 131725386.362 5 102643285.765 3 102643201.777 5                  25066506.414    25066533.176    25066533.336                        3707.543        2889.140        2889.146                          33.000          22.000          34.000                  
> 2025 03 13 08 51 46.0000000  0 10
G22 110418427.093 8  86040004.119 6                                  21011929.695    21011945.949                                       -1809.031       -1409.442                                          48.000          37.000                                  
G20 113695794.733 7  88594658.560 5                                  21635585.859    21635605.512                                        2556.535        1992.298                                          45.000          34.000                                  
G19 109046605.382 7  84971214.910 6                                  20750877.477    20750890.742                                         590.352         460.119                                          46.000          38.000                                  
G17 115241250.687 7  89798142.988 6  89798421.990 7                  21929681.508    21929700.180    21929700.344                        -464.348        -361.769        -361.769                          44.000          41.000          44.000                  
G14 115695215.163 7  90151972.662 4  90151916.669 7  86395575.027 8  22016069.969    22016091.547    22016091.215    22016099.051       -3218.828       -2508.065       -2508.075       -2403.567          42.000          29.000          45.000          48.000  
G12 126418977.132 6  98508385.994 4  98508442.998 6                  24056729.133    24056748.789    24056748.961                        3270.777        2548.805        2548.815                          37.000          26.000          36.000                  
G11 114748108.858 7  89414333.037 5  89414399.034 8  85688676.387 8  21835835.125    21835852.781    21835852.531    21835858.633         549.027         427.948         427.947         410.112          46.000          35.000          48.000          50.000  
G09 125100032.590 5  97480668.804 4  97480584.797 6  93418873.894 7  23805735.445    23805768.270    23805767.980    23805773.355        1181.074         920.474         920.495         882.129          35.000          28.000          38.000          42.000  
G06 111584166.866 7  86948839.085 8  86948787.081 8  83325920.348 8  21233758.633    21233776.148    21233776.605    21233778.734        -914.477        -712.572        -712.571        -682.878          47.000          48.000          49.000          52.000  
G05 131721678.635 5 102640396.646 3 102640312.642 5                  25065802.195    25065827.734    25065828.109                        3707.832        2889.120        2889.135                          33.000          22.000          34.000                  
> 2025 03 13 08 51 47.0000000  0 10
G22 110420236.419 7  86041413.982 6                                  21012274.117    21012290.191                                       -1809.625       -1409.864                                          47.000          37.000                                  
G20 113693238.391 7  88592666.617 5                                  21635099.703    21635118.961                                        2556.074        1991.943                                          45.000          33.000                                  
G19 109046015.138 7  84970754.980 6                                  20750765.484    20750778.461                                         590.172         459.930                                          46.000          38.000                                  
G17 115241715.196 7  89798504.942 6  89798783.941 7                  21929769.820    21929788.613    21929788.652                        -464.648        -361.954        -361.951                          44.000          41.000          45.000                  
G14 115698434.203 7  90154481.005 4  90154425.005 7  86397978.850 8  22016682.445    22016704.129    22016704.066    22016711.621       -3219.223       -2508.343       -2508.336       -2403.823          42.000          29.000          45.000          48.000  
G12 126415706.435 6  98505837.406 4  98505894.415 6                  24056107.711    24056126.438    24056126.469                        3270.543        2548.588        2548.583                          36.000          26.000          36.000                  
G11 114747559.954 7  89413905.330 6  89413971.323 8  85688266.498 8  21835730.664    21835748.336    21835748.281    21835754.207         548.773         427.707         427.711         409.889          46.000          36.000          48.000          50.000  
G09 125098851.612 5  97479748.569 4  97479664.578 6  93417992.012 7  23805511.602    23805543.473    23805543.047    23805548.441        1180.898         920.234         920.219         881.882          35.000          27.000          38.000          42.000  
G06 111585081.520 7  86949551.805 8  86949499.802 8  83326603.373 8  21233932.836    21233950.145    21233950.562    21233952.750        -914.805        -712.720        -712.721        -683.025          47.000          48.000          49.000          52.000  
G05 131717971.005 5 102637507.582 3 102637423.593 5                  25065095.687    25065122.090    25065122.559                        3707.652        2889.063        2889.049                          33.000          22.000          34.000                  
> 2025 03 13 08 51 48.0000000  0 10
G22 110422046.260 7  86042824.247 6                                  21012618.453    21012634.672                                       -1810.086       -1410.265                                          47.000          37.000                                  
G20 113690682.487 7  88590675.007 5                                  21634613.117    21634632.543                                        2555.691        1991.609                                          45.000          33.000                                  
G19 109045425.105 7  84970295.215 6                                  20750652.781    20750666.066                                         589.906         459.764                                          46.000          38.000                                  
G17 115242179.918 7  89798867.062 6  89799146.060 7                  21929858.273    21929877.121    21929876.961                        -464.848        -362.120        -362.119                          44.000          41.000          44.000                  
G14 115701653.556 7  90156989.595 4  90156933.593 7  86400382.911 8  22017295.250    22017316.742    22017316.602    22017324.305       -3219.473       -2508.590       -2508.587       -2404.061          42.000          29.000          45.000          48.000  
G12 126412436.030 6  98503289.053 4  98503346.054 6                  24055484.836    24055504.133    24055503.996                        3270.375        2548.353        2548.361                          37.000          27.000          36.000                  
G11 114747011.319 7  89413477.827 5  89413543.827 8  85687856.815 8  21835626.203    21835643.844    21835643.891    21835649.738         548.500         427.503         427.496         409.683          45.000          35.000          48.000          50.000  
G09 125097670.938 5  97478828.570 4  97478744.588 6  93417110.358 7  23805286.641    23805318.793    23805317.918    23805323.863        1180.465         920.000         919.990         881.654          34.000          28.000          39.000          42.000  
G06 111585996.349 7  86950264.661 7  86950212.658 8  83327286.528 8  21234106.672    21234124.262    21234124.719    21234126.871        -914.883        -712.856        -712.856        -683.155          47.000          47.000          49.000          52.000  
G05 131714263.418 5 102634618.552 3 102634534.578 5                  25064388.883    25064416.469    25064416.969                        3707.438        2889.030        2889.015                          34.000          23.000          34.000                  
> 2025 03 13 08 51 49.0000000  0 10
G22 110423856.541 7  86044234.855 6                                  21012962.875    21012979.156                                       -1810.410       -1410.607                                          47.000          37.000                                  
G20 113688126.925 7  88588683.669 5                                  21634126.359    21634146.270                                        2555.465        1991.338                                          45.000          33.000                                  
G19 109044835.205 7  84969835.557 6                                  20750540.672    20750553.828                                         589.906         459.659                                          46.000          38.000                                  
G17 115242644.771 7  89799229.282 6  89799508.282 7                  21929946.828    21929965.641    21929965.785                        -464.906        -362.220        -362.222                          44.000          41.000          45.000                  
G14 115704873.154 7  90159498.366 4  90159442.362 7  86402787.152 8  22017907.508    22017929.328    22017929.359    22017937.016       -3219.828       -2508.771       -2508.769       -2404.240          42.000          29.000          45.000          48.000  
G12 126409165.812 6  98500740.839 4  98500797.848 6                  24054863.211    24054881.824    24054881.824                        3270.211        2548.213        2548.206                          37.000          27.000          36.000                  
G11 114746462.885 7  89413050.483 5  89413116.480 8  85687447.278 8  21835521.547    21835539.484    21835539.586    21835545.375         548.316         427.344         427.347         409.538          46.000          35.000          48.000          50.000  
G09 125096490.501 5  97477908.768 4  97477824.777 6  93416228.873 7  23805062.336    23805094.328    23805093.137    23805099.160        1180.758         919.802         919.812         881.485          34.000          28.000          39.000          42.000  
G06 111586911.267 7  86950977.588 8  86950925.586 8  83327969.753 8  21234280.984    21234298.340    21234298.691    21234300.965        -914.969        -712.928        -712.928        -683.225          47.000          48.000          48.000          52.000  
G05 131710555.851 5 102631729.564 3 102631645.566 5                  25063684.492    25063710.996    25063711.613                        3707.508        2888.988        2889.012                          34.000          22.000          34.000                  
> 2025 03 13 08 51 50.0000000  0 10
G22 110425667.310 7  86045645.839 6                                  21013307.242    21013323.703                                       -1811.094       -1410.985                                          47.000          38.000                                  
G20 113685571.768 7  88586692.653 5                                  21633640.305    21633660.074                                        2554.898        1991.016                                          45.000          33.000                                  
G19 109044245.497 7  84969376.043 6                                  20750428.570    20750441.715                                         589.609         459.513                                          46.000          38.000                                  
G17 115243109.810 7  89799591.655 6  89799870.654 7                  21930035.812    21930054.000    21930054.152                        -465.234        -362.373        -362.372                          45.000          41.000          44.000                  
G14 115708093.041 7  90162007.363 4  90161951.361 7  86405191.607 8  22018519.898    22018542.074    22018542.254    22018549.707       -3219.992       -2508.997       -2509.000       -2404.456          42.000          29.000          45.000          48.000  
G12 126405895.843 6  98498192.816 4  98498249.815 6                  24054240.914    24054259.508    24054259.688                        3269.867        2548.023        2548.033                          37.000          27.000          36.000                  
G11 114745914.692 7  89412623.326 5  89412689.323 8  85687037.920 8  21835417.461    21835435.230    21835435.238    21835440.984         548.066         427.156         427.157         409.358          46.000          35.000          48.000          50.000  
G09 125095310.345 5  97476989.182 4  97476905.174 6  93415347.596 7  23804839.039    23804869.652    23804868.820    23804874.621        1180.008         919.587         919.603         881.277          35.000          29.000          39.000          42.000  
G06 111587826.341 7  86951690.637 8  86951638.634 8  83328653.089 8  21234455.336    21234472.477    21234472.918    21234475.082        -915.203        -713.048        -713.048        -683.335          47.000          48.000          48.000          52.000  
G05 131706848.299 5 102628840.570 3 102628756.569 5                  25062979.328    25063005.445    25063005.926                        3707.692        2888.994        2888.998                          34.000          22.000          34.000                  
> 2025 03 13 08 51 51.0000000  0 10
G22 110427478.592 7  86047057.224 6                                  21013651.828    21013668.477                                       -1811.496       -1411.385                                          47.000          38.000                                  
G20 113683017.040 7  88584701.961 5                                  21633154.047    21633173.875                                        2554.570        1990.692                                          45.000          33.000                                  
G19 109043656.005 7  84968916.700 6                                  20750316.320    20750329.613                                         589.430         459.343                                          47.000          38.000                                  
G17 115243575.063 7  89799954.188 6  89800233.185 7                  21930124.398    21930142.656    21930142.539                        -465.359        -362.533        -362.531                          44.000          41.000          45.000                  
G14 115711313.240 7  90164516.611 4  90164460.602 7  86407596.298 8  22019133.164    22019154.910    22019154.789    22019162.465       -3220.320       -2509.248       -2509.241       -2404.690          42.000          29.000          45.000          48.000  
G12 126402626.146 6  98495645.002 4  98495702.020 6                  24053618.961    24053637.250    24053637.445                        3269.582        2547.814        2547.795                          37.000          26.000          36.000                  
G11 114745366.771 7  89412196.387 5  89412262.379 8  85686628.767 8  21835312.984    21835331.055    21835330.906    21835336.773         547.801         426.940         426.944         409.152          46.000          35.000          48.000          50.000  
G09 125094130.483 5  97476069.813 4  97475985.811 6  93414466.538 7  23804614.375    23804644.969    23804644.895    23804650.156        1179.645         919.369         919.363         881.058          35.000          29.000          39.000          42.000  
G06 111588741.578 7  86952403.810 8  86952351.810 8  83329336.551 8  21234629.164    21234646.648    21234646.805    21234649.254        -915.301        -713.173        -713.176        -683.463          47.000          48.000          48.000          52.000  
G05 131703140.820 5 102625951.638 3 102625867.618 5                  25062273.492    25062299.973    25062299.750                        3707.527        2888.931        2888.951                          34.000          22.000          34.000                  
> 2025 03 13 08 51 52.0000000  0 10
G22 110429290.373 8  86048468.994 6                                  21013996.734    21014013.215                                       -1811.977       -1411.770                                          48.000          38.000                                  
G20 113680462.726 7  88582711.599 5                                  21632668.531    21632687.875                                        2554.121        1990.362                                          45.000          34.000                                  
G19 109043066.710 7  84968457.511 6                                  20750204.250    20750217.527                                         589.160         459.190                                          46.000          38.000                                  
G17 115244040.523 7  89800316.880 6  89800595.875 7                  21930213.062    21930231.113    21930231.262                        -465.543        -362.692        -362.690                          44.000          41.000          44.000                  
G14 115714533.743 7  90167026.081 4  90166970.084 7  86410001.217 8  22019746.648    22019767.770    22019767.477    22019775.348       -3220.668       -2509.470       -2509.481       -2404.919          42.000          29.000          45.000          48.000  
G12 126399356.715 6  98493097.412 4  98493154.424 6                  24052996.539    24053015.074    24053015.242                        3269.391        2547.590        2547.596                          37.000          27.000          36.000                  
G11 114744819.112 7  89411769.648 5  89411835.640 8  85686219.811 8  21835208.969    21835226.762    21835226.703    21835232.570         547.594         426.739         426.739         408.957          46.000          35.000          48.000          50.000  
G09 125092950.910 5  97475150.680 4  97475066.666 6  93413585.704 7  23804389.586    23804420.488    23804420.258    23804425.633        1179.633         919.133         919.144         880.833          34.000          29.000          39.000          42.000  
G06 111589656.984 7  86953117.117 8  86953065.114 8  83330020.135 8  21234803.703    21234820.859    21234820.855    21234823.512        -915.449        -713.307        -713.304        -683.584          47.000          48.000          48.000          52.000  
G05 131699433.369 5 102623062.703 3 102622978.720 5                  25061567.875    25061594.434    25061594.461                        3707.262        2888.935        2888.897                          34.000          22.000          34.000                  
> 2025 03 13 08 51 53.0000000  0 10
G22 110431102.662 8  86049881.167 6                                  21014341.969    21014358.203                                       -1812.602       -1412.174                                          48.000          38.000                                  
G20 113677908.848 7  88580721.575 5                                  21632182.203    21632201.930                                        2553.648        1990.025                                          45.000          33.000                                  
G19 109042477.628 7  84967998.492 6                                  20750092.086    20750105.430                                         589.008         459.018                                          46.000          38.000                                  
G17 115244506.191 7  89800679.737 6  89800958.728 7                  21930301.445    21930319.855    21930320.223                        -465.957        -362.857        -362.853                          44.000          41.000          44.000                  
G14 115717754.562 7  90169535.803 4  90169479.815 7  86412406.369 8  22020359.086    22020380.621    22020380.406    22020388.230       -3220.930       -2509.722       -2509.731       -2405.152          42.000          29.000          45.000          48.000  
G12 126396087.553 6  98490550.013 4  98490607.014 6                  24052374.695    24052393.066    24052392.883                        3268.980        2547.398        2547.410                          37.000          28.000          36.000                  
G11 114744271.722 7  89411343.117 5  89411409.109 8  85685811.053 8  21835104.555    21835122.734    21835122.219    21835128.445         547.246         426.531         426.531         408.758          46.000          35.000          48.000          50.000  
G09 125091771.643 5  97474231.772 4  97474147.777 6  93412705.092 7  23804164.828    23804196.156    23804195.906    23804201.191        1179.293         918.907         918.889         880.613          34.000          29.000          39.000          43.000  
G06 111590572.550 7  86953830.550 8  86953778.547 8  83330703.842 8  21234977.680    21234995.102    21234995.406    21234997.699        -915.680        -713.432        -713.433        -683.707          47.000          48.000          48.000          52.000  
G05 131695725.982 5 102620173.828 3 102620089.856 5                  25060862.383    25060888.930    25060888.875                        3707.558        2888.875        2888.864                          34.000          23.000          34.000                  
> 2025 03 13 08 51 54.0000000  0 10
G22 110432915.427 7  86051293.710 6                                  21014686.820    21014703.238                                       -1813.051       -1412.543                                          47.000          38.000                                  
G20 113675355.365 7  88578731.852 5                                  21631696.383    21631715.949                                        2553.270        1989.723                                          45.000          33.000                                  
G19 109041888.736 7  84967539.613 6                                  20749980.195    20749993.254                                         588.750         458.879                                          46.000          38.000                                  
G17 115244972.043 7  89801042.738 6  89801321.734 7                  21930389.977    21930408.539    21930408.625                        -465.957        -363.000        -363.006                          44.000          41.000          45.000                  
G14 115720975.667 7  90172045.759 4  90171989.768 7  86414811.736 8  22020972.094    22020993.594    22020993.082    22021001.246       -3221.383       -2509.956       -2509.953       -2405.366          42.000          28.000          45.000          48.000  
G12 126392818.657 6  98488002.828 4  98488059.823 6                  24051752.273    24051770.887    24051770.902                        3268.652        2547.185        2547.191                          38.000          27.000          36.000                  
G11 114743724.578 7  89410916.776 5  89410982.772 8  85685402.482 8  21835000.500    21835018.465    21835018.250    21835024.328         547.008         426.341         426.337         408.571          46.000          35.000          48.000          50.000  
G09 125090592.656 5  97473313.083 4  97473229.090 6  93411824.681 7  23803939.234    23803971.828    23803971.586    23803976.809        1178.812         918.690         918.687         880.411          34.000          27.000          39.000          43.000  
G06 111591488.271 7  86954544.102 8  86954492.098 8  83331387.662 8  21235152.172    21235169.363    21235169.617    21235171.914        -915.769        -713.552        -713.550        -683.819          47.000          48.000          48.000          52.000  
G05 131692018.646 5 102617285.012 3 102617201.032 5                  25060157.188    25060183.418    25060183.426                        3707.367        2888.816        2888.824                          34.000          23.000          35.000                  
> 2025 03 13 08 51 55.0000000  0 10
G22 110434728.681 7  86052706.636 6                                  21015031.945    21015048.230                                       -1813.430       -1412.926                                          47.000          38.000                                  
G20 113672802.292 7  88576742.458 5                                  21631210.609    21631230.199                                        2552.785        1989.394                                          45.000          33.000                                  
G19 109041300.026 7  84967080.877 6                                  20749868.078    20749881.039                                         588.594         458.736                                          46.000          38.000                                  
G17 115245438.081 7  89801405.885 7  89801684.880 7                  21930478.906    21930497.305    21930497.355                        -466.129        -363.147        -363.146                          44.000          42.000          45.000                  
G14 115724197.075 7  90174555.951 4  90174499.951 7  86417217.326 8  22021584.984    22021606.492    22021606.496    22021614.270       -3221.598       -2510.192       -2510.183       -2405.590          42.000          29.000          45.000          48.000  
G12 126389549.998 6  98485455.824 4  98485512.827 6                  24051130.711    24051148.863    24051149.051                        3268.469        2547.004        2546.996                          37.000          27.000          36.000                  
G11 114743177.686 7  89410490.635 6  89410556.625 8  85684994.094 8  21834896.484    21834914.340    21834914.520    21834920.184         546.750         426.141         426.147         408.388          46.000          36.000          48.000          50.000  
G09 125089413.936 5  97472394.611 4  97472310.617 6  93410944.489 7  23803714.852    23803747.543    23803747.609    23803752.598        1178.606         918.472         918.474         880.192          34.000          27.000          39.000          43.000  
G06 111592404.142 7  86955257.770 8  86955205.767 8  83332071.595 8  21235326.039    21235343.551    21235343.922    21235346.207        -916.027        -713.668        -713.669        -683.933          47.000          48.000          48.000          52.000  
G05 131688311.331 5 102614396.209 3 102614312.228 5                  25059451.414    25059477.996    25059478.309                        3707.305        2888.803        2888.804                          34.000          22.000          35.000                  
> 2025 03 13 08 51 56.0000000  0 10
G22 110436542.450 7  86054119.960 6                                  21015376.570    21015393.297                                       -1814.082       -1413.324                                          47.000          38.000                                  
G20 113670249.648 7  88574753.394 5                                  21630724.906    21630744.430                                        2552.395        1989.065                                          46.000          34.000                                  
G19 109040711.534 7  84966622.319 6                                  20749755.836    20749769.105                                         588.418         458.558                                          46.000          38.000                                  
G17 115245904.340 7  89801769.200 6  89802048.197 7                  21930567.383    21930585.844    21930585.867                        -466.375        -363.315        -363.317                          44.000          41.000          45.000                  
G14 115727418.790 7  90177066.373 5  90177010.371 7  86419623.152 8  22022198.422    22022219.660    22022219.883    22022227.406       -3221.828       -2510.422       -2510.420       -2405.826          42.000          30.000          45.000          48.000  
G12 126386281.606 6  98482909.028 4  98482966.039 6                  24050508.164    24050526.828    24050527.324                        3268.262        2546.796        2546.788                          37.000          26.000          36.000                  
G11 114742631.060 7  89410064.698 5  89410130.695 8  85684585.911 8  21834792.586    21834810.387    21834810.539    21834816.203         546.508         425.937         425.930         408.183          46.000          35.000          48.000          50.000  
G09 125088235.546 5  97471476.399 4  97471392.388 6  93410064.520 7  23803491.086    23803523.320    23803523.387    23803528.324        1178.320         918.212         918.229         879.970          34.000          29.000          38.000          43.000  
G06 111593320.183 7  86955971.572 8  86955919.569 8  83332755.656 8  21235500.375    21235517.949    21235518.238    21235520.492        -916.152        -713.802        -713.802        -684.061          47.000          48.000          48.000          52.000  
G05 131684604.080 5 102611507.457 3 102611423.464 5                  25058746.031    25058772.500    25058772.930                        3706.992        2888.751        2888.764                          34.000          23.000          34.000                  
> 2025 03 13 08 51 57.0000000  0 10
G22 110438356.712 7  86055533.669 6                                  21015721.836    21015738.516                                       -1814.531       -1413.709                                          47.000          38.000                                  
G20 113667697.413 7  88572764.644 5                                  21630239.211    21630258.637                                        2552.000        1988.749                                          46.000          33.000                                  
G19 109040123.243 7  84966163.915 6                                  20749643.820    20749657.320                                         588.211         458.404                                          46.000          38.000                                  
G17 115246370.790 7  89802132.665 7  89802411.662 7                  21930656.750    21930674.746    21930674.457                        -466.547        -363.466        -363.465                          44.000          42.000          45.000                  
G14 115730640.802 7  90179577.028 4  90179521.030 7  86422029.194 8  22022810.648    22022832.898    22022833.215    22022840.551       -3222.074       -2510.655       -2510.659       -2406.043          42.000          29.000          45.000          48.000  
G12 126383013.474 6  98480362.448 4  98480419.456 6                  24049886.453    24049904.727    24049905.309                        3267.922        2546.580        2546.583                          37.000          26.000          36.000                  
G11 114742084.688 7  89409638.961 5  89409704.959 8  85684177.915 8  21834688.586    21834706.359    21834706.422    21834712.227         546.246         425.737         425.737         407.997          46.000          35.000          48.000          50.000  
G09 125087057.417 5  97470558.375 4  97470474.379 6  93409184.764 7  23803267.406    23803298.883    23803298.988    23803304.250        1178.160         918.024         918.009         879.756          35.000          29.000          39.000          42.000  
G06 111594236.379 7  86956685.493 8  86956633.489 8  83333439.830 8  21235674.641    21235692.258    21235692.480    21235694.812        -916.301        -713.921        -713.920        -684.174          47.000          48.000          48.000          52.000  
G05 131680896.877 5 102608618.748 3 102608534.720 5                  25058040.656    25058067.070    25058067.082                        3707.125        2888.709        2888.744                          34.000          23.000          34.000                  
> 2025 03 13 08 51 58.0000000  0 10
G22 110440171.472 7  86056947.765 6                                  21016067.195    21016083.934                                       -1815.043       -1414.096                                          47.000          38.000                                  
G20 113665145.589 7  88570776.217 5                                  21629753.992    21629773.145                                        2551.672        1988.427                                          46.000          34.000                                  
G19 109039535.150 7  84965705.659 6                                  20749532.180    20749545.363                                         588.020         458.255                                          46.000          38.000                                  
G17 115246837.445 7  89802496.289 7  89802775.290 7                  21930745.305    21930763.582    21930763.098                        -466.836        -363.623        -363.628                          44.000          42.000          45.000                  
G14 115733863.117 7  90182087.920 4  90182031.913 7  86424435.466 8  22023423.883    22023446.090    22023446.168    22023453.664       -3222.527       -2510.892       -2510.883       -2406.271          42.000          29.000          45.000          48.000  
G12 126379745.601 6  98477816.064 4  98477873.073 6                  24049265.180    24049282.801    24049283.660                        3267.574        2546.384        2546.383                          37.000          27.000          36.000                  
G11 114741538.576 7  89409213.433 5  89409279.422 8  85683770.111 8  21834584.383    21834602.531    21834602.566    21834608.328         545.980         425.528         425.536         407.804          46.000          35.000          48.000          50.000  
G09 125085879.575 5  97469640.590 4  97469556.589 6  93408305.215 7  23803043.172    23803074.758    23803074.797    23803079.957        1177.777         917.786         917.790         879.549          34.000          28.000          38.000          43.000  
G06 111595152.724 7  86957399.530 7  86957347.527 8  83334124.117 8  21235848.961    21235866.648    21235866.793    21235869.250        -916.484        -714.037        -714.039        -684.287          47.000          47.000          48.000          52.000  
G05 131677189.699 5 102605730.027 3 102605646.041 5                  25057334.422    25057361.641    25057361.652                        3707.328        2888.721        2888.679                          34.000          23.000          34.000                  
> 2025 03 13 08 51 59.0000000  0 10
G22 110441986.752 7  86058362.263 6                                  21016412.656    21016429.387                                       -1815.543       -1414.498                                          47.000          38.000                                  
G20 113662594.199 7  88568788.127 5                                  21629267.859    21629287.609                                        2551.188        1988.090                                          46.000          33.000                                  
G19 109038947.270 7  84965247.572 6                                  20749420.391    20749433.492                                         587.812         458.087                                          46.000          38.000                                  
G17 115247304.313 7  89802860.083 6  89803139.084 7                  21930834.141    21930852.359    21930852.195                        -466.914        -363.794        -363.794                          44.000          41.000          45.000                  
G14 115737085.752 7  90184599.055 5  90184543.056 7  86426841.972 8  22024037.141    22024059.336    22024059.445    22024067.020       -3222.758       -2511.135       -2511.143       -2406.506          42.000          30.000          45.000          48.000  
G12 126376478.016 6  98475269.904 4  98475326.906 6                  24048642.711    24048660.965    24048661.918                        3267.418        2546.160        2546.167                          37.000          26.000          36.000                  
G11 114740992.741 7  89408788.108 5  89408854.103 8  85683362.514 8  21834480.469    21834498.648    21834498.676    21834504.441         545.703         425.325         425.319         407.597          46.000          35.000          48.000          50.000  
G09 125084702.036 5  97468723.041 4  97468639.031 6  93407425.899 7  23802819.656    23802850.602    23802850.570    23802855.969        1177.387         917.549         917.558         879.316          35.000          28.000          38.000          42.000  
G06 111596069.251 7  86958113.712 8  86958061.704 8  83334808.542 8  21236023.656    21236041.094    21236041.316    21236043.652        -916.644        -714.182        -714.177        -684.425          47.000          48.000          48.000          52.000  
G05 131673482.616 5 102602841.392 3 102602757.420 5                  25056628.984    25056656.102    25056656.211                        3707.144        2888.636        2888.622                          34.000          22.000          34.000                  
> 2025 03 13 08 52  0.0000000  0 10
G22 110443802.479 7  86059777.111 6                                  21016758.531    21016774.926                                       -1815.953       -1414.849                                          47.000          38.000                                  
G20 113660043.173 7  88566800.330 5                                  21628782.438    21628802.160                                        2550.770        1987.798                                          45.000          33.000                                  
G19 109038359.552 7  84964789.614 6                                  20749308.477    20749321.680                                         587.566         457.958                                          46.000          38.000                                  
G17 115247771.333 7  89803223.996 6  89803502.992 7                  21930923.094    21930941.234    21930940.902                        -467.168        -363.913        -363.908                          44.000          41.000          45.000                  
G14 115740308.640 7  90187110.393 4  90187054.399 7  86429248.672 8  22024650.641    22024672.711    22024672.312    22024680.238       -3223.047       -2511.338       -2511.343       -2406.700          42.000          29.000          45.000          48.000  
G12 126373210.636 6  98472723.896 4  98472780.900 6                  24048021.094    24048039.219    24048039.680                        3267.250        2546.007        2546.005                          37.000          26.000          36.000                  
G11 114740447.109 7  89408362.950 5  89408428.947 8  85682955.076 8  21834376.555    21834394.836    21834394.793    21834400.570         545.570         425.158         425.156         407.438          46.000          35.000          48.000          50.000  
G09 125083524.756 5  97467805.683 4  97467721.675 6  93406546.766 7  23802594.922    23802626.430    23802626.879    23802631.871        1177.125         917.358         917.356         879.133          34.000          28.000          38.000          42.000  
G06 111596985.888 7  86958827.975 8  86958775.972 8  83335493.047 8  21236197.984    21236215.488    21236215.750    21236218.082        -916.719        -714.263        -714.268        -684.505          47.000          48.000          48.000          52.000  
G05 131669775.523 5 102599952.771 3 102599868.780 5                  25055923.812    25055950.664    25055950.141                        3707.051        2888.620        2888.640                          33.000          22.000          34.000                  
> 2025 03 13 08 52  1.0000000  0 10
G22 110445618.704 7  86061192.354 6                                  21017104.047    21017120.586                                       -1816.426       -1415.242                                          47.000          38.000                                  
G20 113657492.560 7  88564812.846 5                                  21628296.891    21628316.770                                        2550.445        1987.484                                          45.000          33.000                                  
G19 109037772.026 7  84964331.806 6                                  20749196.547    20749209.715                                         587.469         457.807                                          46.000          38.000                                  
G17 115248238.549 7  89803588.060 6  89803867.061 7                  21931011.609    21931030.148    21931029.559                        -467.359        -364.064        -364.069                          44.000          41.000          44.000                  
G14 115743531.829 7  90189621.969 5  90189565.966 7  86431655.592 8  22025264.070    22025286.215    22025285.621    22025293.617       -3223.316       -2511.576       -2511.567       -2406.920          42.000          30.000          45.000          48.000  
G12 126369943.523 6  98470178.098 4  98470235.111 6                  24047399.344    24047417.465    24047418.012                        3266.934        2545.799        2545.789                          37.000          25.000          36.000                  
G11 114739901.745 7  89407937.998 5  89408003.991 8  85682547.829 8  21834272.938    21834291.027    21834290.887    21834296.789         545.230         424.952         424.956         407.247          46.000          35.000          48.000          50.000  
G09 125082347.733 5  97466888.536 4  97466804.551 6  93405667.843 7  23802371.531    23802402.488    23802402.688    23802407.934        1176.676         917.148         917.125         878.923          34.000          28.000          38.000          43.000  
G06 111597902.679 7  86959542.362 8  86959490.359 8  83336177.669 8  21236372.422    21236389.871    21236390.164    21236392.496        -916.898        -714.386        -714.387        -684.622          47.000          48.000          48.000          52.000  
G05 131666068.480 5 102597064.173 3 102596980.189 5                  25055218.211    25055245.191    25055244.531                        3707.016        2888.598        2888.591                          33.000          22.000          34.000                  
> 2025 03 13 08 52  2.0000000  0 10
G22 110447435.412 7  86062607.967 6                                  21017449.984    21017466.223                                       -1816.934       -1415.614                                          47.000          38.000                                  
G20 113654942.358 7  88562825.690 5                                  21627811.617    21627831.387                                        2550.004        1987.156                                          45.000          33.000                                  
G19 109037184.695 7  84963874.145 6                                  20749084.789    20749097.898                                         587.219         457.661                                          46.000          38.000                                  
G17 115248705.956 7  89803952.273 6  89804231.274 7                  21931100.477    21931119.066    21931118.789                        -467.516        -364.212        -364.213                          44.000          41.000          45.000                  
G14 115746755.312 7  90192133.763 4  90192077.773 7  86434062.737 8  22025877.562    22025899.680    22025898.867    22025907.066       -3223.621       -2511.794       -2511.807       -2407.145          42.000          29.000          45.000          48.000  
G12 126366676.658 6  98467632.499 4  98467689.507 6                  24046777.188    24046795.828    24046796.406                        3266.625        2545.598        2545.604                          37.000          27.000          36.000                  
G11 114739356.626 7  89407513.239 6  89407579.232 8  85682140.767 8  21834169.344    21834187.293    21834186.898    21834193.035         545.020         424.759         424.760         407.062          46.000          36.000          48.000          50.000  
G09 125081171.019 5  97465971.623 4  97465887.631 6  93404789.139 7  23802147.648    23802178.613    23802178.824    23802184.133        1176.672         916.912         916.920         878.703          34.000          28.000          38.000          42.000  
G06 111598819.628 7  86960256.872 8  86960204.863 8  83336862.406 8  21236547.094    21236564.406    21236564.633    21236567.031        -917.047        -714.510        -714.504        -684.737          47.000          48.000          48.000          52.000  
G05 131662361.480 5 102594175.600 3 102594091.628 5                  25054512.680    25054539.773    25054538.969                        3706.875        2888.573        2888.561                          34.000          22.000          33.000                  
> 2025 03 13 08 52  3.0000000  0 10
G22 110449252.635 7  86064023.980 6                                  21017795.562    21017811.906                                       -1817.441       -1416.013                                          47.000          38.000                                  
G20 113652392.593 7  88560838.866 5                                  21627326.938    21627346.121                                        2549.516        1986.824                                          45.000          33.000                                  
G19 109036597.586 7  84963416.661 6                                  20748973.328    20748986.281                                         586.953         457.485                                          46.000          38.000                                  
G17 115249173.587 7  89804316.658 6  89804595.662 7                  21931189.344    21931208.043    21931207.812                        -467.758        -364.385        -364.388                          44.000          41.000          45.000                  
G14 115749979.115 7  90194645.826 4  90194589.825 7  86436470.120 8  22026491.094    22026513.016    22026512.512    22026520.465       -3224.035       -2512.063       -2512.052       -2407.383          42.000          29.000          45.000          48.000  
G12 126363410.080 6  98465087.123 4  98465144.130 6                  24046155.805    24046174.277    24046174.613                        3266.344        2545.377        2545.376                          37.000          27.000          36.000                  
G11 114738811.784 7  89407088.689 6  89407154.687 8  85681733.916 8  21834065.609    21834083.688    21834083.422    21834089.398         544.688         424.549         424.544         406.852          46.000          36.000          48.000          50.000  
G09 125079994.620 5  97465054.952 4  97464970.961 6  93403910.666 7  23801923.250    23801954.871    23801955.281    23801960.312        1176.422         916.671         916.669         878.474          34.000          28.000          38.000          42.000  
G06 111599736.753 7  86960971.516 7  86960919.510 8  83337547.276 8  21236721.602    21236738.922    21236739.191    21236741.523        -917.269        -714.644        -714.647        -684.870          47.000          47.000          48.000          52.000  
G05 131658654.542 5 102591287.092 3 102591203.104 5                  25053807.688    25053834.273    25053833.707                        3706.980        2888.508        2888.524                          34.000          22.000          33.000                  
> 2025 03 13 08 52  4.0000000  0 10
G22 110451070.346 7  86065440.378 6                                  21018141.602    21018157.820                                       -1817.914       -1416.398                                          47.000          38.000                                  
G20 113649843.227 7  88558852.353 5                                  21626841.398    21626861.012                                        2549.129        1986.513                                          45.000          33.000                                  
G19 109036010.665 7  84962959.320 6                                  20748861.828    20748874.625                                         586.785         457.340                                          46.000          38.000                                  
G17 115249641.406 7  89804681.190 6  89804960.194 7                  21931278.508    21931297.102    21931296.977                        -467.914        -364.532        -364.533                          44.000          41.000          45.000                  
G14 115753203.211 7  90197158.103 4  90197102.107 7  86438877.716 8  22027104.281    22027126.617    22027126.090    22027134.012       -3224.262       -2512.277       -2512.281       -2407.596          42.000          29.000          44.000          48.000  
G12 126360143.767 6  98462541.942 4  98462598.949 6                  24045534.734    24045552.668    24045552.816                        3266.207        2545.181        2545.181                          38.000          27.000          36.000                  
G11 114738267.190 7  89406664.343 6  89406730.336 8  85681327.247 8  21833962.141    21833980.016    21833979.750    21833985.738         544.449         424.347         424.352         406.668          46.000          36.000          48.000          50.000  
G09 125078818.498 5  97464138.506 4  97464054.513 6  93403032.406 7  23801699.469    23801731.051    23801731.348    23801736.520        1175.820         916.447         916.448         878.260          34.000          28.000          38.000          43.000  
G06 111600654.015 7  86961686.271 8  86961634.264 8  83338232.248 8  21236896.047    21236913.465    21236913.594    21236916.051        -917.344        -714.755        -714.754        -684.972          47.000          48.000          48.000          52.000  
G05 131654947.644 5 102588398.595 3 102588314.616 5                  25053102.047    25053128.762    25053127.684                        3706.934        2888.497        2888.488                          34.000          22.000          33.000                  
> 2025 03 13 08 52  5.0000000  0 10
G22 110452888.535 7  86066857.146 6                                  21018487.523    21018503.762                                       -1818.441       -1416.768                                          47.000          38.000                                  
G20 113647294.263 7  88556866.160 5                                  21626356.234    21626375.938                                        2548.668        1986.193                                          45.000          34.000                                  
G19 109035423.928 7  84962502.124 6                                  20748750.008    20748762.824                                         586.633         457.196                                          47.000          38.000                                  
G17 115250109.416 7  89805045.873 6  89805324.872 7                  21931367.648    21931386.203    21931385.910                        -468.121        -364.684        -364.678                          44.000          41.000          45.000                  
G14 115756427.597 7  90199670.611 5  90199614.608 7  86441285.530 8  22027718.070    22027740.129    22027739.961    22027747.648       -3224.559       -2512.508       -2512.501       -2407.813          42.000          30.000          45.000          48.000  
G12 126356877.682 6  98459996.954 4  98460053.946 5                  24044912.500    24044931.082    24044931.160                        3265.898        2544.987        2545.003                          37.000          26.000          35.000                  
G11 114737722.839 7  89406240.178 6  89406306.174 8  85680920.760 8  21833858.977    21833876.332    21833876.215    21833882.195         544.336         424.165         424.162         406.487          46.000          36.000          48.000          50.000  
G09 125077642.671 5  97463222.281 4  97463138.282 6  93402154.353 7  23801474.797    23801507.406    23801507.195    23801512.754        1175.758         916.225         916.231         878.053          34.000          27.000          38.000          43.000  
G06 111601571.431 7  86962401.143 8  86962349.136 8  83338917.334 8  21237070.734    21237088.016    21237088.086    21237090.641        -917.539        -714.872        -714.872        -685.086          47.000          48.000          48.000          52.000  
G05 131651240.753 5 102585510.128 3 102585426.126 5                  25052397.461    25052423.258    25052421.703                        3706.926        2888.467        2888.490                          34.000          22.000          33.000                  
> 2025 03 13 08 52  6.0000000  0 10
G22 110454707.221 7  86068274.301 6                                  21018833.461    21018849.973                                       -1818.887       -1417.155                                          47.000          38.000                                  
G20 113644745.718 7  88554880.290 5                                  21625871.547    21625891.027                                        2548.324        1985.870                                          45.000          34.000                                  
G19 109034837.395 7  84962045.089 6                                  20748638.258    20748651.223                                         586.484         457.036                                          47.000          38.000                                  
G17 115250577.625 7  89805410.709 6  89805689.709 7                  21931456.727    21931475.270    21931475.188                        -468.352        -364.836        -364.836                          44.000          41.000          45.000                  
G14 115759652.275 7  90202183.335 4  90202127.339 7  86443693.571 8  22028331.891    22028353.801    22028353.789    22028361.273       -3224.898       -2512.725       -2512.731       -2408.041          42.000          29.000          45.000          48.000  
G12 126353611.861 6  98457452.156 4  98457509.162 6                  24044291.586    24044309.590    24044310.305                        3265.543        2544.798        2544.784                          37.000          28.000          36.000                  
G11 114737178.747 7  89405816.217 6  89405882.215 8  85680514.466 8  21833754.969    21833772.754    21833772.598    21833778.625         543.973         423.961         423.959         406.295          46.000          36.000          48.000          50.000  
G09 125076467.097 5  97462306.251 4  97462222.268 6  93401276.513 7  23801251.102    23801283.719    23801283.352    23801288.973        1175.332         916.030         916.014         877.841          34.000          27.000          38.000          42.000  
G06 111602488.999 7  86963116.134 8  86963064.131 8  83339602.535 8  21237245.789    21237262.590    21237262.723    21237265.258        -917.691        -714.991        -714.995        -685.201          47.000          48.000          48.000          52.000  
G05 131647533.919 5 102582621.680 3 102582537.665 5                  25051692.586    25051717.715    25051716.723                        3706.856        2888.448        2888.461                          34.000          22.000          32.000                  
> 2025 03 13 08 52  7.0000000  0 10
G22 110456526.407 7  86069691.848 6                                  21019179.852    21019196.285                                       -1819.391       -1417.547                                          47.000          38.000                                  
G20 113642197.596 7  88552894.748 5                                  21625386.391    21625406.000                                        2547.910        1985.542                                          45.000          34.000                                  
G19 109034251.061 7  84961588.208 6                                  20748526.367    20748539.934                                         586.211         456.881                                          46.000          38.000                                  
G17 115251046.043 7  89805775.708 6  89806054.708 7                  21931545.820    21931564.535    21931564.359                        -468.512        -364.999        -364.999                          44.000          41.000          45.000                  
G14 115762877.268 7  90204696.316 5  90204640.316 7  86446101.841 8  22028945.164    22028967.543    22028967.602    22028974.973       -3225.199       -2512.981       -2512.977       -2408.270          42.000          30.000          45.000          48.000  
G12 126350346.323 6  98454907.586 4  98454964.596 6                  24043670.266    24043688.281    24043688.848                        3265.445        2544.570        2544.566                          37.000          26.000          36.000                  
G11 114736634.925 7  89405392.468 6  89405458.461 8  85680108.372 8  21833651.742    21833669.398    21833669.242    21833675.105         543.551         423.749         423.754         406.094          46.000          36.000          48.000          50.000  
G09 125075291.855 5  97461390.486 4  97461306.489 6  93400398.893 7  23801027.602    23801060.035    23801059.926    23801065.430        1175.297         915.765         915.779         877.619          34.000          27.000          38.000          42.000  
G06 111603406.738 7  86963831.260 8  86963779.255 8  83340287.867 8  21237420.422    21237437.254    21237437.484    21237439.871        -917.875        -715.125        -715.124        -685.332          47.000          48.000          49.000          52.000  
G05 131643827.140 5 102579733.266 3 102579649.273 5                  25050986.555    25051012.117    25051011.004                        3706.754        2888.414        2888.392                          35.000          22.000          33.000                  
> 2025 03 13 08 52  8.0000000  0 10
G22 110458346.126 7  86071109.807 6                                  21019525.820    21019542.457                                       -1819.965       -1417.958                                          47.000          37.000                                  
G20 113639649.925 7  88550909.561 5                                  21624902.070    21624921.234                                        2547.465        1985.187                                          45.000          33.000                                  
G19 109033664.969 7  84961131.512 6                                  20748414.945    20748428.145                                         586.035         456.696                                          46.000          37.000                                  
G17 115251514.694 7  89806140.890 6  89806419.891 7                  21931635.914    21931653.645    21931653.766                        -468.766        -365.182        -365.183                          44.000          41.000          45.000                  
G14 115766102.591 7  90207209.558 4  90207153.555 7  86448510.361 8  22029559.211    22029581.277    22029580.707    22029588.676       -3225.492       -2513.242       -2513.239       -2408.521          42.000          29.000          45.000          48.000  
G12 126347081.070 6  98452363.244 4  98452420.257 6                  24043048.813    24043066.953    24043067.578                        3265.047        2544.342        2544.339                          37.000          27.000          36.000                  
G11 114736091.388 7  89404968.937 6  89405034.936 8  85679702.497 8  21833547.711    21833565.961    21833566.008    21833571.656         543.391         423.531         423.525         405.874          46.000          36.000          48.000          50.000  
G09 125074116.916 5  97460474.954 4  97460390.963 6  93399521.521 7  23800805.031    23800836.512    23800836.121    23800841.805        1174.910         915.532         915.526         877.372          35.000          29.000          38.000          42.000  
G06 111604324.671 7  86964546.535 8  86964494.530 8  83340973.336 8  21237595.039    21237611.961    21237612.293    21237614.562        -918.031        -715.275        -715.275        -685.469          47.000          48.000          48.000          52.000  
G05 131640120.443 5 102576844.934 3 102576760.945 5                  25050281.320    25050306.594    25050306.059                        3706.738        2888.331        2888.328                          34.000          22.000          34.000                  
> 2025 03 13 08 52  9.0000000  0 10
G22 110460166.323 7  86072528.142 6                                  21019872.133    21019888.965                                       -1820.488       -1418.335                                          47.000          37.000                                  
G20 113637102.648 7  88548924.677 5                                  21624416.836    21624436.512                                        2547.117        1984.884                                          45.000          34.000                                  
G19 109033079.059 7  84960674.961 6                                  20748303.758    20748316.641                                         585.820         456.551                                          46.000          38.000                                  
G17 115251983.521 7  89806506.207 6  89806785.207 7                  21931724.250    21931742.852    21931742.621                        -468.906        -365.317        -365.317                          44.000          41.000          45.000                  
G14 115769328.205 7  90209723.019 4  90209667.014 7  86450919.091 8  22030172.875    22030195.008    22030194.594    22030202.500       -3225.734       -2513.461       -2513.459       -2408.730          42.000          29.000          45.000          48.000  
G12 126343816.057 6  98449819.091 4  98449876.089 6                  24042427.375    24042445.672    24042446.406                        3264.910        2544.154        2544.168                          38.000          27.000          36.000                  
G11 114735548.095 7  89404545.603 6  89404611.598 8  85679296.798 8  21833444.734    21833462.562    21833462.402    21833468.289         543.098         423.334         423.339         405.700          46.000          36.000          48.000          50.000  
G09 125072942.257 5  97459559.648 4  97459475.654 6  93398644.346 7  23800581.305    23800612.977    23800612.422    23800618.402        1174.379         915.306         915.309         877.174          34.000          29.000          38.000          42.000  
G06 111605242.740 7  86965261.916 8  86965209.912 8  83341658.913 8  21237769.375    21237786.559    21237787.035    21237789.270        -918.207        -715.381        -715.382        -685.577          47.000          48.000          48.000          52.000  
G05 131636413.777 5 102573956.623 3 102573872.645 5                  25049575.078    25049601.320    25049601.184                        3706.676        2888.312        2888.300                          35.000          22.000          34.000                  
> 2025 03 13 08 52 10.0000000  0 10
G22 110461987.011 7  86073946.856 6                                  21020218.391    21020235.352                                       -1820.988       -1418.714                                          47.000          37.000                                  
G20 113634555.774 7  88546940.109 5                                  21623932.141    21623951.895                                        2546.684        1984.568                                          45.000          33.000                                  
G19 109032493.343 7  84960218.562 6                                  20748192.305    20748205.246                                         585.676         456.399                                          46.000          38.000                                  
G17 115252452.544 7  89806871.677 7  89807150.677 7                  21931813.914    21931832.055    21931832.059                        -469.023        -365.470        -365.469                          44.000          42.000          45.000                  
G14 115772554.106 7  90212236.699 4  90212180.702 7  86453328.039 8  22030786.461    22030808.863    22030808.301    22030816.484       -3225.980       -2513.680       -2513.688       -2408.948          42.000          29.000          45.000          48.000  
G12 126340551.306 6  98447275.134 4  98447332.137 6                  24041806.477    24041824.344    24041824.965                        3264.691        2543.957        2543.952                          37.000          27.000          36.000                  
G11 114735005.048 7  89404122.462 6  89404188.453 8  85678891.285 8  21833341.086    21833359.141    21833359.137    21833364.980         542.965         423.140         423.145         405.513          46.000          36.000          48.000          50.000  
G09 125071767.875 5  97458644.557 4  97458560.554 6  93397767.385 7  23800358.570    23800389.430    23800388.645    23800394.969        1174.168         915.091         915.100         876.961          34.000          29.000          38.000          43.000  
G06 111606160.955 7  86965977.413 8  86965925.411 8  83342344.598 8  21237944.391    21237961.383    21237961.652    21237963.996        -918.281        -715.497        -715.499        -685.685          47.000          48.000          48.000          52.000  
G05 131632707.150 5 102571068.372 3 102570984.376 5                  25048868.969    25048896.227    25048896.133                        3706.703        2888.250        2888.270                          34.000          22.000          34.000                  
> 2025 03 13 08 52 11.0000000  0 10
G22 110463808.150 7  86075365.919 6                                  21020565.164    21020581.828                                       -1821.387       -1419.063                                          47.000          38.000                                  
G20 113632009.274 7  88544955.832 5                                  21623447.625    21623467.305                                        2546.273        1984.277                                          45.000          33.000                                  
G19 109031907.795 7  84959762.294 6                                  20748080.641    20748093.797                                         585.426         456.267                                          46.000          38.000                                  
G17 115252921.729 7  89807237.276 7  89807516.276 7                  21931902.891    21931921.375    21931921.125                        -469.258        -365.599        -365.599                          45.000          42.000          45.000                  
G14 115775780.277 7  90214750.591 4  90214694.592 7  86455737.184 8  22031400.523    22031422.668    22031422.387    22031430.336       -3226.348       -2513.892       -2513.891       -2409.145          43.000          29.000          45.000          48.000  
G12 126337286.778 6  98444731.343 4  98444788.352 6                  24041184.742    24041203.316    24041203.367                        3264.371        2543.791        2543.786                          37.000          26.000          36.000                  
G11 114734462.219 7  89403699.480 5  89403765.481 8  85678485.937 8  21833237.797    21833255.813    21833255.629    21833261.672         542.738         422.982         422.972         405.348          47.000          35.000          48.000          50.000  
G09 125070593.738 5  97457729.658 4  97457645.661 6  93396890.612 7  23800135.305    23800165.867    23800164.914    23800171.469        1174.301         914.898         914.894         876.774          34.000          28.000          38.000          43.000  
G06 111607079.297 7  86966693.005 7  86966641.001 8  83343030.374 8  21238118.734    21238136.184    21238136.543    21238138.754        -918.414        -715.592        -715.590        -685.776          47.000          47.000          48.000          52.000  
G05 131629000.552 5 102568180.126 3 102568096.128 5                  25048163.961    25048190.969    25048191.160                        3706.500        2888.247        2888.248                          34.000          22.000          34.000                  
> 2025 03 13 08 52 12.0000000  0 11
G22 110465629.777 7  86076785.365 6                                  21020911.820    21020928.484                                       -1821.926       -1419.446                                          47.000          38.000                                  
G20 113629463.170 7  88542971.872 5                                  21622963.281    21622982.723                                        2545.828        1983.960                                          45.000          33.000                                  
G19 109031322.434 7  84959306.170 6                                  20747969.469    20747982.488                                         585.234         456.124                                          46.000          38.000                                  
G17 115253391.102 7  89807603.017 7  89807882.014 7                  21931991.711    21932010.684    21932010.723                        -469.508        -365.740        -365.738                          45.000          42.000          45.000                  
G14 115779006.722 7  90217264.701 4  90217208.706 7  86458146.543 8  22032015.383    22032036.629    22032036.492    22032044.281       -3226.590       -2514.110       -2514.114       -2409.359          42.000          29.000          45.000          48.000  
G12 126334022.499 6  98442187.754 4  98442244.761 6                  24040563.672    24040582.219    24040582.125                        3264.016        2543.589        2543.591                          37.000          26.000          36.000                  
G11 114733919.640 7  89403276.700 5  89403342.697 8  85678080.772 8  21833134.469    21833152.613    21833152.539    21833158.375         542.496         422.780         422.784         405.165          47.000          35.000          49.000          50.000  
G09 125069419.888 5  97456814.979 4  97456730.984 6  93396014.050 7  23799911.711    23799942.484    23799941.289    23799947.977        1173.789         914.680         914.676         876.562          34.000          28.000          38.000          43.000  
G06 111607997.774 7  86967408.705 8  86967356.701 8  83343716.254 8  21238293.414    21238310.863    21238311.465    21238313.508        -918.547        -715.700        -715.700        -685.880          47.000          48.000          48.000          52.000  
G05 131625293.974 5 102565291.898 3 102565207.891 5                  25047459.383    25047485.781    25047485.187                        3706.520        2888.228        2888.237                          35.000          23.000          34.000                  
G04 132029548.14235                 102880291.36816  98593595.78816  25124382.852                    25124407.633    25124415.320         232.457                           0.000           0.000          32.000                          37.000          38.000  
> 2025 03 13 08 52 13.0000000  0 11
G22 110467451.943 7  86078205.233 6                                  21021259.062    21021275.191                                       -1822.387       -1419.868                                          47.000          38.000                                  
G20 113626917.525 7  88540988.252 5                                  21622478.820    21622498.258                                        2545.434        1983.620                                          45.000          33.000                                  
G19 109030737.320 7  84958850.240 6                                  20747857.672    20747871.090                                         585.039         455.930                                          46.000          38.000                                  
G17 115253860.722 7  89807968.952 6  89808247.955 7                  21932081.414    21932100.082    21932100.008                        -469.695        -365.935        -365.941                          44.000          41.000          45.000                  
G14 115782233.524 7  90219779.091 4  90219723.091 7  86460556.163 8  22032628.805    22032650.813    22032650.562    22032658.250       -3226.961       -2514.390       -2514.385       -2409.620          42.000          29.000          45.000          48.000  
G12 126330758.521 6  98439644.410 4  98439701.408 6                  24039941.875    24039961.125    24039961.059                        3263.883        2543.344        2543.353                          37.000          27.000          36.000                  
G11 114733377.366 7  89402854.157 5  89402920.153 8  85677675.837 8  21833031.672    21833049.418    21833049.359    21833055.223         542.223         422.542         422.544         404.935          47.000          35.000          48.000          50.000  
G09 125068246.371 5  97455900.561 4  97455816.573 6  93395137.737 7  23799686.352    23799719.102    23799717.938    23799724.695        1173.316         914.418         914.411         876.313          34.000          28.000          38.000          43.000  
G06 111608916.465 7  86968124.572 7  86968072.565 8  83344402.291 8  21238468.617    21238485.793    21238486.117    21238488.293        -918.844        -715.868        -715.864        -686.037          47.000          47.000          48.000          52.000  
G05 131621587.518 5 102562403.748 3 102562319.751 5                  25046754.547    25046780.516    25046779.809                        3706.352        2888.150        2888.140                          35.000          22.000          35.000                  
G04 132029315.781 5                 102880110.378 6  98593422.329 6  25124338.188                    25124364.051    25124371.602         231.887                         180.990         173.459          32.000                          37.000          38.000  
> 2025 03 13 08 52 14.0000000  0 11
G22 110469274.630 7  86079625.511 6                                  21021605.461    21021622.070                                       -1822.953       -1420.278                                          47.000          38.000                                  
G20 113624372.318 7  88539004.984 5                                  21621993.992    21622013.852                                        2545.023        1983.268                                          45.000          33.000                                  
G19 109030152.439 7  84958394.494 6                                  20747746.633    20747759.750                                         584.746         455.746                                          46.000          38.000                                  
G17 115254330.566 7  89808335.064 6  89808614.063 7                  21932170.625    21932189.457    21932189.293                        -469.969        -366.112        -366.109                          44.000          41.000          45.000                  
G14 115785460.650 7  90222293.736 5  90222237.731 7  86462966.026 8  22033243.148    22033264.934    22033264.762    22033272.395       -3227.320       -2514.645       -2514.639       -2409.863          42.000          30.000          45.000          48.000  
G12 126327494.834 6  98437101.291 4  98437158.281 6                  24039321.016    24039339.977    24039340.645                        3263.395        2543.119        2543.127                          37.000          26.000          36.000                  
G11 114732835.374 7  89402431.835 6  89402497.831 8  85677271.110 8  21832928.617    21832946.273    21832946.070    21832952.094         541.828         422.322         422.322         404.727          47.000          36.000          48.000          50.000  
G09 125067073.184 5  97454986.398 4  97454902.399 6  93394261.662 7  23799464.484    23799495.738    23799495.266    23799501.434        1173.086         914.162         914.173         876.075          34.000          28.000          38.000          43.000  
G06 111609835.334 7  86968840.577 8  86968788.573 8  83345088.467 8  21238643.594    21238660.582    21238660.977    21238663.188        -918.981        -716.005        -716.009        -686.175          47.000          48.000          48.000          52.000  
G05 131617881.122 5 102559515.652 3 102559431.662 5                  25046048.586    25046075.238    25046074.746                        3706.500        2888.096        2888.089                          35.000          23.000          34.000                  
G04 132029083.885 5                 102879929.703 6  98593249.172 6  25124294.156                    25124320.102    25124327.480         231.547                         180.675         173.157          31.000                          37.000          39.000  
> 2025 03 13 08 52 15.0000000  0 11
G22 110471097.783 7  86081046.147 6                                  21021952.102    21021969.027                                       -1823.355       -1420.636                                          47.000          38.000                                  
G20 113621827.493 7  88537022.019 5                                  21621509.781    21621529.570                                        2544.625        1982.965                                          45.000          33.000                                  
G19 109029567.723 7  84957938.872 6                                  20747635.242    20747648.449                                         584.707         455.623                                          46.000          38.000                                  
G17 115254800.574 7  89808701.302 6  89808980.301 7                  21932259.961    21932278.949    21932278.676                        -470.086        -366.238        -366.238                          45.000          41.000          45.000                  
G14 115788688.041 7  90224808.580 5  90224752.579 7  86465376.087 8  22033856.977    22033879.008    22033878.828    22033886.598       -3227.438       -2514.845       -2514.849       -2410.061          42.000          30.000          45.000          48.000  
G12 126324231.376 6  98434558.334 4  98434615.349 6                  24038700.898    24038718.934    24038719.574                        3263.359        2542.957        2542.932                          37.000          26.000          36.000                  
G11 114732293.605 7  89402009.683 6  89402075.678 8  85676866.551 8  21832825.516    21832843.156    21832842.938    21832848.996         541.719         422.153         422.153         404.559          46.000          36.000          49.000          50.000  
G09 125065900.246 5  97454072.428 4  97453988.431 6  93393385.778 7  23799240.180    23799272.590    23799271.969    23799278.188        1172.930         913.970         913.968         875.884          34.000          28.000          38.000          43.000  
G06 111610754.330 7  86969556.683 8  86969504.679 8  83345774.734 8  21238818.281    21238835.457    21238835.566    21238838.043        -919.008        -716.105        -716.105        -686.267          47.000          48.000          48.000          52.000  
G05 131614174.745 5 102556627.586 3 102556543.590 5                  25045342.953    25045369.855    25045369.367                        3706.543        2888.066        2888.072                          34.000          23.000          34.000                  
G04 132028852.37735                 102879749.281 6  98593076.284 6  25124249.203                    25124275.551    25124283.551         230.996                         180.421         172.888          31.000                          37.000          38.000  
> 2025 03 13 08 52 16.0000000  0 11
G22 110472921.406 7  86082467.151 6                                  21022299.398    21022316.082                                       -1823.871       -1421.005                                          47.000          38.000                                  
G20 113619283.059 7  88535039.348 5                                  21621025.336    21621045.395                                        2544.227        1982.671                                          45.000          33.000                                  
G19 109028983.185 7  84957483.392 6                                  20747524.234    20747537.230                                         584.445         455.480                                          46.000          39.000                                  
G17 115255270.759 7  89809067.678 6  89809346.677 7                  21932349.859    21932368.262    21932368.391                        -470.332        -366.376        -366.376                          45.000          41.000          45.000                  
G14 115791915.712 7  90227323.643 4  90227267.639 7  86467786.354 8  22034471.430    22034493.078    22034492.848    22034500.801       -3227.922       -2515.062       -2515.059       -2410.267          42.000          29.000          45.000          48.000  
G12 126320968.169 6  98432015.583 4  98432072.598 6                  24038079.039    24038097.930    24038098.324                        3263.051        2542.751        2542.751                          37.000          27.000          36.000                  
G11 114731752.062 7  89401587.706 5  89401653.707 8  85676462.163 8  21832722.219    21832740.055    21832740.188    21832745.891         541.445         421.977         421.971         404.387          46.000          35.000          49.000          50.000  
G09 125064727.577 5  97453158.665 4  97453074.663 6  93392510.091 7  23799017.453    23799049.285    23799049.191    23799055.027        1172.492         913.763         913.768         875.687          34.000          29.000          38.000          43.000  
G06 111611673.454 7  86970272.887 8  86970220.880 8  83346461.096 8  21238993.047    21239010.387    21239010.594    21239012.941        -919.207        -716.204        -716.202        -686.362          47.000          48.000          48.000          52.000  
G05 131610468.377 5 102553739.500 3 102553655.514 5                  25044637.250    25044664.547    25044663.766                        3706.328        2888.086        2888.076                          34.000          23.000          34.000                  
G04 132028621.186 5                 102879569.171 6  98592903.686 6  25124206.047                    25124232.246    25124239.746         231.242                         180.110         172.598          31.000                          37.000          39.000  
> 2025 03 13 08 52 17.0000000  0 11
G22 110474745.560 7  86083888.561 6                                  21022646.516    21022663.309                                       -1824.418       -1421.410                                          47.000          38.000                                  
G20 113616739.074 7  88533057.033 5                                  21620542.203    21620561.305                                        2543.688        1982.315                                          45.000          34.000                                  
G19 109028398.880 7  84957028.089 6                                  20747413.039    20747425.984                                         584.191         455.303                                          46.000          38.000                                  
G17 115255741.169 7  89809434.235 6  89809713.233 7                  21932439.461    21932457.816    21932457.875                        -470.508        -366.557        -366.556                          45.000          41.000          45.000                  
G14 115795143.711 7  90229838.962 4  90229782.956 7  86470196.867 8  22035085.031    22035107.336    22035107.145    22035115.000       -3228.168       -2515.319       -2515.318       -2410.513          42.000          29.000          45.000          48.000  
G12 126317705.249 6  98429473.053 4  98429530.077 6                  24037458.797    24037477.027    24037477.047                        3262.801        2542.530        2542.521                          38.000          28.000          36.000                  
G11 114731210.811 7  89401165.965 5  89401231.959 8  85676057.992 8  21832619.383    21832637.066    21832637.004    21832642.898         541.078         421.741         421.748         404.172          47.000          35.000          48.000          50.000  
G09 125063555.226 5  97452245.142 4  97452161.157 6  93391634.642 7  23798795.023    23798825.996    23798825.719    23798831.953        1172.328         913.523         913.506         875.450          34.000          28.000          38.000          43.000  
G06 111612592.769 7  86970989.239 8  86970937.233 8  83347147.601 8  21239167.930    21239185.270    21239185.473    21239187.898        -919.410        -716.352        -716.353        -686.505          47.000          48.000          48.000          52.000  
G05 131606762.116 5 102550851.526 3 102550767.521 5                  25043932.703    25043959.188    25043958.547                        3705.953        2887.975        2887.993                          34.000          22.000          34.000                  
G04 132028390.453 5                 102879389.392 6  98592731.400 6  25124160.883                    25124188.148    25124195.789         230.723                         179.779         172.286          31.000                          37.000          39.000  
> 2025 03 13 08 52 18.0000000  0 11
G22 110476570.201 7  86085310.356 6                                  21022993.680    21023010.578                                       -1824.863       -1421.795                                          47.000          38.000                                  
G20 113614195.505 7  88531075.038 5                                  21620058.281    21620077.379                                        2543.461        1981.994                                          45.000          34.000                                  
G19 109027814.770 7  84956572.939 6                                  20747302.055    20747314.766                                         584.070         455.150                                          46.000          38.000                                  
G17 115256211.778 7  89809800.942 6  89810079.940 7                  21932529.219    21932547.543    21932547.465                        -470.750        -366.707        -366.707                          45.000          41.000          45.000                  
G14 115798371.999 7  90232354.509 5  90232298.505 7  86472607.599 8  22035699.930    22035721.758    22035721.238    22035729.387       -3228.352       -2515.548       -2515.549       -2410.732          42.000          30.000          45.000          48.000  
G12 126314442.607 6  98426930.741 4  98426987.736 6                  24036838.211    24036856.195    24036856.129                        3262.484        2542.312        2542.341                          37.000          27.000          36.000                  
G11 114730669.815 7  89400744.416 5  89400810.408 8  85675654.007 8  21832516.250    21832534.199    21832533.902    21832539.992         540.910         421.549         421.550         403.985          47.000          35.000          48.000          50.000  
G09 125062383.153 5  97451331.856 4  97451247.857 6  93390759.408 7  23798571.359    23798602.863    23798602.965    23798608.836        1172.031         913.286         913.300         875.233          34.000          28.000          38.000          43.000  
G06 111613512.234 7  86971705.708 8  86971653.701 8  83347834.217 8  21239342.945    21239360.176    21239360.453    21239362.824        -919.547        -716.469        -716.468        -686.617          47.000          48.000          48.000          52.000  
G05 131603055.871 5 102547963.546 3 102547879.547 5                  25043227.164    25043253.754    25043253.625                        3706.426        2887.980        2887.974                          34.000          23.000          34.000                  
G04 132028160.095 5                 102879209.912 6  98592559.398 6  25124117.281                    25124144.262    25124151.883         230.273                         179.480         172.002          30.000                          36.000          39.000  
> 2025 03 13 08 52 19.0000000  0 11
G22 110478395.293 7  86086732.509 6                                  21023341.297    21023357.754                                       -1825.305       -1422.152                                          47.000          38.000                                  
G20 113611652.311 7  88529093.334 5                                  21619574.219    21619593.426                                        2543.031        1981.704                                          45.000          34.000                                  
G19 109027230.807 7  84956117.906 6                                  20747190.844    20747203.746                                         583.855         455.033                                          46.000          38.000                                  
G17 115256682.546 7  89810167.770 6  89810446.771 7                  21932619.062    21932637.082    21932636.820                        -470.816        -366.828        -366.832                          45.000          41.000          45.000                  
G14 115801600.554 7  90234870.269 4  90234814.256 7  86475018.526 8  22036314.227    22036336.137    22036335.773    22036343.797       -3228.695       -2515.759       -2515.750       -2410.927          42.000          29.000          45.000          48.000  
G12 126311180.171 6  98424388.588 4  98424445.604 6                  24036217.039    24036235.422    24036235.336                        3262.344        2542.153        2542.131                          37.000          26.000          37.000                  
G11 114730129.031 7  89400323.035 5  89400389.027 8  85675250.186 8  21832413.516    21832431.328    21832431.062    21832437.117         540.746         421.381         421.382         403.821          47.000          35.000          48.000          50.000  
G09 125061211.351 5  97450418.781 4  97450334.770 6  93389884.363 7  23798348.609    23798379.945    23798379.797    23798385.895        1171.793         913.075         913.087         875.045          34.000          28.000          38.000          43.000  
G06 111614431.811 7  86972422.264 8  86972370.258 8  83348520.919 8  21239518.047    21239535.223    21239535.410    21239537.824        -919.609        -716.556        -716.558        -686.702          47.000          48.000          48.000          52.000  
G05 131599349.638 5 102545075.562 3 102544991.585 5                  25042522.062    25042548.492    25042548.742                        3706.274        2887.983        2887.961                          34.000          23.000          34.000                  
G04 132027930.112 5                 102879030.707 6  98592387.665 6  25124073.328                    25124100.758    25124108.277         229.836                         179.205         171.733          31.000                          36.000          39.000  
> 2025 03 13 08 52 20.0000000  0 11
G22 110480220.862 7  86088155.028 6                                  21023688.609    21023705.117                                       -1825.836       -1422.519                                          47.000          38.000                                  
G20 113609109.513 7  88527111.942 5                                  21619089.961    21619109.516                                        2542.555        1981.392                                          45.000          33.000                                  
G19 109026647.035 7  84955663.018 6                                  20747079.656    20747092.781                                         583.633         454.888                                          46.000          38.000                                  
G17 115257153.496 7  89810534.744 7  89810813.744 7                  21932709.070    21932726.703    21932726.816                        -471.102        -366.974        -366.973                          45.000          42.000          45.000                  
G14 115804829.377 7  90237386.226 4  90237330.222 7  86477429.658 8  22036928.820    22036950.555    22036950.184    22036958.188       -3229.000       -2515.957       -2515.967       -2411.133          42.000          29.000          45.000          48.000  
G12 126307917.972 6  98421846.627 4  98421903.633 6                  24035595.734    24035614.648    24035614.500                        3261.922        2541.961        2541.971                          37.000          26.000          37.000                  
G11 114729588.486 7  89399901.838 5  89399967.829 8  85674846.539 8  21832310.859    21832328.316    21832328.203    21832334.164         540.477         421.197         421.198         403.647          47.000          35.000          48.000          50.000  
G09 125060039.818 5  97449505.908 4  97449421.889 6  93389009.529 7  23798125.812    23798157.066    23798156.473    23798163.090        1171.312         912.872         912.880         874.834          34.000          29.000          38.000          43.000  
G06 111615351.529 7  86973138.930 8  86973086.926 8  83349207.726 8  21239693.070    21239710.234    21239710.449    21239712.871        -919.769        -716.666        -716.668        -686.807          47.000          48.000          48.000          52.000  
G05 131595643.451 5 102542187.623 3 102542103.628 5                  25041816.922    25041843.246    25041843.328                        3706.102        2887.939        2887.958                          34.000          23.000          34.000                  
G04 132027700.473 5                 102878851.791 6  98592216.200 6  25124029.688                    25124057.281    25124064.582         229.652                         178.917         171.465          31.000                          37.000          38.000  
> 2025 03 13 08 52 21.0000000  0 11
G22 110482046.984 7  86089577.976 6                                  21024035.711    21024052.570                                       -1826.438       -1422.948                                          47.000          38.000                                  
G20 113606567.181 7  88525130.916 5                                  21618606.109    21618625.695                                        2542.059        1981.026                                          45.000          34.000                                  
G19 109026063.521 7  84955208.334 6                                  20746968.727    20746981.602                                         583.359         454.684                                          46.000          38.000                                  
G17 115257624.697 7  89810901.914 7  89811180.914 7                  21932798.828    21932816.363    21932816.414                        -471.355        -367.170        -367.170                          44.000          42.000          44.000                  
G14 115808058.555 7  90239902.464 4  90239846.466 7  86479841.056 8  22037543.312    22037565.086    22037564.906    22037572.645       -3229.387       -2516.239       -2516.243       -2411.398          42.000          29.000          45.000          48.000  
G12 126304656.094 6  98419304.907 4  98419361.918 6                  24034975.078    24034993.938    24034993.688                        3261.598        2541.720        2541.716                          37.000          26.000          36.000                  
G11 114729048.245 7  89399480.878 6  89399546.873 7  85674443.124 8  21832208.227    21832225.477    21832225.605    21832231.398         540.043         420.960         420.956         403.415          47.000          36.000          47.000          50.000  
G09 125058868.615 5  97448593.276 4  97448509.279 6  93388134.943 7  23797901.664    23797934.191    23797933.711    23797940.203        1171.148         912.632         912.611         874.586          34.000          28.000          38.000          42.000  
G06 111616271.452 7  86973855.758 8  86973803.750 8  83349894.684 8  21239868.141    21239885.266    21239885.617    21239887.938        -920.082        -716.829        -716.824        -686.957          47.000          48.000          48.000          52.000  
G05 131591937.344 5 102539299.767 3 102539215.762 5                  25041112.438    25041138.039    25041137.812                        3706.070        2887.856        2887.865                          34.000          23.000          34.000                  
G04 132027471.296 5                 102878673.220 6  98592045.070 6  25123985.508                    25124013.672    25124020.918         228.891                         178.570         171.131          30.000                          37.000          38.000  
> 2025 03 13 08 52 22.0000000  0 11
G22 110483873.652 7  86091001.349 6                                  21024383.797    21024400.293                                       -1826.988       -1423.373                                          47.000          38.000                                  
G20 113604025.326 7  88523150.261 5                                  21618122.547    21618142.055                                        2541.621        1980.655                                          45.000          33.000                                  
G19 109025480.264 7  84954753.852 6                                  20746857.758    20746870.664                                         583.172         454.483                                          46.000          38.000                                  
G17 115258096.162 7  89811269.289 7  89811548.288 7                  21932888.422    21932905.914    21932905.863                        -471.602        -367.375        -367.373                          44.000          42.000          44.000                  
G14 115811288.089 7  90242418.977 4  90242362.984 7  86482252.717 8  22038157.742    22038179.578    22038179.176    22038187.156       -3229.645       -2516.513       -2516.519       -2411.661          42.000          29.000          45.000          48.000  
G12 126301394.535 6  98416763.430 4  98416820.445 6                  24034353.969    24034373.445    24034373.355                        3261.508        2541.477        2541.473                          37.000          27.000          36.000                  
G11 114728508.323 7  89399060.167 5  89399126.160 8  85674039.944 8  21832105.172    21832122.852    21832122.750    21832128.641         539.809         420.711         420.713         403.180          47.000          35.000          48.000          51.000  
G09 125057697.766 5  97447680.938 4  97447596.937 6  93387260.620 7  23797679.711    23797711.453    23797711.062    23797717.398        1170.848         912.338         912.342         874.324          35.000          29.000          38.000          43.000  
G06 111617191.590 7  86974572.753 8  86974520.747 8  83350581.805 8  21240043.070    21240060.309    21240060.789    21240063.023        -920.250        -716.995        -716.997        -687.121          47.000          48.000          48.000          52.000  
G05 131588231.340 5 102536411.960 3 102536327.992 5                  25040405.859    25040432.832    25040432.582                        3705.836        2887.807        2887.771                          34.000          23.000          34.000                  
G04 132027242.51935                 102878495.006 6  98591874.286 6  25123942.109                    25123970.242    25123977.547         228.504                         178.215         170.783          30.000                          37.000          39.000  
> 2025 03 13 08 52 23.0000000  0 11
G22 110485700.801 7  86092425.102 6                                  21024731.328    21024747.988                                       -1827.383       -1423.752                                          47.000          38.000                                  
G20 113601483.883 7  88521169.924 5                                  21617639.094    21617658.504                                        2541.230        1980.337                                          46.000          33.000                                  
G19 109024897.191 7  84954299.507 6                                  20746746.758    20746759.820                                         582.949         454.344                                          46.000          38.000                                  
G17 115258567.812 7  89811636.807 6  89811915.807 7                  21932977.961    21932995.688    21932995.473                        -471.734        -367.518        -367.519                          44.000          41.000          44.000                  
G14 115814517.912 7  90244935.722 4  90244879.724 7  86484664.592 8  22038772.516    22038794.113    22038794.125    22038801.848       -3229.953       -2516.745       -2516.740       -2411.875          42.000          29.000          45.000          48.000  
G12 126298133.230 6  98414222.173 4  98414279.182 6                  24033733.359    24033752.848    24033752.938                        3261.016        2541.258        2541.262                          37.000          26.000          36.000                  
G11 114727968.641 7  89398639.642 6  89398705.637 8  85673636.944 8  21832002.805    21832020.176    21832019.949    21832025.914         539.543         420.525         420.523         403.000          47.000          36.000          48.000          51.000  
G09 125056527.196 5  97446768.803 4  97446684.810 6  93386386.500 7  23797457.188    23797488.555    23797488.238    23797494.477        1170.473         912.135         912.127         874.120          34.000          28.000          38.000          43.000  
G06 111618111.862 7  86975289.850 7  86975237.847 8  83351269.027 8  21240217.961    21240235.484    21240235.785    21240238.133        -920.383        -717.097        -717.100        -687.222          46.000          47.000          48.000          52.000  
G05 131584525.377 5 102533524.221 3 102533440.231 5                  25039699.633    25039727.680    25039727.328                        3705.805        2887.739        2887.760                          34.000          23.000          34.000                  
G04 132027014.207 5                 102878317.078 6  98591703.773 6  25123898.453                    25123926.523    25123934.152         228.039                         177.927         170.513          31.000                          37.000          39.000  
> 2025 03 13 08 52 24.0000000  0 11
G22 110487528.357 7  86093849.170 6                                  21025079.531    21025095.789                                       -1827.785       -1424.068                                          47.000          38.000                                  
G20 113598942.760 7  88519189.836 5                                  21617155.500    21617174.949                                        2540.973        1980.089                                          46.000          34.000                                  
G19 109024314.232 7  84953845.257 6                                  20746635.898    20746648.746                                         582.914         454.251                                          46.000          38.000                                  
G17 115259039.575 7  89812004.412 6  89812283.413 7                  21933067.375    21933085.480    21933085.621                        -471.777        -367.605        -367.606                          45.000          41.000          44.000                  
G14 115817747.947 7  90247452.633 5  90247396.625 7  86487076.626 8  22039386.961    22039408.789    22039408.441    22039416.531       -3230.039       -2516.911       -2516.901       -2412.034          42.000          30.000          45.000          48.000  
G12 126294872.098 6  98411681.032 4  98411738.039 6                  24033113.125    24033132.320    24033132.387                        3261.098        2541.141        2541.144                          36.000          28.000          36.000                  
G11 114727429.131 7  89398219.254 5  89398285.246 8  85673234.069 8  21831899.430    21831917.453    21831917.223    21831923.234         539.473         420.388         420.391         402.875          47.000          35.000          48.000          50.000  
G09 125055356.838 5  97445856.849 4  97445772.842 6  93385512.530 7  23797234.781    23797265.770    23797265.703    23797271.688        1170.352         911.954         911.968         873.970          34.000          29.000          38.000          42.000  
G06 111619032.211 7  86976007.009 7  86975955.003 8  83351956.299 8  21240393.281    21240410.652    21240410.988    21240413.281        -920.387        -717.159        -717.157        -687.273          47.000          47.000          48.000          52.000  
G05 131580819.377 5 102530636.439 3 102530552.454 5                  25038995.891    25039022.492    25039022.312                        3706.012        2887.782        2887.777                          34.000          22.000          34.000                  
G04 132026786.147 5                 102878139.390 6  98591533.494 6  25123856.023                    25123882.949    25123890.527         227.848                         177.689         170.279          30.000                          37.000          39.000  
> 2025 03 13 08 52 25.0000000  0 11
G22 110489356.379 7  86095273.600 6                                  21025427.188    21025443.707                                       -1828.277       -1424.430                                          47.000          38.000                                  
G20 113596402.031 7  88517210.060 5                                  21616671.453    21616691.383                                        2540.473        1979.776                                          46.000          33.000                                  
G19 109023731.449 7  84953391.146 6                                  20746524.508    20746537.867                                         582.699         454.111                                          46.000          38.000                                  
G17 115259511.512 7  89812372.151 6  89812651.152 7                  21933157.398    21933175.293    21933175.332                        -472.012        -367.739        -367.739                          45.000          41.000          44.000                  
G14 115820978.249 7  90249969.740 4  90249913.741 7  86489488.864 8  22040001.930    22040023.367    22040023.191    22040031.242       -3230.473       -2517.107       -2517.115       -2412.238          42.000          29.000          45.000          48.000  
G12 126291611.183 6  98409140.070 4  98409197.079 6                  24032492.406    24032511.766    24032511.785                        3260.941        2540.962        2540.959                          37.000          26.000          36.000                  
G11 114726889.844 7  89397799.040 6  89397865.033 8  85672831.367 8  21831797.117    21831814.910    21831814.578    21831820.617         539.168         420.214         420.214         402.702          47.000          36.000          48.000          50.000  
G09 125054186.734 5  97444945.084 4  97444861.083 6  93384638.764 7  23797012.367    23797043.172    23797043.129    23797048.934        1169.691         911.765         911.759         873.766          35.000          28.000          38.000          43.000  
G06 111619952.691 7  86976724.267 8  86976672.263 8  83352643.676 8  21240568.477    21240585.777    21240585.902    21240588.434        -920.586        -717.258        -717.260        -687.377          47.000          48.000          48.000          52.000  
G05 131577113.407 5 102527748.689 3 102527664.697 5                  25038290.953    25038317.473    25038316.820                        3705.836        2887.750        2887.757                          34.000          22.000          34.000                  
G04 132026558.472 5                 102877961.992 6  98591363.490 6  25123812.336                    25123839.887    25123847.164         227.500                         177.398         170.004          30.000                          37.000          39.000  
> 2025 03 13 08 52 26.0000000  0 11
G22 110491184.978 7  86096698.481 6                                  21025774.656    21025791.645                                       -1828.844       -1424.881                                          47.000          37.000                                  
G20 113593861.795 7  88515230.667 5                                  21616188.438    21616208.055                                        2540.051        1979.393                                          45.000          33.000                                  
G19 109023148.945 7  84952937.248 6                                  20746413.633    20746427.000                                         582.375         453.897                                          46.000          38.000                                  
G17 115259983.722 7  89812740.105 6  89813019.107 7                  21933246.672    21933265.125    21933265.441                        -472.348        -367.953        -367.955                          45.000          41.000          45.000                  
G14 115824208.930 6  90252487.157 4  90252431.153 7  86491901.377 8  22040616.172    22040638.160    22040637.945    22040646.035       -3230.816       -2517.417       -2517.412       -2412.514          41.000          29.000          45.000          48.000  
G12 126288350.621 6  98406599.390 4  98406656.386 6                  24031870.805    24031891.246    24031890.789                        3260.367        2540.680        2540.693                          37.000          27.000          36.000                  
G11 114726350.899 7  89397379.088 5  89397445.083 8  85672428.914 8  21831694.305    21831712.324    21831711.977    21831718.105         538.688         419.952         419.949         402.453          47.000          35.000          48.000          50.000  
G09 125053016.986 5  97444033.601 4  97443949.606 6  93383765.275 7  23796789.859    23796820.746    23796820.676    23796826.340        1169.664         911.484         911.477         873.490          34.000          28.000          39.000          42.000  
G06 111620873.400 7  86977441.707 8  86977389.705 8  83353331.225 8  21240743.727    21240760.980    21240761.195    21240763.609        -920.863        -717.440        -717.442        -687.549          47.000          48.000          48.000          52.000  
G05 131573407.583 5 102524861.044 4 102524777.024 5                  25037586.156    25037612.254    25037611.539                        3705.492        2887.645        2887.673                          34.000          24.000          34.000                  
G04 132026331.325 5                 102877784.956 6  98591193.839 6  25123769.742                    25123796.418    25123804.051         226.543                         177.036         169.651          30.000                          37.000          39.000  
> 2025 03 13 08 52 27.0000000  0 11
G22 110493014.103 7  86098123.770 6                                  21026122.898    21026139.676                                       -1829.375       -1425.289                                          47.000          38.000                                  
G20 113591322.003 7  88513251.617 5                                  21615705.023    21615724.754                                        2539.535        1979.050                                          45.000          33.000                                  
G19 109022566.675 7  84952483.532 6                                  20746302.688    20746316.207                                         582.148         453.716                                          46.000          38.000                                  
G17 115260456.166 7  89813108.240 6  89813387.243 7                  21933336.320    21933355.090    21933355.164                        -472.484        -368.136        -368.136                          45.000          41.000          45.000                  
G14 115827439.934 7  90255004.818 4  90254948.820 7  86494314.141 8  22041231.102    22041252.973    22041252.723    22041260.883       -3231.180       -2517.661       -2517.667       -2412.763          42.000          29.000          45.000          48.000  
G12 126285090.355 6  98404058.923 4  98404115.930 6                  24031251.844    24031270.793    24031270.566                        3260.234        2540.468        2540.457                          37.000          26.000          36.000                  
G11 114725812.234 7  89396959.357 5  89397025.354 8  85672026.676 8  21831591.984    21831609.941    21831609.707    21831615.582         538.609         419.732         419.729         402.238          47.000          35.000          48.000          50.000  
G09 125051847.581 5  97443122.383 4  97443038.392 6  93382892.020 7  23796567.766    23796598.246    23796597.887    23796603.809        1169.535         911.218         911.214         873.255          35.000          29.000          38.000          42.000  
G06 111621794.304 7  86978159.300 8  86978107.293 8  83354018.912 8  21240918.922    21240936.152    21240936.281    21240938.871        -920.922        -717.593        -717.588        -687.687          47.000          48.000          48.000          52.000  
G05 131569701.824 5 102521973.433 3 102521889.434 5                  25036881.438    25036907.039    25036906.422                        3705.590        2887.612        2887.590                          34.000          23.000          35.000                  
G04 132026104.49335                 102877608.241 6  98591024.499 6  25123726.234                    25123753.469    25123760.844         226.312                         176.715         169.340          30.000                          37.000          39.000  
> 2025 03 13 08 52 28.0000000  0 11
G22 110494843.712 7  86099549.438 6                                  21026471.156    21026487.887                                       -1829.824       -1425.668                                          47.000          38.000                                  
G20 113588782.611 7  88511272.874 5                                  21615221.516    21615241.496                                        2539.188        1978.743                                          46.000          33.000                                  
G19 109021984.591 7  84952029.965 6                                  20746192.211    20746205.512                                         581.984         453.567                                          46.000          38.000                                  
G17 115260928.795 7  89813476.524 7  89813755.528 7                  21933426.219    21933445.086    21933445.258                        -472.633        -368.284        -368.285                          46.000          42.000          45.000                  
G14 115830671.228 7  90257522.702 4  90257466.708 7  86496727.110 8  22041846.438    22041867.852    22041867.828    22041875.812       -3231.348       -2517.884       -2517.888       -2412.969          42.000          29.000          45.000          48.000  
G12 126281830.342 6  98401518.655 4  98401575.656 6                  24030631.453    24030650.395    24030650.039                        3259.984        2540.268        2540.274                          37.000          27.000          36.000                  
G11 114725273.809 7  89396539.813 5  89396605.809 8  85671624.618 8  21831489.930    21831507.441    21831507.234    21831513.098         538.383         419.543         419.545         402.059          47.000          35.000          48.000          50.000  
G09 125050678.444 5  97442211.381 4  97442127.391 6  93382018.974 7  23796344.523    23796375.801    23796375.418    23796381.375        1169.004         911.002         911.000         873.045          35.000          27.000          38.000          42.000  
G06 111622715.340 7  86978876.991 8  86978824.991 8  83354706.706 8  21241094.203    21241111.469    21241111.793    21241114.133        -921.047        -717.691        -717.697        -687.795          47.000          48.000          48.000          52.000  
G05 131565996.117 5 102519085.869 3 102519001.873 5                  25036175.031    25036201.898    25036201.816                        3705.578        2887.563        2887.561                          34.000          23.000          35.000                  
G04 132025878.05725                 102877431.872 6  98590855.433 6  25123681.680                    25123710.039    25123717.742         226.133                         176.369         169.066          31.000                          36.000          40.000  
> 2025 03 13 08 52 29.0000000  0 11
G22 110496673.764 7  86100975.447 6                                  21026819.789    21026836.125                                       -1830.312       -1426.009                                          47.000          38.000                                  
G20 113586243.594 7  88509294.429 5                                  21614738.430    21614758.238                                        2538.816        1978.445                                          46.000          33.000                                  
G19 109021402.662 7  84951576.514 6                                  20746081.539    20746094.664                                         581.828         453.451                                          46.000          38.000                                  
G17 115261401.582 7  89813844.928 6  89814123.926 7                  21933515.852    21933535.086    21933535.016                        -472.965        -368.404        -368.398                          46.000          41.000          44.000                  
G14 115833902.767 6  90260040.786 4  90259984.792 7  86499140.273 8  22042460.656    22042482.746    22042483.016    22042490.766       -3231.695       -2518.084       -2518.084       -2413.164          41.000          28.000          45.000          48.000  
G12 126278570.537 6  98398978.563 4  98399035.549 6                  24030010.586    24030030.172    24030029.938                        3259.570        2540.092        2540.107                          37.000          26.000          36.000                  
G11 114724735.595 7  89396120.431 6  89396186.430 8  85671222.714 8  21831387.430    21831405.039    21831404.895    21831410.664         538.117         419.383         419.379         401.904          47.000          36.000          48.000          50.000  
G09 125049509.548 5  97441300.572 4  97441216.574 6  93381146.110 7  23796121.609    23796153.422    23796152.812    23796158.844        1168.723         910.810         910.818         872.865          35.000          28.000          38.000          42.000  
G06 111623636.493 7  86979594.778 8  86979542.772 8  83355394.581 8  21241269.820    21241286.734    21241287.004    21241289.453        -921.207        -717.787        -717.781        -687.875          47.000          48.000          48.000          52.000  
G05 131562290.398 5 102516198.313 3 102516114.315 5                  25035470.195    25035496.699    25035496.547                        3705.692        2887.557        2887.558                          34.000          22.000          35.000                  
G04 132025651.99325                 102877255.690 6  98590686.637 6  25123639.641                    25123666.965    25123674.664         225.797                         176.183         168.796          31.000                          37.000          40.000  
> 2025 03 13 08 52 30.0000000  0 11
G22 110498504.287 7  86102401.825 6                                  21027168.219    21027184.543                                       -1830.789       -1426.379                                          47.000          38.000                                  
G20 113583704.960 7  88507316.280 5                                  21614255.117    21614275.094                                        2538.395        1978.149                                          45.000          33.000                                  
G19 109020820.909 7  84951123.201 6                                  20745970.492    20745983.969                                         581.664         453.313                                          46.000          38.000                                  
G17 115261874.542 7  89814213.465 6  89814492.465 7                  21933606.164    21933624.992    21933624.863                        -473.004        -368.537        -368.539                          46.000          41.000          44.000                  
G14 115837134.584 7  90262559.080 4  90262503.080 7  86501553.635 8  22043076.375    22043097.625    22043097.906    22043105.840       -3231.891       -2518.294       -2518.288       -2413.362          42.000          29.000          45.000          48.000  
G12 126275310.976 6  98396438.642 4  98396495.646 6                  24029390.148    24029409.891    24029409.930                        3259.527        2539.921        2539.903                          37.000          26.000          36.000                  
G11 114724197.616 7  89395701.234 5  89395767.235 8  85670820.985 8  21831285.109    21831302.598    21831302.461    21831308.316         537.910         419.196         419.195         401.729          47.000          35.000          48.000          50.000  
G09 125048340.930 5  97440389.966 4  97440305.970 6  93380273.449 7  23795900.258    23795931.137    23795930.398    23795936.379        1168.297         910.605         910.604         872.661          34.000          29.000          38.000          42.000  
G06 111624557.769 7  86980312.658 8  86980260.652 8  83356082.552 8  21241445.086    21241462.070    21241462.520    21241464.703        -921.406        -717.880        -717.880        -687.971          47.000          48.000          48.000          52.000  
G05 131558584.693 5 102513310.758 3 102513226.771 5                  25034763.562    25034791.543    25034791.473                        3705.980        2887.555        2887.544                          33.000          23.000          35.000                  
G04 132025426.287 5                 102877079.838 6  98590518.117 6  25123597.609                    25123624.359    25123631.820         225.566                         175.852         168.520          31.000                          37.000          40.000  
> 2025 03 13 08 52 31.0000000  0 11
G22 110500335.357 7  86103828.634 6                                  21027516.930    21027533.023                                       -1831.258       -1426.808                                          47.000          38.000                                  
G20 113581166.797 7  88505338.498 5                                  21613772.508    21613792.090                                        2537.891        1977.782                                          45.000          33.000                                  
G19 109020239.400 7  84950670.082 6                                  20745860.148    20745873.387                                         581.414         453.119                                          46.000          38.000                                  
G17 115262347.749 7  89814582.198 7  89814861.200 7                  21933696.539    21933715.090    21933714.887                        -473.344        -368.734        -368.735                          46.000          42.000          45.000                  
G14 115840366.743 7  90265077.646 4  90265021.644 7  86503967.259 8  22043690.977    22043712.891    22043713.254    22043720.871       -3232.367       -2518.566       -2518.564       -2413.624          42.000          29.000          45.000          48.000  
G12 126272051.727 6  98393898.987 4  98393955.976 6                  24028770.430    24028789.672    24028789.832                        3259.195        2539.655        2539.670                          37.000          26.000          36.000                  
G11 114723659.943 7  89395282.281 5  89395348.274 8  85670419.483 8  21831182.281    21831200.227    21831200.062    21831205.965         537.488         418.954         418.962         401.502          47.000          35.000          48.000          50.000  
G09 125047172.643 5  97439479.616 4  97439395.624 6  93379401.044 7  23795678.680    23795708.637    23795707.484    23795714.043        1168.375         910.350         910.345         872.405          34.000          29.000          38.000          42.000  
G06 111625479.248 7  86981030.698 8  86980978.692 8  83356770.675 8  21241620.391    21241637.531    21241637.621    21241640.051        -921.594        -718.039        -718.040        -688.123          47.000          48.000          48.000          52.000  
G05 131554879.095 5 102510423.289 3 102510339.307 5                  25034059.266    25034086.430    25034086.387                        3705.699        2887.469        2887.464                          33.000          22.000          35.000                  
G04 132025201.041 5                 102876904.334 6  98590349.926 6  25123554.625                    25123581.480    25123588.973         225.078                         175.504         168.192          31.000                          37.000          40.000  
> 2025 03 13 08 52 32.0000000  0 11
G22 110502166.916 7  86105255.822 6                                  21027865.336    21027881.508                                       -1831.797       -1427.189                                          47.000          38.000                                  
G20 113578629.053 7  88503361.049 5                                  21613289.375    21613309.191                                        2537.555        1977.448                                          46.000          33.000                                  
G19 109019658.104 7  84950217.118 6                                  20745749.570    20745762.707                                         581.191         452.964                                          46.000          38.000                                  
G17 115262821.160 7  89814951.089 6  89815230.090 7                  21933786.922    21933805.102    21933804.820                        -473.570        -368.891        -368.890                          46.000          41.000          44.000                  
G14 115843599.211 7  90267596.441 4  90267540.448 7  86506381.110 8  22044306.000    22044328.215    22044328.121    22044336.035       -3232.676       -2518.794       -2518.804       -2413.850          42.000          29.000          45.000          48.000  
G12 126268792.744 6  98391359.530 4  98391416.516 6                  24028151.242    24028169.430    24028169.492                        3258.879        2539.457        2539.460                          37.000          27.000          36.000                  
G11 114723122.523 7  89394863.518 5  89394929.514 8  85670018.174 8  21831080.070    21831097.887    21831097.613    21831103.715         537.316         418.763         418.760         401.309          47.000          35.000          48.000          50.000  
G09 125046004.645 5  97438569.504 4  97438485.519 6  93378528.856 7  23795456.031    23795486.531    23795485.266    23795491.605        1167.797         910.113         910.106         872.188          35.000          28.000          38.000          42.000  
G06 111626400.880 7  86981748.856 8  86981696.852 8  83357458.911 8  21241795.672    21241812.789    21241813.148    21241815.457        -921.738        -718.158        -718.160        -688.236          47.000          48.000          48.000          52.000  
G05 131551173.540 5 102507535.839 3 102507451.873 5                  25033354.000    25033381.340    25033381.379                        3705.551        2887.450        2887.434                          34.000          22.000          35.000                  
G04 132024976.190 5                 102876729.134 6  98590182.024 6  25123512.023                    25123538.773    25123546.254         224.551                         175.201         167.902          31.000                          37.000          40.000  
> 2025 03 13 08 52 33.0000000  0 11
G22 110503998.992 7  86106683.409 6                                  21028213.781    21028230.148                                       -1832.266       -1427.587                                          47.000          38.000                                  
G20 113576091.756 7  88501383.944 5                                  21612806.656    21612826.363                                        2537.059        1977.106                                          45.000          33.000                                  
G19 109019077.022 7  84949764.333 6                                  20745639.297    20745652.168                                         580.969         452.785                                          46.000          38.000                                  
G17 115263294.787 7  89815320.149 6  89815599.146 7                  21933876.727    21933895.379    21933894.820                        -473.762        -369.060        -369.056                          46.000          41.000          45.000                  
G14 115846831.996 7  90270115.487 4  90270059.495 7  86508795.197 8  22044921.070    22044943.410    22044943.199    22044951.277       -3232.930       -2519.047       -2519.046       -2414.087          42.000          29.000          45.000          48.000  
G12 126265534.042 6  98388820.282 4  98388877.277 6                  24027530.789    24027549.301    24027549.496                        3258.527        2539.248        2539.239                          38.000          27.000          36.000                  
G11 114722585.379 7  89394444.976 5  89394510.968 8  85669617.070 8  21830977.766    21830995.707    21830995.523    21831001.492         537.047         418.542         418.546         401.105          46.000          35.000          48.000          50.000  
G09 125044836.990 5  97437659.646 4  97437575.650 6  93377656.904 7  23795232.258    23795264.320    23795263.281    23795269.418        1167.582         909.858         909.869         871.952          34.000          28.000          39.000          42.000  
G06 111627322.696 7  86982467.159 8  86982415.154 8  83358147.285 8  21241970.883    21241988.246    21241988.582    21241990.832        -921.922        -718.303        -718.303        -688.373          47.000          48.000          48.000          52.000  
G05 131547468.061 5 102504648.470 3 102504564.495 5                  25032648.250    25032676.129    25032676.297                        3705.320        2887.368        2887.379                          34.000          23.000          35.000                  
G04 132024751.709 5                 102876554.248 6  98590014.433 6  25123469.523                    25123495.902    25123503.605         224.355                         174.886         167.591          32.000                          37.000          40.000  
> 2025 03 13 08 52 34.0000000  0 11
G22 110505831.594 7  86108111.409 6                                  21028562.062    21028578.953                                       -1832.809       -1428.000                                          47.000          38.000                                  
G20 113573554.887 7  88499407.165 5                                  21612323.758    21612343.684                                        2536.637        1976.779                                          45.000          33.000                                  
G19 109018496.168 7  84949311.719 6                                  20745528.844    20745541.578                                         580.812         452.615                                          46.000          38.000                                  
G17 115263768.644 7  89815689.389 6  89815968.387 7                  21933967.117    21933985.637    21933985.297                        -473.930        -369.240        -369.241                          46.000          41.000          45.000                  
G14 115850065.100 6  90272634.795 4  90272578.793 7  86511209.524 8  22045536.500    22045558.707    22045558.707    22045566.434       -3233.141       -2519.308       -2519.298       -2414.327          41.000          29.000          45.000          48.000  
G12 126262275.639 6  98386281.268 4  98386338.259 6                  24026911.344    24026929.223    24026929.641                        3258.262        2539.014        2539.018                          37.000          27.000          36.000                  
G11 114722048.523 7  89394026.654 6  89394092.644 8  85669216.177 8  21830875.938    21830893.473    21830893.539    21830899.336         536.781         418.321         418.324         400.893          46.000          36.000          48.000          50.000  
G09 125043669.627 5  97436750.036 4  97436666.028 6  93376785.184 7  23795011.859    23795042.195    23795041.652    23795047.309        1167.020         909.610         909.622         871.720          34.000          28.000          39.000          43.000  
G06 111628244.691 7  86983185.600 8  86983133.592 8  83358835.791 8  21242146.555    21242163.559    21242163.941    21242166.273        -922.078        -718.441        -718.438        -688.506          46.000          48.000          48.000          52.000  
G05 131543762.665 5 102501761.163 3 102501677.176 5                  25031943.367    25031970.930    25031971.402                        3705.285        2887.308        2887.319                          33.000          22.000          35.000                  
G04 132024527.71835                 102876379.688 6  98589847.156 6  25123426.422                    25123453.109    25123460.980         223.824                         174.560         167.276          32.000                          37.000          40.000  
> 2025 03 13 08 52 35.0000000  0 11
G22 110507664.624 7  86109539.741 6                                  21028910.719    21028927.738                                       -1833.207       -1428.332                                          47.000          38.000                                  
G20 113571018.380 7  88497430.683 5                                  21611841.242    21611860.910                                        2536.367        1976.482                                          45.000          33.000                                  
G19 109017915.449 7  84948859.216 6                                  20745418.305    20745431.074                                         580.703         452.503                                          46.000          38.000                                  
G17 115264242.635 7  89816058.730 6  89816337.731 7                  21934058.008    21934075.602    21934075.324                        -474.070        -369.341        -369.344                          45.000          41.000          45.000                  
G14 115853298.437 7  90275154.270 4  90275098.273 7  86513624.025 8  22046151.562    22046174.020    22046173.645    22046181.648       -3233.543       -2519.475       -2519.479       -2414.500          42.000          29.000          45.000          48.000  
G12 126259017.427 6  98383742.399 4  98383799.407 6                  24026290.484    24026309.086    24026309.656                        3258.008        2538.869        2538.852                          37.000          27.000          36.000                  
G11 114721511.852 7  89393608.469 6  89393674.465 8  85668815.427 8  21830773.734    21830791.316    21830791.281    21830797.129         536.609         418.185         418.179         400.751          46.000          36.000          48.000          50.000  
G09 125042502.511 5  97435840.594 4  97435756.584 6  93375913.642 7  23794788.695    23794820.066    23794819.844    23794825.125        1166.820         909.441         909.445         871.542          35.000          27.000          39.000          43.000  
G06 111629166.778 7  86983904.111 8  86983852.105 8  83359524.365 8  21242321.867    21242339.047    21242339.270    21242341.785        -922.109        -718.511        -718.512        -688.574          47.000          48.000          48.000          52.000  
G05 131540057.276 5 102498873.863 3 102498789.863 5                  25031238.734    25031265.930    25031266.410                        3705.219        2887.300        2887.313                          34.000          22.000          35.000                  
G04 132024304.03725                 102876205.396 6  98589680.128 6  25123384.766                    25123410.203    25123418.391         223.559                         174.293         167.028          32.000                          37.000          40.000  
> 2025 03 13 08 52 36.0000000  0 11
G22 110509498.109 7  86110968.431 6                                  21029259.742    21029276.559                                       -1833.730       -1428.690                                          47.000          38.000                                  
G20 113568482.239 7  88495454.479 5                                  21611359.109    21611378.227                                        2535.965        1976.204                                          45.000          33.000                                  
G19 109017334.888 7  84948406.834 6                                  20745307.539    20745320.668                                         580.430         452.382                                          46.000          38.000                                  
G17 115264716.785 7  89816428.197 7  89816707.200 7                  21934148.055    21934165.809    21934165.629                        -474.262        -369.467        -369.469                          45.000          42.000          45.000                  
G14 115856532.018 7  90277673.939 4  90277617.947 7  86516038.711 8  22046767.383    22046789.383    22046789.043    22046797.047       -3233.812       -2519.669       -2519.674       -2414.686          42.000          28.000          45.000          48.000  
G12 126255759.428 6  98381203.705 4  98381260.710 5                  24025670.250    24025689.023    24025689.547                        3257.887        2538.694        2538.697                          37.000          25.000          35.000                  
G11 114720975.392 7  89393190.455 5  89393256.451 8  85668414.832 8  21830671.586    21830689.297    21830689.379    21830695.082         536.352         418.014         418.014         400.595          46.000          35.000          48.000          50.000  
G09 125041335.603 5  97434931.315 4  97434847.329 6  93375042.275 7  23794566.398    23794597.883    23794598.082    23794603.121        1166.777         909.280         909.255         871.367          34.000          29.000          39.000          42.000  
G06 111630088.972 7  86984622.706 7  86984570.700 8  83360213.022 8  21242497.320    21242514.613    21242514.852    21242517.195        -922.215        -718.594        -718.596        -688.656          46.000          47.000          48.000          52.000  
G05 131536351.875 5 102495986.540 3 102495902.543 5                  25030533.055    25030560.805    25030560.844                        3705.449        2887.322        2887.320                          34.000          22.000          35.000                  
G04 132024080.62625                 102876031.354 6  98589513.340 6  25123341.984                    25123367.754    25123375.934         223.203                         174.041         166.788          31.000                          37.000          41.000  
> 2025 03 13 08 52 37.0000000  0 11
G22 110511332.102 7  86112397.512 6                                  21029608.648    21029625.527                                       -1834.195       -1429.081                                          47.000          38.000                                  
G20 113565946.548 7  88493478.625 5                                  21610876.188    21610895.703                                        2535.461        1975.854                                          45.000          33.000                                  
G19 109016754.545 7  84947954.621 6                                  20745197.391    20745210.199                                         580.219         452.212                                          46.000          38.000                                  
G17 115265191.159 7  89816797.840 7  89817076.839 7                  21934238.328    21934256.086    21934255.965                        -474.566        -369.643        -369.639                          44.000          42.000          44.000                  
G14 115859765.928 7  90280193.872 4  90280137.875 7  86518453.639 8  22047382.203    22047404.773    22047404.297    22047412.453       -3233.977       -2519.934       -2519.928       -2414.928          42.000          28.000          45.000          48.000  
G12 126252501.716 6  98378665.244 4  98378722.246 6                  24025050.617    24025069.078    24025069.551                        3257.676        2538.461        2538.464                          37.000          26.000          36.000                  
G11 114720439.212 7  89392772.660 6  89392838.658 8  85668014.448 8  21830569.664    21830587.223    21830587.285    21830593.090         536.059         417.795         417.793         400.384          47.000          36.000          48.000          50.000  
G09 125040169.053 5  97434022.326 4  97433938.329 6  93374171.148 7  23794345.297    23794375.965    23794376.012    23794381.133        1166.395         908.989         909.000         871.127          35.000          29.000          38.000          42.000  
G06 111631011.348 7  86985341.443 8  86985289.440 8  83360901.813 8  21242673.039    21242690.090    21242690.219    21242692.762        -922.484        -718.738        -718.740        -688.791          47.000          48.000          48.000          52.000  
G05 131532646.557 5 102493099.271 3 102493015.289 5                  25029829.195    25029855.676    25029855.605                        3705.238        2887.270        2887.254                          34.000          23.000          35.000                  
G04 132023857.723 5                 102875857.676 6  98589346.892 6  25123298.312                    25123325.500    25123333.496         222.742                         173.678         166.448          31.000                          37.000          41.000  
> 2025 03 13 08 52 38.0000000  0 11
G22 110513166.626 7  86113827.008 6                                  21029958.117    21029974.645                                       -1834.785       -1429.496                                          47.000          39.000                                  
G20 113563411.300 7  88491503.116 5                                  21610393.508    21610413.199                                        2534.996        1975.509                                          46.000          33.000                                  
G19 109016174.442 7  84947502.596 6                                  20745086.875    20745099.715                                         579.988         452.025                                          46.000          38.000                                  
G17 115265665.760 7  89817167.658 7  89817446.660 7                  21934329.172    21934346.449    21934346.160                        -474.684        -369.818        -369.821                          45.000          42.000          45.000                  
G14 115863000.165 7  90282714.053 4  90282658.059 7  86520868.814 8  22047997.898    22048020.375    22048019.906    22048027.945       -3234.324       -2520.181       -2520.185       -2415.175          42.000          29.000          45.000          48.000  
G12 126249244.303 6  98376127.001 4  98376184.004 6                  24024431.234    24024449.207    24024449.625                        3257.238        2538.243        2538.242                          37.000          27.000          36.000                  
G11 114719903.319 7  89392355.094 6  89392421.088 8  85667614.278 8  21830467.820    21830485.195    21830485.250    21830491.047         535.801         417.565         417.571         400.171          46.000          36.000          48.000          50.000  
G09 125039002.812 5  97433113.576 4  97433029.583 6  93373300.264 7  23794123.484    23794154.129    23794153.945    23794159.105        1165.922         908.750         908.747         870.884          35.000          29.000          38.000          42.000  
G06 111631933.907 7  86986060.325 8  86986008.319 8  83361590.741 8  21242848.570    21242865.730    21242865.836    21242868.320        -922.625        -718.882        -718.878        -688.928          47.000          48.000          48.000          52.000  
G05 131528941.312 5 102490212.102 3 102490128.108 5                  25029123.945    25029150.570    25029150.379                        3705.328        2887.169        2887.180                          35.000          23.000          35.000                  
G04 132023635.215 5                 102875684.305 6  98589180.750 6  25123256.266                    25123282.828    25123291.250         222.172                         173.372         166.142          31.000                          36.000          40.000  
