     3.03           OBSERVATION DATA    M: Mixed            RINEX VERSION / TYPE
RTKCONV 2.4.3 b34                       20250227 095419 UTC PGM / RUN BY / DATE 
format: RINEX                                               COMMENT             
log: E:\Nguyends_doa\RX\SBF\SEPT2510.19O                    COMMENT             
                                                            MARKER NAME         
                                                            MARKER NUMBER       
                                                            MARKER TYPE         
                                                            OBSERVER / AGENCY   
                                                            REC # / TYPE / VERS 
                                                            ANT # / TYPE        
        0.0000        0.0000        0.0000                  APPROX POSITION XYZ 
        0.0000        0.0000        0.0000                  ANTENNA: DELTA H/E/N
G    2 C1C L1C                                              SYS / # / OBS TYPES 
  2019    09    08    05    00   37.0000000     GPS         TIME OF FIRST OBS   
  2019    09    08    07    00   00.0000000     GPS         TIME OF LAST OBS    
G L1C                                                       SYS / PHASE SHIFT   
  0                                                         GLONASS SLOT / FRQ #
 C1C    0.000 C1P    0.000 C2C    0.000 C2P    0.000        GLONASS COD/PHS/BIS 
                                                            END OF HEADER       
> 2019 09 08 05 00 37.0000000  0  7                     
G31  20650489.510   108519056.8801 
G32  20008381.077   105144751.3111 
G20  20008381.350   105144750.3081 
G21  21699426.093   114031252.5131 
G23  20008381.033   105144751.3101 
G14  20008380.774   105144750.3091 
G16  24084638.488   126565629.4081 
> 2019 09 08 05 00 38.0000000  0  9                     
G26  21834776.178   114742523.4421 
G31  20650613.943   108519709.763  
G32  20008600.902   105145908.127  
G20  20008601.550   105145907.127  
G21  21698919.833   114028591.502  
G23  20008601.272   105145908.131  
G14  20008600.957   105145907.129  
G29  20008601.136   105145908.1221 
G16  24084011.410   126562334.111  
> 2019 09 08 05 00 39.0000000  0  9                     
G26  21834266.350   114739844.278  
G31  20650738.228   108520363.301  
G32  20008821.031   105147065.370  
G20  20008821.606   105147064.377  
G21  21698413.458   114025930.894  
G23  20008821.371   105147065.374  
G14  20008821.068   105147064.368  
G29  20008821.350   105147065.375  
G16  24083384.385   126559038.876  
> 2019 09 08 05 00 40.0000000  0  9                     
G26  21833756.648   114737165.436  
G31  20650862.654   108521017.592  
G32  20009041.384   105148223.135  
G20  20009041.683   105148222.137  
G21  21697907.327   114023270.817  
G23  20009041.572   105148223.127  
G14  20009041.351   105148222.132  
G29  20009041.842   105148223.135  
G16  24082757.288   126555743.798  
> 2019 09 08 05 00 41.0000000  0  9                     
G26  21833247.118   114734487.311  
G31  20650987.458   108521673.026  
G32  20009262.020   105149381.800  
G20  20009262.228   105149380.791  
G21  21697401.065   114020611.623  
G23  20009262.078   105149381.801  
G14  20009261.919   105149380.798  
G29  20009262.039   105149381.794  
G16  24082130.294   126552449.254  
> 2019 09 08 05 00 42.0000000  0  9                     
G26  21832737.675   114731809.404  
G31  20651112.618   108522329.106  
G32  20009482.733   105150540.868  
G20  20009482.693   105150539.869  
G21  21696895.234   114017952.854  
G23  20009482.586   105150540.870  
G14  20009482.226   105150539.872  
G29  20009482.639   105150540.872  
G16  24081503.363   126549154.769  
> 2019 09 08 05 00 43.0000000  0  9                     
G26  21832227.881   114729131.467  
G31  20651237.524   108522985.585  
G32  20009703.252   105151700.113  
G20  20009703.388   105151699.111  
G21  21696389.387   114015294.234  
G23  20009703.123   105151700.113  
G14  20009702.871   105151699.103  
G29  20009703.164   105151700.109  
G16  24080876.270   126545860.076  
> 2019 09 08 05 00 44.0000000  0  9                     
G26  21831718.282   114726453.518  
G31  20651362.505   108523642.483  
G32  20009923.836   105152859.530  
G20  20009924.099   105152858.532  
G21  21695883.747   114012635.794  
G23  20009923.745   105152859.531  
G14  20009923.355   105152858.537  
G29  20009923.647   105152859.527  
G16  24080249.336   126542565.202  
> 2019 09 08 05 00 45.0000000  0  9                     
G26  21831208.978   114723776.091  
G31  20651487.661   108524300.342  
G32  20010144.601   105154019.671  
G20  20010144.851   105154018.672  
G21  21695377.829   114009978.081  
G23  20010144.221   105154019.671  
G14  20010144.078   105154018.661  
G29  20010144.518   105154019.676  
G16  24079622.321   126539270.685  
> 2019 09 08 05 00 46.0000000  0  9                     
G26  21830699.267   114721098.622  
G31  20651613.034   108524958.573  
G32  20010365.440   105155179.946  
G20  20010365.570   105155178.958  
G21  21694872.211   114007320.503  
G23  20010364.900   105155179.951  
G14  20010364.876   105155178.948  
G29  20010365.462   105155179.951  
G16  24078995.391   126535975.946  
> 2019 09 08 05 00 47.0000000  0  9                     
G26  21830189.763   114718421.418  
G31  20651738.418   108525617.505  
G32  20010586.284   105156340.692  
G20  20010586.668   105156339.690  
G21  21694366.551   114004663.379  
G23  20010585.785   105156340.687  
G14  20010585.667   105156339.690  
G29  20010586.376   105156340.685  
G16  24078368.488   126532681.308  
> 2019 09 08 05 00 48.0000000  0  9                     
G26  21829680.304   114715744.135  
G31  20651863.568   108526276.791  
G32  20010807.118   105157501.562  
G20  20010807.629   105157500.553  
G21  21693860.629   114002006.376  
G23  20010806.945   105157501.558  
G14  20010806.755   105157500.553  
G29  20010807.193   105157501.559  
G16  24077741.659   126529386.431  
> 2019 09 08 05 00 49.0000000  0  9                     
G26  21829170.816   114713067.169  
G31  20651989.396   108526936.810  
G32  20011027.987   105158662.903  
G20  20011028.477   105158661.913  
G21  21693355.229   113999349.867  
G23  20011028.016   105158662.905  
G14  20011028.062   105158661.905  
G29  20011028.043   105158662.915  
G16  24077114.622   126526091.674  
> 2019 09 08 05 00 50.0000000  0  9                     
G26  21828661.512   114710390.196  
G31  20652114.991   108527597.251  
G32  20011249.033   105159824.460  
G20  20011249.473   105159823.461  
G21  21692849.861   113996693.549  
G23  20011249.303   105159824.455  
G14  20011249.127   105159823.465  
G29  20011249.141   105159824.460  
G16  24076487.644   126522796.763  
> 2019 09 08 05 00 51.0000000  0  9                     
G26  21828152.176   114707713.523  
G31  20652240.633   108528258.428  
G32  20011470.004   105160986.498  
G20  20011470.727   105160985.504  
G21  21692344.394   113994037.716  
G23  20011470.438   105160986.505  
G14  20011470.179   105160985.497  
G29  20011470.383   105160986.500  
G16  24075860.731   126519501.974  
> 2019 09 08 05 00 52.0000000  0  8                     
G26  21827643.010   114705037.156  
G31  20652366.576   108528920.347  
G32  20011691.527   105162149.036  
G20  20011692.101   105162148.037  
G21  21691839.212   113991382.379  
G23  20011691.761   105162149.040  
G14  20011691.360   105162148.033  
G29  20011691.598   105162149.040  
> 2019 09 08 05 00 53.0000000  0  8                     
G26  22126926.881   116277783.897  
G31  20952284.746   110105002.458  
G32  20311705.254   106738731.043  
G20  20311705.800   106738730.041  
G21  21991126.985   115564150.334  
G23  20311705.250   106738731.041  
G14  20311704.886   106738730.040  
G29  20311705.215   106738731.048  
> 2019 09 08 05 00 54.0000000  0  8                     
G26  22126417.617   116275108.433  
G31  20952411.212   110105666.121  
G32  20311926.656   106739894.854  
G20  20311927.200   106739893.856  
G21  21990622.033   115561496.274  
G23  20311926.901   106739894.851  
G14  20311926.588   106739893.856  
G29  20311926.652   106739894.853  
> 2019 09 08 05 00 55.0000000  0  8                     
G26  22125908.497   116272432.967  
G31  20952537.563   110106330.216  
G32  20312148.485   106741058.871  
G20  20312148.599   106741057.868  
G21  21990117.001   115558842.406  
G23  20312148.329   106741058.867  
G14  20312148.008   106741057.871  
G29  20312148.013   106741058.875  
> 2019 09 08 05 00 56.0000000  0  8                     
G26  22125399.504   116269757.556  
G31  20952664.179   110106994.793  
G32  20312369.967   106742223.123  
G20  20312370.035   106742222.125  
G21  21989611.950   115556188.788  
G23  20312369.783   106742223.125  
G14  20312369.458   106742222.120  
G29  20312369.901   106742223.125  
> 2019 09 08 05 00 57.0000000  0  8                     
G26  22124890.173   116267081.964  
G31  20952790.647   110107659.616  
G32  20312591.412   106743387.386  
G20  20312591.711   106743386.403  
G21  21989107.129   115553535.183  
G23  20312591.125   106743387.396  
G14  20312590.876   106743386.399  
G29  20312591.520   106743387.395  
> 2019 09 08 05 00 58.0000000  0  8                     
G26  22124380.916   116264406.729  
G31  20952917.629   110108325.233  
G32  20312813.047   106744552.216  
G20  20312813.297   106744551.216  
G21  21988601.997   115550882.126  
G23  20312812.605   106744552.219  
G14  20312812.690   106744551.224  
G29  20312813.025   106744552.217  
> 2019 09 08 05 00 59.0000000  0  8                     
G26  22123871.779   116261731.740  
G31  20953044.563   110108991.524  
G32  20313034.698   106745717.471  
G20  20313035.064   106745716.467  
G21  21988097.312   115548229.500  
G23  20313034.686   106745717.470  
G14  20313034.284   106745716.466  
G29  20313034.866   106745717.474  
> 2019 09 08 05 01 00.0000000  0  8                     
G26  22123363.071   116259057.333  
G31  20953171.402   110109658.834  
G32  20313256.777   106746883.505  
G20  20313256.932   106746882.502  
G21  21987592.947   115545577.659  
G23  20313256.659   106746883.504  
G14  20313256.373   106746882.504  
G29  20313256.647   106746883.503  
> 2019 09 08 05 01 01.0000000  0  8                     
G26  22122854.280   116256383.109  
G31  20953298.528   110110326.737  
G32  20313478.675   106748049.902  
G20  20313478.862   106748048.897  
G21  21987088.379   115542926.175  
G23  20313478.463   106748049.893  
G14  20313478.283   106748048.900  
G29  20313478.600   106748049.903  
> 2019 09 08 05 01 02.0000000  0  8                     
G26  22122345.311   116253708.652  
G31  20953425.493   110110994.834  
G32  20313700.578   106749216.250  
G20  20313700.611   106749215.255  
G21  21986583.562   115540274.651  
G23  20313700.320   106749216.255  
G14  20313700.342   106749215.257  
G29  20313700.751   106749216.251  
> 2019 09 08 05 01 03.0000000  0  8                     
G26  22121836.364   116251034.519  
G31  20953552.515   110111663.687  
G32  20313922.528   106750383.129  
G20  20313922.761   106750382.122  
G21  21986079.122   115537623.640  
G23  20313922.147   106750383.121  
G14  20313922.274   106750382.127  
G29  20313922.664   106750383.127  
> 2019 09 08 05 01 04.0000000  0  8                     
G26  22121327.354   116248360.756  
G31  20953680.174   110112333.344  
G32  20314144.418   106751550.562  
G20  20314144.935   106751549.558  
G21  21985574.620   115534973.207  
G23  20314144.393   106751550.564  
G14  20314144.269   106751549.556  
G29  20314144.841   106751550.564  
> 2019 09 08 05 01 05.0000000  0  8                     
G26  22120818.596   116245687.114  
G31  20953807.768   110113003.539  
G32  20314366.792   106752718.302  
G20  20314367.098   106752717.305  
G21  21985070.195   115532323.058  
G23  20314366.760   106752718.300  
G14  20314366.527   106752717.304  
G29  20314367.044   106752718.301  
> 2019 09 08 05 01 06.0000000  0  8                     
G26  22120310.191   116243013.626  
G31  20953935.383   110113674.310  
G32  20314589.171   106753886.382  
G20  20314589.228   106753885.385  
G21  21984566.014   115529673.271  
G23  20314589.239   106753886.384  
G14  20314588.925   106753885.392  
G29  20314589.283   106753886.386  
> 2019 09 08 05 01 07.0000000  0  8                     
G26  22119801.444   116240340.421  
G31  20954062.997   110114345.811  
G32  20314811.511   106755054.946  
G20  20314811.662   106755053.948  
G21  21984061.797   115527023.949  
G23  20314811.370   106755054.948  
G14  20314811.222   106755053.947  
G29  20314811.534   106755054.950  
> 2019 09 08 05 01 08.0000000  0  8                     
G26  22119292.618   116237666.967  
G31  20954190.897   110115017.481  
G32  20315034.268   106756223.441  
G20  20315033.926   106756222.445  
G21  21983557.716   115524374.577  
G23  20315033.847   106756223.445  
G14  20315033.497   106756222.446  
G29  20315033.649   106756223.450  
> 2019 09 08 05 01 09.0000000  0  8                     
G26  22118784.034   116234994.170  
G31  20954319.153   110115690.224  
G32  20315256.810   106757392.798  
G20  20315256.507   106757391.792  
G21  21983053.489   115521726.047  
G23  20315256.460   106757392.789  
G14  20315255.905   106757391.790  
G29  20315256.276   106757392.791  
> 2019 09 08 05 01 10.0000000  0  8                     
G26  22118275.593   116232321.491  
G31  20954447.085   110116363.532  
G32  20315479.287   106758562.452  
G20  20315479.144   106758561.453  
G21  21982549.511   115519077.827  
G23  20315478.920   106758562.456  
G14  20315478.578   106758561.452  
G29  20315478.979   106758562.455  
> 2019 09 08 05 01 11.0000000  0  8                     
G26  22117767.031   116229648.813  
G31  20954575.557   110117037.246  
G32  20315701.626   106759732.291  
G20  20315701.702   106759731.297  
G21  21982045.541   115516429.785  
G23  20315701.432   106759732.292  
G14  20315701.374   106759731.287  
G29  20315701.557   106759732.290  
> 2019 09 08 05 01 12.0000000  0  8                     
G26  22117258.531   116226976.554  
G31  20954704.081   110117711.826  
G32  20315924.562   106760902.745  
G20  20315924.654   106760901.738  
G21  21981541.835   115513782.378  
G23  20315924.134   106760902.745  
G14  20315923.976   106760901.754  
G29  20315924.418   106760902.747  
> 2019 09 08 05 01 13.0000000  0  8                     
G26  22116749.867   116224304.899  
G31  20954832.494   110118387.440  
G32  20316147.261   106762073.996  
G20  20316147.568   106762072.994  
G21  21981038.196   115511135.748  
G23  20316147.188   106762073.998  
G14  20316146.874   106762073.002  
G29  20316147.323   106762073.998  
> 2019 09 08 05 01 14.0000000  0  8                     
G26  22116241.453   116221633.654  
G31  20954961.066   110119063.876  
G32  20316370.137   106763245.843  
G20  20316370.442   106763244.844  
G21  21980534.889   115508489.723  
G23  20316370.216   106763245.844  
G14  20316370.154   106763244.847  
G29  20316370.247   106763245.845  
> 2019 09 08 05 01 15.0000000  0  8                     
G26  22115733.354   116218962.503  
G31  20955089.686   110119740.832  
G32  20316593.269   106764417.970  
G20  20316593.682   106764416.972  
G21  21980031.543   115505843.982  
G23  20316593.442   106764417.975  
G14  20316593.345   106764416.974  
G29  20316593.280   106764417.971  
> 2019 09 08 05 01 16.0000000  0  8                     
G26  22115224.909   116216291.173  
G31  20955218.569   110120418.044  
G32  20316816.250   106765590.122  
G20  20316816.743   106765589.113  
G21  21979528.140   115503198.258  
G23  20316816.489   106765590.115  
G14  20316816.158   106765589.109  
G29  20316816.167   106765590.108  
> 2019 09 08 05 01 17.0000000  0  8                     
G26  22114716.577   116213620.347  
G31  20955347.756   110121096.172  
G32  20317039.673   106766762.946  
G20  20317039.881   106766761.940  
G21  21979024.790   115500553.221  
G23  20317039.465   106766762.940  
G14  20317039.504   106766761.942  
G29  20317039.520   106766762.945  
> 2019 09 08 05 01 18.0000000  0  8                     
G26  22114208.283   116210949.460  
G31  20955476.905   110121774.687  
G32  20317262.811   106767935.896  
G20  20317263.270   106767934.901  
G21  21978521.468   115497908.309  
G23  20317262.607   106767935.902  
G14  20317262.658   106767934.891  
G29  20317262.855   106767935.900  
> 2019 09 08 05 01 19.0000000  0  8                     
G26  22113700.094   116208278.768  
G31  20955606.093   110122453.810  
G32  20317486.101   106769109.249  
G20  20317486.626   106769108.247  
G21  21978018.281   115495263.792  
G23  20317486.045   106769109.245  
G14  20317485.739   106769108.246  
G29  20317486.120   106769109.248  
> 2019 09 08 05 01 20.0000000  0  8                     
G26  22113191.971   116205608.319  
G31  20955735.501   110123133.613  
G32  20317709.304   106770283.029  
G20  20317709.775   106770282.027  
G21  21977514.930   115492619.714  
G23  20317709.435   106770283.022  
G14  20317708.941   106770282.027  
G29  20317709.277   106770283.026  
> 2019 09 08 05 01 21.0000000  0  8                     
G26  22112683.948   116202937.981  
G31  20955865.114   110123813.942  
G32  20317932.605   106771457.094  
G20  20317933.084   106771456.092  
G21  21977011.905   115489975.917  
G23  20317932.584   106771457.093  
G14  20317932.222   106771456.100  
G29  20317932.773   106771457.094  
> 2019 09 08 05 01 22.0000000  0  8                     
G26  22112175.922   116200267.832  
G31  20955994.767   110124494.887  
G32  20318155.907   106772631.542  
G20  20318156.639   106772630.552  
G21  21976508.936   115487332.518  
G23  20318156.169   106772631.545  
G14  20318155.770   106772630.543  
G29  20318156.374   106772631.551  
> 2019 09 08 05 01 23.0000000  0  8                     
G26  22111667.677   116197597.544  
G31  20956124.099   110125176.121  
G32  20318379.705   106773806.039  
G20  20318379.957   106773805.042  
G21  21976006.091   115484689.158  
G23  20318379.688   106773806.041  
G14  20318379.233   106773805.035  
G29  20318379.431   106773806.038  
> 2019 09 08 05 01 24.0000000  0  8                     
G26  22111159.496   116194927.737  
G31  20956253.505   110125858.268  
G32  20318603.522   106774981.211  
G20  20318603.658   106774980.221  
G21  21975503.169   115482046.478  
G23  20318603.262   106774981.216  
G14  20318602.927   106774980.216  
G29  20318603.112   106774981.213  
> 2019 09 08 05 01 25.0000000  0  8                     
G26  22110651.402   116192258.131  
G31  20956383.650   110126541.033  
G32  20318827.372   106776156.776  
G20  20318827.420   106776155.771  
G21  21975000.289   115479404.188  
G23  20318826.948   106776156.769  
G14  20318826.585   106776155.775  
G29  20318826.729   106776156.772  
> 2019 09 08 05 01 26.0000000  0  8                     
G26  22110143.390   116189588.616  
G31  20956513.727   110127224.323  
G32  20319050.940   106777332.614  
G20  20319051.258   106777331.613  
G21  21974497.709   115476762.182  
G23  20319050.818   106777332.617  
G14  20319050.431   106777331.613  
G29  20319050.708   106777332.622  
> 2019 09 08 05 01 27.0000000  0  8                     
G26  22109635.738   116186919.831  
G31  20956644.086   110127908.771  
G32  20319274.692   106778509.375  
G20  20319275.057   106778508.376  
G21  21973995.214   115474121.090  
G23  20319274.608   106778509.370  
G14  20319274.469   106778508.371  
G29  20319274.774   106778509.368  
> 2019 09 08 05 01 28.0000000  0  8                     
G26  22109127.920   116184251.162  
G31  20956774.324   110128593.749  
G32  20319498.999   106779686.435  
G20  20319498.706   106779685.436  
G21  21973492.327   115471480.318  
G23  20319498.760   106779686.431  
G14  20319498.330   106779685.430  
G29  20319498.812   106779686.435  
> 2019 09 08 05 01 29.0000000  0  8                     
G26  22108620.091   116181582.765  
G31  20956904.635   110129279.427  
G32  20319722.860   106780863.942  
G20  20319722.725   106780862.940  
G21  21972989.824   115468839.995  
G23  20319722.813   106780863.944  
G14  20319722.542   106780862.946  
G29  20319722.747   106780863.947  
> 2019 09 08 05 01 30.0000000  0  8                     
G26  22108112.438   116178914.447  
G31  20957035.454   110129965.608  
G32  20319947.358   106782041.727  
G20  20319947.094   106782040.727  
G21  21972487.420   115466199.936  
G23  20319946.678   106782041.731  
G14  20319946.656   106782040.725  
G29  20319947.192   106782041.727  
> 2019 09 08 05 01 31.0000000  0  8                     
G26  22107604.927   116176246.078  
G31  20957166.214   110130652.185  
G32  20320171.457   106783219.653  
G20  20320171.480   106783218.657  
G21  21971985.278   115463560.045  
G23  20320171.075   106783219.659  
G14  20320170.851   106783218.662  
G29  20320171.177   106783219.659  
> 2019 09 08 05 01 32.0000000  0  8                     
G26  22107097.180   116173577.775  
G31  20957296.763   110131339.229  
G32  20320395.564   106784397.824  
G20  20320395.749   106784396.827  
G21  21971483.145   115460920.377  
G23  20320395.335   106784397.818  
G14  20320394.943   106784396.826  
G29  20320395.468   106784397.825  
> 2019 09 08 05 01 33.0000000  0  8                     
G26  22106589.137   116170909.693  
G31  20957427.795   110132026.937  
G32  20320619.915   106785576.413  
G20  20320619.799   106785575.414  
G21  21970980.870   115458281.142  
G23  20320619.401   106785576.421  
G14  20320619.306   106785575.421  
G29  20320619.543   106785576.420  
> 2019 09 08 05 01 34.0000000  0  8                     
G26  22106081.460   116168241.973  
G31  20957558.860   110132715.420  
G32  20320843.974   106786755.540  
G20  20320844.031   106786754.537  
G21  21970478.556   115455642.467  
G23  20320843.748   106786755.548  
G14  20320843.660   106786754.554  
G29  20320844.013   106786755.547  
> 2019 09 08 05 01 35.0000000  0  8                     
G26  22105573.878   116165574.435  
G31  20957690.028   110133404.504  
G32  20321068.604   106787935.039  
G20  20321068.493   106787934.037  
G21  21969976.263   115453004.132  
G23  20321068.225   106787935.045  
G14  20321068.096   106787934.035  
G29  20321068.441   106787935.038  
> 2019 09 08 05 01 36.0000000  0  8                     
G26  22105066.283   116162907.455  
G31  20957821.225   110134094.576  
G32  20321293.137   106789115.286  
G20  20321293.027   106789114.286  
G21  21969474.417   115450366.576  
G23  20321292.968   106789115.283  
G14  20321292.657   106789114.282  
G29  20321293.021   106789115.282  
> 2019 09 08 05 01 37.0000000  0  8                     
G26  22104558.839   116160240.661  
G31  20957952.537   110134785.267  
G32  20321517.502   106790295.908  
G20  20321517.421   106790294.907  
G21  21968972.662   115447729.383  
G23  20321517.698   106790295.902  
G14  20321517.235   106790294.903  
G29  20321517.455   106790295.898  
> 2019 09 08 05 01 38.0000000  0  8                     
G26  22104051.057   116157573.735  
G31  20958084.068   110135476.245  
G32  20321742.278   106791476.574  
G20  20321742.510   106791475.581  
G21  21968470.832   115445092.243  
G23  20321742.709   106791476.574  
G14  20321741.993   106791475.581  
G29  20321742.100   106791476.575  
> 2019 09 08 05 01 39.0000000  0  8                     
G26  22103543.643   116154906.978  
G31  20958215.672   110136167.818  
G32  20321967.028   106792657.599  
G20  20321967.453   106792656.601  
G21  21967968.942   115442455.473  
G23  20321967.273   106792657.597  
G14  20321966.875   106792656.604  
G29  20321966.976   106792657.598  
> 2019 09 08 05 01 40.0000000  0  8                     
G26  22103036.529   116152240.510  
G31  20958347.439   110136860.098  
G32  20322191.999   106793839.098  
G20  20322192.278   106793838.104  
G21  21967467.302   115439819.182  
G23  20322192.016   106793839.102  
G14  20322191.851   106793838.105  
G29  20322191.792   106793839.103  
> 2019 09 08 05 01 41.0000000  0  8                     
G26  22102529.401   116149574.362  
G31  20958479.354   110137553.131  
G32  20322416.869   106795021.111  
G20  20322417.091   106795020.116  
G21  21966965.905   115437183.398  
G23  20322416.826   106795021.110  
G14  20322416.878   106795020.119  
G29  20322416.741   106795021.112  
> 2019 09 08 05 01 42.0000000  0  8                     
G26  22102022.015   116146908.239  
G31  20958611.349   110138246.616  
G32  20322641.767   106796203.332  
G20  20322642.218   106796202.332  
G21  21966464.337   115434547.836  
G23  20322641.877   106796203.334  
G14  20322641.587   106796202.329  
G29  20322641.541   106796203.327  
> 2019 09 08 05 01 43.0000000  0  8                     
G26  22101514.628   116144242.331  
G31  20958743.560   110138940.740  
G32  20322866.915   106797385.955  
G20  20322867.241   106797384.961  
G21  21965962.873   115431912.682  
G23  20322866.805   106797385.959  
G14  20322866.503   106797384.956  
G29  20322866.586   106797385.952  
> 2019 09 08 05 01 44.0000000  0  8                     
G26  22101007.249   116141576.690  
G31  20958875.744   110139635.554  
G32  20323091.941   106798569.032  
G20  20323092.315   106798568.031  
G21  21965461.572   115429277.977  
G23  20323092.161   106798569.033  
G14  20323091.554   106798568.035  
G29  20323091.799   106798569.034  
> 2019 09 08 05 01 45.0000000  0  8                     
G26  22100499.926   116138911.199  
G31  20959008.060   110140330.939  
G32  20323317.258   106799752.439  
G20  20323317.368   106799751.438  
G21  21964960.071   115426643.615  
G23  20323317.268   106799752.445  
G14  20323316.688   106799751.437  
G29  20323317.275   106799752.432  
> 2019 09 08 05 01 46.0000000  0  8                     
G26  22099992.742   116136245.873  
G31  20959140.628   110141026.913  
G32  20323542.464   106800936.206  
G20  20323542.750   106800935.193  
G21  21964458.741   115424009.607  
G23  20323542.409   106800936.204  
G14  20323542.156   106800935.205  
G29  20323542.475   106800936.201  
> 2019 09 08 05 01 47.0000000  0  8                     
G26  22099485.457   116133580.598  
G31  20959273.138   110141723.358  
G32  20323767.953   106802120.194  
G20  20323767.925   106802119.198  
G21  21963957.656   115421375.850  
G23  20323767.678   106802120.199  
G14  20323767.525   106802119.198  
G29  20323767.948   106802120.199  
> 2019 09 08 05 01 48.0000000  0  8                     
G26  22098978.585   116130915.665  
G31  20959405.794   110142420.570  
G32  20323993.171   106803304.713  
G20  20323993.502   106803303.723  
G21  21963456.530   115418742.614  
G23  20323993.177   106803304.723  
G14  20323993.046   106803303.720  
G29  20323993.103   106803304.721  
> 2019 09 08 05 01 49.0000000  0  8                     
G26  22098471.541   116128251.028  
G31  20959538.493   110143118.521  
G32  20324218.419   106804489.726  
G20  20324218.885   106804488.729  
G21  21962955.543   115416109.881  
G23  20324218.508   106804489.733  
G14  20324218.413   106804488.737  
G29  20324218.438   106804489.736  
> 2019 09 08 05 01 50.0000000  0  8                     
G26  22097964.464   116125586.731  
G31  20959671.454   110143817.210  
G32  20324444.160   106805675.264  
G20  20324444.369   106805674.255  
G21  21962454.700   115413477.670  
G23  20324444.269   106805675.256  
G14  20324444.155   106805674.261  
G29  20324444.186   106805675.260  
> 2019 09 08 05 01 51.0000000  0  8                     
G26  22097457.394   116122922.508  
G31  20959804.615   110144516.417  
G32  20324669.890   106806861.053  
G20  20324670.085   106806860.048  
G21  21961953.700   115410845.722  
G23  20324669.958   106806861.044  
G14  20324669.751   106806860.051  
G29  20324669.926   106806861.051  
> 2019 09 08 05 01 52.0000000  0  8                     
G26  22096950.457   116120258.938  
G31  20959937.818   110145216.695  
G32  20324895.733   106808047.684  
G20  20324896.085   106808046.684  
G21  21961453.038   115408214.624  
G23  20324896.047   106808047.690  
G14  20324895.500   106808046.680  
G29  20324895.542   106808047.679  
> 2019 09 08 05 01 53.0000000  0  8                     
G26  22096443.754   116117595.364  
G31  20960071.227   110145917.388  
G32  20325121.582   106809234.489  
G20  20325121.915   106809233.486  
G21  21960952.386   115405583.709  
G23  20325121.762   106809234.496  
G14  20325121.136   106809233.486  
G29  20325121.720   106809234.493  
> 2019 09 08 05 01 54.0000000  0  8                     
G26  22095936.957   116114932.130  
G31  20960204.639   110146618.843  
G32  20325347.694   106810421.823  
G20  20325347.710   106810420.818  
G21  21960451.985   115402953.315  
G23  20325347.933   106810421.828  
G14  20325347.319   106810420.822  
G29  20325347.637   106810421.821  
> 2019 09 08 05 01 55.0000000  0  8                     
G26  22095430.224   116112269.032  
G31  20960338.235   110147320.863  
G32  20325573.727   106811609.474  
G20  20325573.573   106811608.472  
G21  21959951.644   115400323.256  
G23  20325573.758   106811609.472  
G14  20325573.252   106811608.481  
G29  20325573.562   106811609.484  
> 2019 09 08 05 01 56.0000000  0  8                     
G26  22094923.304   116109605.770  
G31  20960471.935   110148023.148  
G32  20325799.488   106812797.154  
G20  20325799.624   106812796.149  
G21  21959451.219   115397693.231  
G23  20325799.592   106812797.153  
G14  20325799.146   106812796.152  
G29  20325799.468   106812797.147  
> 2019 09 08 05 01 57.0000000  0  8                     
G26  22094416.287   116106942.744  
G31  20960605.800   110148726.091  
G32  20326025.472   106813985.246  
G20  20326026.057   106813984.244  
G21  21958950.741   115395063.621  
G23  20326025.718   106813985.247  
G14  20326025.261   106813984.244  
G29  20326025.458   106813985.249  
> 2019 09 08 05 01 58.0000000  0  8                     
G26  22093909.612   116104279.957  
G31  20960739.493   110149429.677  
G32  20326251.845   106815173.760  
G20  20326252.161   106815172.770  
G21  21958450.523   115392434.447  
G23  20326252.003   106815173.765  
G14  20326251.713   106815172.758  
G29  20326251.751   106815173.760  
> 2019 09 08 05 01 59.0000000  0  8                     
G26  22093403.238   116101617.441  
G31  20960873.538   110150133.981  
G32  20326478.171   106816362.740  
G20  20326478.572   106816361.736  
G21  21957950.264   115389805.739  
G23  20326478.090   106816362.744  
G14  20326478.074   106816361.741  
G29  20326478.254   106816362.738  
> 2019 09 08 05 02 00.0000000  0  8                     
G26  22092896.992   116098955.207  
G31  20961007.891   110150838.975  
G32  20326704.289   106817552.187  
G20  20326704.905   106817551.182  
G21  21957450.052   115387177.499  
G23  20326704.258   106817552.176  
G14  20326704.252   106817551.184  
G29  20326704.579   106817552.179  
> 2019 09 08 05 02 01.0000000  0  8                     
G26  22092390.178   116096293.418  
G31  20961142.150   110151544.846  
G32  20326930.783   106818742.254  
G20  20326931.243   106818741.260  
G21  21956950.045   115384549.903  
G23  20326930.537   106818742.253  
G14  20326930.905   106818741.260  
G29  20326930.935   106818742.250  
> 2019 09 08 05 02 02.0000000  0  8                     
G26  22091883.544   116093631.637  
G31  20961276.586   110152251.145  
G32  20327157.344   106819932.511  
G20  20327157.528   106819931.515  
G21  21956450.207   115381922.499  
G23  20327157.228   106819932.518  
G14  20327157.389   106819931.518  
G29  20327157.467   106819932.513  
> 2019 09 08 05 02 03.0000000  0  8                     
G26  22091376.912   116090969.906  
G31  20961411.136   110152957.906  
G32  20327383.887   106821123.005  
G20  20327384.137   106821122.002  
G21  21955950.190   115379295.341  
G23  20327383.586   106821123.012  
G14  20327383.938   106821122.003  
G29  20327383.889   106821123.005  
> 2019 09 08 05 02 04.0000000  0  8                     
G26  22090870.459   116088308.345  
G31  20961545.576   110153665.271  
G32  20327610.285   106822313.860  
G20  20327610.805   106822312.869  
G21  21955450.173   115376668.537  
G23  20327610.291   106822313.859  
G14  20327610.422   106822312.853  
G29  20327610.597   106822313.854  
> 2019 09 08 05 02 05.0000000  0  8                     
G26  22090364.103   116085647.264  
G31  20961680.225   110154373.539  
G32  20327837.071   106823505.359  
G20  20327837.282   106823504.353  
G21  21954950.510   115374042.401  
G23  20327837.028   106823505.363  
G14  20327836.959   106823504.360  
G29  20327837.114   106823505.364  
> 2019 09 08 05 02 06.0000000  0  8                     
G26  22089857.815   116082986.181  
G31  20961815.325   110155082.230  
G32  20328064.159   106824697.060  
G20  20328064.036   106824696.057  
G21  21954450.692   115371416.457  
G23  20328063.895   106824697.054  
G14  20328063.748   106824696.059  
G29  20328063.980   106824697.062  
> 2019 09 08 05 02 07.0000000  0  8                     
G26  22089351.650   116080325.312  
G31  20961950.094   110155791.545  
G32  20328290.823   106825889.146  
G20  20328290.985   106825888.147  
G21  21953951.036   115368790.923  
G23  20328291.013   106825889.147  
G14  20328290.549   106825888.152  
G29  20328290.858   106825889.147  
> 2019 09 08 05 02 08.0000000  0  8                     
G26  22088845.395   116077664.631  
G31  20962085.028   110156501.491  
G32  20328517.682   106827081.613  
G20  20328518.023   106827080.616  
G21  21953451.501   115366165.773  
G23  20328517.834   106827081.619  
G14  20328517.605   106827080.619  
G29  20328517.822   106827081.609  
> 2019 09 08 05 02 09.0000000  0  8                     
G26  22088338.955   116075004.207  
G31  20962220.341   110157212.101  
G32  20328744.581   106828274.506  
G20  20328744.944   106828273.515  
G21  21952951.972   115363541.058  
G23  20328744.834   106828274.508  
G14  20328744.552   106828273.503  
G29  20328744.688   106828274.506  
> 2019 09 08 05 02 10.0000000  0  8                     
G26  22087832.492   116072343.881  
G31  20962355.907   110157923.245  
G32  20328971.577   106829467.702  
G20  20328972.216   106829466.702  
G21  21952452.455   115360916.647  
G23  20328971.784   106829467.702  
G14  20328971.510   106829466.696  
G29  20328971.622   106829467.697  
> 2019 09 08 05 02 11.0000000  0  8                     
G26  22087326.317   116069683.778  
G31  20962491.346   110158635.016  
G32  20329198.533   106830661.287  
G20  20329199.194   106830660.286  
G21  21951953.161   115358292.647  
G23  20329198.837   106830661.285  
G14  20329198.617   106830660.283  
G29  20329198.749   106830661.290  
> 2019 09 08 05 02 12.0000000  0  8                     
G26  22086820.159   116067023.853  
G31  20962626.861   110159347.398  
G32  20329425.793   106831855.239  
G20  20329426.347   106831854.240  
G21  21951454.060   115355669.002  
G23  20329426.065   106831855.227  
G14  20329425.594   106831854.236  
G29  20329426.157   106831855.234  
> 2019 09 08 05 02 13.0000000  0  8                     
G26  22086314.001   116064364.188  
G31  20962762.582   110160060.453  
G32  20329653.148   106833049.626  
G20  20329654.066   106833048.632  
G21  21950954.785   115353045.816  
G23  20329653.250   106833049.629  
G14  20329653.097   106833048.625  
G29  20329653.467   106833049.626  
> 2019 09 08 05 02 14.0000000  0  8                     
G26  22085808.107   116061704.794  
G31  20962898.546   110160774.203  
G32  20329880.667   106834244.479  
G20  20329881.456   106834243.470  
G21  21950455.796   115350423.095  
G23  20329880.540   106834244.469  
G14  20329880.511   106834243.477  
G29  20329880.652   106834244.473  
> 2019 09 08 05 02 15.0000000  0  8                     
G26  22085302.217   116059045.360  
G31  20963034.534   110161488.349  
G32  20330107.965   106835439.465  
G20  20330108.683   106835438.468  
G21  21949956.945   115347800.525  
G23  20330108.071   106835439.468  
G14  20330107.928   106835438.464  
G29  20330108.123   106835439.463  
> 2019 09 08 05 02 16.0000000  0  8                     
G26  22084796.210   116056386.385  
G31  20963170.424   110162203.364  
G32  20330335.582   106836635.099  
G20  20330335.963   106836634.099  
G21  21949458.133   115345178.612  
G23  20330335.721   106836635.096  
G14  20330335.446   106836634.092  
G29  20330335.586   106836635.096  
> 2019 09 08 05 02 17.0000000  0  8                     
G26  22084290.108   116053727.549  
G31  20963306.436   110162918.936  
G32  20330563.369   106837831.039  
G20  20330563.383   106837830.044  
G21  21948959.248   115342557.012  
G23  20330563.230   106837831.040  
G14  20330562.961   106837830.040  
G29  20330563.354   106837831.043  
> 2019 09 08 05 02 18.0000000  0  8                     
G26  22083784.077   116051069.279  
G31  20963442.667   110163635.509  
G32  20330791.252   106839027.735  
G20  20330791.006   106839026.742  
G21  21948460.414   115339936.186  
G23  20330791.044   106839027.743  
G14  20330790.516   106839026.739  
G29  20330791.041   106839027.741  
> 2019 09 08 05 02 19.0000000  0  8                     
G26  22083278.218   116048411.287  
G31  20963579.364   110164352.782  
G32  20331019.017   106840224.904  
G20  20331018.780   106840223.902  
G21  21947961.765   115337315.825  
G23  20331018.822   106840224.906  
G14  20331018.451   106840223.901  
G29  20331018.891   106840224.905  
> 2019 09 08 05 02 20.0000000  0  8                     
G26  22082772.457   116045753.263  
G31  20963715.749   110165070.438  
G32  20331246.872   106841422.210  
G20  20331246.713   106841421.225  
G21  21947463.194   115334695.623  
G23  20331246.475   106841422.214  
G14  20331246.235   106841421.219  
G29  20331246.700   106841422.220  
> 2019 09 08 05 02 21.0000000  0  8                     
G26  22082266.765   116043095.549  
G31  20963852.561   110165788.817  
G32  20331474.778   106842620.023  
G20  20331474.865   106842619.020  
G21  21946964.635   115332075.917  
G23  20331474.740   106842620.015  
G14  20331474.188   106842619.022  
G29  20331474.497   106842620.014  
> 2019 09 08 05 02 22.0000000  0  8                     
G26  22081761.083   116040437.740  
G31  20963989.142   110166507.534  
G32  20331702.744   106843817.903  
G20  20331702.961   106843816.904  
G21  21946465.865   115329456.310  
G23  20331702.669   106843817.905  
G14  20331702.218   106843816.897  
G29  20331702.624   106843817.906  
> 2019 09 08 05 02 23.0000000  0  8                     
G26  22081255.097   116037780.196  
G31  20964126.184   110167226.933  
G32  20331930.628   106845016.243  
G20  20331930.954   106845015.244  
G21  21945967.369   115326837.164  
G23  20331930.621   106845016.236  
G14  20331930.130   106845015.245  
G29  20331930.675   106845016.241  
> 2019 09 08 05 02 24.0000000  0  8                     
G26  22080749.527   116035122.893  
G31  20964263.274   110167946.997  
G32  20332158.599   106846214.994  
G20  20332159.127   106846214.003  
G21  21945469.074   115324218.443  
G23  20332158.689   106846214.997  
G14  20332158.277   106846213.993  
G29  20332158.836   106846214.995  
> 2019 09 08 05 02 25.0000000  0  8                     
G26  22080244.113   116032465.839  
G31  20964400.469   110168667.729  
G32  20332386.481   106847414.187  
G20  20332387.139   106847413.190  
G21  21944970.804   115321600.169  
G23  20332386.779   106847414.187  
G14  20332386.545   106847413.187  
G29  20332387.210   106847414.182  
> 2019 09 08 05 02 26.0000000  0  8                     
G26  22079738.676   116029808.695  
G31  20964537.712   110169388.790  
G32  20332614.841   106848613.459  
G20  20332615.210   106848612.466  
G21  21944472.654   115318981.991  
G23  20332615.060   106848613.457  
G14  20332614.584   106848612.458  
G29  20332615.307   106848613.465  
> 2019 09 08 05 02 27.0000000  0  8                     
G26  22079233.074   116027151.852  
G31  20964674.929   110170110.574  
G32  20332843.391   106849813.225  
G20  20332843.596   106849812.223  
G21  21943974.314   115316364.304  
G23  20332843.367   106849813.228  
G14  20332843.300   106849812.227  
G29  20332843.644   106849813.233  
> 2019 09 08 05 02 28.0000000  0  8                     
G26  22078727.744   116024495.459  
G31  20964812.441   110170833.239  
G32  20333071.808   106851013.614  
G20  20333072.096   106851012.616  
G21  21943476.341   115313747.272  
G23  20333071.607   106851013.624  
G14  20333071.809   106851012.620  
G29  20333072.013   106851013.618  
> 2019 09 08 05 02 29.0000000  0  8                     
G26  22078222.007   116021839.101  
G31  20964950.139   110171556.349  
G32  20333300.370   106852214.225  
G20  20333300.480   106852213.224  
G21  21942978.619   115311130.454  
G23  20333300.292   106852214.229  
G14  20333300.163   106852213.226  
G29  20333300.328   106852214.220  
> 2019 09 08 05 02 30.0000000  0  8                     
G26  22077716.360   116019183.003  
G31  20965087.618   110172280.146  
G32  20333529.000   106853415.270  
G20  20333529.274   106853414.274  
G21  21942480.905   115308514.095  
G23  20333528.792   106853415.270  
G14  20333528.869   106853414.278  
G29  20333528.756   106853415.269  
> 2019 09 08 05 02 31.0000000  0  8                     
G26  22077211.048   116016527.108  
G31  20965225.541   110173004.559  
G32  20333757.693   106854616.709  
G20  20333758.086   106854615.720  
G21  21941983.222   115305898.119  
G23  20333757.493   106854616.705  
G14  20333757.610   106854615.704  
G29  20333757.449   106854616.711  
> 2019 09 08 05 02 32.0000000  0  8                     
G26  22076705.667   116013871.460  
G31  20965363.464   110173729.640  
G32  20333986.307   106855818.570  
G20  20333986.754   106855817.571  
G21  21941485.522   115303282.599  
G23  20333986.320   106855818.565  
G14  20333986.165   106855817.574  
G29  20333986.114   106855818.574  
> 2019 09 08 05 02 33.0000000  0  8                     
G26  22076200.326   116011215.916  
G31  20965501.767   110174455.255  
G32  20334215.168   106857020.709  
G20  20334215.328   106857019.718  
G21  21940987.836   115300667.359  
G23  20334215.185   106857020.715  
G14  20334214.480   106857019.714  
G29  20334214.878   106857020.715  
> 2019 09 08 05 02 34.0000000  0  8                     
G26  22075695.029   116008561.012  
G31  20965639.718   110175181.925  
G32  20334444.022   106858223.685  
G20  20334444.225   106858222.683  
G21  21940490.343   115298052.954  
G23  20334444.109   106858223.686  
G14  20334443.644   106858222.685  
G29  20334443.636   106858223.682  
> 2019 09 08 05 02 35.0000000  0  8                     
G26  22075189.973   116005906.152  
G31  20965778.335   110175909.042  
G32  20334672.933   106859426.867  
G20  20334673.227   106859425.865  
G21  21939992.815   115295438.782  
G23  20334673.013   106859426.867  
G14  20334672.603   106859425.866  
G29  20334672.517   106859426.869  
> 2019 09 08 05 02 36.0000000  0  8                     
G26  22074684.697   116003251.425  
G31  20965916.813   110176636.735  
G32  20334901.686   106860630.372  
G20  20334902.138   106860629.365  
G21  21939495.479   115292824.946  
G23  20334901.924   106860630.369  
G14  20334901.568   106860629.372  
G29  20334901.778   106860630.374  
> 2019 09 08 05 02 37.0000000  0  8                     
G26  22074179.776   116000596.699  
G31  20966055.454   110177364.844  
G32  20335130.964   106861834.053  
G20  20335131.281   106861833.053  
G21  21938998.148   115290211.297  
G23  20335131.112   106861834.052  
G14  20335130.783   106861833.058  
G29  20335130.855   106861834.060  
> 2019 09 08 05 02 38.0000000  0  8                     
G26  22073674.562   115997942.293  
G31  20966194.034   110178093.689  
G32  20335359.948   106863038.237  
G20  20335360.190   106863037.226  
G21  21938500.828   115287598.151  
G23  20335360.106   106863038.231  
G14  20335359.813   106863037.229  
G29  20335360.061   106863038.232  
> 2019 09 08 05 02 39.0000000  0  8                     
G26  22073169.563   115995287.969  
G31  20966332.560   110178823.046  
G32  20335589.133   106864242.686  
G20  20335589.599   106864241.691  
G21  21938003.645   115284985.292  
G23  20335589.123   106864242.686  
G14  20335589.036   106864241.689  
G29  20335589.417   106864242.687  
> 2019 09 08 05 02 40.0000000  0  8                     
G26  22072664.519   115992634.011  
G31  20966471.604   110179553.179  
G32  20335818.763   106865447.682  
G20  20335818.890   106865446.672  
G21  21937506.734   115282372.983  
G23  20335818.351   106865447.682  
G14  20335818.405   106865446.682  
G29  20335818.751   106865447.679  
> 2019 09 08 05 02 41.0000000  0  9                     
G26  22072159.366   115989980.149  
G31  20966610.616   110180283.819  
G32  20336048.032   106866652.940  
G20  20336048.173   106866651.945  
G21  21937009.470   115279760.963  
G16  24306730.067                  
G23  20336047.822   106866652.942  
G14  20336047.860   106866651.949  
G29  20336048.233   106866652.945  
> 2019 09 08 05 02 42.0000000  0  9                     
G26  22071654.464   115987326.736  
G31  20966750.006   110181015.345  
G32  20336277.274   106867858.840  
G20  20336277.509   106867857.835  
G21  21936512.467   115277149.579  
G16  24306104.326                  
G23  20336277.376   106867858.835  
G14  20336277.137   106867857.830  
G29  20336277.389   106867858.833  
> 2019 09 08 05 02 43.0000000  0  9                     
G26  22071149.565   115984673.505  
G31  20966889.340   110181747.463  
G32  20336506.790   106869065.090  
G20  20336506.986   106869064.092  
G21  21936015.463   115274538.572  
G16  24305478.343                  
G23  20336506.857   106869065.088  
G14  20336506.744   106869064.085  
G29  20336507.082   106869065.090  
> 2019 09 08 05 02 44.0000000  0  9                     
G26  22070644.714   115982020.242  
G31  20967028.635   110182479.976  
G32  20336736.426   106870271.492  
G20  20336736.730   106870270.493  
G21  21935518.473   115271927.720  
G16  24304851.878   127722855.5321 
G23  20336736.489   106870271.492  
G14  20336736.297   106870270.492  
G29  20336736.547   106870271.484  
> 2019 09 08 05 02 45.0000000  0  9                     
G26  22070139.730   115979367.283  
G31  20967168.481   110183213.210  
G32  20336966.223   106871478.380  
G20  20336966.500   106871477.395  
G21  21935021.715   115269317.383  
G16  24304225.775   127719564.932  
G23  20336966.031   106871478.384  
G14  20336965.916   106871477.391  
G29  20336966.125   106871478.390  
> 2019 09 08 05 02 46.0000000  0  9                     
G26  22069634.954   115976714.494  
G31  20967308.004   110183947.032  
G32  20337195.989   106872685.618  
G20  20337196.234   106872684.627  
G21  21934525.182   115266707.386  
G16  24303599.703   127716274.317  
G23  20337195.599   106872685.627  
G14  20337195.758   106872684.617  
G29  20337195.938   106872685.618  
> 2019 09 08 05 02 47.0000000  0  9                     
G26  22069130.376   115974061.996  
G31  20967447.729   110184681.568  
G32  20337425.693   106873893.331  
G20  20337426.270   106873892.333  
G21  21934028.463   115264097.891  
G16  24302973.801   127712983.828  
G23  20337425.420   106873893.336  
G14  20337425.464   106873892.338  
G29  20337425.447   106873893.336  
> 2019 09 08 05 02 48.0000000  0  9                     
G26  22068625.748   115971409.726  
G31  20967587.352   110185416.744  
G32  20337655.562   106875101.443  
G20  20337656.372   106875100.438  
G21  21933532.011   115261488.791  
G16  24302347.661   127709693.372  
G23  20337655.391   106875101.437  
G14  20337655.494   106875100.436  
G29  20337655.238   106875101.441  
> 2019 09 08 05 02 49.0000000  0  9                     
G26  22068120.945   115968757.573  
G31  20967727.413   110186152.459  
G32  20337885.374   106876309.849  
G20  20337886.142   106876308.844  
G21  21933035.693   115258880.019  
G16  24301721.390   127706402.876  
G23  20337885.099   106876309.851  
G14  20337885.552   106876308.849  
G29  20337885.332   106876309.848  
> 2019 09 08 05 02 50.0000000  0  9                     
G26  22067616.094   115966105.725  
G31  20967867.527   110186888.904  
G32  20338115.581   106877518.743  
G20  20338115.822   106877517.742  
G21  21932539.226   115256271.743  
G16  24301095.484   127703112.506  
G23  20338115.419   106877518.741  
G14  20338115.477   106877517.745  
G29  20338115.333   106877518.744  
> 2019 09 08 05 02 51.0000000  0  9                     
G26  22067111.608   115963453.980  
G31  20968007.726   110187625.863  
G32  20338345.896   106878727.908  
G20  20338346.022   106878726.911  
G21  21932043.063   115253663.752  
G16  24300469.364   127699822.071  
G23  20338345.502   106878727.909  
G14  20338345.449   106878726.913  
G29  20338345.215   106878727.915  
> 2019 09 08 05 02 52.0000000  0  9                     
G26  22066606.673   115960802.553  
G31  20968147.999   110188363.563  
G32  20338575.983   106879937.585  
G20  20338575.992   106879936.587  
G21  21931546.953   115251056.278  
G16  24299843.060   127696531.781  
G23  20338575.824   106879937.585  
G14  20338575.552   106879936.587  
G29  20338575.340   106879937.586  
> 2019 09 08 05 02 53.0000000  0  9                     
G26  22066102.116   115958150.981  
G31  20968288.336   110189101.538  
G32  20338806.037   106881147.286  
G20  20338806.271   106881146.292  
G21  21931051.058   115248448.859  
G16  24299216.763   127693241.185  
G23  20338806.160   106881147.294  
G14  20338805.919   106881146.292  
G29  20338805.669   106881147.293  
> 2019 09 08 05 02 54.0000000  0  9                     
G26  22065597.680   115955499.936  
G31  20968429.216   110189840.466  
G32  20339036.443   106882357.705  
G20  20339036.803   106882356.708  
G21  21930554.948   115245842.145  
G16  24298590.528   127689950.928  
G23  20339036.355   106882357.709  
G14  20339036.285   106882356.707  
G29  20339036.134   106882357.706  
> 2019 09 08 05 02 55.0000000  0  9                     
G26  22065093.149   115952849.031  
G31  20968570.190   110190579.941  
G32  20339266.622   106883568.430  
G20  20339267.237   106883567.427  
G21  21930058.860   115243235.763  
G16  24297964.522   127686660.641  
G23  20339266.686   106883568.433  
G14  20339266.674   106883567.429  
G29  20339266.705   106883568.431  
> 2019 09 08 05 02 56.0000000  0  9                     
G26  22064588.760   115950198.368  
G31  20968711.315   110191320.081  
G32  20339496.946   106884779.577  
G20  20339497.659   106884778.581  
G21  21929562.903   115240629.822  
G16  24297338.302   127683370.426  
G23  20339497.529   106884779.574  
G14  20339497.303   106884778.581  
G29  20339497.300   106884779.574  
> 2019 09 08 05 02 57.0000000  0  9                     
G26  22064084.456   115947548.029  
G31  20968852.260   110192060.956  
G32  20339727.370   106885991.222  
G20  20339728.306   106885990.223  
G21  21929066.758   115238024.379  
G16  24296712.211   127680080.363  
G23  20339728.149   106885991.221  
G14  20339727.886   106885990.227  
G29  20339728.054   106885991.223  
> 2019 09 08 05 02 58.0000000  0  9                     
G26  22063580.260   115944897.718  
G31  20968993.013   110192802.277  
G32  20339958.337   106887203.080  
G20  20339958.811   106887202.080  
G21  21928570.900   115235419.175  
G16  24296086.090   127676790.159  
G23  20339958.517   106887203.079  
G14  20339958.497   106887202.071  
G29  20339958.798   106887203.072  
> 2019 09 08 05 02 59.0000000  0  9                     
G26  22063075.989   115942247.771  
G31  20969134.174   110193544.382  
G32  20340189.349   106888415.467  
G20  20340189.842   106888414.470  
G21  21928075.532   115232814.519  
G16  24295460.096   127673500.126  
G23  20340189.096   106888415.470  
G14  20340188.998   106888414.468  
G29  20340189.581   106888415.473  
> 2019 09 08 05 03 00.0000000  0  9                     
G26  22062571.858   115939598.136  
G31  20969275.408   110194287.227  
G32  20340420.178   106889628.355  
G20  20340420.555   106889627.354  
G21  21927580.073   115230210.370  
G16  24294834.378   127670210.255  
G23  20340419.815   106889628.351  
G14  20340419.771   106889627.358  
G29  20340420.045   106889628.361  
> 2019 09 08 05 03 01.0000000  0  9                     
G26  22062067.839   115936948.936  
G31  20969416.949   110195030.923  
G32  20340650.980   106890841.857  
G20  20340651.178   106890840.855  
G21  21927084.880   115227606.847  
G16  24294208.325   127666920.642  
G23  20340650.758   106890841.861  
G14  20340650.603   106890840.847  
G29  20340650.922   106890841.859  
> 2019 09 08 05 03 02.0000000  0  9                     
G26  22061563.887   115934300.140  
G31  20969558.503   110195775.440  
G32  20340881.919   106892055.939  
G20  20340882.114   106892054.940  
G21  21926589.303   115225003.922  
G16  24293582.298   127663631.257  
G23  20340881.781   106892055.939  
G14  20340881.696   106892054.935  
G29  20340881.924   106892055.936  
> 2019 09 08 05 03 03.0000000  0  9                     
G26  22061059.759   115931651.293  
G31  20969700.142   110196520.322  
G32  20341113.348   106893270.143  
G20  20341113.042   106893269.139  
G21  21926093.810   115222401.134  
G16  24292956.042   127660341.644  
G23  20341112.991   106893270.134  
G14  20341112.894   106893269.135  
G29  20341112.942   106893270.139  
> 2019 09 08 05 03 04.0000000  0  9                     
G26  22060555.878   115929002.424  
G31  20969842.062   110197265.592  
G32  20341344.206   106894484.493  
G20  20341344.295   106894483.488  
G21  21925598.626   115219798.506  
G16  24292329.984   127657051.834  
G23  20341344.313   106894484.498  
G14  20341343.791   106894483.498  
G29  20341344.202   106894484.499  
> 2019 09 08 05 03 05.0000000  0  9                     
G26  22060051.749   115926353.738  
G31  20969983.924   110198011.481  
G32  20341575.419   106895699.227  
G20  20341575.335   106895698.229  
G21  21925103.573   115217196.285  
G16  24291703.850   127653762.055  
G23  20341575.228   106895699.228  
G14  20341575.045   106895698.229  
G29  20341575.323   106895699.227  
> 2019 09 08 05 03 06.0000000  0  9                     
G26  22059547.926   115923705.083  
G31  20970126.014   110198757.815  
G32  20341806.661   106896914.160  
G20  20341806.623   106896913.161  
G21  21924608.444   115214594.258  
G16  24291077.864   127650472.123  
G23  20341806.391   106896914.156  
G14  20341806.144   106896913.166  
G29  20341806.397   106896914.154  
> 2019 09 08 05 03 07.0000000  0  9                     
G26  22059043.591   115921056.807  
G31  20970268.217   110199504.930  
G32  20342038.095   106898129.628  
G20  20342038.057   106898128.637  
G21  21924113.494   115211992.812  
G16  24290452.027   127647182.397  
G23  20342037.570   106898129.637  
G14  20342037.320   106898128.632  
G29  20342037.739   106898129.634  
> 2019 09 08 05 03 08.0000000  0  9                     
G26  22058539.805   115918408.972  
G31  20970410.594   110200252.903  
G32  20342269.530   106899345.742  
G20  20342269.449   106899344.737  
G21  21923618.786   115209391.996  
G16  24289826.102   127643892.932  
G23  20342269.027   106899345.740  
G14  20342268.793   106899344.737  
G29  20342269.185   106899345.738  
> 2019 09 08 05 03 09.0000000  0  9                     
G26  22058035.797   115915761.346  
G31  20970553.030   110201001.528  
G32  20342500.970   106900562.224  
G20  20342500.991   106900561.230  
G21  21923123.916   115206791.586  
G16  24289199.919   127640603.500  
G23  20342500.553   106900562.228  
G14  20342500.358   106900561.229  
G29  20342500.824   106900562.222  
> 2019 09 08 05 03 10.0000000  0  9                     
G26  22057532.021   115913113.669  
G31  20970695.748   110201750.494  
G32  20342732.287   106901778.836  
G20  20342732.386   106901777.836  
G21  21922629.172   115204191.306  
G16  24288573.688   127637313.844  
G23  20342732.009   106901778.836  
G14  20342731.903   106901777.836  
G29  20342732.071   106901778.832  
> 2019 09 08 05 03 11.0000000  0  9                     
G26  22057027.963   115910466.242  
G31  20970838.232   110202500.145  
G32  20342963.863   106902995.876  
G20  20342963.899   106902994.877  
G21  21922134.089   115201591.478  
G16  24287948.025   127634024.291  
G23  20342963.385   106902995.874  
G14  20342963.315   106902994.872  
G29  20342963.943   106902995.876  
> 2019 09 08 05 03 12.0000000  0  9                     
G26  22056524.405   115907819.037  
G31  20970980.999   110203250.426  
G32  20343195.382   106904213.311  
G20  20343195.555   106904212.308  
G21  21921639.508   115198992.058  
G16  24287322.242   127630734.756  
G23  20343195.097   106904213.309  
G14  20343195.051   106904212.310  
G29  20343195.642   106904213.314  
> 2019 09 08 05 03 13.0000000  0  9                     
G26  22056021.068   115905172.057  
G31  20971123.939   110204001.348  
G32  20343427.121   106905431.147  
G20  20343427.379   106905430.149  
G21  21921144.984   115196393.055  
G16  24286696.017   127627445.289  
G23  20343426.696   106905431.146  
G14  20343426.997   106905430.151  
G29  20343427.278   106905431.142  
> 2019 09 08 05 03 14.0000000  0  9                     
G26  22055517.331   115902525.236  
G31  20971266.839   110204752.845  
G32  20343659.006   106906649.325  
G20  20343659.292   106906648.326  
G21  21920650.349   115193794.414  
G16  24286070.178   127624155.808  
G23  20343658.723   106906649.322  
G14  20343658.931   106906648.325  
G29  20343659.197   106906649.325  
> 2019 09 08 05 03 15.0000000  0  9                     
G26  22055013.855   115899878.513  
G31  20971409.936   110205504.869  
G32  20343890.980   106907867.780  
G20  20343891.392   106907866.772  
G21  21920156.071   115191196.065  
G16  24285444.430   127620866.245  
G23  20343890.618   106907867.780  
G14  20343890.954   106907866.772  
G29  20343890.885   106907867.774  
> 2019 09 08 05 03 16.0000000  0  9                     
G26  22054510.067   115897232.111  
G31  20971553.095   110206257.622  
G32  20344122.838   106909086.713  
G20  20344123.167   106909085.726  
G21  21919661.668   115188598.206  
G16  24284818.423   127617576.841  
G23  20344122.848   106909086.720  
G14  20344122.713   106909085.715  
G29  20344122.931   106909086.713  
> 2019 09 08 05 03 17.0000000  0  9                     
G26  22054006.516   115894585.904  
G31  20971696.747   110207010.989  
G32  20344354.597   106910306.033  
G20  20344355.432   106910305.034  
G21  21919167.351   115186000.754  
G16  24284192.306   127614287.451  
G23  20344354.996   106910306.040  
G14  20344354.676   106910305.028  
G29  20344354.853   106910306.034  
> 2019 09 08 05 03 18.0000000  0  9                     
G26  22053502.730   115891939.863  
G31  20971840.221   110207764.939  
G32  20344586.923   106911525.682  
G20  20344587.545   106911524.694  
G21  21918673.131   115183403.656  
G16  24283566.594   127610998.052  
G23  20344587.053   106911525.690  
G14  20344586.887   106911524.690  
G29  20344586.913   106911525.691  
> 2019 09 08 05 03 19.0000000  0  9                     
G26  22052999.023   115889294.127  
G31  20971983.536   110208519.598  
G32  20344819.095   106912745.822  
G20  20344819.820   106912744.820  
G21  21918179.068   115180807.046  
G16  24282940.626   127607708.780  
G23  20344819.096   106912745.816  
G14  20344819.094   106912744.821  
G29  20344819.129   106912745.820  
> 2019 09 08 05 03 20.0000000  0  9                     
G26  22052495.578   115886648.421  
G31  20972127.312   110209274.727  
G32  20345051.527   106913966.171  
G20  20345051.505   106913965.175  
G21  21917685.060   115178210.672  
G16  24282314.644   127604419.388  
G23  20345051.060   106913966.169  
G14  20345051.296   106913965.172  
G29  20345051.641   106913966.168  
> 2019 09 08 05 03 21.0000000  0  9                     
G26  22051992.374   115884003.093  
G31  20972271.396   110210030.631  
G32  20345284.021   106915187.059  
G20  20345283.918   106915186.069  
G21  21917191.174   115175614.865  
G16  24281688.652   127601130.177  
G23  20345283.178   106915187.062  
G14  20345283.800   106915186.060  
G29  20345284.132   106915187.064  
> 2019 09 08 05 03 22.0000000  0  9                     
G26  22051488.874   115881357.769  
G31  20972415.164   110210786.975  
G32  20345516.163   106916408.138  
G20  20345516.073   106916407.133  
G21  21916697.199   115173019.249  
G16  24281062.578   127597840.817  
G23  20345515.583   106916408.142  
G14  20345515.661   106916407.143  
G29  20345516.400   106916408.140  
> 2019 09 08 05 03 23.0000000  0  9                     
G26  22050985.543   115878712.884  
G31  20972559.504   110211544.157  
G32  20345748.562   106917629.835  
G20  20345748.491   106917628.831  
G21  21916203.431   115170424.268  
G16  24280436.790   127594551.712  
G23  20345748.059   106917629.824  
G14  20345747.903   106917628.833  
G29  20345748.852   106917629.830  
> 2019 09 08 05 03 24.0000000  0  9                     
G26  22050482.249   115876067.953  
G31  20972703.785   110212301.707  
G32  20345980.940   106918851.640  
G20  20345981.009   106918850.641  
G21  21915709.594   115167829.421  
G16  24279810.720   127591262.386  
G23  20345980.564   106918851.641  
G14  20345980.463   106918850.643  
G29  20345981.146   106918851.646  
> 2019 09 08 05 03 25.0000000  0  9                     
G26  22049979.178   115873423.292  
G31  20972848.022   110213059.963  
G32  20346213.574   106920073.907  
G20  20346213.480   106920072.903  
G21  21915215.991   115165235.045  
G16  24279184.914   127587973.161  
G23  20346213.340   106920073.910  
G14  20346213.078   106920072.904  
G29  20346213.804   106920073.906  
> 2019 09 08 05 03 26.0000000  0  9                     
G26  22049476.086   115870778.990  
G31  20972992.106   110213818.977  
G32  20346446.375   106921296.702  
G20  20346446.374   106921295.703  
G21  21914722.397   115162641.225  
G16  24278558.976   127584684.119  
G23  20346446.337   106921296.705  
G14  20346445.900   106921295.710  
G29  20346446.243   106921296.700  
> 2019 09 08 05 03 27.0000000  0  9                     
G26  22048972.898   115868134.786  
G31  20973136.670   110214578.516  
G32  20346678.897   106922519.769  
G20  20346679.420   106922518.769  
G21  21914228.729   115160047.699  
G16  24277933.162   127581394.992  
G23  20346679.103   106922519.768  
G14  20346678.716   106922518.769  
G29  20346678.823   106922519.763  
> 2019 09 08 05 03 28.0000000  0  9                     
G26  22048470.055   115865490.966  
G31  20973281.430   110215338.843  
G32  20346911.652   106923743.395  
G20  20346912.379   106923742.394  
G21  21913735.511   115157454.732  
G16  24277307.398   127578106.092  
G23  20346912.235   106923743.395  
G14  20346911.657   106923742.394  
G29  20346911.606   106923743.399  
> 2019 09 08 05 03 29.0000000  0  9                     
G26  22047967.277   115862847.662  
G31  20973426.570   110216100.110  
G32  20347144.956   106924967.723  
G20  20347145.288   106924966.719  
G21  21913242.218   115154862.490  
G16  24276681.587   127574817.528  
G23  20347145.096   106924967.715  
G14  20347144.593   106924966.719  
G29  20347144.580   106924967.716  
> 2019 09 08 05 03 30.0000000  0  9                     
G26  22047464.156   115860204.505  
G31  20973571.350   110216861.938  
G32  20347378.015   106926192.354  
G20  20347378.340   106926191.356  
G21  21912748.988   115152270.578  
G16  24276055.799   127571528.931  
G23  20347377.931   106926192.354  
G14  20347377.615   106926191.355  
G29  20347377.763   106926192.357  
> 2019 09 08 05 03 31.0000000  0  9                     
G26  22046960.956   115857561.350  
G31  20973716.454   110217624.194  
G32  20347610.871   106927417.176  
G20  20347611.383   106927416.170  
G21  21912255.810   115149678.859  
G16  24275429.929   127568240.178  
G23  20347610.987   106927417.169  
G14  20347610.658   106927416.175  
G29  20347611.088   106927417.173  
> 2019 09 08 05 03 32.0000000  0  9                     
G26  22046458.024   115854918.377  
G31  20973861.374   110218387.030  
G32  20347843.737   106928642.341  
G20  20347844.547   106928641.338  
G21  21911762.660   115147087.522  
G16  24274803.958   127564951.424  
G23  20347844.061   106928642.342  
G14  20347843.954   106928641.341  
G29  20347844.118   106928642.332  
> 2019 09 08 05 03 33.0000000  0  9                     
G26  22045955.130   115852275.823  
G31  20974007.005   110219150.709  
G32  20348077.071   106929868.095  
G20  20348077.842   106929867.102  
G21  21911269.274   115144496.784  
G16  24274178.217   127561662.909  
G23  20348077.375   106929868.100  
G14  20348077.227   106929867.095  
G29  20348077.338   106929868.098  
> 2019 09 08 05 03 34.0000000  0  9                     
G26  22045452.421   115849633.290  
G31  20974152.598   110219914.828  
G32  20348310.693   106931094.061  
G20  20348311.187   106931093.056  
G21  21910776.389   115141906.267  
G16  24273552.315   127558374.261  
G23  20348310.634   106931094.058  
G14  20348310.394   106931093.058  
G29  20348310.567   106931094.063  
> 2019 09 08 05 03 35.0000000  0  9                     
G26  22044949.495   115846990.966  
G31  20974298.068   110220679.557  
G32  20348544.296   106932320.398  
G20  20348544.423   106932319.400  
G21  21910283.549   115139316.145  
G16  24272926.717   127555085.633  
G23  20348544.232   106932320.402  
G14  20348543.464   106932319.401  
G29  20348543.834   106932320.401  
> 2019 09 08 05 03 36.0000000  0  9                     
G26  22044446.526   115844348.704  
G31  20974443.779   110221444.775  
G32  20348777.721   106933546.977  
G20  20348777.786   106933545.978  
G21  21909790.745   115136726.284  
G16  24272300.885   127551796.905  
G23  20348777.447   106933546.973  
G14  20348776.806   106933545.973  
G29  20348777.570   106933546.974  
> 2019 09 08 05 03 37.0000000  0  9                     
G26  22043943.464   115841706.708  
G31  20974589.448   110222210.677  
G32  20349011.163   106934773.995  
G20  20349011.450   106934772.989  
G21  21909297.946   115134136.886  
G16  24271674.867   127548508.261  
G23  20349010.848   106934773.986  
G14  20349010.540   106934772.987  
G29  20349011.127   106934773.990  
> 2019 09 08 05 03 38.0000000  0  9                     
G26  22043440.795   115839064.829  
G31  20974735.180   110222977.104  
G32  20349244.606   106936001.300  
G20  20349244.834   106936000.298  
G21  21908805.458   115131547.792  
G16  24271049.178   127545219.562  
G23  20349244.651   106936001.296  
G14  20349244.020   106936000.295  
G29  20349244.697   106936001.304  
> 2019 09 08 05 03 39.0000000  0  9                     
G26  22042938.614   115836423.277  
G31  20974881.216   110223744.275  
G32  20349478.203   106937229.102  
G20  20349478.524   106937228.101  
G21  21908313.101   115128959.215  
G16  24270423.242   127541931.009  
G23  20349478.205   106937229.103  
G14  20349477.535   106937228.094  
G29  20349478.592   106937229.104  
> 2019 09 08 05 03 40.0000000  0  9                     
G26  22042435.919   115833781.891  
G31  20975027.293   110224512.034  
G32  20349711.733   106938457.252  
G20  20349712.014   106938456.260  
G21  21907820.390   115126371.007  
G16  24269797.236   127538642.469  
G23  20349711.840   106938457.253  
G14  20349711.136   106938456.260  
G29  20349712.088   106938457.249  
> 2019 09 08 05 03 41.0000000  0  9                     
G26  22041933.127   115831140.465  
G31  20975173.106   110225280.166  
G32  20349945.347   106939685.533  
G20  20349945.770   106939684.530  
G21  21907327.596   115123782.943  
G16  24269171.182   127535353.700  
G23  20349945.449   106939685.534  
G14  20349944.982   106939684.535  
G29  20349945.599   106939685.538  
> 2019 09 08 05 03 42.0000000  0  9                     
G26  22041430.537   115828499.591  
G31  20975319.624   110226049.244  
G32  20350179.443   106940914.528  
G20  20350179.893   106940913.522  
G21  21906835.296   115121195.614  
G16  24268545.418   127532065.316  
G23  20350179.649   106940914.525  
G14  20350179.252   106940913.525  
G29  20350179.391   106940914.522  
> 2019 09 08 05 03 43.0000000  0  9                     
G26  22040927.846   115825858.736  
G31  20975466.235   110226818.771  
G32  20350413.390   106942143.727  
G20  20350413.662   106942142.734  
G21  21906342.952   115118608.514  
G16  24267919.883   127528776.777  
G23  20350413.358   106942143.719  
G14  20350413.195   106942142.728  
G29  20350413.286   106942143.722  
> 2019 09 08 05 03 44.0000000  0  9                     
G26  22040425.203   115823218.287  
G31  20975612.808   110227589.123  
G32  20350647.764   106943373.506  
G20  20350647.845   106943372.502  
G21  21905850.767   115116022.010  
G16  24267294.341   127525488.466  
G23  20350647.208   106943373.497  
G14  20350647.208   106943372.504  
G29  20350647.239   106943373.503  
> 2019 09 08 05 03 45.0000000  0  9                     
G26  22039923.155   115820578.254  
G31  20975759.526   110228360.301  
G32  20350881.726   106944603.868  
G20  20350881.852   106944602.857  
G21  21905358.831   115113436.105  
G16  24266668.415   127522200.397  
G23  20350881.312   106944603.872  
G14  20350881.251   106944602.864  
G29  20350881.491   106944603.865  
> 2019 09 08 05 03 46.0000000  0  9                     
G26  22039420.723   115817938.309  
G31  20975906.357   110229131.982  
G32  20351115.865   106945834.484  
G20  20351116.029   106945833.480  
G21  21904866.646   115110850.472  
G16  24266042.443   127518912.238  
G23  20351115.558   106945834.480  
G14  20351115.397   106945833.479  
G29  20351115.884   106945834.479  
> 2019 09 08 05 03 47.0000000  0  9                     
G26  22038918.547   115815298.652  
G31  20976053.250   110229904.373  
G32  20351350.041   106947065.566  
G20  20351350.214   106947064.567  
G21  21904374.419   115108265.335  
G16  24265417.038   127515624.210  
G23  20351350.202   106947065.569  
G14  20351349.699   106947064.563  
G29  20351350.145   106947065.563  
> 2019 09 08 05 03 48.0000000  0  9                     
G26  22038416.292   115812659.208  
G31  20976200.259   110230677.388  
G32  20351584.227   106948297.039  
G20  20351584.805   106948296.037  
G21  21903882.780   115105680.606  
G16  24264791.368   127512336.219  
G23  20351584.428   106948297.038  
G14  20351584.235   106948296.040  
G29  20351584.306   106948297.042  
> 2019 09 08 05 03 49.0000000  0  9                     
G26  22037914.069   115810019.481  
G31  20976347.539   110231450.522  
G32  20351818.592   106949528.393  
G20  20351819.122   106949527.401  
G21  21903391.020   115103095.777  
G16  24264165.507   127509047.767  
G23  20351818.809   106949528.398  
G14  20351818.480   106949527.392  
G29  20351818.425   106949528.395  
> 2019 09 08 05 03 50.0000000  0  9                     
G26  22037411.612   115807380.227  
G31  20976494.700   110232224.546  
G32  20352053.124   106950760.385  
G20  20352053.740   106950759.393  
G21  21902899.109   115100511.610  
G16  24263539.841   127505759.599  
G23  20352053.307   106950760.389  
G14  20352052.705   106950759.392  
G29  20352052.871   106950760.392  
> 2019 09 08 05 03 51.0000000  0  9                     
G26  22036909.499   115804741.117  
G31  20976642.226   110232999.151  
G32  20352287.743   106951992.723  
G20  20352288.124   106951991.717  
G21  21902407.459   115097927.795  
G16  24262914.137   127502471.412  
G23  20352287.769   106951992.718  
G14  20352287.177   106951991.721  
G29  20352287.484   106951992.721  
> 2019 09 08 05 03 52.0000000  0  9                     
G26  22036407.507   115802102.292  
G31  20976789.778   110233774.430  
G32  20352522.054   106953225.490  
G20  20352522.522   106953224.487  
G21  21901915.886   115095344.442  
G16  24262288.899   127499183.348  
G23  20352522.146   106953225.490  
G14  20352521.863   106953224.494  
G29  20352522.178   106953225.486  
> 2019 09 08 05 03 53.0000000  0  9                     
G26  22035905.243   115799463.740  
G31  20976937.583   110234550.393  
G32  20352756.914   106954458.706  
G20  20352757.273   106954457.705  
G21  21901424.403   115092761.564  
G16  24261662.904   127495895.373  
G23  20352756.765   106954458.715  
G14  20352756.507   106954457.710  
G29  20352756.552   106954458.713  
> 2019 09 08 05 03 54.0000000  0  9                     
G26  22035403.017   115796825.302  
G31  20977085.369   110235326.904  
G32  20352991.878   106955692.222  
G20  20352991.939   106955691.216  
G21  21900933.076   115090178.990  
G16  24261037.231   127492607.346  
G23  20352991.272   106955692.210  
G14  20352991.263   106955691.218  
G29  20352991.369   106955692.221  
> 2019 09 08 05 03 55.0000000  0  9                     
G26  22034900.930   115794187.201  
G31  20977233.216   110236104.159  
G32  20353226.419   106956926.230  
G20  20353226.707   106956925.230  
G21  21900441.480   115087596.950  
G16  24260411.364   127489319.476  
G23  20353226.208   106956926.239  
G14  20353226.067   106956925.229  
G29  20353226.223   106956926.235  
> 2019 09 08 05 03 56.0000000  0  9                     
G26  22034399.156   115791549.400  
G31  20977381.207   110236882.123  
G32  20353461.171   106958160.719  
G20  20353461.383   106958159.710  
G21  21899950.219   115085015.392  
G16  24259785.703   127486031.721  
G23  20353461.115   106958160.714  
G14  20353460.921   106958159.713  
G29  20353461.297   106958160.714  
> 2019 09 08 05 03 57.0000000  0  9                     
G26  22033897.234   115788911.735  
G31  20977529.231   110237660.630  
G32  20353696.008   106959395.502  
G20  20353696.481   106959394.501  
G21  21899458.898   115082434.171  
G16  24259160.171   127482743.946  
G23  20353695.959   106959395.499  
G14  20353695.675   106959394.499  
G29  20353696.185   106959395.505  
> 2019 09 08 05 03 58.0000000  0  9                     
G26  22033395.288   115786274.161  
G31  20977677.445   110238439.657  
G32  20353931.115   106960630.558  
G20  20353931.771   106960629.561  
G21  21898967.900   115079853.225  
G16  24258534.608   127479456.081  
G23  20353931.160   106960630.563  
G14  20353930.838   106960629.569  
G29  20353931.096   106960630.560  
> 2019 09 08 05 03 59.0000000  0  9                     
G26  22032893.436   115783636.869  
G31  20977825.896   110239219.368  
G32  20354166.324   106961866.065  
G20  20354166.834   106961865.065  
G21  21898477.086   115077272.759  
G16  24257908.840   127476168.317  
G23  20354166.119   106961866.068  
G14  20354166.165   106961865.065  
G29  20354166.050   106961866.066  
> 2019 09 08 05 04 00.0000000  0  9                     
G26  22032391.634   115780999.797  
G31  20977974.090   110239999.725  
G32  20354401.527   106963101.974  
G20  20354401.985   106963100.973  
G21  21897986.256   115074692.716  
G16  24257283.339   127472880.620  
G23  20354401.336   106963101.973  
G14  20354401.180   106963100.970  
G29  20354401.351   106963101.976  
> 2019 09 08 05 04 01.0000000  0  9                     
G26  22031889.824   115778362.866  
G31  20978122.844   110240780.630  
G32  20354636.994   106964338.185  
G20  20354637.223   106964337.182  
G21  21897495.488   115072112.996  
G16  24256657.565   127469592.883  
G23  20354636.811   106964338.183  
G14  20354636.421   106964337.188  
G29  20354636.839   106964338.186  
> 2019 09 08 05 04 02.0000000  0  9                     
G26  22031388.005   115775726.281  
G31  20978271.568   110241562.291  
G32  20354872.167   106965574.908  
G20  20354872.542   106965573.911  
G21  21897004.361   115069533.820  
G16  24256031.940   127466305.308  
G23  20354872.067   106965574.905  
G14  20354872.000   106965573.914  
G29  20354872.364   106965574.909  
> 2019 09 08 05 04 03.0000000  0  9                     
G26  22030886.380   115773089.817  
G31  20978420.417   110242344.487  
G32  20355107.685   106966811.918  
G20  20355107.904   106966810.928  
G21  21896513.567   115066954.947  
G16  24255406.187   127463017.680  
G23  20355107.411   106966811.925  
G14  20355107.451   106966810.928  
G29  20355107.671   106966811.934  
> 2019 09 08 05 04 04.0000000  0  9                     
G26  22030384.786   115770453.608  
G31  20978569.448   110243127.340  
G32  20355343.071   106968049.372  
G20  20355343.286   106968048.368  
G21  21896022.794   115064376.525  
G16  24254780.686   127459730.137  
G23  20355342.874   106968049.373  
G14  20355342.873   106968048.364  
G29  20355342.829   106968049.373  
> 2019 09 08 05 04 05.0000000  0  9                     
G26  22029883.157   115767817.641  
G31  20978718.598   110243910.868  
G32  20355578.712   106969287.221  
G20  20355578.749   106969286.230  
G21  21895532.324   115061798.543  
G16  24254155.178   127456442.672  
G23  20355578.622   106969287.237  
G14  20355578.441   106969286.221  
G29  20355578.296   106969287.238  
> 2019 09 08 05 04 06.0000000  0  9                     
G26  22029381.459   115765181.700  
G31  20978867.977   110244694.820  
G32  20355814.343   106970525.278  
G20  20355814.525   106970524.278  
G21  21895041.995   115059220.772  
G16  24253529.273   127453155.043  
G23  20355814.335   106970525.281  
G14  20355814.026   106970524.279  
G29  20355814.225   106970525.284  
> 2019 09 08 05 04 07.0000000  0  9                     
G26  22028879.921   115762546.173  
G31  20979017.344   110245479.605  
G32  20356049.883   106971763.909  
G20  20356050.078   106971762.910  
G21  21894551.355   115056643.615  
G16  24252903.981   127449867.660  
G23  20356049.941   106971763.908  
G14  20356049.403   106971762.916  
G29  20356049.979   106971763.914  
> 2019 09 08 05 04 08.0000000  0  9                     
G26  22028378.444   115759910.575  
G31  20979166.670   110246264.728  
G32  20356285.691   106973002.649  
G20  20356285.872   106973001.640  
G21  21894060.968   115054066.573  
G16  24252278.565   127446580.032  
G23  20356285.616   106973002.642  
G14  20356284.997   106973001.647  
G29  20356285.560   106973002.647  
> 2019 09 08 05 04 09.0000000  0  9                     
G26  22027876.897   115757275.374  
G31  20979316.295   110247050.667  
G32  20356521.312   106974241.957  
G20  20356521.893   106974240.955  
G21  21893570.850   115051490.133  
G16  24251653.071   127443292.625  
G23  20356521.541   106974241.956  
G14  20356521.038   106974240.956  
G29  20356521.114   106974241.956  
> 2019 09 08 05 04 10.0000000  0  9                     
G26  22027375.633   115754640.485  
G31  20979465.904   110247837.330  
G32  20356757.154   106975481.746  
G20  20356757.752   106975480.735  
G21  21893080.453   115048914.182  
G16  24251027.216   127440005.372  
G23  20356757.397   106975481.742  
G14  20356757.164   106975480.739  
G29  20356757.096   106975481.739  
> 2019 09 08 05 04 11.0000000  0  9                     
G26  22026874.218   115752005.566  
G31  20979615.691   110248624.364  
G32  20356993.377   106976721.658  
G20  20356993.547   106976720.654  
G21  21892590.187   115046338.396  
G16  24250401.802   127436717.888  
G23  20356993.435   106976721.659  
G14  20356993.311   106976720.658  
G29  20356993.069   106976721.652  
> 2019 09 08 05 04 12.0000000  0  9                     
G26  22026372.930   115749371.089  
G31  20979765.497   110249412.268  
G32  20357229.214   106977962.198  
G20  20357229.740   106977961.197  
G21  21892100.245   115043763.252  
G16  24249776.431   127433430.701  
G23  20357229.356   106977962.197  
G14  20357229.251   106977961.196  
G29  20357229.214   106977962.201  
> 2019 09 08 05 04 13.0000000  0  9                     
G26  22025871.620   115746736.813  
G31  20979915.612   110250200.775  
G32  20357465.707   106979203.105  
G20  20357465.744   106979202.099  
G21  21891610.390   115041188.499  
G16  24249150.814   127430143.522  
G23  20357465.472   106979203.100  
G14  20357465.352   106979202.106  
G29  20357465.453   106979203.102  
> 2019 09 08 05 04 14.0000000  0  9                     
G26  22025370.202   115744102.724  
G31  20980065.566   110250989.883  
G32  20357701.965   106980444.369  
G20  20357701.749   106980443.361  
G21  21891120.583   115038614.119  
G16  24248525.230   127426856.356  
G23  20357701.516   106980444.361  
G14  20357701.549   106980443.364  
G29  20357701.770   106980444.358  
> 2019 09 08 05 04 15.0000000  0  9                     
G26  22024869.165   115741468.692  
G31  20980215.755   110251779.463  
G32  20357938.269   106981685.857  
G20  20357938.305   106981684.853  
G21  21890630.757   115036040.010  
G16  24247899.509   127423569.083  
G23  20357937.879   106981685.851  
G14  20357937.905   106981684.859  
G29  20357938.212   106981685.857  
> 2019 09 08 05 04 16.0000000  0  9                     
G26  22024367.967   115738835.085  
G31  20980366.235   110252569.882  
G32  20358174.540   106982927.949  
G20  20358174.618   106982926.936  
G21  21890140.972   115033466.500  
G16  24247274.088   127420282.061  
G23  20358174.448   106982927.938  
G14  20358174.389   106982926.942  
G29  20358174.656   106982927.939  
> 2019 09 08 05 04 17.0000000  0  9                     
G26  22023866.624   115736201.686  
G31  20980516.864   110253360.912  
G32  20358410.876   106984170.394  
G20  20358411.122   106984169.396  
G21  21889651.213   115030893.388  
G16  24246648.795   127416995.063  
G23  20358411.057   106984170.395  
G14  20358410.598   106984169.403  
G29  20358410.994   106984170.401  
> 2019 09 08 05 04 18.0000000  0  9                     
G26  22023365.722   115733568.728  
G31  20980667.605   110254152.799  
G32  20358647.369   106985413.467  
G20  20358647.716   106985412.470  
G21  21889161.612   115028320.921  
G16  24246023.371   127413708.331  
G23  20358647.758   106985413.465  
G14  20358647.231   106985412.464  
G29  20358647.479   106985413.464  
> 2019 09 08 05 04 19.0000000  0  9                     
G26  22022864.753   115730936.154  
G31  20980818.442   110254945.480  
G32  20358884.206   106986657.101  
G20  20358884.324   106986656.098  
G21  21888672.209   115025749.038  
G16  24245397.801   127410421.821  
G23  20358884.263   106986657.095  
G14  20358883.857   106986656.093  
G29  20358884.115   106986657.092  
> 2019 09 08 05 04 20.0000000  0  9                     
G26  22022363.805   115728303.590  
G31  20980969.442   110255738.585  
G32  20359120.685   106987900.892  
G20  20359121.054   106987899.893  
G21  21888182.749   115023177.333  
G16  24244772.562   127407135.141  
G23  20359120.823   106987900.890  
G14  20359120.128   106987899.890  
G29  20359120.778   106987900.891  
> 2019 09 08 05 04 21.0000000  0  9                     
G26  22021863.167   115725671.237  
G31  20981120.571   110256532.317  
G32  20359357.509   106989145.078  
G20  20359357.766   106989144.080  
G21  21887693.598   115020606.050  
G16  24244147.259   127403848.485  
G23  20359357.470   106989145.085  
G14  20359357.245   106989144.079  
G29  20359357.512   106989145.080  
> 2019 09 08 05 04 22.0000000  0  9                     
G26  22021362.137   115723039.015  
G31  20981271.685   110257326.591  
G32  20359594.324   106990389.559  
G20  20359594.660   106990388.559  
G21  21887204.363   115018035.094  
G16  24243521.819   127400561.809  
G23  20359594.129   106990389.556  
G14  20359594.037   106990388.561  
G29  20359594.400   106990389.558  
> 2019 09 08 05 04 23.0000000  0  9                     
G26  22020861.235   115720406.798  
G31  20981422.757   110258121.264  
G32  20359831.162   106991634.211  
G20  20359831.497   106991633.210  
G21  21886715.506   115015464.322  
G16  24242896.432   127397274.951  
G23  20359830.805   106991634.208  
G14  20359830.839   106991633.217  
G29  20359831.338   106991634.207  
> 2019 09 08 05 04 24.0000000  0  9                     
G26  22020360.238   115717774.893  
G31  20981573.923   110258916.677  
G32  20360068.196   106992879.342  
G20  20360068.271   106992878.342  
G21  21886226.568   115012894.056  
G16  24242270.819   127393988.223  
G23  20360067.893   106992879.342  
G14  20360067.619   106992878.341  
G29  20360068.250   106992879.339  
> 2019 09 08 05 04 25.0000000  0  9                     
G26  22019859.687   115715143.075  
G31  20981725.463   110259712.582  
G32  20360304.998   106994124.732  
G20  20360305.401   106994123.727  
G21  21885737.471   115010324.081  
G16  24241645.371   127390701.426  
G23  20360305.029   106994124.726  
G14  20360304.722   106994123.728  
G29  20360304.989   106994124.729  
> 2019 09 08 05 04 26.0000000  0  9                     
G26  22019358.858   115712511.554  
G31  20981877.035   110260509.197  
G32  20360542.054   106995370.585  
G20  20360542.180   106995369.591  
G21  21885248.184   115007754.586  
G16  24241019.985   127387414.747  
G23  20360542.005   106995370.583  
G14  20360541.796   106995369.588  
G29  20360542.116   106995370.594  
> 2019 09 08 05 04 27.0000000  0  9                     
G26  22018857.896   115709880.299  
G31  20982028.822   110261306.480  
G32  20360779.265   106996616.873  
G20  20360779.409   106996615.865  
G21  21884759.299   115005185.554  
G16  24240394.466   127384128.145  
G23  20360779.218   106996616.868  
G14  20360779.146   106996615.868  
G29  20360779.139   106996616.864  
> 2019 09 08 05 04 28.0000000  0  9                     
G26  22018357.390   115707249.084  
G31  20982180.906   110262104.229  
G32  20361016.216   106997863.366  
G20  20361016.786   106997862.364  
G21  21884270.123   115002616.749  
G16  24239768.890   127380841.419  
G23  20361016.371   106997863.362  
G14  20361016.413   106997862.364  
G29  20361016.485   106997863.358  
> 2019 09 08 05 04 29.0000000  0  9                     
G26  22017856.658   115704618.232  
G31  20982333.101   110262902.756  
G32  20361253.632   106999110.398  
G20  20361254.178   106999109.400  
G21  21883781.500   115000048.507  
G16  24239143.505   127377554.893  
G23  20361253.725   106999110.396  
G14  20361253.686   106999109.390  
G29  20361253.825   106999110.395  
> 2019 09 08 05 04 30.0000000  0  9                     
G26  22017356.291   115701987.609  
G31  20982485.082   110263701.913  
G32  20361491.038   107000357.823  
G20  20361491.445   107000356.825  
G21  21883292.925   114997480.681  
G16  24238518.215   127374268.411  
G23  20361490.918   107000357.820  
G14  20361491.011   107000356.827  
G29  20361491.376   107000357.830  
> 2019 09 08 05 04 31.0000000  0  9                     
G26  22016855.769   115699357.399  
G31  20982637.327   110264501.882  
G32  20361728.743   107001605.818  
G20  20361729.118   107001604.816  
G21  21882804.398   114994913.466  
G16  24237892.901   127370982.163  
G23  20361728.576   107001605.814  
G14  20361728.351   107001604.823  
G29  20361728.656   107001605.821  
> 2019 09 08 05 04 32.0000000  0  9                     
G26  22016355.047   115696727.304  
G31  20982789.529   110265302.399  
G32  20361966.374   107002854.110  
G20  20361966.485   107002853.106  
G21  21882316.058   114992346.561  
G16  24237267.646   127367695.857  
G23  20361966.381   107002854.114  
G14  20361965.743   107002853.105  
G29  20361966.183   107002854.107  
> 2019 09 08 05 04 33.0000000  0  9                     
G26  22015854.480   115694097.342  
G31  20982941.931   110266103.453  
G32  20362204.094   107004102.699  
G20  20362204.192   107004101.695  
G21  21881827.869   114989779.981  
G16  24236642.131   127364409.514  
G23  20362203.987   107004102.698  
G14  20362203.229   107004101.697  
G29  20362203.567   107004102.706  
> 2019 09 08 05 04 34.0000000  0  9                     
G26  22015354.045   115691467.590  
G31  20983094.541   110266905.109  
G32  20362441.658   107005351.655  
G20  20362441.962   107005350.662  
G21  21881339.452   114987213.805  
G16  24236016.603   127361123.207  
G23  20362441.716   107005351.660  
G14  20362441.083   107005350.652  
G29  20362441.400   107005351.651  
> 2019 09 08 05 04 35.0000000  0  9                     
G26  22014853.494   115688837.949  
G31  20983247.188   110267707.310  
G32  20362679.266   107006600.908  
G20  20362679.324   107006599.902  
G21  21880851.138   114984647.931  
G16  24235391.135   127357836.842  
G23  20362679.244   107006600.902  
G14  20362679.009   107006599.909  
G29  20362679.277   107006600.908  
> 2019 09 08 05 04 36.0000000  0  9                     
G26  22014352.948   115686208.569  
G31  20983399.988   110268510.172  
G32  20362916.915   107007850.576  
G20  20362917.061   107007849.575  
G21  21880362.835   114982082.500  
G16  24234765.949   127354550.551  
G23  20362917.170   107007850.576  
G14  20362916.886   107007849.563  
G29  20362917.145   107007850.568  
> 2019 09 08 05 04 37.0000000  0  9                     
G26  22013852.688   115683579.450  
G31  20983552.763   110269313.713  
G32  20363154.705   107009100.669  
G20  20363154.844   107009099.670  
G21  21879874.594   114979517.545  
G16  24234140.497   127351264.346  
G23  20363154.675   107009100.665  
G14  20363154.670   107009099.670  
G29  20363154.938   107009100.664  
> 2019 09 08 05 04 38.0000000  0  9                     
G26  22013352.316   115680950.391  
G31  20983705.479   110270117.714  
G32  20363392.461   107010350.995  
G20  20363393.083   107010349.999  
G21  21879386.564   114976952.820  
G16  24233515.078   127347978.042  
G23  20363392.253   107010350.997  
G14  20363392.498   107010350.000  
G29  20363392.862   107010350.989  
> 2019 09 08 05 04 39.0000000  0  9                     
G26  22012852.222   115678321.700  
G31  20983858.776   110270922.502  
G32  20363630.689   107011601.863  
G20  20363630.954   107011600.856  
G21  21878898.540   114974388.672  
G16  24232889.816   127344691.938  
G23  20363630.516   107011601.850  
G14  20363630.599   107011600.849  
G29  20363630.751   107011601.864  
> 2019 09 08 05 04 40.0000000  0  9                     
G26  22012352.349   115675693.247  
G31  20984011.858   110271727.920  
G32  20363868.934   107012853.110  
G20  20363869.130   107012852.111  
G21  21878410.767   114971824.938  
G16  24232264.028   127341405.865  
G23  20363868.932   107012853.114  
G14  20363868.594   107012852.108  
G29  20363868.792   107012853.111  
> 2019 09 08 05 04 41.0000000  0  9                     
G26  22011852.475   115673065.122  
G31  20984165.385   110272534.087  
G32  20364107.026   107014104.867  
G20  20364107.541   107014103.872  
G21  21877922.977   114969261.737  
G16  24231638.919   127338119.963  
G23  20364107.196   107014104.864  
G14  20364106.641   107014103.863  
G29  20364107.186   107014104.868  
> 2019 09 08 05 04 42.0000000  0  9                     
G26  22011352.396   115670437.102  
G31  20984318.750   110273340.774  
G32  20364345.499   107015356.896  
G20  20364345.865   107015355.894  
G21  21877435.280   114966698.835  
G16  24231013.892   127334833.996  
G23  20364345.376   107015356.901  
G14  20364345.186   107015355.909  
G29  20364345.299   107015356.895  
> 2019 09 08 05 04 43.0000000  0  9                     
G26  22010852.360   115667809.155  
G31  20984472.644   110274147.934  
G32  20364583.940   107016609.171  
G20  20364584.399   107016608.163  
G21  21876947.587   114964136.206  
G16  24230388.718   127331547.918  
G23  20364583.649   107016609.157  
G14  20364583.255   107016608.165  
G29  20364583.598   107016609.168  
> 2019 09 08 05 04 44.0000000  0  9                     
G26  22010352.026   115665181.503  
G31  20984626.359   110274955.802  
G32  20364822.324   107017861.896  
G20  20364822.501   107017860.890  
G21  21876459.913   114961574.045  
G16  24229763.464   127328261.962  
G23  20364822.029   107017861.894  
G14  20364821.516   107017860.894  
G29  20364822.186   107017861.892  
> 2019 09 08 05 04 45.0000000  0  9                     
G26  22009851.984   115662554.120  
G31  20984780.149   110275764.353  
G32  20365060.699   107019115.067  
G20  20365060.855   107019114.063  
G21  21875972.647   114959012.361  
G16  24229138.145   127324976.111  
G23  20365060.654   107019115.057  
G14  20365060.161   107019114.057  
G29  20365060.642   107019115.060  
> 2019 09 08 05 04 46.0000000  0  9                     
G26  22009352.189   115659926.838  
G31  20984934.074   110276573.411  
G32  20365299.048   107020368.492  
G20  20365299.342   107020367.485  
G21  21875485.355   114956450.969  
G16  24228512.905   127321690.174  
G23  20365298.909   107020368.487  
G14  20365298.864   107020367.495  
G29  20365299.105   107020368.488  
> 2019 09 08 05 04 47.0000000  0  9                     
G26  22008852.235   115657299.821  
G31  20985088.092   110277383.145  
G32  20365537.589   107021622.352  
G20  20365537.857   107021621.348  
G21  21874998.224   114953890.035  
G16  24227887.695   127318404.333  
G23  20365537.289   107021622.351  
G14  20365537.682   107021621.346  
G29  20365537.784   107021622.350  
> 2019 09 08 05 04 48.0000000  0  9                     
G26  22008352.384   115654673.072  
G31  20985242.356   110278193.560  
G32  20365776.305   107022876.653  
G20  20365776.747   107022875.644  
G21  21874510.902   114951329.562  
G16  24227262.545   127315118.586  
G23  20365776.002   107022876.643  
G14  20365776.205   107022875.645  
G29  20365776.506   107022876.650  
> 2019 09 08 05 04 49.0000000  0  9                     
G26  22007852.622   115652046.561  
G31  20985396.576   110279004.614  
G32  20366015.065   107024131.345  
G20  20366015.558   107024130.348  
G21  21874023.703   114948769.521  
G16  24226637.211   127311832.898  
G23  20366014.885   107024131.341  
G14  20366014.743   107024130.334  
G29  20366015.040   107024131.339  
> 2019 09 08 05 04 50.0000000  0  9                     
G26  22007352.986   115649420.266  
G31  20985551.231   110279816.293  
G32  20366253.501   107025386.420  
G20  20366254.045   107025385.419  
G21  21873536.744   114946209.872  
G16  24226011.986   127308547.258  
G23  20366253.656   107025386.425  
G14  20366253.530   107025385.423  
G29  20366254.002   107025386.416  
> 2019 09 08 05 04 51.0000000  0  9                     
G26  22006853.253   115646793.903  
G31  20985705.820   110280628.319  
G32  20366492.485   107026641.606  
G20  20366493.007   107026640.601  
G21  21873049.642   114943650.371  
G16  24225386.483   127305261.375  
G23  20366492.622   107026641.604  
G14  20366492.344   107026640.599  
G29  20366492.720   107026641.597  
> 2019 09 08 05 04 52.0000000  0  9                     
G26  22006353.466   115644168.001  
G31  20985860.551   110281441.219  
G32  20366731.434   107027897.406  
G20  20366731.789   107027896.406  
G21  21872562.899   114941091.518  
G16  24224761.182   127301975.781  
G23  20366731.789   107027897.408  
G14  20366731.253   107027896.403  
G29  20366731.894   107027897.411  
> 2019 09 08 05 04 53.0000000  0  9                     
G26  22005854.053   115641542.349  
G31  20986015.390   110282254.765  
G32  20366970.608   107029153.628  
G20  20366971.008   107029152.626  
G21  21872075.955   114938533.111  
G16  24224135.932   127298690.245  
G23  20366970.796   107029153.631  
G14  20366970.193   107029152.626  
G29  20366971.102   107029153.625  
> 2019 09 08 05 04 54.0000000  0  9                     
G26  22005354.295   115638916.686  
G31  20986170.164   110283068.709  
G32  20367209.685   107030409.999  
G20  20367210.138   107030408.999  
G21  21871589.040   114935974.869  
G16  24223510.685   127295404.536  
G23  20367209.675   107030409.992  
G14  20367209.408   107030408.992  
G29  20367210.194   107030409.997  
> 2019 09 08 05 04 55.0000000  0  9                     
G26  22004854.638   115636291.456  
G31  20986325.247   110283883.499  
G32  20367448.937   107031666.962  
G20  20367449.390   107031665.966  
G21  21871102.158   114933417.270  
G16  24222885.584   127292119.084  
G23  20367448.922   107031666.964  
G14  20367448.600   107031665.964  
G29  20367449.007   107031666.968  
> 2019 09 08 05 04 56.0000000  0  9                     
G26  22004355.332   115633666.448  
G31  20986480.295   110284698.922  
G32  20367688.455   107032924.313  
G20  20367688.508   107032923.315  
G21  21870615.491   114930860.071  
G16  24222260.418   127288833.667  
G23  20367688.161   107032924.312  
G14  20367688.245   107032923.315  
G29  20367688.451   107032924.313  
> 2019 09 08 05 04 57.0000000  0  9                     
G26  22003855.624   115631041.454  
G31  20986635.628   110285514.776  
G32  20367927.729   107034181.863  
G20  20367927.550   107034180.862  
G21  21870129.061   114928303.112  
G16  24221635.158   127285548.114  
G23  20367927.581   107034181.858  
G14  20367927.463   107034180.857  
G29  20367927.805   107034181.859  
> 2019 09 08 05 04 58.0000000  0  9                     
G26  22003356.184   115628416.846  
G31  20986791.135   110286331.418  
G32  20368167.130   107035439.943  
G20  20368167.171   107035438.938  
G21  21869642.633   114925746.702  
G16  24221009.725   127282262.763  
G23  20368166.999   107035439.942  
G14  20368166.797   107035438.943  
G29  20368167.228   107035439.944  
> 2019 09 08 05 04 59.0000000  0  9                     
G26  22002856.603   115625792.484  
G31  20986947.066   110287148.700  
G32  20368406.529   107036698.445  
G20  20368406.687   107036697.437  
G21  21869156.263   114923190.739  
G16  24220384.644   127278977.477  
G23  20368406.468   107036698.433  
G14  20368406.308   107036697.430  
G29  20368406.735   107036698.438  
> 2019 09 08 05 05 00.0000000  0  9                     
G26  22002357.351   115623168.353  
G31  20987102.608   110287966.630  
G32  20368646.335   107037957.328  
G20  20368646.384   107037956.335  
G21  21868670.036   114920635.205  
G16  24219759.763   127275692.245  
G23  20368646.113   107037957.332  
G14  20368645.949   107037956.330  
G29  20368646.336   107037957.327  
> 2019 09 08 05 05 01.0000000  0  9                     
G26  22001858.119   115620544.205  
G31  20987258.130   110288784.951  
G32  20368885.696   107039216.369  
G20  20368885.815   107039215.359  
G21  21868183.817   114918079.836  
G16  24219134.302   127272406.836  
G23  20368885.604   107039216.365  
G14  20368885.368   107039215.358  
G29  20368885.791   107039216.360  
> 2019 09 08 05 05 02.0000000  0  9                     
G26  22001359.047   115617920.468  
G31  20987413.749   110289604.099  
G32  20369125.399   107040475.984  
G20  20369125.669   107040474.975  
G21  21867697.653   114915525.073  
G16  24218509.186   127269121.648  
G23  20369125.559   107040475.978  
G14  20369125.170   107040474.979  
G29  20369125.499   107040475.977  
> 2019 09 08 05 05 03.0000000  0  9                     
G26  22000860.063   115615296.988  
G31  20987569.477   110290423.894  
G32  20369365.127   107041736.008  
G20  20369365.350   107041735.004  
G21  21867211.397   114912970.761  
G16  24217884.060   127265836.533  
G23  20369365.367   107041736.008  
G14  20369364.899   107041735.012  
G29  20369365.309   107041736.011  
> 2019 09 08 05 05 04.0000000  0  9                     
G26  22000360.644   115612673.727  
G31  20987725.374   110291244.337  
G32  20369604.853   107042996.433  
G20  20369605.163   107042995.435  
G21  21866725.251   114910416.876  
G16  24217259.098   127262551.485  
G23  20369605.264   107042996.432  
G14  20369604.730   107042995.431  
G29  20369604.808   107042996.436  
> 2019 09 08 05 05 05.0000000  0  9                     
G26  21999861.268   115610050.956  
G31  20987881.993   110292065.659  
G32  20369844.955   107044257.497  
G20  20369845.069   107044256.498  
G21  21866239.167   114907863.653  
G16  24216634.209   127259266.740  
G23  20369845.086   107044257.495  
G14  20369844.700   107044256.497  
G29  20369844.952   107044257.494  
> 2019 09 08 05 05 06.0000000  0  9                     
G26  21999362.161   115607428.346  
G31  20988038.563   110292887.566  
G32  20370085.208   107045518.896  
G20  20370085.332   107045517.894  
G21  21865753.545   114905310.799  
G16  24216009.215   127255981.984  
G23  20370084.966   107045518.889  
G14  20370084.601   107045517.892  
G29  20370085.022   107045518.891  
> 2019 09 08 05 05 07.0000000  0  9                     
G26  21998863.083   115604805.864  
G31  20988194.876   110293710.009  
G32  20370325.101   107046780.593  
G20  20370325.442   107046779.589  
G21  21865268.067   114902758.267  
G16  24215384.189   127252697.191  
G23  20370324.984   107046780.585  
G14  20370324.726   107046779.587  
G29  20370325.108   107046780.589  
> 2019 09 08 05 05 08.0000000  0  9                     
G26  21998364.048   115602183.361  
G31  20988351.566   110294532.827  
G32  20370565.011   107048042.423  
G20  20370565.593   107048041.414  
G21  21864782.322   114900205.904  
G16  24214758.865   127249412.191  
G23  20370565.115   107048042.411  
G14  20370565.262   107048041.415  
G29  20370565.147   107048042.409  
> 2019 09 08 05 05 09.0000000  0  9                     
G26  21997865.085   115599561.078  
G31  20988508.290   110295356.265  
G32  20370805.240   107049304.624  
G20  20370805.719   107049303.621  
G21  21864296.782   114897653.939  
G16  24214133.230   127246127.233  
G23  20370805.271   107049304.623  
G14  20370805.238   107049303.626  
G29  20370805.244   107049304.624  
> 2019 09 08 05 05 10.0000000  0  9                     
G26  21997365.951   115596939.116  
G31  20988665.235   110296180.442  
G32  20371045.344   107050567.316  
G20  20371046.040   107050566.315  
G21  21863811.032   114895102.503  
G16  24213508.292   127242842.419  
G23  20371045.334   107050567.322  
G14  20371045.758   107050566.314  
G29  20371045.281   107050567.316  
> 2019 09 08 05 05 11.0000000  0  9                     
G26  21996867.077   115594317.550  
G31  20988822.309   110297005.432  
G32  20371285.781   107051830.572  
G20  20371286.120   107051829.574  
G21  21863325.637   114892551.661  
G16  24212883.566   127239557.839  
G23  20371285.912   107051830.577  
G14  20371286.230   107051829.575  
G29  20371285.562   107051830.578  
> 2019 09 08 05 05 12.0000000  0  9                     
G26  21996368.219   115591696.047  
G31  20988979.354   110297830.877  
G32  20371526.390   107053094.048  
G20  20371526.378   107053093.043  
G21  21862840.294   114890001.067  
G16  24212258.633   127236273.131  
G23  20371526.188   107053094.053  
G14  20371526.613   107053093.048  
G29  20371525.849   107053094.051  
> 2019 09 08 05 05 13.0000000  0  9                     
G26  21995869.441   115589074.760  
G31  20989136.415   110298656.953  
G32  20371766.865   107054357.915  
G20  20371767.069   107054356.919  
G21  21862354.960   114887450.877  
G16  24211633.592   127232988.482  
G23  20371767.066   107054357.921  
G14  20371766.980   107054356.912  
G29  20371766.897   107054357.914  
> 2019 09 08 05 05 14.0000000  0  9                     
G26  21995370.886   115586453.652  
G31  20989293.657   110299483.631  
G32  20372007.380   107055622.116  
G20  20372007.537   107055621.120  
G21  21861869.756   114884901.073  
G16  24211008.400   127229703.823  
G23  20372008.038   107055622.119  
G14  20372007.230   107055621.115  
G29  20372007.630   107055622.119  
> 2019 09 08 05 05 15.0000000  0  9                     
G26  21994872.126   115583832.799  
G31  20989451.366   110300310.941  
G32  20372248.171   107056886.735  
G20  20372248.551   107056885.738  
G21  21861384.619   114882351.707  
G16  24210383.313   127226419.247  
G23  20372248.654   107056886.730  
G14  20372247.920   107056885.738  
G29  20372248.185   107056886.739  
> 2019 09 08 05 05 16.0000000  0  9                     
G26  21994373.600   115581212.184  
G31  20989608.687   110301138.907  
G32  20372488.907   107058151.748  
G20  20372489.159   107058150.754  
G21  21860899.692   114879802.776  
G16  24209758.406   127223134.730  
G23  20372489.017   107058151.753  
G14  20372488.792   107058150.752  
G29  20372488.929   107058151.754  
> 2019 09 08 05 05 17.0000000  0  9                     
G26  21993875.083   115578591.496  
G31  20989766.485   110301967.201  
G32  20372730.025   107059416.856  
G20  20372729.825   107059415.867  
G21  21860414.968   114877253.965  
G16  24209133.358   127219849.985  
G23  20372729.634   107059416.866  
G14  20372729.533   107059415.856  
G29  20372729.573   107059416.866  
> 2019 09 08 05 05 18.0000000  0  9                     
G26  21993376.270   115575971.264  
G31  20989924.085   110302796.360  
G32  20372970.895   107060682.588  
G20  20372970.902   107060681.587  
G21  21859929.944   114874705.799  
G16  24208508.089   127216565.490  
G23  20372970.216   107060682.585  
G14  20372970.354   107060681.586  
G29  20372970.488   107060682.582  
> 2019 09 08 05 05 19.0000000  0  9                     
G26  21992877.597   115573351.248  
G31  20990081.965   110303626.156  
G32  20373211.713   107061948.706  
G20  20373212.077   107061947.701  
G21  21859444.847   114872158.058  
G16  24207883.209   127213281.061  
G23  20373211.025   107061948.702  
G14  20373210.970   107061947.695  
G29  20373211.622   107061948.707  
> 2019 09 08 05 05 20.0000000  0  9                     
G26  21992379.132   115570731.233  
G31  20990239.996   110304456.348  
G32  20373452.775   107063214.961  
G20  20373452.852   107063213.970  
G21  21858959.932   114869610.498  
G16  24207258.184   127209996.451  
G23  20373452.057   107063214.965  
G14  20373452.147   107063213.965  
G29  20373452.636   107063214.966  
> 2019 09 08 05 05 21.0000000  0  9                     
G26  21991880.712   115568111.654  
G31  20990397.932   110305287.389  
G32  20373693.598   107064481.845  
G20  20373694.011   107064480.834  
G21  21858475.175   114867063.575  
G16  24206633.288   127206712.108  
G23  20373693.393   107064481.841  
G14  20373693.347   107064480.837  
G29  20373693.256   107064481.838  
> 2019 09 08 05 05 22.0000000  0  9                     
G26  21991382.067   115565492.297  
G31  20990556.340   110306119.060  
G32  20373934.766   107065749.096  
G20  20373934.887   107065748.095  
G21  21857990.576   114864517.062  
G16  24206008.405   127203427.808  
G23  20373934.762   107065749.092  
G14  20373934.525   107065748.096  
G29  20373934.451   107065749.095  
> 2019 09 08 05 05 23.0000000  0  9                     
G26  21990883.414   115562872.938  
G31  20990714.894   110306951.115  
G32  20374175.849   107067016.499  
G20  20374175.944   107067015.492  
G21  21857505.964   114861970.731  
G16  24205383.128   127200143.323  
G23  20374175.995   107067016.497  
G14  20374175.438   107067015.493  
G29  20374175.812   107067016.499  
> 2019 09 08 05 05 24.0000000  0  9                     
G26  21990384.992   115560254.005  
G31  20990873.572   110307784.014  
G32  20374417.361   107068284.495  
G20  20374417.258   107068283.492  
G21  21857021.729   114859425.028  
G16  24204758.115   127196859.078  
G23  20374417.257   107068284.491  
G14  20374416.778   107068283.489  
G29  20374416.998   107068284.481  
> 2019 09 08 05 05 25.0000000  0  9                     
G26  21989886.507   115557635.322  
G31  20991031.988   110308617.564  
G32  20374658.489   107069552.892  
G20  20374658.657   107069551.897  
G21  21856537.734   114856879.772  
G16  24204133.364   127193574.922  
G23  20374658.699   107069552.894  
G14  20374658.369   107069551.890  
G29  20374658.510   107069552.897  
> 2019 09 08 05 05 26.0000000  0  9                     
G26  21989388.227   115555016.750  
G31  20991190.770   110309451.638  
G32  20374899.789   107070821.586  
G20  20374900.004   107070820.587  
G21  21856053.547   114854334.825  
G16  24203508.647   127190290.713  
G23  20374900.070   107070821.589  
G14  20374899.888   107070820.582  
G29  20374899.953   107070821.587  
> 2019 09 08 05 05 27.0000000  0  9                     
G26  21988890.132   115552398.302  
G31  20991349.326   110310286.247  
G32  20375141.214   107072090.559  
G20  20375141.550   107072089.556  
G21  21855569.216   114851790.190  
G16  24202883.561   127187006.446  
G23  20375141.412   107072090.558  
G14  20375141.238   107072089.558  
G29  20375141.441   107072090.554  
> 2019 09 08 05 05 28.0000000  0  9                     
G26  21988391.956   115549780.279  
G31  20991508.180   110311121.671  
G32  20375382.961   107073360.098  
G20  20375383.263   107073359.098  
G21  21855085.163   114849246.162  
G16  24202258.309   127183722.420  
G23  20375383.052   107073360.092  
G14  20375382.746   107073359.100  
G29  20375382.917   107073360.100  
> 2019 09 08 05 05 29.0000000  0  9                     
G26  21987893.857   115547162.448  
G31  20991667.238   110311957.712  
G32  20375624.692   107074630.009  
G20  20375624.756   107074629.005  
G21  21854601.354   114846702.541  
G16  24201633.568   127180438.410  
G23  20375624.741   107074630.009  
G14  20375624.285   107074629.005  
G29  20375624.680   107074630.008  
> 2019 09 08 05 05 30.0000000  0  9                     
G26  21987395.819   115544544.844  
G31  20991826.439   110312794.378  
G32  20375866.419   107075900.306  
G20  20375866.689   107075899.309  
G21  21854117.424   114844159.331  
G16  24201008.538   127177154.451  
G23  20375866.535   107075900.309  
G14  20375866.166   107075899.304  
G29  20375866.007   107075900.305  
> 2019 09 08 05 05 31.0000000  0  9                     
G26  21986897.635   115541927.647  
G31  20991985.994   110313631.849  
G32  20376107.947   107077171.162  
G20  20376108.702   107077170.166  
G21  21853633.338   114841616.713  
G16  24200383.670   127173870.740  
G23  20376108.112   107077171.164  
G14  20376107.808   107077170.167  
G29  20376107.960   107077171.168  
> 2019 09 08 05 05 32.0000000  0  9                     
G26  21986399.648   115539310.538  
G31  20992145.470   110314469.814  
G32  20376349.958   107078442.273  
G20  20376350.587   107078441.266  
G21  21853149.348   114839074.385  
G16  24199758.566   127170586.925  
G23  20376350.116   107078442.280  
G14  20376349.902   107078441.273  
G29  20376350.025   107078442.274  
> 2019 09 08 05 05 33.0000000  0  9                     
G26  21985901.650   115536693.603  
G31  20992305.192   110315308.361  
G32  20376591.909   107079713.723  
G20  20376592.450   107079712.713  
G21  21852665.308   114836532.422  
G16  24199133.628   127167303.118  
G23  20376592.015   107079713.718  
G14  20376591.764   107079712.721  
G29  20376591.912   107079713.721  
> 2019 09 08 05 05 34.0000000  0  9                     
G26  21985403.542   115534076.929  
G31  20992464.905   110316147.586  
G32  20376834.070   107080985.583  
G20  20376834.340   107080984.589  
G21  21852181.819   114833990.907  
G16  24198508.675   127164019.390  
G23  20376833.960   107080985.578  
G14  20376833.938   107080984.585  
G29  20376834.124   107080985.580  
> 2019 09 08 05 05 35.0000000  0  9                     
G26  21984905.846   115531460.430  
G31  20992624.705   110316987.389  
G32  20377076.161   107082257.787  
G20  20377076.293   107082256.787  
G21  21851698.231   114831449.774  
G16  24197883.856   127160735.659  
G23  20377075.982   107082257.786  
G14  20377075.985   107082256.793  
G29  20377076.407   107082257.790  
> 2019 09 08 05 05 36.0000000  0  9                     
G26  21984408.062   115528844.141  
G31  20992784.526   110317827.792  
G32  20377318.353   107083530.367  
G20  20377318.339   107083529.367  
G21  21851214.868   114828909.038  
G16  24197259.084   127157451.970  
G23  20377318.226   107083530.364  
G14  20377318.291   107083529.371  
G29  20377318.557   107083530.355  
> 2019 09 08 05 05 37.0000000  0  9                     
G26  21983910.272   115526227.862  
G31  20992944.590   110318668.612  
G32  20377560.596   107084803.100  
G20  20377560.607   107084802.104  
G21  21850731.171   114826368.505  
G16  24196634.387   127154168.118  
G23  20377560.618   107084803.103  
G14  20377560.391   107084802.100  
G29  20377560.760   107084803.100  
> 2019 09 08 05 05 38.0000000  0  9                     
G26  21983412.357   115523611.971  
G31  20993104.673   110319510.225  
G32  20377802.871   107086076.390  
G20  20377803.034   107086075.388  
G21  21850247.853   114823828.551  
G16  24196009.622   127150884.471  
G23  20377803.117   107086076.388  
G14  20377802.679   107086075.391  
G29  20377803.308   107086076.395  
> 2019 09 08 05 05 39.0000000  0  9                     
G26  21982914.730   115520996.333  
G31  20993264.688   110320352.509  
G32  20378045.141   107087350.101  
G20  20378045.530   107087349.094  
G21  21849764.642   114821289.046  
G16  24195384.599   127147600.899  
G23  20378045.481   107087350.092  
G14  20378045.262   107087349.095  
G29  20378045.628   107087350.091  
> 2019 09 08 05 05 40.0000000  0  9                     
G26  21982416.733   115518380.921  
G31  20993425.032   110321195.417  
G32  20378287.689   107088624.183  
G20  20378288.164   107088623.191  
G21  21849281.546   114818749.964  
G16  24194759.650   127144317.391  
G23  20378287.762   107088624.192  
G14  20378287.463   107088623.185  
G29  20378287.844   107088624.195  
> 2019 09 08 05 05 41.0000000  0  9                     
G26  21981919.089   115515765.479  
G31  20993585.758   110322038.702  
G32  20378530.286   107089898.396  
G20  20378530.452   107089897.401  
G21  21848798.448   114816211.043  
G16  24194134.718   127141033.662  
G23  20378530.419   107089898.400  
G14  20378529.981   107089897.399  
G29  20378529.987   107089898.401  
> 2019 09 08 05 05 42.0000000  0  9                     
G26  21981421.570   115513150.490  
G31  20993746.620   110322882.838  
G32  20378772.992   107091173.229  
G20  20378773.010   107091172.242  
G21  21848315.568   114813672.763  
G16  24193509.757   127137750.218  
G23  20378773.031   107091173.236  
G14  20378772.635   107091172.235  
G29  20378772.783   107091173.236  
> 2019 09 08 05 05 43.0000000  0  9                     
G26  21980924.121   115510535.727  
G31  20993907.433   110323727.611  
G32  20379015.813   107092448.457  
G20  20379015.663   107092447.458  
G21  21847832.868   114811134.917  
G16  24192884.913   127134466.838  
G23  20379015.601   107092448.465  
G14  20379015.223   107092447.461  
G29  20379015.436   107092448.466  
> 2019 09 08 05 05 44.0000000  0  9                     
G26  21980426.412   115507921.163  
G31  20994068.361   110324572.978  
G32  20379258.172   107093724.023  
G20  20379258.252   107093723.026  
G21  21847350.018   114808597.439  
G16  24192260.221   127131183.451  
G23  20379258.303   107093724.022  
G14  20379258.005   107093723.022  
G29  20379258.051   107093724.027  
> 2019 09 08 05 05 45.0000000  0  9                     
G26  21979928.862   115505306.584  
G31  20994229.473   110325418.740  
G32  20379500.986   107094999.732  
G20  20379500.866   107094998.742  
G21  21846867.149   114806060.170  
G16  24191635.651   127127899.891  
G23  20379500.911   107094999.744  
G14  20379500.675   107094998.747  
G29  20379500.834   107094999.744  
> 2019 09 08 05 05 46.0000000  0  9                     
G26  21979431.432   115502692.368  
G31  20994390.206   110326265.271  
G32  20379743.704   107096275.985  
G20  20379743.707   107096274.991  
G21  21846384.374   114803523.436  
G16  24191010.607   127124616.513  
G23  20379743.973   107096275.986  
G14  20379743.379   107096274.985  
G29  20379743.703   107096275.987  
> 2019 09 08 05 05 47.0000000  0  9                     
G26  21978934.050   115500078.490  
G31  20994551.321   110327112.533  
G32  20379986.745   107097552.719  
G20  20379986.684   107097551.719  
G21  21845901.692   114800987.231  
G16  24190386.087   127121333.308  
G23  20379986.778   107097552.718  
G14  20379986.492   107097551.716  
G29  20379986.873   107097552.714  
> 2019 09 08 05 05 48.0000000  0  9                     
G26  21978436.520   115497464.842  
G31  20994712.932   110327960.447  
G32  20380229.772   107098829.851  
G20  20380229.945   107098828.852  
G21  21845419.175   114798451.469  
G16  24189761.690   127118050.152  
G23  20380229.753   107098829.855  
G14  20380229.679   107098828.847  
G29  20380229.930   107098829.847  
> 2019 09 08 05 05 49.0000000  0  9                     
G26  21977939.414   115494851.583  
G31  20994874.389   110328809.135  
G32  20380473.200   107100107.517  
G20  20380473.130   107100106.521  
G21  21844936.696   114795916.272  
G16  24189136.917   127114767.195  
G23  20380472.884   107100107.526  
G14  20380472.698   107100106.517  
G29  20380473.096   107100107.523  
> 2019 09 08 05 05 50.0000000  0  9                     
G26  21977442.232   115492238.452  
G31  20995035.972   110329658.375  
G32  20380716.434   107101385.494  
G20  20380716.628   107101384.495  
G21  21844454.211   114793381.421  
G16  24188511.991   127111484.221  
G23  20380716.082   107101385.487  
G14  20380715.780   107101384.493  
G29  20380716.046   107101385.491  
> 2019 09 08 05 05 51.0000000  0  9                     
G26  21976944.950   115489625.446  
G31  20995197.738   110330508.132  
G32  20380959.604   107102663.734  
G20  20380959.965   107102662.736  
G21  21843971.844   114790846.867  
G16  24187887.098   127108201.175  
G23  20380959.337   107102663.732  
G14  20380959.170   107102662.737  
G29  20380959.494   107102663.736  
> 2019 09 08 05 05 52.0000000  0  9                     
G26  21976447.301   115487012.664  
G31  20995359.393   110331358.526  
G32  20381202.719   107103942.361  
G20  20381203.327   107103941.368  
G21  21843489.569   114788312.729  
G16  24187262.095   127104918.182  
G23  20381202.589   107103942.367  
G14  20381202.357   107103941.360  
G29  20381202.701   107103942.366  
> 2019 09 08 05 05 53.0000000  0  9                     
G26  21975950.307   115484399.871  
G31  20995521.219   110332209.293  
G32  20381446.217   107105221.136  
G20  20381446.293   107105220.130  
G21  21843007.430   114785778.767  
G16  24186637.102   127101634.981  
G23  20381445.906   107105221.128  
G14  20381445.544   107105220.125  
G29  20381446.096   107105221.131  
> 2019 09 08 05 05 54.0000000  0  9                     
G26  21975452.964   115481787.395  
G31  20995683.246   110333060.803  
G32  20381689.486   107106500.390  
G20  20381689.752   107106499.386  
G21  21842525.362   114783245.346  
G16  24186012.450   127098351.955  
G23  20381689.290   107106500.392  
G14  20381689.042   107106499.390  
G29  20381689.195   107106500.387  
> 2019 09 08 05 05 55.0000000  0  9                     
G26  21974956.142   115479175.267  
G31  20995845.363   110333913.047  
G32  20381932.968   107107780.145  
G20  20381933.317   107107779.133  
G21  21842043.265   114780712.438  
G16  24185387.779   127095069.081  
G23  20381933.029   107107780.129  
G14  20381932.741   107107779.133  
G29  20381932.745   107107780.134  
> 2019 09 08 05 05 56.0000000  0  9                     
G26  21974459.099   115476563.362  
G31  20996007.918   110334765.920  
G32  20382176.531   107109060.279  
G20  20382177.044   107109059.282  
G21  21841561.108   114778179.971  
G16  24184763.427   127091786.270  
G23  20382176.614   107109060.275  
G14  20382176.163   107109059.283  
G29  20382176.310   107109060.278  
> 2019 09 08 05 05 57.0000000  0  9                     
G26  21973962.224   115473951.581  
G31  20996170.324   110335619.310  
G32  20382420.330   107110340.689  
G20  20382420.763   107110339.691  
G21  21841079.266   114775647.792  
G16  24184138.706   127088503.391  
G23  20382420.129   107110340.691  
G14  20382419.944   107110339.690  
G29  20382420.266   107110340.687  
> 2019 09 08 05 05 58.0000000  0  9                     
G26  21973465.376   115471340.068  
G31  20996332.742   110336473.412  
G32  20382663.942   107111621.553  
G20  20382664.205   107111620.554  
G21  21840597.738   114773116.114  
G16  24183513.911   127085220.618  
G23  20382663.913   107111621.550  
G14  20382663.426   107111620.547  
G29  20382663.936   107111621.552  
> 2019 09 08 05 05 59.0000000  0  9                     
G26  21972968.879   115468728.858  
G31  20996495.375   110337328.187  
G32  20382907.838   107112902.855  
G20  20382908.242   107112901.856  
G21  21840116.392   114770584.903  
G16  24182889.118   127081937.964  
G23  20382907.833   107112902.859  
G14  20382907.342   107112901.854  
G29  20382907.868   107112902.854  
> 2019 09 08 05 06 00.0000000  0  9                     
G26  21972472.074   115466117.879  
G31  20996657.981   110338183.598  
G32  20383151.568   107114184.542  
G20  20383152.258   107114183.539  
G21  21839635.143   114768054.123  
G16  24182264.573   127078655.364  
G23  20383151.546   107114184.538  
G14  20383151.501   107114183.546  
G29  20383151.798   107114184.545  
> 2019 09 08 05 06 01.0000000  0  9                     
G26  21971975.288   115463506.954  
G31  20996820.967   110339039.465  
G32  20383395.374   107115466.455  
G20  20383396.234   107115465.447  
G21  21839153.598   114765523.587  
G16  24181639.887   127075372.644  
G23  20383395.706   107115466.446  
G14  20383395.647   107115465.452  
G29  20383395.846   107115466.443  
> 2019 09 08 05 06 02.0000000  0  9                     
G26  21971478.394   115460896.333  
G31  20996983.860   110339896.055  
G32  20383639.449   107116748.823  
G20  20383639.971   107116747.822  
G21  21838672.089   114762993.566  
G16  24181015.258   127072090.057  
G23  20383639.595   107116748.820  
G14  20383639.712   107116747.821  
G29  20383639.777   107116748.821  
> 2019 09 08 05 06 03.0000000  0  9                     
G26  21970981.335   115458285.997  
G31  20997147.155   110340753.316  
G32  20383883.673   107118031.625  
G20  20383884.054   107118030.633  
G21  21838190.514   114760463.992  
G16  24180390.661   127068807.569  
G23  20383883.770   107118031.629  
G14  20383883.829   107118030.625  
G29  20383883.819   107118031.620  
> 2019 09 08 05 06 04.0000000  0  9                     
G26  21970484.577   115455675.822  
G31  20997310.394   110341611.142  
G32  20384127.990   107119314.735  
G20  20384128.262   107119313.753  
G21  21837709.104   114757934.792  
G16  24179765.989   127065525.075  
G23  20384128.100   107119314.746  
G14  20384127.872   107119313.747  
G29  20384128.057   107119314.756  
> 2019 09 08 05 06 05.0000000  0  9                     
G26  21969988.028   115453065.904  
G31  20997473.544   110342469.645  
G32  20384372.523   107120598.303  
G20  20384372.471   107120597.308  
G21  21837227.997   114755406.060  
G16  24179141.301   127062242.666  
G23  20384372.172   107120598.300  
G14  20384371.906   107120597.303  
G29  20384372.046   107120598.301  
> 2019 09 08 05 06 06.0000000  0  9                     
G26  21969491.378   115450456.025  
G31  20997636.811   110343328.577  
G32  20384616.467   107121882.037  
G20  20384616.922   107121881.035  
G21  21836746.817   114752877.536  
G16  24178516.577   127058960.109  
G23  20384616.351   107121882.039  
G14  20384616.268   107121881.032  
G29  20384616.235   107121882.041  
> 2019 09 08 05 06 07.0000000  0  9                     
G26  21968994.680   115447846.526  
G31  20997800.671   110344188.286  
G32  20384860.783   107123166.315  
G20  20384861.081   107123165.309  
G21  21836265.639   114750349.589  
G16  24177892.039   127055677.754  
G23  20384860.520   107123166.308  
G14  20384860.789   107123165.320  
G29  20384860.623   107123166.305  
> 2019 09 08 05 06 08.0000000  0  9                     
G26  21968497.860   115445237.276  
G31  20997964.608   110345048.650  
G32  20385105.379   107124450.985  
G20  20385105.391   107124449.990  
G21  21835784.749   114747822.093  
G16  24177267.816   127052395.472  
G23  20385105.019   107124450.993  
G14  20385105.255   107124449.983  
G29  20385104.977   107124450.984  
> 2019 09 08 05 06 09.0000000  0  9                     
G26  21968001.181   115442628.245  
G31  20998128.406   110345909.630  
G32  20385349.943   107125736.042  
G20  20385350.414   107125735.047  
G21  21835303.826   114745295.004  
G16  24176643.285   127049113.239  
G23  20385350.002   107125736.042  
G14  20385349.690   107125735.038  
G29  20385349.612   107125736.041  
> 2019 09 08 05 06 10.0000000  0  9                     
G26  21967505.062   115440019.408  
G31  20998292.315   110346771.219  
G32  20385594.201   107127021.447  
G20  20385595.077   107127020.450  
G21  21834822.780   114742768.305  
G16  24176018.747   127045831.025  
G23  20385594.396   107127021.459  
G14  20385594.224   107127020.452  
G29  20385594.100   107127021.458  
> 2019 09 08 05 06 11.0000000  0  9                     
G26  21967008.879   115437410.678  
G31  20998456.421   110347633.305  
G32  20385838.622   107128307.113  
G20  20385839.469   107128306.121  
G21  21834341.973   114740241.902  
G16  24175394.014   127042548.741  
G23  20385839.075   107128307.111  
G14  20385839.025   107128306.111  
G29  20385839.065   107128307.111  
> 2019 09 08 05 06 12.0000000  0  9                     
G26  21966512.554   115434802.251  
G31  20998620.715   110348496.094  
G32  20386083.669   107129593.237  
G20  20386083.841   107129592.247  
G21  21833861.327   114737716.001  
G16  24174769.310   127039266.578  
G23  20386083.769   107129593.243  
G14  20386083.736   107129592.238  
G29  20386084.106   107129593.245  
> 2019 09 08 05 06 13.0000000  0  9                     
G26  21966016.436   115432194.089  
G31  20998784.915   110349359.553  
G32  20386328.674   107130879.791  
G20  20386328.560   107130878.795  
G21  21833380.905   114735190.554  
G16  24174144.760   127035984.507  
G23  20386328.427   107130879.791  
G14  20386328.259   107130878.794  
G29  20386329.042   107130879.787  
> 2019 09 08 05 06 14.0000000  0  9                     
G26  21965520.332   115429586.114  
G31  20998949.437   110350223.616  
G32  20386573.680   107132166.691  
G20  20386573.626   107132165.688  
G21  21832900.597   114732665.499  
G16  24173520.142   127032702.450  
G23  20386573.510   107132166.689  
G14  20386573.237   107132165.685  
G29  20386573.658   107132166.688  
> 2019 09 08 05 06 15.0000000  0  9                     
G26  21965023.923   115426978.399  
G31  20999113.931   110351088.315  
G32  20386818.730   107133453.996  
G20  20386818.702   107133452.988  
G21  21832419.917   114730140.889  
G16  24172895.552   127029420.475  
G23  20386818.490   107133454.002  
G14  20386817.895   107133452.998  
G29  20386818.676   107133453.993  
> 2019 09 08 05 06 16.0000000  0  9                     
G26  21964527.768   115424370.895  
G31  20999278.556   110351953.645  
G32  20387063.820   107134741.665  
G20  20387063.873   107134740.666  
G21  21831939.503   114727616.683  
G16  24172270.728   127026138.534  
G23  20387063.750   107134741.669  
G14  20387063.166   107134740.669  
G29  20387063.514   107134741.663  
> 2019 09 08 05 06 17.0000000  0  9                     
G26  21964031.462   115421763.632  
G31  20999443.326   110352819.613  
G32  20387308.769   107136029.735  
G20  20387308.891   107136028.740  
G21  21831459.289   114725092.912  
G16  24171646.121   127022856.665  
G23  20387308.913   107136029.741  
G14  20387308.182   107136028.741  
G29  20387308.340   107136029.741  
> 2019 09 08 05 06 18.0000000  0  9                     
G26  21963535.311   115419156.572  
G31  20999608.141   110353686.189  
G32  20387553.882   107137318.178  
G20  20387553.990   107137317.173  
G21  21830979.198   114722569.539  
G16  24171021.768   127019574.824  
G23  20387553.920   107137318.165  
G14  20387553.622   107137317.183  
G29  20387553.584   107137318.175  
> 2019 09 08 05 06 19.0000000  0  9                     
G26  21963039.183   115416549.747  
G31  20999773.117   110354553.398  
G32  20387798.815   107138606.992  
G20  20387799.104   107138605.996  
G21  21830499.033   114720046.604  
G16  24170397.195   127016293.023  
G23  20387798.813   107138606.993  
G14  20387798.948   107138605.990  
G29  20387798.714   107138606.995  
> 2019 09 08 05 06 20.0000000  0  9                     
G26  21962543.250   115413943.118  
G31  20999938.388   110355421.206  
G32  20388044.099   107139896.175  
G20  20388044.585   107139895.178  
G21  21830018.948   114717524.057  
G16  24169772.772   127013011.264  
G23  20388044.004   107139896.183  
G14  20388043.944   107139895.172  
G29  20388043.954   107139896.172  
> 2019 09 08 05 06 21.0000000  0  9                     
G26  21962047.307   115411336.756  
G31  21000103.946   110356289.676  
G32  20388289.571   107141185.757  
G20  20388290.066   107141184.759  
G21  21829539.129   114715001.953  
G16  24169148.348   127009729.575  
G23  20388289.595   107141185.754  
G14  20388289.512   107141184.756  
G29  20388289.531   107141185.748  
> 2019 09 08 05 06 22.0000000  0  9                     
G26  21961550.959   115408730.608  
G31  21000269.195   110357158.768  
G32  20388535.288   107142475.733  
G20  20388535.623   107142474.734  
G21  21829059.067   114712480.280  
G16  24168523.967   127006447.942  
G23  20388535.197   107142475.740  
G14  20388535.015   107142474.736  
G29  20388535.158   107142475.738  
> 2019 09 08 05 06 23.0000000  0  9                     
G26  21961055.065   115406124.713  
G31  21000434.683   110358028.514  
G32  20388781.082   107143766.102  
G20  20388781.231   107143765.099  
G21  21828579.313   114709959.047  
G16  24167899.703   127003166.388  
G23  20388780.944   107143766.101  
G14  20388780.831   107143765.105  
G29  20388780.858   107143766.106  
> 2019 09 08 05 06 24.0000000  0  9                     
G26  21960559.544   115403519.292  
G31  21000600.053   110358899.128  
G32  20389026.507   107145057.100  
G20  20389026.990   107145056.098  
G21  21828099.651   114707438.466  
G16  24167275.445   126999885.114  
G23  20389026.624   107145057.103  
G14  20389026.563   107145056.098  
G29  20389026.708   107145057.101  
> 2019 09 08 05 06 25.0000000  0  9                     
G26  21960063.680   115400914.361  
G31  21000765.798   110359770.626  
G32  20389272.407   107146348.747  
G20  20389272.766   107146347.750  
G21  21827620.225   114704918.592  
G16  24166651.041   126996604.162  
G23  20389272.407   107146348.740  
G14  20389272.307   107146347.747  
G29  20389272.616   107146348.744  
> 2019 09 08 05 06 26.0000000  0  9                     
G26  21959567.951   115398309.767  
G31  21000931.637   110360642.869  
G32  20389518.120   107147640.884  
G20  20389518.515   107147639.876  
G21  21827140.785   114702399.221  
G16  24166026.827   126993323.360  
G23  20389518.400   107147640.879  
G14  20389518.123   107147639.878  
G29  20389518.620   107147640.883  
> 2019 09 08 05 06 27.0000000  0  9                     
G26  21959072.364   115395705.075  
G31  21001097.883   110361515.429  
G32  20389764.330   107148933.078  
G20  20389764.530   107148932.070  
G21  21826661.324   114699879.968  
G16  24165402.800   126990042.291  
G23  20389764.353   107148933.075  
G14  20389763.801   107148932.070  
G29  20389764.304   107148933.068  
> 2019 09 08 05 06 28.0000000  0  9                     
G26  21958576.919   115393100.786  
G31  21001264.089   110362388.767  
G32  20390010.339   107150225.817  
G20  20390010.503   107150224.809  
G21  21826182.085   114697361.298  
G16  24164778.298   126986761.447  
G23  20390010.274   107150225.819  
G14  20390009.792   107150224.817  
G29  20390010.127   107150225.813  
> 2019 09 08 05 06 29.0000000  0  9                     
G26  21958081.365   115390496.584  
G31  21001430.536   110363262.620  
G32  20390256.166   107151518.824  
G20  20390256.621   107151517.816  
G21  21825703.007   114694842.936  
G16  24164153.804   126983480.524  
G23  20390256.139   107151518.821  
G14  20390255.781   107151517.820  
G29  20390256.202   107151518.822  
> 2019 09 08 05 06 30.0000000  0  9                     
G26  21957585.778   115387892.478  
G31  21001597.051   110364136.957  
G32  20390502.137   107152812.072  
G20  20390502.627   107152811.068  
G21  21825223.808   114692324.849  
G16  24163528.964   126980199.524  
G23  20390502.001   107152812.071  
G14  20390501.644   107152811.070  
G29  20390502.391   107152812.068  
> 2019 09 08 05 06 31.0000000  0  9                     
G26  21957090.382   115385288.313  
G31  21001763.187   110365011.625  
G32  20390748.249   107154105.394  
G20  20390748.649   107154104.404  
G21  21824744.689   114689806.885  
G16  24162904.591   126976918.272  
G23  20390748.191   107154105.399  
G14  20390748.151   107154104.403  
G29  20390748.500   107154105.401  
> 2019 09 08 05 06 32.0000000  0  9                     
G26  21956594.985   115382684.336  
G31  21001929.601   110365886.890  
G32  20390994.346   107155399.070  
G20  20390995.033   107155398.078  
G21  21824265.745   114687289.305  
G16  24162280.234   126973637.036  
G23  20390994.483   107155399.077  
G14  20390994.244   107155398.077  
G29  20390995.066   107155399.074  
> 2019 09 08 05 06 33.0000000  0  9                     
G26  21956099.471   115380080.585  
G31  21002096.440   110366762.783  
G32  20391240.956   107156693.134  
G20  20391241.323   107156692.136  
G21  21823786.711   114684772.150  
G16  24161655.969   126970355.852  
G23  20391240.731   107156693.132  
G14  20391240.465   107156692.136  
G29  20391241.155   107156693.139  
> 2019 09 08 05 06 34.0000000  0  9                     
G26  21955603.883   115377477.045  
G31  21002263.388   110367639.289  
G32  20391487.010   107157987.567  
G20  20391487.310   107157986.570  
G21  21823307.722   114682255.409  
G16  24161031.565   126967074.712  
G23  20391486.967   107157987.569  
G14  20391486.805   107157986.569  
G29  20391487.277   107157987.571  
> 2019 09 08 05 06 35.0000000  0  9                     
G26  21955108.534   115374873.766  
G31  21002430.397   110368516.452  
G32  20391733.597   107159282.407  
G20  20391733.834   107159281.398  
G21  21822828.855   114679739.120  
G16  24160407.249   126963793.634  
G23  20391733.666   107159282.407  
G14  20391733.276   107159281.409  
G29  20391733.489   107159282.401  
> 2019 09 08 05 06 36.0000000  0  9                     
G26  21954613.143   115372270.688  
G31  21002597.754   110369394.207  
G32  20391980.193   107160577.601  
G20  20391980.087   107160576.596  
G21  21822350.206   114677223.218  
G16  24159782.914   126960512.592  
G23  20391980.028   107160577.594  
G14  20391979.674   107160576.596  
G29  20391979.699   107160577.596  
> 2019 09 08 05 06 37.0000000  0  9                     
G26  21954117.938   115369667.854  
G31  21002764.764   110370272.617  
G32  20392226.772   107161873.191  
G20  20392226.674   107161872.185  
G21  21821871.687   114674707.757  
G16  24159158.704   126957231.619  
G23  20392226.486   107161873.189  
G14  20392226.548   107161872.188  
G29  20392226.461   107161873.188  
> 2019 09 08 05 06 38.0000000  0  9                     
G26  21953622.393   115367065.152  
G31  21002931.960   110371151.555  
G32  20392473.232   107163169.061  
G20  20392473.197   107163168.056  
G21  21821393.134   114672192.615  
G16  24158534.376   126953950.606  
G23  20392473.036   107163169.055  
G14  20392473.022   107163168.063  
G29  20392472.816   107163169.066  
> 2019 09 08 05 06 39.0000000  0  9                     
G26  21953126.995   115364462.738  
G31  21003099.216   110372031.185  
G32  20392719.989   107164465.378  
G20  20392720.120   107164464.377  
G21  21820914.386   114669677.965  
G16  24157910.305   126950669.689  
G23  20392719.857   107164465.382  
G14  20392719.534   107164464.378  
G29  20392719.702   107164465.380  
> 2019 09 08 05 06 40.0000000  0  9                     
G26  21952632.052   115361860.650  
G31  21003266.598   110372911.549  
G32  20392966.741   107165762.182  
G20  20392967.028   107165761.187  
G21  21820435.754   114667163.849  
G16  24157285.597   126947388.956  
G23  20392966.574   107165762.180  
G14  20392966.265   107165761.187  
G29  20392966.470   107165762.187  
> 2019 09 08 05 06 41.0000000  0  9                     
G26  21952137.158   115359259.182  
G31  21003434.474   110373792.900  
G32  20393213.594   107167059.744  
G20  20393213.955   107167058.751  
G21  21819957.286   114664650.516  
G16  24156661.485   126944108.627  
G23  20393213.721   107167059.740  
G14  20393213.315   107167058.750  
G29  20393213.485   107167059.749  
> 2019 09 08 05 06 42.0000000  0  9                     
G26  21951641.864   115356657.899  
G31  21003602.231   110374674.863  
G32  20393460.830   107168357.654  
G20  20393461.122   107168356.654  
G21  21819479.071   114662137.582  
G16  24156037.368   126940828.322  
G23  20393460.753   107168357.658  
G14  20393460.042   107168356.656  
G29  20393460.558   107168357.661  
> 2019 09 08 05 06 43.0000000  0  9                     
G26  21951147.035   115354056.647  
G31  21003770.183   110375557.241  
G32  20393707.694   107169655.738  
G20  20393708.104   107169654.743  
G21  21819001.086   114659624.861  
G16  24155413.116   126937547.867  
G23  20393707.600   107169655.744  
G14  20393707.089   107169654.730  
G29  20393707.185   107169655.742  
> 2019 09 08 05 06 44.0000000  0  9                     
G26  21950652.123   115351455.338  
G31  21003938.160   110376439.970  
G32  20393954.422   107170953.939  
G20  20393955.282   107170952.938  
G21  21818523.014   114657112.290  
G16  24154788.608   126934267.190  
G23  20393954.322   107170953.936  
G14  20393954.272   107170952.939  
G29  20393954.171   107170953.938  
> 2019 09 08 05 06 45.0000000  0  9                     
G26  21950157.126   115348854.269  
G31  21004106.139   110377323.333  
G32  20394201.573   107172252.508  
G20  20394202.189   107172251.512  
G21  21818044.975   114654600.136  
G16  24154164.144   126930986.560  
G23  20394201.327   107172252.512  
G14  20394201.380   107172251.511  
G29  20394201.500   107172252.509  
> 2019 09 08 05 06 46.0000000  0  9                     
G26  21949662.184   115346253.454  
G31  21004274.236   110378207.361  
G32  20394448.592   107173551.495  
G20  20394449.342   107173550.498  
G21  21817566.970   114652088.445  
G16  24153539.820   126927706.028  
G23  20394448.476   107173551.497  
G14  20394448.580   107173550.494  
G29  20394448.776   107173551.503  
> 2019 09 08 05 06 47.0000000  0  9                     
G26  21949167.211   115343652.893  
G31  21004442.848   110379092.038  
G32  20394695.737   107174850.901  
G20  20394696.242   107174849.902  
G21  21817089.224   114649577.211  
G16  24152915.777   126924425.553  
G23  20394695.887   107174850.898  
G14  20394695.761   107174849.897  
G29  20394696.052   107174850.901  
> 2019 09 08 05 06 48.0000000  0  9                     
G26  21948672.244   115341052.706  
G31  21004611.417   110379977.470  
G32  20394943.293   107176150.806  
G20  20394943.731   107176149.805  
G21  21816611.375   114647066.520  
G16  24152291.167   126921145.288  
G23  20394943.284   107176150.811  
G14  20394943.259   107176149.807  
G29  20394943.597   107176150.811  
> 2019 09 08 05 06 49.0000000  0  9                     
G26  21948177.517   115338452.822  
G31  21004780.082   110380863.612  
G32  20395190.563   107177451.180  
G20  20395191.486   107177450.179  
G21  21816133.837   114644556.337  
G16  24151667.003   126917865.140  
G23  20395190.884   107177451.174  
G14  20395190.732   107177450.176  
G29  20395191.004   107177451.182  
> 2019 09 08 05 06 50.0000000  0  9                     
G26  21947683.079   115335852.918  
G31  21004948.779   110381750.132  
G32  20395438.008   107178751.684  
G20  20395438.737   107178750.683  
G21  21815656.051   114642046.335  
G16  24151043.102   126914584.793  
G23  20395438.272   107178751.685  
G14  20395437.970   107178750.685  
G29  20395438.339   107178751.685  
> 2019 09 08 05 06 51.0000000  0  9                     
G26  21947188.418   115333253.171  
G31  21005117.547   110382637.213  
G32  20395685.958   107180052.501  
G20  20395686.285   107180051.498  
G21  21815178.313   114639536.675  
G16  24150419.003   126911304.438  
G23  20395685.906   107180052.500  
G14  20395685.512   107180051.501  
G29  20395685.832   107180052.496  
> 2019 09 08 05 06 52.0000000  0  9                     
G26  21946693.772   115330653.660  
G31  21005286.572   110383524.932  
G32  20395933.635   107181353.707  
G20  20395933.859   107181352.708  
G21  21814700.771   114637027.458  
G16  24149794.297   126908024.136  
G23  20395933.656   107181353.697  
G14  20395933.280   107181352.704  
G29  20395933.486   107181353.708  
> 2019 09 08 05 06 53.0000000  0  9                     
G26  21946199.181   115328054.351  
G31  21005455.653   110384413.248  
G32  20396181.394   107182655.268  
G20  20396181.604   107182654.257  
G21  21814223.538   114634518.625  
G16  24149170.390   126904743.860  
G23  20396181.181   107182655.261  
G14  20396180.581   107182654.263  
G29  20396181.122   107182655.262  
> 2019 09 08 05 06 54.0000000  0  9                     
G26  21945704.575   115325455.281  
G31  21005624.760   110385302.197  
G32  20396429.006   107183957.205  
G20  20396429.159   107183956.206  
G21  21813746.103   114632010.228  
G16  24148546.292   126901463.642  
G23  20396429.161   107183957.203  
G14  20396428.616   107183956.205  
G29  20396429.282   107183957.201  
> 2019 09 08 05 06 55.0000000  0  9                     
G26  21945210.031   115322856.488  
G31  21005794.009   110386191.825  
G32  20396676.949   107185259.579  
G20  20396676.764   107185258.585  
G21  21813268.979   114629502.300  
G16  24147922.033   126898183.535  
G23  20396677.219   107185259.578  
G14  20396676.311   107185258.580  
G29  20396676.933   107185259.573  
> 2019 09 08 05 06 56.0000000  0  9                     
G26  21944715.438   115320257.930  
G31  21005963.620   110387082.075  
G32  20396924.907   107186562.335  
G20  20396924.780   107186561.340  
G21  21812791.897   114626994.801  
G16  24147297.774   126894903.482  
G23  20396925.191   107186562.334  
G14  20396924.276   107186561.339  
G29  20396924.914   107186562.340  
> 2019 09 08 05 06 57.0000000  0  9                     
G26  21944220.913   115317659.542  
G31  21006132.834   110387972.909  
G32  20397172.711   107187865.424  
G20  20397172.882   107187864.422  
G21  21812315.072   114624487.677  
G16  24146673.755   126891623.422  
G23  20397172.885   107187865.424  
G14  20397172.306   107187864.421  
G29  20397172.637   107187865.417  
> 2019 09 08 05 06 58.0000000  0  9                     
G26  21943726.193   115315061.363  
G31  21006302.226   110388864.335  
G32  20397420.752   107189168.868  
G20  20397421.205   107189167.859  
G21  21811837.921   114621980.934  
G16  24146049.546   126888343.388  
G23  20397420.575   107189168.860  
G14  20397420.484   107189167.858  
G29  20397420.590   107189168.861  
> 2019 09 08 05 06 59.0000000  0  9                     
G26  21943232.001   115312463.363  
G31  21006472.192   110389756.351  
G32  20397668.806   107190472.636  
G20  20397669.145   107190471.645  
G21  21811361.045   114619474.581  
G16  24145425.158   126885063.363  
G23  20397668.691   107190472.637  
G14  20397668.387   107190471.640  
G29  20397668.731   107190472.632  
> 2019 09 08 05 07 00.0000000  0  9                     
G26  21942737.766   115309865.563  
G31  21006642.106   110390648.958  
G32  20397917.008   107191776.758  
G20  20397917.114   107191775.755  
G21  21810884.171   114616968.615  
G16  24144801.099   126881783.350  
G23  20397917.099   107191776.755  
G14  20397916.564   107191775.758  
G29  20397917.257   107191776.757  
> 2019 09 08 05 07 01.0000000  0  9                     
G26  21942243.556   115307268.045  
G31  21006811.900   110391542.242  
G32  20398165.083   107193081.313  
G20  20398165.227   107193080.316  
G21  21810407.389   114614463.123  
G16  24144176.934   126878503.455  
G23  20398165.302   107193081.311  
G14  20398164.824   107193080.314  
G29  20398165.794   107193081.311  
> 2019 09 08 05 07 02.0000000  0  9                     
G26  21941749.341   115304670.729  
G31  21006982.231   110392436.134  
G32  20398413.482   107194386.224  
G20  20398413.671   107194385.228  
G21  21809930.582   114611958.039  
G16  24143552.609   126875223.580  
G23  20398413.352   107194386.217  
G14  20398413.507   107194385.226  
G29  20398413.656   107194386.227  
> 2019 09 08 05 07 03.0000000  0  9                     
G26  21941255.180   115302073.583  
G31  21007152.326   110393330.578  
G32  20398661.800   107195691.456  
G20  20398662.119   107195690.449  
G21  21809453.860   114609453.312  
G16  24142928.383   126871943.687  
G23  20398662.133   107195691.450  
G14  20398661.796   107195690.451  
G29  20398662.148   107195691.450  
> 2019 09 08 05 07 04.0000000  0  9                     
G26  21940760.914   115299476.617  
G31  21007322.612   110394225.627  
G32  20398910.340   107196997.017  
G20  20398910.645   107196996.016  
G21  21808977.223   114606948.972  
G16  24142304.592   126868663.833  
G23  20398910.431   107196997.018  
G14  20398910.246   107196996.023  
G29  20398910.236   107196997.028  
> 2019 09 08 05 07 05.0000000  0  9                     
G26  21940266.598   115296879.980  
G31  21007493.003   110395121.381  
G32  20399158.942   107198303.058  
G20  20399159.323   107198302.059  
G21  21808500.675   114604445.155  
G16  24141680.546   126865384.098  
G23  20399158.867   107198303.054  
G14  20399158.615   107198302.058  
G29  20399158.992   107198303.058  
> 2019 09 08 05 07 06.0000000  0  9                     
G26  21939772.352   115294283.556  
G31  21007663.680   110396017.760  
G32  20399407.511   107199609.470  
G20  20399407.887   107199608.469  
G21  21808024.316   114601941.734  
G16  24141056.187   126862104.416  
G23  20399407.469   107199609.463  
G14  20399407.272   107199608.463  
G29  20399407.382   107199609.464  
> 2019 09 08 05 07 07.0000000  0  9                     
G26  21939278.390   115291687.338  
G31  21007834.183   110396914.713  
G32  20399655.968   107200916.207  
G20  20399656.585   107200915.212  
G21  21807548.202   114599438.694  
G16  24140432.145   126858824.735  
G23  20399656.127   107200916.209  
G14  20399656.256   107200915.202  
G29  20399656.273   107200916.210  
> 2019 09 08 05 07 08.0000000  0  9                     
G26  21938784.369   115289091.386  
G31  21008005.142   110397812.350  
G32  20399904.820   107202223.388  
G20  20399905.451   107202222.383  
G21  21807072.113   114596936.143  
G16  24139808.231   126855545.168  
G23  20399905.000   107202223.394  
G14  20399904.874   107202222.384  
G29  20399904.801   107202223.388  
> 2019 09 08 05 07 09.0000000  0  9                     
G26  21938290.445   115286495.652  
G31  21008176.045   110398710.605  
G32  20400153.699   107203530.942  
G20  20400154.247   107203529.937  
G21  21806595.905   114594434.008  
G16  24139184.158   126852265.638  
G23  20400153.924   107203530.932  
G14  20400153.704   107203529.944  
G29  20400153.834   107203530.937  
> 2019 09 08 05 07 10.0000000  0  9                     
G26  21937796.611   115283900.139  
G31  21008347.132   110399609.464  
G32  20400402.598   107204838.841  
G20  20400403.171   107204837.834  
G21  21806119.896   114591932.258  
G16  24138560.019   126848986.147  
G23  20400402.844   107204838.849  
G14  20400402.395   107204837.845  
G29  20400402.631   107204838.842  
> 2019 09 08 05 07 11.0000000  0  9                     
G26  21937302.773   115281304.855  
G31  21008518.263   110400508.948  
G32  20400651.509   107206147.133  
G20  20400652.005   107206146.135  
G21  21805643.823   114589430.952  
G16  24137935.759   126845706.716  
G23  20400651.774   107206147.128  
G14  20400651.553   107206146.131  
G29  20400651.589   107206147.134  
> 2019 09 08 05 07 12.0000000  0  9                     
G26  21936809.057   115278709.801  
G31  21008689.624   110401409.073  
G32  20400900.530   107207455.808  
G20  20400900.732   107207454.807  
G21  21805167.973   114586930.074  
G16  24137312.121   126842427.329  
G23  20400900.713   107207455.809  
G14  20400900.515   107207454.814  
G29  20400900.616   107207455.807  
> 2019 09 08 05 07 13.0000000  0  9                     
G26  21936315.407   115276114.990  
G31  21008861.033   110402309.832  
G32  20401149.497   107208764.868  
G20  20401150.161   107208763.870  
G21  21804692.342   114584429.626  
G16  24136688.140   126839148.011  
G23  20401150.061   107208764.870  
G14  20401149.439   107208763.873  
G29  20401149.804   107208764.872  
> 2019 09 08 05 07 14.0000000  0  9                     
G26  21935821.541   115273520.383  
G31  21009032.754   110403211.180  
G32  20401398.987   107210074.291  
G20  20401399.275   107210073.286  
G21  21804216.604   114581929.575  
G16  24136063.877   126835868.726  
G23  20401399.012   107210074.291  
G14  20401398.940   107210073.291  
G29  20401398.953   107210074.286  
> 2019 09 08 05 07 15.0000000  0  9                     
G26  21935327.843   115270925.941  
G31  21009204.612   110404113.113  
G32  20401648.053   107211384.017  
G20  20401648.454   107211383.010  
G21  21803740.666   114579429.882  
G16  24135439.522   126832589.415  
G23  20401647.971   107211384.019  
G14  20401647.966   107211383.011  
G29  20401648.246   107211384.005  
> 2019 09 08 05 07 16.0000000  0  9                     
G26  21934834.326   115268331.818  
G31  21009375.844   110405015.729  
G32  20401897.201   107212694.206  
G20  20401897.615   107212693.208  
G21  21803264.785   114576930.705  
G16  24134815.825   126829310.265  
G23  20401897.287   107212694.211  
G14  20401897.141   107212693.217  
G29  20401897.479   107212694.208  
> 2019 09 08 05 07 17.0000000  0  9                     
G26  21934340.612   115265737.958  
G31  21009547.927   110405919.034  
G32  20402146.680   107214004.819  
G20  20402147.005   107214003.819  
G21  21802789.574   114574431.987  
G16  24134191.723   126826031.180  
G23  20402146.763   107214004.820  
G14  20402146.398   107214003.820  
G29  20402146.812   107214004.826  
> 2019 09 08 05 07 18.0000000  0  9                     
G26  21933847.148   115263144.363  
G31  21009720.006   110406822.987  
G32  20402396.362   107215315.844  
G20  20402396.517   107215314.846  
G21  21802314.165   114571933.723  
G16  24133567.699   126822752.190  
G23  20402396.401   107215315.850  
G14  20402396.094   107215314.843  
G29  20402396.424   107215315.845  
> 2019 09 08 05 07 19.0000000  0  9                     
G26  21933353.572   115260551.341  
G31  21009892.394   110407727.897  
G32  20402646.142   107216627.585  
G20  20402646.148   107216626.580  
G21  21801838.879   114569436.219  
G16  24132943.798   126819473.595  
G23  20402646.179   107216627.582  
G14  20402645.776   107216626.585  
G29  20402646.031   107216627.580  
> 2019 09 08 05 07 20.0000000  0  9                     
G26  21932860.055   115257958.569  
G31  21010064.379   110408633.485  
G32  20402896.019   107217939.746  
G20  20402895.906   107217938.743  
G21  21801363.635   114566939.185  
G16  24132319.920   126816195.086  
G23  20402895.769   107217939.745  
G14  20402895.599   107217938.744  
G29  20402895.744   107217939.743  
> 2019 09 08 05 07 21.0000000  0  9                     
G26  21932366.645   115255366.007  
G31  21010236.592   110409539.652  
G32  20403145.803   107219252.239  
G20  20403145.655   107219251.240  
G21  21800888.471   114564442.541  
G16  24131696.251   126812916.594  
G23  20403145.330   107219252.237  
G14  20403145.189   107219251.247  
G29  20403145.468   107219252.237  
> 2019 09 08 05 07 22.0000000  0  9                     
G26  21931873.284   115252773.315  
G31  21010409.047   110410446.079  
G32  20403395.226   107220564.749  
G20  20403395.465   107220563.752  
G21  21800413.361   114561945.954  
G16  24131072.313   126809637.790  
G23  20403394.952   107220564.752  
G14  20403394.945   107220563.758  
G29  20403395.152   107220564.742  
> 2019 09 08 05 07 23.0000000  0  9                     
G26  21931379.800   115250180.881  
G31  21010581.925   110411353.178  
G32  20403645.020   107221877.685  
G20  20403645.402   107221876.690  
G21  21799938.551   114559449.828  
G16  24130448.188   126806359.080  
G23  20403645.054   107221877.682  
G14  20403644.926   107221876.689  
G29  20403644.887   107221877.681  
> 2019 09 08 05 07 24.0000000  0  9                     
G26  21930886.496   115247588.918  
G31  21010754.702   110412261.148  
G32  20403894.983   107223191.239  
G20  20403895.303   107223190.243  
G21  21799464.087   114556954.377  
G16  24129824.719   126803080.677  
G23  20403894.890   107223191.244  
G14  20403894.807   107223190.236  
G29  20403895.137   107223191.240  
> 2019 09 08 05 07 25.0000000  0  9                     
G26  21930393.609   115244997.029  
G31  21010927.669   110413169.573  
G32  20404144.989   107224505.002  
G20  20404145.348   107224504.006  
G21  21798989.291   114554459.178  
G16  24129200.944   126799802.149  
G23  20404144.744   107224505.014  
G14  20404144.918   107224504.014  
G29  20404145.320   107224505.006  
> 2019 09 08 05 07 26.0000000  0  9                     
G26  21929900.150   115242405.254  
G31  21011100.689   110414078.507  
G32  20404395.019   107225819.034  
G20  20404395.405   107225818.040  
G21  21798514.576   114551964.289  
G16  24128576.998   126796523.556  
G23  20404394.873   107225819.037  
G14  20404394.904   107225818.039  
G29  20404395.216   107225819.034  
> 2019 09 08 05 07 27.0000000  0  9                     
G26  21929407.169   115239813.722  
G31  21011273.672   110414988.085  
G32  20404645.141   107227133.458  
G20  20404645.579   107227132.454  
G21  21798039.766   114549469.831  
G16  24127952.929   126793245.036  
G23  20404645.109   107227133.463  
G14  20404645.021   107227132.464  
G29  20404645.368   107227133.462  
> 2019 09 08 05 07 28.0000000  0  9                     
G26  21928914.256   115237222.356  
G31  21011446.815   110415898.220  
G32  20404895.170   107228448.195  
G20  20404895.691   107228447.192  
G21  21797565.123   114546975.747  
G16  24127328.682   126789966.497  
G23  20404895.276   107228448.197  
G14  20404894.951   107228447.200  
G29  20404895.376   107228448.185  
> 2019 09 08 05 07 29.0000000  0  9                     
G26  21928421.032   115234631.106  
G31  21011620.110   110416808.869  
G32  20405145.451   107229763.194  
G20  20405146.059   107229762.196  
G21  21797090.434   114544481.976  
G16  24126704.750   126786687.909  
G23  20405145.271   107229763.195  
G14  20405145.133   107229762.196  
G29  20405145.594   107229763.195  
> 2019 09 08 05 07 30.0000000  0  9                     
G26  21927927.790   115232040.063  
G31  21011793.363   110417720.126  
G32  20405395.821   107231078.549  
G20  20405396.267   107231077.552  
G21  21796615.800   114541988.606  
G16  24126080.890   126783409.345  
G23  20405395.566   107231078.545  
G14  20405395.466   107231077.545  
G29  20405395.976   107231078.547  
> 2019 09 08 05 07 31.0000000  0  9                     
G26  21927434.727   115229449.269  
G31  21011966.927   110418632.017  
G32  20405646.297   107232394.293  
G20  20405646.420   107232393.290  
G21  21796141.294   114539495.661  
G16  24125457.117   126780130.853  
G23  20405645.713   107232394.295  
G14  20405645.942   107232393.288  
G29  20405646.178   107232394.299  
> 2019 09 08 05 07 32.0000000  0  9                     
G26  21926941.873   115226858.691  
G31  21012140.352   110419544.518  
G32  20405896.923   107233710.403  
G20  20405896.938   107233709.403  
G21  21795667.020   114537003.142  
G16  24124833.422   126776852.394  
G23  20405896.517   107233710.402  
G14  20405896.424   107233709.401  
G29  20405896.645   107233710.406  
> 2019 09 08 05 07 33.0000000  0  9                     
G26  21926448.899   115224268.313  
G31  21012314.332   110420457.626  
G32  20406147.336   107235026.875  
G20  20406147.264   107235025.871  
G21  21795193.019   114534511.028  
G16  24124209.751   126773573.977  
G23  20406147.452   107235026.878  
G14  20406147.045   107235025.873  
G29  20406147.199   107235026.878  
> 2019 09 08 05 07 34.0000000  0  9                     
G26  21925955.943   115221678.196  
G31  21012488.251   110421371.373  
G32  20406397.767   107236343.747  
G20  20406397.840   107236342.739  
G21  21794718.754   114532019.346  
G16  24123585.729   126770295.622  
G23  20406397.921   107236343.737  
G14  20406397.433   107236342.741  
G29  20406398.022   107236343.747  
> 2019 09 08 05 07 35.0000000  0  9                     
G26  21925463.049   115219088.282  
G31  21012662.332   110422285.724  
G32  20406648.531   107237660.956  
G20  20406648.687   107237659.959  
G21  21794244.635   114529528.072  
G16  24122961.976   126767017.298  
G23  20406648.345   107237660.965  
G14  20406648.231   107237659.957  
G29  20406648.370   107237660.960  
> 2019 09 08 05 07 36.0000000  0  9                     
G26  21924970.495   115216498.502  
G31  21012836.316   110423200.602  
G32  20406899.313   107238978.455  
G20  20406899.605   107238977.455  
G21  21793770.596   114527037.114  
G16  24122338.126   126763738.919  
G23  20406899.166   107238978.456  
G14  20406898.524   107238977.451  
G29  20406899.242   107238978.455  
> 2019 09 08 05 07 37.0000000  0  9                     
G26  21924478.035   115213909.020  
G31  21013010.370   110424116.184  
G32  20407150.086   107240296.409  
G20  20407150.168   107240295.406  
G21  21793296.516   114524546.675  
G16  24121714.218   126760460.682  
G23  20407150.131   107240296.405  
G14  20407149.613   107240295.407  
G29  20407150.131   107240296.406  
> 2019 09 08 05 07 38.0000000  0  9                     
G26  21923985.455   115211319.801  
G31  21013184.837   110425032.409  
G32  20407400.962   107241614.768  
G20  20407400.979   107241613.769  
G21  21792822.752   114522056.674  
G16  24121090.056   126757182.526  
G23  20407400.888   107241614.760  
G14  20407400.574   107241613.761  
G29  20407400.920   107241614.761  
> 2019 09 08 05 07 39.0000000  0  9                     
G26  21923492.820   115208730.778  
G31  21013359.056   110425949.223  
G32  20407652.065   107242933.448  
G20  20407652.042   107242932.449  
G21  21792349.058   114519567.065  
G16  24120466.408   126753904.383  
G23  20407651.852   107242933.452  
G14  20407651.555   107242932.455  
G29  20407651.688   107242933.453  
> 2019 09 08 05 07 40.0000000  0  9                     
G26  21923000.119   115206142.025  
G31  21013533.644   110426866.714  
G32  20407902.941   107244252.573  
G20  20407903.048   107244251.558  
G21  21791875.222   114517077.930  
G16  24119842.368   126750626.328  
G23  20407902.602   107244252.570  
G14  20407902.652   107244251.575  
G29  20407902.662   107244252.571  
> 2019 09 08 05 07 41.0000000  0  9                     
G26  21922507.359   115203553.498  
G31  21013708.442   110427784.810  
G32  20408154.168   107245572.050  
G20  20408154.251   107245571.059  
G21  21791401.731   114514589.203  
G16  24119218.602   126747348.324  
G23  20408153.650   107245572.057  
G14  20408153.606   107245571.052  
G29  20408153.889   107245572.047  
> 2019 09 08 05 07 42.0000000  0  9                     
G26  21922014.633   115200965.140  
G31  21013883.446   110428703.485  
G32  20408405.126   107246891.854  
G20  20408405.625   107246890.857  
G21  21790928.197   114512100.850  
G16  24118594.927   126744070.319  
G23  20408404.676   107246891.846  
G14  20408404.612   107246890.849  
G29  20408404.923   107246891.850  
> 2019 09 08 05 07 43.0000000  0  9                     
G26  21921522.280   115198377.057  
G31  21014058.439   110429622.826  
G32  20408656.438   107248212.079  
G20  20408656.941   107248211.076  
G21  21790454.568   114509612.961  
G16  24117971.245   126740792.411  
G23  20408656.042   107248212.079  
G14  20408655.995   107248211.075  
G29  20408656.054   107248212.077  
> 2019 09 08 05 07 44.0000000  0  9                     
G26  21921029.684   115195789.210  
G31  21014233.496   110430542.789  
G32  20408907.648   107249532.684  
G20  20408908.259   107249531.681  
G21  21789981.237   114507125.501  
G16  24117347.228   126737514.557  
G23  20408907.516   107249532.675  
G14  20408907.117   107249531.681  
G29  20408907.286   107249532.676  
> 2019 09 08 05 07 45.0000000  0  9                     
G26  21920537.490   115193201.548  
G31  21014408.789   110431463.327  
G32  20409158.953   107250853.601  
G20  20409159.651   107250852.608  
G21  21789507.912   114504638.421  
G16  24116723.761   126734236.711  
G23  20409159.130   107250853.608  
G14  20409158.467   107250852.610  
G29  20409158.674   107250853.611  
> 2019 09 08 05 07 46.0000000  0  9                     
G26  21920044.996   115190614.146  
G31  21014584.304   110432384.523  
G32  20409410.153   107252174.947  
G20  20409411.034   107252173.943  
G21  21789034.794   114502151.801  
G16  24116100.219   126730958.932  
G23  20409410.262   107252174.946  
G14  20409409.933   107252173.950  
G29  20409410.194   107252174.948  
> 2019 09 08 05 07 47.0000000  0  9                     
G26  21919552.717   115188027.014  
G31  21014759.536   110433306.379  
G32  20409661.914   107253496.711  
G20  20409662.330   107253495.704  
G21  21788561.748   114499665.645  
G16  24115476.363   126727681.269  
G23  20409661.831   107253496.711  
G14  20409661.567   107253495.700  
G29  20409662.027   107253496.701  
> 2019 09 08 05 07 48.0000000  0  9                     
G26  21919060.143   115185440.085  
G31  21014935.063   110434228.835  
G32  20409913.221   107254818.804  
G20  20409913.733   107254817.810  
G21  21788088.691   114497179.874  
G16  24114852.791   126724403.610  
G23  20409913.365   107254818.815  
G14  20409913.116   107254817.807  
G29  20409913.489   107254818.810  
> 2019 09 08 05 07 49.0000000  0  9                     
G26  21918567.788   115182853.411  
G31  21015110.623   110435151.940  
G32  20410164.999   107256141.309  
G20  20410165.437   107256140.309  
G21  21787616.060   114494694.564  
G16  24114228.856   126721126.046  
G23  20410164.898   107256141.310  
G14  20410164.915   107256140.306  
G29  20410165.250   107256141.305  
> 2019 09 08 05 07 50.0000000  0  9                     
G26  21918075.567   115180267.097  
G31  21015286.546   110436075.801  
G32  20410417.068   107257464.318  
G20  20410417.556   107257463.313  
G21  21787143.207   114492209.809  
G16  24113605.547   126717848.660  
G23  20410416.843   107257464.317  
G14  20410416.878   107257463.323  
G29  20410416.852   107257464.319  
> 2019 09 08 05 07 51.0000000  0  9                     
G26  21917583.760   115177681.257  
G31  21015462.623   110437000.528  
G32  20410668.888   107258787.949  
G20  20410669.545   107258786.954  
G21  21786670.433   114489725.729  
G16  24112981.800   126714571.574  
G23  20410668.486   107258787.952  
G14  20410668.753   107258786.949  
G29  20410668.790   107258787.953  
> 2019 09 08 05 07 52.0000000  0  9                     
G26  21917091.752   115175095.532  
G31  21015638.590   110437925.757  
G32  20410920.616   107260111.841  
G20  20410921.232   107260110.839  
G21  21786197.848   114487241.948  
G16  24112358.241   126711294.415  
G23  20410920.677   107260111.847  
G14  20410920.588   107260110.841  
G29  20410920.737   107260111.840  
> 2019 09 08 05 07 53.0000000  0  9                     
G26  21916599.789   115172510.150  
G31  21015814.882   110438851.722  
G32  20411172.936   107261436.209  
G20  20411173.151   107261435.207  
G21  21785725.312   114484758.691  
G16  24111734.805   126708017.424  
G23  20411172.803   107261436.214  
G14  20411172.676   107261435.213  
G29  20411172.692   107261436.208  
> 2019 09 08 05 07 54.0000000  0  9                     
G26  21916108.156   115169924.660  
G31  21015991.015   110439777.976  
G32  20411424.774   107262760.625  
G20  20411425.134   107262759.627  
G21  21785252.838   114482275.542  
G16  24111111.253   126704740.147  
G23  20411425.003   107262760.624  
G14  20411424.775   107262759.629  
G29  20411424.771   107262760.627  
> 2019 09 08 05 07 55.0000000  0  9                     
G26  21915615.976   115167339.305  
G31  21016167.279   110440704.757  
G32  20411676.906   107264085.313  
G20  20411677.268   107264084.317  
G21  21784780.140   114479792.708  
G16  24110487.633   126701462.828  
G23  20411676.994   107264085.319  
G14  20411676.740   107264084.310  
G29  20411676.586   107264085.314  
> 2019 09 08 05 07 56.0000000  0  9                     
G26  21915123.965   115164754.168  
G31  21016344.050   110441632.141  
G32  20411929.054   107265410.369  
G20  20411929.195   107265409.372  
G21  21784307.809   114477310.295  
G16  24109863.796   126698185.537  
G23  20411929.386   107265410.365  
G14  20411928.817   107265409.368  
G29  20411928.687   107265410.369  
> 2019 09 08 05 07 57.0000000  0  9                     
G26  21914632.181   115162169.200  
G31  21016520.547   110442560.086  
G32  20412181.352   107266735.737  
G20  20412181.536   107266734.732  
G21  21783835.293   114474828.243  
G16  24109239.913   126694908.253  
G23  20412181.424   107266735.734  
G14  20412180.925   107266734.745  
G29  20412181.001   107266735.733  
> 2019 09 08 05 07 58.0000000  0  9                     
G26  21914140.092   115159584.430  
G31  21016697.237   110443488.634  
G32  20412433.556   107268061.458  
G20  20412433.796   107268060.454  
G21  21783363.045   114472346.594  
G16  24108616.287   126691630.990  
G23  20412433.496   107268061.453  
G14  20412433.292   107268060.451  
G29  20412433.304   107268061.450  
> 2019 09 08 05 07 59.0000000  0  9                     
G26  21913648.328   115157000.014  
G31  21016873.579   110444417.943  
G32  20412686.062   107269387.665  
G20  20412686.378   107269386.666  
G21  21782890.911   114469865.483  
G16  24107992.621   126688353.910  
G23  20412685.827   107269387.659  
G14  20412685.740   107269386.665  
G29  20412685.686   107269387.658  
> 2019 09 08 05 08 00.0000000  0  9                     
G26  21913156.481   115154415.796  
G31  21017050.474   110445347.809  
G32  20412938.523   107270714.206  
G20  20412938.747   107270713.211  
G21  21782419.025   114467384.762  
G16  24107369.184   126685076.835  
G23  20412938.407   107270714.210  
G14  20412938.043   107270713.209  
G29  20412938.000   107270714.210  
> 2019 09 08 05 08 01.0000000  0  9                     
G26  21912664.665   115151831.743  
G31  21017227.501   110446278.246  
G32  20413190.857   107272041.076  
G20  20413191.212   107272040.077  
G21  21781947.010   114464904.413  
G16  24106745.802   126681799.741  
G23  20413190.752   107272041.078  
G14  20413190.343   107272040.075  
G29  20413190.533   107272041.071  
> 2019 09 08 05 08 02.0000000  0  9                     
G26  21912173.106   115149247.995  
G31  21017405.026   110447209.385  
G32  20413443.635   107273368.392  
G20  20413443.809   107273367.391  
G21  21781475.196   114462424.560  
G16  24106121.943   126678522.800  
G23  20413443.443   107273368.392  
G14  20413442.815   107273367.395  
G29  20413443.267   107273368.403  
> 2019 09 08 05 08 03.0000000  0  9                     
G26  21911681.409   115146664.479  
G31  21017582.163   110448141.125  
G32  20413696.431   107274696.069  
G20  20413696.391   107274695.057  
G21  21781003.409   114459945.120  
G16  24105498.273   126675245.881  
G23  20413696.198   107274696.062  
G14  20413695.640   107274695.061  
G29  20413696.311   107274696.069  
> 2019 09 08 05 08 04.0000000  0  9                     
G26  21911190.000   115144081.149  
G31  21017759.568   110449073.463  
G32  20413948.807   107276024.075  
G20  20413948.946   107276023.081  
G21  21780531.762   114457466.066  
G16  24104874.698   126671968.986  
G23  20413948.875   107276024.085  
G14  20413948.220   107276023.087  
G29  20413948.942   107276024.086  
> 2019 09 08 05 08 05.0000000  0  9                     
G26  21910698.640   115141498.164  
G31  21017937.208   110450006.532  
G32  20414201.547   107277352.580  
G20  20414201.539   107277351.575  
G21  21780060.122   114454987.551  
G16  24104251.325   126668692.254  
G23  20414201.627   107277352.575  
G14  20414200.880   107277351.581  
G29  20414201.520   107277352.575  
> 2019 09 08 05 08 06.0000000  0  9                     
G26  21910207.032   115138915.519  
G31  21018115.128   110450940.329  
G32  20414454.484   107278681.574  
G20  20414454.649   107278680.570  
G21  21779588.501   114452509.584  
G16  24103627.540   126665415.693  
G23  20414454.265   107278681.571  
G14  20414453.965   107278680.566  
G29  20414454.460   107278681.574  
> 2019 09 08 05 08 07.0000000  0  9                     
G26  21909715.543   115136333.100  
G31  21018293.040   110451874.767  
G32  20414707.538   107280010.943  
G20  20414707.754   107280009.938  
G21  21779117.194   114450032.044  
G16  24103004.368   126662139.181  
G23  20414707.468   107280010.928  
G14  20414706.737   107280009.934  
G29  20414707.227   107280010.932  
> 2019 09 08 05 08 08.0000000  0  9                     
G26  21909223.964   115133750.781  
G31  21018470.765   110452809.664  
G32  20414960.600   107281340.526  
G20  20414960.618   107281339.533  
G21  21778645.693   114447554.771  
G16  24102380.891   126658862.564  
G23  20414960.486   107281340.527  
G14  20414959.916   107281339.525  
G29  20414960.482   107281340.531  
> 2019 09 08 05 08 09.0000000  0  9                     
G26  21908732.468   115131168.623  
G31  21018648.765   110453745.127  
G32  20415213.629   107282670.432  
G20  20415213.707   107282669.435  
G21  21778174.357   114445077.864  
G16  24101757.225   126655585.963  
G23  20415213.767   107282670.430  
G14  20415213.276   107282669.430  
G29  20415213.433   107282670.438  
> 2019 09 08 05 08 10.0000000  0  9                     
G26  21908241.187   115128586.673  
G31  21018826.874   110454681.195  
G32  20415466.761   107284000.691  
G20  20415467.114   107283999.679  
G21  21777702.997   114442601.369  
G16  24101133.656   126652309.376  
G23  20415466.879   107284000.683  
G14  20415466.265   107283999.682  
G29  20415466.618   107284000.681  
> 2019 09 08 05 08 11.0000000  0  9                     
G26  21907750.016   115126004.928  
G31  21019005.314   110455617.842  
G32  20415719.790   107285331.292  
G20  20415720.280   107285330.290  
G21  21777231.583   114440125.258  
G16  24100510.249   126649032.824  
G23  20415720.330   107285331.289  
G14  20415719.540   107285330.287  
G29  20415719.774   107285331.292  
> 2019 09 08 05 08 12.0000000  0  9                     
G26  21907258.868   115123423.490  
G31  21019183.598   110456555.205  
G32  20415973.177   107286662.330  
G20  20415973.485   107286661.334  
G21  21776760.506   114437649.660  
G16  24099886.677   126645756.388  
G23  20415973.806   107286662.332  
G14  20415972.924   107286661.335  
G29  20415973.042   107286662.335  
> 2019 09 08 05 08 13.0000000  0  9                     
G26  21906767.616   115120842.253  
G31  21019361.966   110457493.149  
G32  20416226.714   107287993.735  
G20  20416226.898   107287992.732  
G21  21776289.280   114435174.458  
G16  24099263.094   126642479.984  
G23  20416226.775   107287993.733  
G14  20416226.333   107287992.733  
G29  20416226.398   107287993.735  
> 2019 09 08 05 08 14.0000000  0  9                     
G26  21906276.129   115118261.228  
G31  21019540.438   110458431.709  
G32  20416480.009   107289325.499  
G20  20416480.229   107289324.496  
G21  21775818.219   114432699.665  
G16  24098639.668   126639203.618  
G23  20416480.016   107289325.489  
G14  20416479.959   107289324.493  
G29  20416479.921   107289325.492  
> 2019 09 08 05 08 15.0000000  0  9                     
G26  21905785.072   115115680.462  
G31  21019719.507   110459370.906  
G32  20416733.310   107290657.640  
G20  20416733.781   107290656.646  
G21  21775347.579   114430225.312  
G16  24098015.906   126635927.324  
G23  20416733.541   107290657.635  
G14  20416733.457   107290656.645  
G29  20416733.692   107290657.643  
> 2019 09 08 05 08 16.0000000  0  9                     
G26  21905294.300   115113099.941  
G31  21019898.164   110460310.749  
G32  20416987.050   107291990.184  
G20  20416987.316   107291989.182  
G21  21774876.903   114427751.415  
G16  24097392.484   126632651.107  
G23  20416987.054   107291990.177  
G14  20416986.871   107291989.191  
G29  20416987.244   107291990.182  
> 2019 09 08 05 08 17.0000000  0  9                     
G26  21904803.501   115110519.646  
G31  21020077.216   110461251.190  
G32  20417240.605   107293323.089  
G20  20417241.460   107293322.085  
G21  21774406.178   114425277.919  
G16  24096769.020   126629374.924  
G23  20417240.682   107293323.086  
G14  20417240.434   107293322.085  
G29  20417240.709   107293323.079  
> 2019 09 08 05 08 18.0000000  0  9                     
G26  21904312.504   115107939.579  
G31  21020256.240   110462192.284  
G32  20417494.130   107294656.369  
G20  20417495.091   107294655.361  
G21  21773935.898   114422804.868  
G16  24096145.531   126626098.794  
G23  20417494.516   107294656.372  
G14  20417494.391   107294655.374  
G29  20417494.434   107294656.362  
> 2019 09 08 05 08 19.0000000  0  9                     
G26  21903821.593   115105359.662  
G31  21020435.183   110463133.884  
G32  20417747.698   107295989.940  
G20  20417748.601   107295988.943  
G21  21773465.276   114420332.151  
G16  24095522.212   126622822.650  
G23  20417748.115   107295989.936  
G14  20417747.818   107295988.945  
G29  20417748.333   107295989.943  
> 2019 09 08 05 08 20.0000000  0  9                     
G26  21903330.826   115102780.005  
G31  21020614.487   110464076.154  
G32  20418001.666   107297323.897  
G20  20418002.200   107297322.906  
G21  21772994.615   114417859.879  
G16  24094898.824   126619546.563  
G23  20418001.822   107297323.907  
G14  20418001.739   107297322.907  
G29  20418002.066   107297323.904  
> 2019 09 08 05 08 21.0000000  0  9                     
G26  21902839.937   115100200.600  
G31  21020793.763   110465019.046  
G32  20418255.605   107298658.276  
G20  20418255.938   107298657.275  
G21  21772524.075   114415388.064  
G16  24094275.303   126616270.571  
G23  20418255.812   107298658.275  
G14  20418255.602   107298657.275  
G29  20418255.875   107298658.277  
> 2019 09 08 05 08 22.0000000  0  9                     
G26  21902349.009   115097621.378  
G31  21020973.549   110465962.513  
G32  20418509.580   107299992.962  
G20  20418510.155   107299991.957  
G21  21772053.703   114412916.629  
G16  24093652.230   126612994.574  
G23  20418509.791   107299992.953  
G14  20418509.617   107299991.951  
G29  20418509.877   107299992.954  
> 2019 09 08 05 08 23.0000000  0  9                     
G26  21901858.387   115095042.376  
G31  21021153.416   110466906.606  
G32  20418763.815   107301328.010  
G20  20418764.288   107301327.009  
G21  21771583.380   114410445.598  
G16  24093028.865   126609718.608  
G23  20418763.753   107301328.013  
G14  20418763.399   107301326.999  
G29  20418763.874   107301328.001  
> 2019 09 08 05 08 24.0000000  0  9                     
G26  21901367.555   115092463.668  
G31  21021333.348   110467851.371  
G32  20419017.984   107302663.487  
G20  20419018.390   107302662.482  
G21  21771113.406   114407975.063  
G16  24092405.340   126606442.774  
G23  20419017.842   107302663.481  
G14  20419017.441   107302662.491  
G29  20419018.215   107302663.487  
> 2019 09 08 05 08 25.0000000  0  9                     
G26  21900876.806   115089885.136  
G31  21021513.035   110468796.722  
G32  20419271.968   107303999.292  
G20  20419272.705   107303998.306  
G21  21770643.504   114405504.910  
G16  24091781.973   126603166.937  
G23  20419271.940   107303999.294  
G14  20419271.823   107303998.305  
G29  20419272.277   107303999.309  
> 2019 09 08 05 08 26.0000000  0  9                     
G26  21900385.958   115087306.733  
G31  21021693.078   110469742.584  
G32  20419526.022   107305335.376  
G20  20419526.574   107305334.380  
G21  21770173.532   114403035.068  
G16  24091158.718   126599891.051  
G23  20419526.176   107305335.376  
G14  20419526.124   107305334.376  
G29  20419526.789   107305335.374  
> 2019 09 08 05 08 27.0000000  0  9                     
G26  21899895.600   115084728.637  
G31  21021873.334   110470689.121  
G32  20419780.718   107306671.897  
G20  20419781.007   107306670.891  
G21  21769703.896   114400565.732  
G16  24090535.275   126596615.276  
G23  20419780.629   107306671.898  
G14  20419780.320   107306670.899  
G29  20419781.012   107306671.893  
> 2019 09 08 05 08 28.0000000  0  9                     
G26  21899404.882   115082150.772  
G31  21022053.813   110471636.313  
G32  20420035.122   107308008.800  
G20  20420035.452   107308007.805  
G21  21769234.183   114398096.825  
G16  24089911.924   126593339.587  
G23  20420034.904   107308008.797  
G14  20420035.033   107308007.811  
G29  20420035.190   107308008.805  
> 2019 09 08 05 08 29.0000000  0  9                     
G26  21898914.222   115079573.164  
G31  21022234.037   110472584.121  
G32  20420289.488   107309346.095  
G20  20420289.801   107309345.088  
G21  21768764.339   114395628.358  
G16  24089288.817   126590063.955  
G23  20420289.420   107309346.083  
G14  20420289.580   107309345.089  
G29  20420289.723   107309346.087  
> 2019 09 08 05 08 30.0000000  0  9                     
G26  21898424.027   115076995.828  
G31  21022414.221   110473532.602  
G32  20420543.957   107310683.790  
G20  20420544.580   107310682.793  
G21  21768294.704   114393160.357  
G16  24088665.450   126586788.405  
G23  20420544.242   107310683.789  
G14  20420543.977   107310682.792  
G29  20420543.763   107310683.787  
> 2019 09 08 05 08 31.0000000  0  9                     
G26  21897933.941   115074418.731  
G31  21022594.671   110474481.702  
G32  20420798.840   107312021.884  
G20  20420799.204   107312020.871  
G21  21767825.182   114390692.796  
G16  24088042.104   126583512.923  
G23  20420799.078   107312021.866  
G14  20420798.829   107312020.874  
G29  20420798.490   107312021.867  
> 2019 09 08 05 08 32.0000000  0  9                     
G26  21897443.771   115071841.823  
G31  21022775.399   110475431.397  
G32  20421053.445   107313360.284  
G20  20421053.923   107313359.289  
G21  21767355.643   114388225.625  
G16  24087418.668   126580237.466  
G23  20421053.667   107313360.291  
G14  20421053.259   107313359.288  
G29  20421053.400   107313360.288  
> 2019 09 08 05 08 33.0000000  0  9                     
G26  21896953.287   115069265.141  
G31  21022956.379   110476381.699  
G32  20421307.995   107314699.077  
G20  20421308.660   107314698.074  
G21  21766886.336   114385758.869  
G16  24086795.437   126576962.058  
G23  20421308.255   107314699.072  
G14  20421308.159   107314698.069  
G29  20421308.115   107314699.068  
> 2019 09 08 05 08 34.0000000  0  9                     
G26  21896462.714   115066688.708  
G31  21023137.453   110477332.641  
G32  20421563.065   107316038.234  
G20  20421563.389   107316037.236  
G21  21766416.844   114383292.553  
G16  24086172.111   126573686.703  
G23  20421562.697   107316038.236  
G14  20421563.055   107316037.241  
G29  20421563.129   107316038.237  
> 2019 09 08 05 08 35.0000000  0  9                     
G26  21895972.513   115064112.514  
G31  21023318.620   110478284.203  
G32  20421818.002   107317377.783  
G20  20421818.227   107317376.788  
G21  21765947.738   114380826.673  
G16  24085548.809   126570411.407  
G23  20421817.745   107317377.783  
G14  20421818.141   107317376.785  
G29  20421817.945   107317377.779  
> 2019 09 08 05 08 36.0000000  0  9                     
G26  21895482.246   115061536.484  
G31  21023500.161   110479236.338  
G32  20422073.249   107318717.653  
G20  20422073.311   107318716.646  
G21  21765478.446   114378361.165  
G16  24084925.472   126567136.119  
G23  20422072.750   107318717.651  
G14  20422073.021   107318716.638  
G29  20422072.873   107318717.646  
> 2019 09 08 05 08 37.0000000  0  9                     
G26  21894992.120   115058960.725  
G31  21023681.335   110480189.111  
G32  20422328.036   107320057.902  
G20  20422328.476   107320056.904  
G21  21765009.355   114375896.096  
G16  24084302.203   126563860.897  
G23  20422327.969   107320057.902  
G14  20422328.071   107320056.903  
G29  20422328.163   107320057.906  
> 2019 09 08 05 08 38.0000000  0  9                     
G26  21894502.002   115056385.217  
G31  21023862.760   110481142.528  
G32  20422583.153   107321398.560  
G20  20422583.649   107321397.558  
G21  21764540.494   114373431.496  
G16  24083679.127   126560585.752  
G23  20422583.189   107321398.558  
G14  20422582.932   107321397.558  
G29  20422583.537   107321398.559  
> 2019 09 08 05 08 39.0000000  0  9                     
G26  21894011.948   115053809.955  
G31  21024044.182   110482096.585  
G32  20422838.523   107322739.601  
G20  20422838.836   107322738.601  
G21  21764071.525   114370967.335  
G16  24083056.085   126557310.692  
G23  20422838.355   107322739.605  
G14  20422838.056   107322738.604  
G29  20422838.623   107322739.610  
> 2019 09 08 05 08 40.0000000  0  9                     
G26  21893522.073   115051234.922  
G31  21024225.909   110483051.254  
G32  20423093.725   107324081.009  
G20  20423093.902   107324080.005  
G21  21763602.855   114368503.585  
G16  24082433.009   126554035.664  
G23  20423093.606   107324081.005  
G14  20423093.294   107324080.013  
G29  20423093.886   107324081.014  
> 2019 09 08 05 08 41.0000000  0  9                     
G26  21893032.095   115048659.992  
G31  21024407.595   110484006.412  
G32  20423349.079   107325422.658  
G20  20423349.003   107325421.668  
G21  21763134.061   114366040.136  
G16  24081809.633   126550760.571  
G23  20423348.948   107325422.664  
G14  20423348.675   107325421.666  
G29  20423349.123   107325422.657  
> 2019 09 08 05 08 42.0000000  0  9                     
G26  21892542.027   115046085.345  
G31  21024589.480   110484962.247  
G32  20423604.431   107326764.736  
G20  20423604.545   107326763.736  
G21  21762665.417   114363577.173  
G16  24081186.305   126547485.592  
G23  20423604.503   107326764.741  
G14  20423604.168   107326763.740  
G29  20423604.533   107326764.740  
> 2019 09 08 05 08 43.0000000  0  9                     
G26  21892052.257   115043511.005  
G31  21024771.432   110485918.775  
G32  20423859.861   107328107.254  
G20  20423860.356   107328106.260  
G21  21762196.880   114361114.697  
G16  24080563.180   126544210.708  
G23  20423860.014   107328107.251  
G14  20423859.536   107328106.251  
G29  20423860.019   107328107.250  
> 2019 09 08 05 08 44.0000000  0  9                     
G26  21891562.000   115040936.902  
G31  21024953.530   110486875.933  
G32  20424115.491   107329450.149  
G20  20424115.763   107329449.153  
G21  21761728.295   114358652.666  
G16  24079940.328   126540935.909  
G23  20424115.612   107329450.151  
G14  20424114.959   107329449.155  
G29  20424115.315   107329450.153  
> 2019 09 08 05 08 45.0000000  0  9                     
G26  21891072.203   115038362.998  
G31  21025135.569   110487833.675  
G32  20424371.069   107330793.387  
G20  20424371.196   107330792.387  
G21  21761259.626   114356191.029  
G16  24079316.858   126537661.135  
G23  20424370.881   107330793.392  
G14  20424370.667   107330792.389  
G29  20424371.005   107330793.392  
> 2019 09 08 05 08 46.0000000  0  9                     
G26  21890582.603   115035789.331  
G31  21025318.159   110488792.036  
G32  20424626.414   107332136.994  
G20  20424626.831   107332135.995  
G21  21760791.340   114353729.826  
G16  24078693.355   126534386.399  
G23  20424626.535   107332137.003  
G14  20424626.386   107332136.003  
G29  20424626.579   107332137.000  
> 2019 09 08 05 08 47.0000000  0  9                     
G26  21890092.795   115033216.153  
G31  21025500.536   110489751.277  
G32  20424881.996   107333481.237  
G20  20424882.501   107333480.229  
G21  21760322.895   114351269.296  
G16  24078070.463   126531111.989  
G23  20424882.386   107333481.236  
G14  20424882.127   107333480.234  
G29  20424882.389   107333481.237  
> 2019 09 08 05 08 48.0000000  0  9                     
G26  21889603.301   115030643.521  
G31  21025683.287   110490711.452  
G32  20425138.100   107334826.157  
G20  20425138.493   107334825.158  
G21  21759854.854   114348809.503  
G16  24077447.295   126527837.932  
G23  20425138.315   107334826.159  
G14  20425137.909   107334825.152  
G29  20425138.426   107334826.153  
> 2019 09 08 05 08 49.0000000  0  9                     
G26  21889113.902   115028071.204  
G31  21025865.861   110491672.345  
G32  20425394.089   107336171.540  
G20  20425394.741   107336170.536  
G21  21759387.015   114346350.239  
G16  24076824.380   126524564.028  
G23  20425394.369   107336171.540  
G14  20425393.918   107336170.544  
G29  20425394.297   107336171.544  
> 2019 09 08 05 08 50.0000000  0  9                     
G26  21888624.369   115025498.761  
G31  21026048.735   110492633.491  
G32  20425650.293   107337516.934  
G20  20425650.981   107337515.929  
G21  21758918.981   114343891.045  
G16  24076201.653   126521289.819  
G23  20425650.394   107337516.937  
G14  20425649.813   107337515.938  
G29  20425650.480   107337516.931  
> 2019 09 08 05 08 51.0000000  0  9                     
G26  21888134.943   115022926.710  
G31  21026231.913   110493595.405  
G32  20425906.436   107338862.849  
G20  20425906.997   107338861.847  
G21  21758451.044   114341432.413  
G16  24075578.389   126518015.806  
G23  20425906.370   107338862.846  
G14  20425905.913   107338861.856  
G29  20425906.633   107338862.851  
> 2019 09 08 05 08 52.0000000  0  9                     
G26  21887645.484   115020354.773  
G31  21026415.441   110494557.823  
G32  20426162.851   107340209.018  
G20  20426163.259   107340208.018  
G21  21757983.418   114338974.103  
G16  24074955.167   126514741.731  
G23  20426162.540   107340209.021  
G14  20426162.298   107340208.022  
G29  20426162.850   107340209.022  
> 2019 09 08 05 08 53.0000000  0  9                     
G26  21887156.360   115017782.931  
G31  21026598.581   110495520.725  
G32  20426419.115   107341555.422  
G20  20426419.462   107341554.436  
G21  21757515.669   114336516.089  
G16  24074332.098   126511467.584  
G23  20426418.798   107341555.432  
G14  20426418.340   107341554.424  
G29  20426419.025   107341555.427  
> 2019 09 08 05 08 54.0000000  0  9                     
G26  21886666.824   115015211.298  
G31  21026781.578   110496484.218  
G32  20426675.272   107342902.167  
G20  20426675.456   107342901.174  
G21  21757047.821   114334058.461  
G16  24073709.201   126508193.458  
G23  20426675.064   107342902.174  
G14  20426674.875   107342901.175  
G29  20426675.450   107342902.169  
> 2019 09 08 05 08 55.0000000  0  9                     
G26  21886177.344   115012639.704  
G31  21026965.129   110497448.159  
G32  20426931.704   107344249.108  
G20  20426931.872   107344248.115  
G21  21756580.185   114331601.090  
G16  24073086.156   126504919.206  
G23  20426931.555   107344249.109  
G14  20426931.265   107344248.115  
G29  20426931.627   107344249.112  
> 2019 09 08 05 08 56.0000000  0  9                     
G26  21885688.279   115010068.344  
G31  21027148.687   110498412.682  
G32  20427188.029   107345596.393  
G20  20427188.257   107345595.399  
G21  21756112.632   114329144.120  
G16  24072463.174   126501644.975  
G23  20427188.108   107345596.394  
G14  20427187.782   107345595.397  
G29  20427188.000   107345596.391  
> 2019 09 08 05 08 57.0000000  0  9                     
G26  21885198.817   115007497.178  
G31  21027332.272   110499377.810  
G32  20427444.347   107346944.044  
G20  20427444.516   107346943.035  
G21  21755645.153   114326687.555  
G16  24071840.174   126498370.786  
G23  20427444.526   107346944.032  
G14  20427444.430   107346943.036  
G29  20427444.421   107346944.037  
> 2019 09 08 05 08 58.0000000  0  9                     
G26  21884709.514   115004926.227  
G31  21027515.937   110500343.538  
G32  20427700.766   107348292.027  
G20  20427700.975   107348291.023  
G21  21755178.043   114324231.408  
G16  24071217.083   126495096.636  
G23  20427700.835   107348292.025  
G14  20427700.748   107348291.023  
G29  20427701.032   107348292.016  
> 2019 09 08 05 08 59.0000000  0  9                     
G26  21884220.458   115002355.491  
G31  21027699.900   110501309.876  
G32  20427957.406   107349640.358  
G20  20427957.660   107349639.350  
G21  21754710.690   114321775.663  
G16  24070593.846   126491822.510  
G23  20427957.424   107349640.357  
G14  20427957.026   107349639.369  
G29  20427957.795   107349640.365  
> 2019 09 08 05 09 00.0000000  0  9                     
G26  21883731.531   114999785.022  
G31  21027884.294   110502276.858  
G32  20428213.807   107350989.091  
G20  20428214.570   107350988.102  
G21  21754243.403   114319320.385  
G16  24069970.803   126488548.477  
G23  20428214.075   107350989.104  
G14  20428213.590   107350988.101  
G29  20428214.222   107350989.104  
> 2019 09 08 05 09 01.0000000  0  9                     
G26  21883242.496   114997214.743  
G31  21028068.158   110503244.425  
G32  20428470.366   107352338.172  
G20  20428471.221   107352337.171  
G21  21753776.375   114316865.493  
G16  24069347.705   126485274.457  
G23  20428470.959   107352338.173  
G14  20428470.219   107352337.175  
G29  20428470.591   107352338.178  
> 2019 09 08 05 09 02.0000000  0  9                     
G26  21882753.155   114994644.632  
G31  21028252.251   110504212.533  
G32  20428727.331   107353687.546  
G20  20428728.170   107353686.545  
G21  21753308.979   114314410.953  
G16  24068724.814   126482000.424  
G23  20428727.652   107353687.551  
G14  20428726.839   107353686.550  
G29  20428727.256   107353687.543  
> 2019 09 08 05 09 03.0000000  0  9                     
G26  21882264.326   114992074.874  
G31  21028437.302   110505181.383  
G32  20428984.451   107355037.402  
G20  20428985.046   107355036.407  
G21  21752842.063   114311956.957  
G16  24068101.962   126478726.563  
G23  20428984.429   107355037.407  
G14  20428983.723   107355036.397  
G29  20428984.057   107355037.404  
> 2019 09 08 05 09 04.0000000  0  9                     
G26  21881775.367   114989505.337  
G31  21028622.107   110506150.851  
G32  20429241.294   107356387.640  
G20  20429241.910   107356386.635  
G21  21752375.275   114309503.388  
G16  24067478.995   126475452.744  
G23  20429241.317   107356387.636  
G14  20429240.888   107356386.638  
G29  20429241.030   107356387.632  
> 2019 09 08 05 09 05.0000000  0  9                     
G26  21881286.241   114986935.936  
G31  21028806.210   110507120.832  
G32  20429498.343   107357738.137  
G20  20429498.893   107357737.126  
G21  21751908.666   114307050.155  
G16  24066856.044   126472178.885  
G23  20429498.118   107357738.127  
G14  20429498.320   107357737.134  
G29  20429498.142   107357738.133  
> 2019 09 08 05 09 06.0000000  0  9                     
G26  21880797.448   114984366.898  
G31  21028990.821   110508091.560  
G32  20429755.609   107359089.110  
G20  20429755.989   107359088.112  
G21  21751442.206   114304597.466  
G16  24066233.141   126468905.201  
G23  20429755.384   107359089.114  
G14  20429755.409   107359088.116  
G29  20429755.895   107359089.120  
> 2019 09 08 05 09 07.0000000  0  9                     
G26  21880308.643   114981798.039  
G31  21029175.476   110509062.842  
G32  20430012.629   107360440.419  
G20  20430012.996   107360439.424  
G21  21750975.326   114302145.147  
G16  24065610.161   126465631.518  
G23  20430012.574   107360440.420  
G14  20430012.519   107360439.425  
G29  20430012.931   107360440.428  
> 2019 09 08 05 09 08.0000000  0  9                     
G26  21879819.904   114979229.373  
G31  21029360.551   110510034.740  
G32  20430269.645   107361792.083  
G20  20430270.083   107361791.072  
G21  21750508.587   114299693.247  
G16  24064986.946   126462357.871  
G23  20430269.831   107361792.076  
G14  20430269.688   107361791.073  
G29  20430270.065   107361792.073  
> 2019 09 08 05 09 09.0000000  0  9                     
G26  21879331.079   114976661.029  
G31  21029545.602   110511007.307  
G32  20430527.143   107363144.168  
G20  20430527.351   107363143.167  
G21  21750042.118   114297241.829  
G16  24064364.007   126459084.345  
G23  20430527.052   107363144.164  
G14  20430526.844   107363143.169  
G29  20430527.096   107363144.168  
> 2019 09 08 05 09 10.0000000  0  9                     
G26  21878842.062   114974092.870  
G31  21029730.788   110511980.481  
G32  20430784.552   107364496.593  
G20  20430784.693   107364495.589  
G21  21749575.614   114294790.815  
G16  24063741.331   126455810.839  
G23  20430784.515   107364496.596  
G14  20430784.262   107364495.597  
G29  20430784.661   107364496.592  
> 2019 09 08 05 09 11.0000000  0  9                     
G26  21878353.146   114971524.915  
G31  21029915.821   110512954.213  
G32  20431041.943   107365849.352  
G20  20431042.218   107365848.344  
G21  21749109.414   114292340.198  
G16  24063118.509   126452537.349  
G23  20431041.855   107365849.353  
G14  20431041.789   107365848.347  
G29  20431041.947   107365849.355  
> 2019 09 08 05 09 12.0000000  0  9                     
G26  21877864.763   114968957.334  
G31  21030101.244   110513928.713  
G32  20431299.658   107367202.613  
G20  20431299.762   107367201.622  
G21  21748643.155   114289890.135  
G16  24062495.686   126449264.044  
G23  20431299.304   107367202.621  
G14  20431299.100   107367201.611  
G29  20431299.510   107367202.622  
> 2019 09 08 05 09 13.0000000  0  9                     
G26  21877376.466   114966390.113  
G31  21030287.078   110514903.968  
G32  20431557.076   107368556.385  
G20  20431557.495   107368555.384  
G21  21748177.096   114287440.633  
G16  24061872.652   126445990.937  
G23  20431557.089   107368556.390  
G14  20431556.771   107368555.387  
G29  20431556.977   107368556.386  
> 2019 09 08 05 09 14.0000000  0  9                     
G26  21876888.098   114963823.317  
G31  21030472.822   110515880.027  
G32  20431814.920   107369910.717  
G20  20431815.120   107369909.718  
G21  21747711.146   114284991.764  
G16  24061249.746   126442718.068  
G23  20431814.932   107369910.728  
G14  20431814.638   107369909.717  
G29  20431814.813   107369910.721  
> 2019 09 08 05 09 15.0000000  0  9                     
G26  21876399.566   114961256.681  
G31  21030658.582   110516856.625  
G32  20432072.474   107371265.337  
G20  20432072.936   107371264.331  
G21  21747245.129   114282543.219  
G16  24060626.840   126439445.182  
G23  20432072.372   107371265.334  
G14  20432072.213   107371264.336  
G29  20432072.861   107371265.332  
> 2019 09 08 05 09 16.0000000  0  9                     
G26  21875911.328   114958690.315  
G31  21030844.572   110517833.886  
G32  20432330.536   107372620.367  
G20  20432331.078   107372619.366  
G21  21746779.118   114280095.172  
G16  24060003.956   126436172.395  
G23  20432330.201   107372620.368  
G14  20432330.159   107372619.371  
G29  20432330.731   107372620.366  
> 2019 09 08 05 09 17.0000000  0  9                     
G26  21875422.950   114956123.877  
G31  21031030.330   110518811.454  
G32  20432588.562   107373975.451  
G20  20432588.809   107373974.463  
G21  21746313.323   114277647.229  
G16  24059381.292   126432899.341  
G23  20432588.192   107373975.457  
G14  20432587.986   107373974.448  
G29  20432588.598   107373975.455  
> 2019 09 08 05 09 18.0000000  0  9                     
G26  21874934.760   114953557.582  
G31  21031216.394   110519789.552  
G32  20432846.859   107375330.818  
G20  20432846.848   107375329.826  
G21  21745847.446   114275199.628  
G16  24058758.277   126429626.247  
G23  20432846.095   107375330.819  
G14  20432845.728   107375329.820  
G29  20432846.509   107375330.823  
> 2019 09 08 05 09 19.0000000  0  9                     
G26  21874446.242   114950991.538  
G31  21031402.839   110520768.287  
G32  20433104.448   107376686.580  
G20  20433104.578   107376685.581  
G21  21745381.877   114272752.479  
G16  24058135.586   126426353.243  
G23  20433104.315   107376686.577  
G14  20433103.372   107376685.583  
G29  20433104.356   107376686.585  
> 2019 09 08 05 09 20.0000000  0  9                     
G26  21873957.773   114948425.629  
G31  21031589.319   110521747.552  
G32  20433362.349   107378042.612  
G20  20433362.489   107378041.616  
G21  21744916.222   114270305.661  
G16  24057512.546   126423080.179  
G23  20433362.556   107378042.614  
G14  20433361.624   107378041.610  
G29  20433362.431   107378042.610  
> 2019 09 08 05 09 21.0000000  0  9                     
G26  21873469.736   114945860.048  
G31  21031775.609   110522727.506  
G32  20433620.413   107379399.090  
G20  20433620.636   107379398.080  
G21  21744450.451   114267859.346  
G16  24056890.005   126419807.265  
G23  20433620.483   107379399.082  
G14  20433619.914   107379398.090  
G29  20433620.464   107379399.088  
> 2019 09 08 05 09 22.0000000  0  9                     
G26  21872981.448   114943294.668  
G31  21031962.204   110523708.066  
G32  20433878.987   107380755.920  
G20  20433879.174   107380754.926  
G21  21743985.096   114265413.446  
G16  24056267.029   126416534.391  
G23  20433878.638   107380755.924  
G14  20433878.356   107380754.924  
G29  20433878.754   107380755.924  
> 2019 09 08 05 09 23.0000000  0  9                     
G26  21872493.311   114940729.464  
G31  21032148.939   110524689.181  
G32  20434137.037   107382113.058  
G20  20434137.083   107382112.051  
G21  21743519.946   114262967.916  
G16  24055644.210   126413261.494  
G23  20434136.950   107382113.059  
G14  20434136.118   107382112.059  
G29  20434136.926   107382113.059  
> 2019 09 08 05 09 24.0000000  0  9                     
G26  21872005.128   114938164.596  
G31  21032335.786   110525671.004  
G32  20434395.408   107383470.651  
G20  20434395.364   107383469.651  
G21  21743054.663   114260522.900  
G16  24055021.542   126409988.754  
G23  20434395.316   107383470.649  
G14  20434394.318   107383469.653  
G29  20434395.095   107383470.656  
> 2019 09 08 05 09 25.0000000  0  9                     
G26  21871517.160   114935599.929  
G31  21032522.838   110526653.434  
G32  20434653.731   107384828.610  
G20  20434653.591   107384827.613  
G21  21742589.482   114258078.302  
G16  24054398.667   126406716.064  
G23  20434653.523   107384828.611  
G14  20434652.902   107384827.607  
G29  20434653.597   107384828.609  
> 2019 09 08 05 09 26.0000000  0  9                     
G26  21871029.130   114933035.587  
G31  21032710.208   110527636.540  
G32  20434912.238   107386186.997  
G20  20434912.196   107386185.994  
G21  21742124.473   114255634.207  
G16  24053775.868   126403443.477  
G23  20434912.052   107386186.995  
G14  20434911.661   107386186.006  
G29  20434911.842   107386186.997  
> 2019 09 08 05 09 27.0000000  0  9                     
G26  21870541.277   114930471.673  
G31  21032896.916   110528620.483  
G32  20435170.693   107387545.966  
G20  20435170.839   107387544.962  
G21  21741659.465   114253190.741  
G16  24053153.191   126400171.159  
G23  20435170.585   107387545.964  
G14  20435170.400   107387544.962  
G29  20435170.369   107387545.966  
> 2019 09 08 05 09 28.0000000  0  9                     
G26  21870053.426   114927907.922  
G31  21033084.436   110529604.981  
G32  20435429.236   107388905.231  
G20  20435429.617   107388904.235  
G21  21741194.251   114250747.645  
G16  24052530.732   126396898.837  
G23  20435429.416   107388905.228  
G14  20435429.421   107388904.229  
G29  20435429.064   107388905.230  
> 2019 09 08 05 09 29.0000000  0  9                     
G26  21869565.746   114925344.222  
G31  21033271.607   110530589.899  
G32  20435688.250   107390264.678  
G20  20435688.363   107390263.674  
G21  21740729.397   114248304.781  
G16  24051907.649   126393626.371  
G23  20435687.746   107390264.671  
G14  20435687.785   107390263.670  
G29  20435687.819   107390264.668  
> 2019 09 08 05 09 30.0000000  0  9                     
G26  21869077.852   114922780.754  
G31  21033459.565   110531575.432  
G32  20435946.873   107391624.491  
G20  20435947.251   107391623.491  
G21  21740264.610   114245862.348  
G16  24051284.873   126390353.960  
G23  20435946.799   107391624.483  
G14  20435946.692   107391623.488  
G29  20435946.742   107391624.485  
> 2019 09 08 05 09 31.0000000  0  9                     
G26  21868590.048   114920217.523  
G31  21033646.906   110532561.585  
G32  20436205.599   107392984.657  
G20  20436206.138   107392983.665  
G21  21739799.716   114243420.344  
G16  24050662.134   126387081.598  
G23  20436205.596   107392984.670  
G14  20436205.523   107392983.663  
G29  20436206.042   107392984.662  
> 2019 09 08 05 09 32.0000000  0  9                     
G26  21868102.563   114917654.474  
G31  21033834.920   110533548.306  
G32  20436464.613   107394345.166  
G20  20436464.877   107394344.160  
G21  21739335.224   114240978.716  
G16  24050039.448   126383809.253  
G23  20436464.429   107394345.163  
G14  20436464.211   107394344.159  
G29  20436464.857   107394345.155  
> 2019 09 08 05 09 33.0000000  0  9                     
G26  21867614.834   114915091.629  
G31  21034022.829   110534535.620  
G32  20436723.508   107395705.999  
G20  20436723.927   107395704.996  
G21  21738870.638   114238537.498  
G16  24049416.665   126380536.930  
G23  20436723.247   107395705.991  
G14  20436723.120   107395704.994  
G29  20436723.614   107395705.999  
> 2019 09 08 05 09 34.0000000  0  9                     
G26  21867127.168   114912529.045  
G31  21034210.898   110535523.573  
G32  20436982.574   107397067.228  
G20  20436982.778   107397066.229  
G21  21738406.367   114236096.727  
G16  24048794.101   126377264.680  
G23  20436982.203   107397067.227  
G14  20436982.027   107397066.226  
G29  20436982.523   107397067.228  
> 2019 09 08 05 09 35.0000000  0  9                     
G26  21866639.370   114909966.738  
G31  21034398.997   110536512.180  
G32  20437241.412   107398428.875  
G20  20437241.920   107398427.865  
G21  21737942.085   114233656.427  
G16  24048171.553   126373992.536  
G23  20437241.506   107398428.873  
G14  20437241.191   107398427.859  
G29  20437241.620   107398428.860  
> 2019 09 08 05 09 36.0000000  0  9                     
G26  21866151.730   114907404.644  
G31  21034587.044   110537501.391  
G32  20437500.441   107399790.858  
G20  20437500.887   107399789.857  
G21  21737478.067   114231216.543  
G16  24047549.157   126370720.416  
G23  20437500.835   107399790.857  
G14  20437500.586   107399789.850  
G29  20437501.155   107399790.855  
> 2019 09 08 05 09 37.0000000  0  9                     
G26  21865664.004   114904842.788  
G31  21034775.027   110538491.225  
G32  20437759.469   107401153.215  
G20  20437760.306   107401152.213  
G21  21737013.861   114228777.088  
G16  24046926.649   126367448.359  
G23  20437759.919   107401153.205  
G14  20437759.812   107401152.212  
G29  20437760.170   107401153.209  
> 2019 09 08 05 09 38.0000000  0  9                     
G26  21865176.778   114902281.145  
G31  21034963.350   110539481.656  
G32  20438019.058   107402515.916  
G20  20438019.580   107402514.915  
G21  21736549.867   114226338.036  
G16  24046303.906   126364176.335  
G23  20438019.324   107402515.923  
G14  20438019.240   107402514.920  
G29  20438019.691   107402515.922  
> 2019 09 08 05 09 39.0000000  0  9                     
G26  21864689.288   114899719.797  
G31  21035152.077   110540472.762  
G32  20438278.607   107403879.052  
G20  20438279.182   107403878.047  
G21  21736085.813   114223899.478  
G16  24045681.221   126360904.427  
G23  20438278.882   107403879.046  
G14  20438278.474   107403878.049  
G29  20438278.690   107403879.047  
> 2019 09 08 05 09 40.0000000  0  9                     
G26  21864202.118   114897158.637  
G31  21035340.832   110541464.435  
G32  20438538.341   107405242.509  
G20  20438538.624   107405241.507  
G21  21735621.614   114221461.303  
G16  24045058.503   126357632.527  
G23  20438538.433   107405242.499  
G14  20438538.094   107405241.511  
G29  20438538.093   107405242.508  
> 2019 09 08 05 09 41.0000000  0  9                     
G26  21863714.526   114894597.666  
G31  21035529.680   110542456.685  
G32  20438797.657   107406606.277  
G20  20438797.957   107406605.285  
G21  21735157.674   114219023.520  
G16  24044435.895   126354360.644  
G23  20438797.662   107406606.282  
G14  20438797.381   107406605.292  
G29  20438797.735   107406606.285  
> 2019 09 08 05 09 42.0000000  0  9                     
G26  21863227.276   114892036.987  
G31  21035718.838   110543449.605  
G32  20439057.360   107407970.479  
G20  20439057.350   107407969.480  
G21  21734693.799   114216586.205  
G16  24043812.991   126351088.873  
G23  20439057.452   107407970.480  
G14  20439056.768   107407969.480  
G29  20439057.103   107407970.475  
> 2019 09 08 05 09 43.0000000  0  9                     
G26  21862740.138   114889476.507  
G31  21035908.086   110544443.090  
G32  20439317.038   107409334.994  
G20  20439317.171   107409334.007  
G21  21734229.930   114214149.295  
G16  24043190.635   126347817.096  
G23  20439317.070   107409335.001  
G14  20439316.490   107409334.000  
G29  20439316.608   107409335.002  
> 2019 09 08 05 09 44.0000000  0  9                     
G26  21862252.986   114886916.221  
G31  21036096.798   110545437.184  
G32  20439576.853   107410699.869  
G20  20439577.013   107410698.867  
G21  21733766.308   114211712.785  
G16  24042567.857   126344545.367  
G23  20439576.755   107410699.874  
G14  20439576.255   107410698.870  
G29  20439576.575   107410699.875  
> 2019 09 08 05 09 45.0000000  0  9                     
G26  21861765.901   114884356.248  
G31  21036286.419   110546431.950  
G32  20439836.390   107412065.164  
G20  20439837.100   107412064.167  
G21  21733302.804   114209276.767  
G16  24041945.423   126341273.747  
G23  20439836.550   107412065.161  
G14  20439836.191   107412064.170  
G29  20439836.552   107412065.173  
> 2019 09 08 05 09 46.0000000  0  9                     
G26  21861278.843   114881796.430  
G31  21036475.871   110547427.272  
G32  20440096.145   107413430.778  
G20  20440096.830   107413429.768  
G21  21732839.256   114206841.107  
G16  24041322.792   126338002.122  
G23  20440096.402   107413430.772  
G14  20440096.008   107413429.766  
G29  20440096.452   107413430.771  
> 2019 09 08 05 09 47.0000000  0  9                     
G26  21860791.810   114879236.889  
G31  21036665.517   110548423.236  
G32  20440356.051   107414796.757  
G20  20440356.751   107414795.756  
G21  21732375.897   114204405.906  
G16  24040700.078   126334730.578  
G23  20440356.114   107414796.756  
G14  20440355.943   107414795.769  
G29  20440356.074   107414796.758  
> 2019 09 08 05 09 48.0000000  0  9                     
G26  21860304.832   114876677.603  
G31  21036855.686   110549419.851  
G32  20440615.973   107416163.144  
G20  20440616.628   107416162.146  
G21  21731912.611   114201971.177  
G16  24040077.740   126331459.116  
G23  20440616.144   107416163.143  
G14  20440616.147   107416162.145  
G29  20440616.170   107416163.151  
> 2019 09 08 05 09 49.0000000  0  9                     
G26  21859817.589   114874118.512  
G31  21037045.513   110550417.031  
G32  20440875.917   107417529.850  
G20  20440876.668   107417528.866  
G21  21731449.261   114199536.828  
G16  24039455.275   126328187.668  
G23  20440876.283   107417529.861  
G14  20440876.471   107417528.864  
G29  20440876.593   107417529.857  
> 2019 09 08 05 09 50.0000000  0  9                     
G26  21859330.705   114871559.543  
G31  21037234.991   110551414.727  
G32  20441136.204   107418896.839  
G20  20441136.664   107418895.831  
G21  21730986.136   114197102.798  
G16  24038832.389   126324916.170  
G23  20441136.547   107418896.834  
G14  20441136.228   107418895.838  
G29  20441136.795   107418896.839  
> 2019 09 08 05 09 51.0000000  0  9                     
G26  21858843.701   114869000.923  
G31  21037425.131   110552413.134  
G32  20441396.683   107420264.266  
G20  20441397.160   107420263.266  
G21  21730522.967   114194669.306  
G16  24038210.161   126321644.823  
G23  20441396.885   107420264.271  
G14  20441396.324   107420263.260  
G29  20441396.844   107420264.268  
> 2019 09 08 05 09 52.0000000  0  9                     
G26  21858356.875   114866442.574  
G31  21037615.186   110553412.207  
G32  20441657.034   107421632.123  
G20  20441657.447   107421631.115  
G21  21730059.938   114192236.276  
G16  24037587.547   126318373.587  
G23  20441657.457   107421632.123  
G14  20441656.526   107421631.119  
G29  20441656.838   107421632.110  
> 2019 09 08 05 09 53.0000000  0  9                     
G26  21857870.077   114863884.429  
G31  21037805.266   110554411.879  
G32  20441917.490   107423000.309  
G20  20441917.930   107422999.306  
G21  21729596.857   114189803.660  
G16  24036964.930   126315102.362  
G23  20441917.643   107423000.309  
G14  20441916.622   107422999.312  
G29  20441917.178   107423000.310  
> 2019 09 08 05 09 54.0000000  0  9                     
G26  21857383.403   114861326.534  
G31  21037995.142   110555412.159  
G32  20442177.873   107424368.877  
G20  20442178.297   107424367.876  
G21  21729134.144   114187371.472  
G16  24036342.429   126311831.215  
G23  20442177.951   107424368.872  
G14  20442177.269   107424367.874  
G29  20442177.500   107424368.877  
> 2019 09 08 05 09 55.0000000  0  9                     
G26  21856896.946   114858768.908  
G31  21038185.492   110556413.099  
G32  20442438.466   107425737.835  
G20  20442438.836   107425736.842  
G21  21728671.602   114184939.756  
G16  24035719.961   126308560.144  
G23  20442438.519   107425737.837  
G14  20442438.157   107425736.829  
G29  20442438.086   107425737.838  
> 2019 09 08 05 09 56.0000000  0  9                     
G26  21856410.434   114856211.490  
G31  21038375.872   110557414.624  
G32  20442698.638   107427107.148  
G20  20442699.558   107427106.152  
G21  21728209.131   114182508.450  
G16  24035097.806   126305289.110  
G23  20442699.054   107427107.145  
G14  20442698.797   107427106.146  
G29  20442698.699   107427107.143  
> 2019 09 08 05 09 57.0000000  0  9                     
G26  21855923.572   114853654.273  
G31  21038566.549   110558416.741  
G32  20442959.276   107428476.785  
G20  20442960.012   107428475.779  
G21  21727746.687   114180077.537  
G16  24034475.182   126302018.098  
G23  20442959.854   107428476.785  
G14  20442959.343   107428475.776  
G29  20442959.670   107428476.787  
> 2019 09 08 05 09 58.0000000  0  9                     
G26  21855436.930   114851097.347  
G31  21038757.635   110559419.510  
G32  20443220.403   107429846.835  
G20  20443220.633   107429845.845  
G21  21727283.985   114177647.103  
G16  24033853.096   126298747.186  
G23  20443220.333   107429846.841  
G14  20443219.884   107429845.839  
G29  20443220.337   107429846.834  
> 2019 09 08 05 09 59.0000000  0  9                     
G26  21854950.187   114848540.642  
G31  21038948.914   110560422.906  
G32  20443480.862   107431217.254  
G20  20443481.371   107431216.258  
G21  21726821.443   114175217.090  
G16  24033230.611   126295476.335  
G23  20443481.078   107431217.260  
G14  20443480.687   107431216.253  
G29  20443481.111   107431217.255  
> 2019 09 08 05 10 00.0000000  0  9                     
G26  21854463.601   114845984.154  
G31  21039140.086   110561426.884  
G32  20443741.754   107432588.010  
G20  20443742.323   107432587.002  
G21  21726358.990   114172787.491  
G16  24032608.190   126292205.507  
G23  20443742.269   107432588.007  
G14  20443741.622   107432587.009  
G29  20443742.041   107432588.015  
> 2019 09 08 05 10 01.0000000  0  9                     
G26  21853977.354   114843427.899  
G31  21039330.976   110562431.484  
G32  20444003.065   107433959.147  
G20  20444003.231   107433958.133  
G21  21725896.814   114170358.321  
G16  24031985.801   126288934.745  
G23  20444003.030   107433959.139  
G14  20444002.580   107433958.144  
G29  20444003.175   107433959.138  
> 2019 09 08 05 10 02.0000000  0  9                     
G26  21853490.889   114840871.908  
G31  21039522.712   110563436.712  
G32  20444263.971   107435330.647  
G20  20444264.300   107435329.644  
G21  21725434.555   114167929.606  
G16  24031363.254   126285664.051  
G23  20444263.955   107435330.644  
G14  20444263.282   107435329.649  
G29  20444264.107   107435330.655  
> 2019 09 08 05 10 03.0000000  0  9                     
G26  21853004.533   114838316.165  
G31  21039714.055   110564442.578  
G32  20444524.828   107436702.539  
G20  20444525.498   107436701.540  
G21  21724972.759   114165501.329  
G16  24030740.994   126282393.426  
G23  20444524.871   107436702.539  
G14  20444524.454   107436701.537  
G29  20444525.160   107436702.537  
> 2019 09 08 05 10 04.0000000  0  9                     
G26  21852518.347   114835760.616  
G31  21039905.406   110565449.022  
G32  20444785.946   107438074.769  
G20  20444786.412   107438073.760  
G21  21724510.704   114163073.450  
G16  24030118.388   126279122.827  
G23  20444786.130   107438074.763  
G14  20444785.796   107438073.756  
G29  20444786.365   107438074.768  
> 2019 09 08 05 10 05.0000000  0  9                     
G26  21852032.056   114833205.236  
G31  21040096.747   110566456.020  
G32  20445047.064   107439447.277  
G20  20445047.533   107439446.279  
G21  21724048.857   114160645.927  
G16  24029495.936   126275852.209  
G23  20445047.199   107439447.277  
G14  20445046.731   107439446.273  
G29  20445047.358   107439447.281  
> 2019 09 08 05 10 06.0000000  0  9                     
G26  21851546.021   114830650.178  
G31  21040288.461   110567463.701  
G32  20445308.475   107440820.237  
G20  20445308.885   107440819.241  
G21  21723586.952   114158218.918  
G16  24028873.613   126272581.722  
G23  20445308.422   107440820.240  
G14  20445308.231   107440819.245  
G29  20445308.284   107440820.244  
> 2019 09 08 05 10 07.0000000  0  9                     
G26  21851059.953   114828095.374  
G31  21040480.705   110568472.044  
G32  20445569.683   107442193.602  
G20  20445570.169   107442192.596  
G21  21723124.959   114155792.382  
G16  24028251.027   126269311.329  
G23  20445569.692   107442193.602  
G14  20445569.466   107442192.598  
G29  20445569.793   107442193.599  
> 2019 09 08 05 10 08.0000000  0  9                     
G26  21850573.872   114825540.780  
G31  21040672.779   110569480.964  
G32  20445831.022   107443567.304  
G20  20445831.204   107443566.300  
G21  21722663.276   114153366.234  
G16  24027628.957   126266040.961  
G23  20445830.908   107443567.300  
G14  20445830.839   107443566.297  
G29  20445831.322   107443567.301  
> 2019 09 08 05 10 09.0000000  0  9                     
G26  21850087.713   114822986.362  
G31  21040865.179   110570490.425  
G32  20446092.509   107444941.292  
G20  20446092.792   107444940.297  
G21  21722201.563   114150940.461  
G16  24027006.659   126262770.588  
G23  20446092.376   107444941.291  
G14  20446092.621   107444940.294  
G29  20446092.549   107444941.296  
> 2019 09 08 05 10 10.0000000  0  9                     
G26  21849601.541   114820432.291  
G31  21041057.143   110571500.631  
G32  20446353.869   107446315.766  
G20  20446354.478   107446314.769  
G21  21721740.167   114148515.222  
G16  24026384.482   126259500.369  
G23  20446353.979   107446315.759  
G14  20446354.127   107446314.761  
G29  20446354.063   107446315.767  
> 2019 09 08 05 10 11.0000000  0  9                     
G26  21849115.301   114817878.486  
G31  21041249.452   110572511.472  
G32  20446615.615   107447690.635  
G20  20446616.345   107447689.641  
G21  21721278.900   114146090.455  
G16  24025762.259   126256230.250  
G23  20446615.775   107447690.639  
G14  20446615.777   107447689.636  
G29  20446615.594   107447690.638  
> 2019 09 08 05 10 12.0000000  0  9                     
G26  21848629.524   114815325.122  
G31  21041442.375   110573523.151  
G32  20446877.570   107449066.084  
G20  20446877.953   107449065.079  
G21  21720817.446   114143666.318  
G16  24025140.003   126252960.391  
G23  20446877.410   107449066.077  
G14  20446877.266   107449065.079  
G29  20446877.484   107449066.076  
> 2019 09 08 05 10 13.0000000  0  9                     
G26  21848143.903   114812772.250  
G31  21041635.134   110574535.673  
G32  20447139.352   107450442.126  
G20  20447139.896   107450441.133  
G21  21720356.330   114141242.860  
G16  24024518.106   126249690.823  
G23  20447139.594   107450442.127  
G14  20447138.923   107450441.136  
G29  20447139.381   107450442.125  
> 2019 09 08 05 10 14.0000000  0  9                     
G26  21847658.039   114810219.555  
G31  21041827.659   110575548.781  
G32  20447401.450   107451818.497  
G20  20447401.765   107451817.496  
G21  21719895.232   114138819.786  
G16  24023895.623   126246421.274  
G23  20447401.584   107451818.499  
G14  20447400.790   107451817.495  
G29  20447401.329   107451818.503  
> 2019 09 08 05 10 15.0000000  0  9                     
G26  21847172.280   114807666.860  
G31  21042020.415   110576562.262  
G32  20447663.323   107453195.005  
G20  20447663.795   107453194.022  
G21  21719434.349   114136396.915  
G16  24023273.522   126243151.558  
G23  20447663.476   107453195.014  
G14  20447662.915   107453194.003  
G29  20447663.368   107453195.012  
> 2019 09 08 05 10 16.0000000  0  9                     
G26  21846686.741   114805114.206  
G31  21042213.059   110577576.158  
G32  20447925.193   107454571.671  
G20  20447925.679   107454570.664  
G21  21718973.096   114133974.267  
G16  24022651.086   126239881.680  
G23  20447925.349   107454571.669  
G14  20447924.650   107454570.678  
G29  20447925.237   107454571.670  
> 2019 09 08 05 10 17.0000000  0  9                     
G26  21846200.948   114802561.761  
G31  21042405.799   110578590.635  
G32  20448187.129   107455948.675  
G20  20448187.772   107455947.680  
G21  21718512.130   114131552.020  
G16  24022029.124   126236611.835  
G23  20448187.084   107455948.671  
G14  20448186.616   107455947.681  
G29  20448187.460   107455948.676  
> 2019 09 08 05 10 18.0000000  0  9                     
G26  21845715.243   114800009.560  
G31  21042599.045   110579605.741  
G32  20448449.396   107457326.045  
G20  20448449.858   107457325.045  
G21  21718051.416   114129130.221  
G16  24021406.971   126233342.042  
G23  20448449.056   107457326.044  
G14  20448448.937   107457325.047  
G29  20448449.582   107457326.041  
> 2019 09 08 05 10 19.0000000  0  9                     
G26  21845229.674   114797457.680  
G31  21042792.343   110580621.547  
G32  20448711.653   107458703.878  
G20  20448711.910   107458702.877  
G21  21717590.710   114126708.940  
G16  24020784.735   126230072.402  
G23  20448711.272   107458703.874  
G14  20448711.059   107458702.878  
G29  20448711.699   107458703.877  
> 2019 09 08 05 10 20.0000000  0  9                     
G26  21844744.056   114794906.225  
G31  21042985.929   110581638.157  
G32  20448974.128   107460082.251  
G20  20448974.207   107460081.245  
G21  21717129.960   114124288.269  
G16  24020162.269   126226803.007  
G23  20448973.721   107460082.252  
G14  20448973.566   107460081.256  
G29  20448973.830   107460082.250  
> 2019 09 08 05 10 21.0000000  0  9                     
G26  21844258.463   114792354.879  
G31  21043180.290   110582655.256  
G32  20449236.281   107461460.866  
G20  20449236.579   107461459.862  
G21  21716669.257   114121867.907  
G16  24019540.293   126223533.549  
G23  20449236.085   107461460.869  
G14  20449235.939   107461459.862  
G29  20449236.241   107461460.872  
> 2019 09 08 05 10 22.0000000  0  9                     
G26  21843773.167   114789803.626  
G31  21043373.832   110583672.827  
G32  20449498.929   107462839.717  
G20  20449498.999   107462838.709  
G21  21716208.841   114119447.839  
G16  24018917.939   126220263.998  
G23  20449498.406   107462839.706  
G14  20449498.334   107462838.716  
G29  20449498.644   107462839.713  
> 2019 09 08 05 10 23.0000000  0  9                     
G26  21843287.629   114787252.605  
G31  21043567.410   110584691.011  
G32  20449761.156   107464218.913  
G20  20449761.354   107464217.909  
G21  21715748.528   114117028.199  
G16  24018295.590   126216994.488  
G23  20449760.875   107464218.909  
G14  20449760.774   107464217.910  
G29  20449761.124   107464218.916  
> 2019 09 08 05 10 24.0000000  0  9                     
G26  21842802.098   114784701.829  
G31  21043760.220   110585709.808  
G32  20450023.206   107465598.481  
G20  20450023.789   107465597.480  
G21  21715287.863   114114608.988  
G16  24017673.488   126213725.049  
G23  20450023.431   107465598.471  
G14  20450023.171   107465597.471  
G29  20450023.858   107465598.472  
> 2019 09 08 05 10 25.0000000  0  9                     
G26  21842316.708   114782151.334  
G31  21043954.396   110586729.267  
G32  20450285.668   107466978.449  
G20  20450286.378   107466977.453  
G21  21714827.556   114112190.255  
G16  24017051.358   126210455.713  
G23  20450285.765   107466978.458  
G14  20450285.669   107466977.459  
G29  20450286.242   107466978.458  
> 2019 09 08 05 10 26.0000000  0  9                     
G26  21841831.562   114779601.047  
G31  21044148.809   110587749.323  
G32  20450548.595   107468358.776  
G20  20450548.990   107468357.781  
G21  21714367.428   114109771.932  
G16  24016429.329   126207186.402  
G23  20450548.534   107468358.773  
G14  20450548.370   107468357.785  
G29  20450548.892   107468358.780  
> 2019 09 08 05 10 27.0000000  0  9                     
G26  21841346.324   114777050.950  
G31  21044342.938   110588769.941  
G32  20450811.603   107469739.409  
G20  20450811.834   107469738.404  
G21  21713907.421   114107353.994  
G16  24015807.400   126203917.098  
G23  20450811.485   107469739.407  
G14  20450811.071   107469738.398  
G29  20450811.479   107469739.401  
> 2019 09 08 05 10 28.0000000  0  9                     
G26  21840861.081   114774501.097  
G31  21044537.230   110589791.180  
G32  20451074.389   107471120.404  
G20  20451074.645   107471119.407  
G21  21713447.356   114104936.485  
G16  24015185.077   126200647.856  
G23  20451074.629   107471120.402  
G14  20451074.085   107471119.402  
G29  20451074.399   107471120.406  
> 2019 09 08 05 10 29.0000000  0  9                     
G26  21840375.912   114771951.480  
G31  21044731.927   110590813.032  
G32  20451337.117   107472501.775  
G20  20451337.290   107472500.777  
G21  21712987.530   114102519.420  
G16  24014563.117   126197378.674  
G23  20451337.726   107472501.777  
G14  20451337.075   107472500.776  
G29  20451337.161   107472501.770  
> 2019 09 08 05 10 30.0000000  0  9                     
G26  21839890.844   114769402.017  
G31  21044926.619   110591835.417  
G32  20451600.070   107473883.418  
G20  20451600.134   107473882.417  
G21  21712527.718   114100102.696  
G16  24013941.083   126194109.467  
G23  20451600.577   107473883.418  
G14  20451599.944   107473882.419  
G29  20451599.862   107473883.414  
> 2019 09 08 05 10 31.0000000  0  9                     
G26  21839405.943   114766852.835  
G31  21045121.407   110592858.458  
G32  20451863.082   107475265.474  
G20  20451863.113   107475264.472  
G21  21712067.738   114097686.442  
G16  24013319.067   126190840.362  
G23  20451863.411   107475265.476  
G14  20451862.866   107475264.473  
G29  20451862.972   107475265.474  
> 2019 09 08 05 10 32.0000000  0  9                     
G26  21838920.939   114764303.862  
G31  21045316.164   110593882.101  
G32  20452126.298   107476647.874  
G20  20452126.190   107476646.868  
G21  21711608.185   114095270.618  
G16  24012696.834   126187571.287  
G23  20452126.456   107476647.881  
G14  20452125.713   107476646.876  
G29  20452126.226   107476647.882  
> 2019 09 08 05 10 33.0000000  0  9                     
G26  21838435.759   114761755.096  
G31  21045511.044   110594906.315  
G32  20452389.422   107478030.610  
G20  20452389.314   107478029.610  
G21  21711148.388   114092855.179  
G16  24012074.422   126184302.233  
G23  20452389.637   107478030.608  
G14  20452388.959   107478029.605  
G29  20452389.359   107478030.613  
> 2019 09 08 05 10 34.0000000  0  9                     
G26  21837950.778   114759206.669  
G31  21045705.989   110595931.244  
G32  20452652.657   107479413.791  
G20  20452652.588   107479412.796  
G21  21710688.933   114090440.269  
G16  24011452.543   126181033.330  
G23  20452652.846   107479413.788  
G14  20452652.248   107479412.799  
G29  20452652.702   107479413.798  
> 2019 09 08 05 10 35.0000000  0  9                     
G26  21837465.853   114756658.443  
G31  21045901.196   110596956.764  
G32  20452915.966   107480797.320  
G20  20452916.022   107480796.314  
G21  21710229.492   114088025.767  
G16  24010830.589   126177764.462  
G23  20452915.994   107480797.321  
G14  20452915.647   107480796.316  
G29  20452916.226   107480797.313  
> 2019 09 08 05 10 36.0000000  0  9                     
G26  21836981.155   114754110.453  
G31  21046096.266   110597982.866  
G32  20453179.296   107482181.190  
G20  20453179.122   107482180.185  
G21  21709770.100   114085611.676  
G16  24010208.683   126174495.635  
G23  20453179.091   107482181.190  
G14  20453178.833   107482180.188  
G29  20453179.629   107482181.189  
> 2019 09 08 05 10 37.0000000  0  9                     
G26  21836496.344   114751562.573  
G31  21046291.497   110599009.485  
G32  20453442.768   107483565.302  
G20  20453442.498   107483564.297  
G21  21709311.059   114083197.891  
G16  24009586.553   126171226.736  
G23  20453442.489   107483565.306  
G14  20453442.291   107483564.305  
G29  20453442.866   107483565.308  
> 2019 09 08 05 10 38.0000000  0  9                     
G26  21836011.314   114749014.983  
G31  21046487.090   110600036.780  
G32  20453706.319   107484949.849  
G20  20453706.107   107484948.850  
G21  21708851.785   114080784.633  
G16  24008964.364   126167957.978  
G23  20453706.022   107484949.856  
G14  20453705.857   107484948.858  
G29  20453706.231   107484949.857  
> 2019 09 08 05 10 39.0000000  0  9                     
G26  21835526.509   114746467.671  
G31  21046682.824   110601064.694  
G32  20453969.840   107486334.778  
G20  20453969.607   107486333.791  
G21  21708392.554   114078371.800  
G16  24008342.162   126164689.286  
G23  20453969.599   107486334.782  
G14  20453969.522   107486333.779  
G29  20453969.517   107486334.784  
> 2019 09 08 05 10 40.0000000  0  9                     
G26  21835041.866   114743920.640  
G31  21046878.437   110602093.285  
G32  20454233.312   107487720.130  
G20  20454233.166   107487719.123  
G21  21707933.227   114075959.465  
G16  24007720.142   126161420.701  
G23  20454233.031   107487720.128  
G14  20454233.010   107487719.124  
G29  20454232.992   107487720.125  
> 2019 09 08 05 10 41.0000000  0  9                     
G26  21834557.283   114741373.861  
G31  21047074.502   110603122.513  
G32  20454497.057   107489105.846  
G20  20454497.012   107489104.849  
G21  21707474.152   114073547.578  
G16  24007098.329   126158152.185  
G23  20454496.710   107489105.852  
G14  20454496.782   107489104.848  
G29  20454496.722   107489105.849  
> 2019 09 08 05 10 42.0000000  0  9                     
G26  21834072.800   114738827.288  
G31  21047270.377   110604152.317  
G32  20454760.742   107490491.907  
G20  20454761.194   107490490.909  
G21  21707015.055   114071136.091  
G16  24006476.537   126154883.709  
G23  20454760.516   107490491.909  
G14  20454760.389   107490490.908  
G29  20454760.465   107490491.911  
> 2019 09 08 05 10 43.0000000  0  9                     
G26  21833588.358   114736280.959  
G31  21047466.433   110605182.742  
G32  20455024.679   107491878.334  
G20  20455024.892   107491877.339  
G21  21706556.298   114068725.039  
G16  24005854.608   126151615.283  
G23  20455024.628   107491878.331  
G14  20455024.119   107491877.339  
G29  20455024.463   107491878.336  
> 2019 09 08 05 10 44.0000000  0  9                     
G26  21833103.685   114733734.869  
G31  21047662.402   110606213.769  
G32  20455288.545   107493265.124  
G20  20455288.688   107493264.122  
G21  21706097.726   114066314.419  
G16  24005232.741   126148346.916  
G23  20455288.483   107493265.129  
G14  20455288.190   107493264.125  
G29  20455288.505   107493265.127  
> 2019 09 08 05 10 45.0000000  0  9                     
G26  21832619.359   114731189.020  
G31  21047858.862   110607245.442  
G32  20455552.616   107494652.294  
G20  20455552.588   107494651.295  
G21  21705639.189   114063904.256  
G16  24004610.796   126145078.621  
G23  20455552.444   107494652.286  
G14  20455551.933   107494651.294  
G29  20455552.027   107494652.292  
> 2019 09 08 05 10 46.0000000  0  9                     
G26  21832134.809   114728643.445  
G31  21048055.321   110608277.738  
G32  20455816.513   107496039.838  
G20  20455816.635   107496038.829  
G21  21705180.595   114061494.542  
G16  24003988.943   126141810.401  
G23  20455816.574   107496039.829  
G14  20455816.186   107496038.839  
G29  20455816.342   107496039.828  
> 2019 09 08 05 10 47.0000000  0  9                     
G26  21831650.686   114726098.044  
G31  21048251.956   110609310.586  
G32  20456080.533   107497427.688  
G20  20456080.834   107497426.692  
G21  21704722.057   114059085.202  
G16  24003366.927   126138542.174  
G23  20456080.795   107497427.700  
G14  20456080.069   107497426.692  
G29  20456080.550   107497427.699  
> 2019 09 08 05 10 48.0000000  0  9                     
G26  21831166.436   114723552.896  
G31  21048448.562   110610344.083  
G32  20456344.562   107498815.927  
G20  20456345.221   107498814.936  
G21  21704263.803   114056676.310  
G16  24002744.837   126135274.044  
G23  20456344.867   107498815.929  
G14  20456344.414   107498814.935  
G29  20456344.662   107498815.927  
> 2019 09 08 05 10 49.0000000  0  9                     
G26  21830682.262   114721008.021  
G31  21048645.539   110611378.205  
G32  20456608.878   107500204.552  
G20  20456609.311   107500203.545  
G21  21703805.148   114054267.877  
G16  24002122.752   126132005.980  
G23  20456609.076   107500204.554  
G14  20456608.765   107500203.560  
G29  20456608.908   107500204.556  
> 2019 09 08 05 10 50.0000000  0  9                     
G26  21830197.915   114718463.384  
G31  21048842.512   110612412.964  
G32  20456873.189   107501593.549  
G20  20456873.465   107501592.550  
G21  21703347.180   114051859.901  
G16  24001501.035   126128737.989  
G23  20456873.199   107501593.556  
G14  20456873.143   107501592.556  
G29  20456873.617   107501593.554  
> 2019 09 08 05 10 51.0000000  0  9                     
G26  21829713.672   114715918.905  
G31  21049039.286   110613448.254  
G32  20457137.507   107502982.838  
G20  20457137.823   107502981.835  
G21  21702889.087   114049452.261  
G16  24000879.178   126125469.961  
G23  20457137.872   107502982.833  
G14  20457137.432   107502981.832  
G29  20457137.728   107502982.824  
> 2019 09 08 05 10 52.0000000  0  9                     
G26  21829229.236   114713374.655  
G31  21049236.596   110614484.130  
G32  20457401.813   107504372.452  
G20  20457402.404   107504371.452  
G21  21702431.112   114047045.040  
G16  24000257.008   126122201.987  
G23  20457402.460   107504372.450  
G14  20457402.060   107504371.450  
G29  20457402.081   107504372.451  
> 2019 09 08 05 10 53.0000000  0  9                     
G26  21828744.984   114710830.718  
G31  21049433.556   110615520.708  
G32  20457666.520   107505762.528  
G20  20457666.990   107505761.528  
G21  21701973.095   114044638.331  
G16  23999635.213   126118934.148  
G23  20457666.668   107505762.527  
G14  20457666.373   107505761.519  
G29  20457666.707   107505762.521  
> 2019 09 08 05 10 54.0000000  0  9                     
G26  21828260.985   114708287.049  
G31  21049631.264   110616557.927  
G32  20457931.021   107507152.983  
G20  20457931.587   107507151.986  
G21  21701515.013   114042232.095  
G16  23999013.541   126115666.390  
G23  20457931.046   107507152.986  
G14  20457931.004   107507151.982  
G29  20457931.114   107507152.988  
> 2019 09 08 05 10 55.0000000  0  9                     
G26  21827777.059   114705743.546  
G31  21049828.458   110617595.708  
G32  20458195.833   107508543.745  
G20  20458196.142   107508542.756  
G21  21701057.233   114039826.221  
G16  23998391.588   126112398.645  
G23  20458195.672   107508543.749  
G14  20458195.487   107508542.750  
G29  20458195.721   107508543.753  
> 2019 09 08 05 10 56.0000000  0  9                     
G26  21827292.903   114703200.340  
G31  21050026.122   110618634.131  
G32  20458460.830   107509934.922  
G20  20458460.806   107509933.922  
G21  21700599.618   114037420.826  
G16  23997769.777   126109130.986  
G23  20458460.620   107509934.922  
G14  20458460.258   107509933.919  
G29  20458460.481   107509934.922  
> 2019 09 08 05 10 57.0000000  0  9                     
G26  21826809.000   114700657.474  
G31  21050223.810   110619673.273  
G32  20458725.268   107511326.553  
G20  20458725.756   107511325.545  
G21  21700141.959   114035015.971  
G16  23997148.072   126105863.489  
G23  20458725.389   107511326.545  
G14  20458725.010   107511325.536  
G29  20458725.212   107511326.545  
> 2019 09 08 05 10 58.0000000  0  9                     
G26  21826325.358   114698115.101  
G31  21050421.791   110620713.292  
G32  20458990.319   107512718.809  
G20  20458990.670   107512717.808  
G21  21699684.442   114032611.800  
G16  23996526.425   126102596.319  
G23  20458990.254   107512718.815  
G14  20458990.000   107512717.811  
G29  20458990.408   107512718.811  
> 2019 09 08 05 10 59.0000000  0  9                     
G26  21825841.515   114695572.917  
G31  21050619.546   110621753.881  
G32  20459255.352   107514111.370  
G20  20459255.694   107514110.370  
G21  21699226.926   114030208.019  
G16  23995904.552   126099329.131  
G23  20459255.254   107514111.367  
G14  20459255.116   107514110.364  
G29  20459255.397   107514111.368  
> 2019 09 08 05 11 00.0000000  0  9                     
G26  21825358.016   114693030.819  
G31  21050817.888   110622794.920  
G32  20459520.238   107515504.150  
G20  20459520.845   107515503.158  
G21  21698769.392   114027804.536  
G16  23995282.969   126096061.872  
G23  20459520.408   107515504.149  
G14  20459520.044   107515503.153  
G29  20459520.246   107515504.149  
> 2019 09 08 05 11 01.0000000  0  9                     
G26  21824874.209   114690489.021  
G31  21051016.162   110623836.636  
G32  20459785.360   107516897.340  
G20  20459786.193   107516896.344  
G21  21698312.048   114025401.514  
G16  23994661.261   126092794.712  
G23  20459785.582   107516897.341  
G14  20459785.108   107516896.343  
G29  20459785.563   107516897.346  
> 2019 09 08 05 11 02.0000000  0  9                     
G26  21824390.896   114687947.302  
G31  21051214.515   110624878.807  
G32  20460050.460   107518290.753  
G20  20460051.333   107518289.747  
G21  21697855.131   114022998.798  
G16  23994039.585   126089527.470  
G23  20460050.700   107518290.751  
G14  20460050.392   107518289.743  
G29  20460050.891   107518290.749  
> 2019 09 08 05 11 03.0000000  0  9                     
G26  21823907.283   114685405.736  
G31  21051413.046   110625921.510  
G32  20460315.722   107519684.427  
G20  20460316.355   107519683.432  
G21  21697397.964   114020596.407  
G16  23993417.978   126086260.192  
G23  20460315.928   107519684.429  
G14  20460315.868   107519683.427  
G29  20460315.848   107519684.432  
> 2019 09 08 05 11 04.0000000  0  9                     
G26  21823423.299   114682864.389  
G31  21051611.758   110626964.786  
G32  20460581.003   107521078.444  
G20  20460581.486   107521077.446  
G21  21696940.790   114018194.443  
G16  23992796.335   126082992.943  
G23  20460581.466   107521078.444  
G14  20460580.941   107521077.447  
G29  20460581.044   107521078.438  
> 2019 09 08 05 11 05.0000000  0  9                     
G26  21822939.711   114680323.272  
G31  21051810.213   110628008.683  
G32  20460846.257   107522472.822  
G20  20460846.837   107522471.815  
G21  21696483.882   114015792.893  
G16  23992174.357   126079725.748  
G23  20460846.398   107522472.811  
G14  20460846.416   107522471.811  
G29  20460846.616   107522472.816  
> 2019 09 08 05 11 06.0000000  0  9                     
G26  21822456.146   114677782.420  
G31  21052009.095   110629053.226  
G32  20461111.456   107523867.588  
G20  20461112.283   107523866.587  
G21  21696026.951   114013391.815  
G16  23991552.813   126076458.647  
G23  20461111.912   107523867.579  
G14  20461111.529   107523866.583  
G29  20461111.890   107523867.587  
> 2019 09 08 05 11 07.0000000  0  9                     
G26  21821972.665   114675241.817  
G31  21052207.785   110630098.389  
G32  20461377.043   107525262.715  
G20  20461377.799   107525261.718  
G21  21695570.291   114010991.180  
G16  23990931.159   126073191.601  
G23  20461377.464   107525262.722  
G14  20461377.273   107525261.714  
G29  20461377.435   107525262.716  
> 2019 09 08 05 11 08.0000000  0  9                     
G26  21821489.355   114672701.460  
G31  21052406.689   110631144.161  
G32  20461642.707   107526658.218  
G20  20461643.263   107526657.226  
G21  21695113.304   114008590.980  
G16  23990309.546   126069924.629  
G23  20461643.002   107526658.218  
G14  20461642.802   107526657.222  
G29  20461643.031   107526658.215  
> 2019 09 08 05 11 09.0000000  0  9                     
G26  21821006.058   114670161.325  
G31  21052605.760   110632190.546  
G32  20461908.348   107528054.078  
G20  20461908.779   107528053.070  
G21  21694656.928   114006191.208  
G16  23989687.807   126066657.705  
G23  20461908.560   107528054.080  
G14  20461908.280   107528053.073  
G29  20461908.579   107528054.071  
> 2019 09 08 05 11 10.0000000  0  9                     
G26  21820522.481   114667621.454  
G31  21052805.120   110633237.548  
G32  20462174.134   107529450.297  
G20  20462174.278   107529449.300  
G21  21694200.179   114003791.882  
G16  23989066.093   126063390.840  
G23  20462174.519   107529450.304  
G14  20462173.809   107529449.295  
G29  20462174.052   107529450.298  
> 2019 09 08 05 11 11.0000000  0  9                     
G26  21820039.134   114665081.805  
G31  21053004.496   110634285.162  
G32  20462440.209   107530846.885  
G20  20462440.178   107530845.890  
G21  21693743.615   114001392.988  
G16  23988444.387   126060124.034  
G23  20462440.251   107530846.890  
G14  20462439.755   107530845.886  
G29  20462439.803   107530846.891  
> 2019 09 08 05 11 12.0000000  0  9                     
G26  21819555.796   114662542.388  
G31  21053204.025   110635333.380  
G32  20462706.051   107532243.820  
G20  20462706.029   107532242.813  
G21  21693287.132   113998994.510  
G16  23987822.740   126056857.272  
G23  20462705.736   107532243.814  
G14  20462705.778   107532242.815  
G29  20462705.668   107532243.818  
> 2019 09 08 05 11 13.0000000  0  9                     
G26  21819072.341   114660003.163  
G31  21053403.363   110636382.157  
G32  20462971.938   107533641.069  
G20  20462971.883   107533640.070  
G21  21692830.819   113996596.418  
G16  23987201.059   126053590.522  
G23  20462971.426   107533641.068  
G14  20462971.547   107533640.061  
G29  20462971.634   107533641.071  
> 2019 09 08 05 11 14.0000000  0  9                     
G26  21818589.520   114657464.262  
G31  21053603.081   110637431.636  
G32  20463237.877   107535038.763  
G20  20463237.880   107535037.756  
G21  21692374.765   113994198.848  
G16  23986579.367   126050323.922  
G23  20463237.134   107535038.755  
G14  20463237.179   107535037.756  
G29  20463237.680   107535038.759  
> 2019 09 08 05 11 15.0000000  0  9                     
G26  21818106.578   114654925.576  
G31  21053803.182   110638481.704  
G32  20463503.804   107536436.791  
G20  20463504.127   107536435.799  
G21  21691918.517   113991801.695  
G16  23985957.707   126047057.328  
G23  20463503.216   107536436.785  
G14  20463503.366   107536435.799  
G29  20463503.728   107536436.787  
> 2019 09 08 05 11 16.0000000  0  9                     
G26  21817623.623   114652387.110  
G31  21054003.066   110639532.359  
G32  20463769.922   107537835.167  
G20  20463770.253   107537834.164  
G21  21691462.392   113989404.942  
G16  23985336.129   126043790.790  
G23  20463769.598   107537835.156  
G14  20463769.740   107537834.161  
G29  20463769.814   107537835.156  
> 2019 09 08 05 11 17.0000000  0  9                     
G26  21817140.883   114649848.802  
G31  21054203.032   110640583.559  
G32  20464035.632   107539233.823  
G20  20464036.044   107539232.820  
G21  21691006.472   113987008.558  
G16  23984714.656   126040524.248  
G23  20464036.252   107539233.821  
G14  20464035.813   107539232.815  
G29  20464036.045   107539233.828  
> 2019 09 08 05 11 18.0000000  0  9                     
G26  21816657.887   114647310.857  
G31  21054403.204   110641635.485  
G32  20464302.076   107540632.961  
G20  20464302.163   107540631.952  
G21  21690550.746   113984612.731  
G16  23984092.774   126037257.867  
G23  20464302.383   107540632.956  
G14  20464302.098   107540631.958  
G29  20464301.960   107540632.960  
> 2019 09 08 05 11 19.0000000  0  9                     
G26  21816174.844   114644773.155  
G31  21054603.470   110642688.019  
G32  20464568.571   107542032.457  
G20  20464568.837   107542031.460  
G21  21690094.744   113982217.330  
G16  23983471.037   126033991.549  
G23  20464568.907   107542032.453  
G14  20464568.292   107542031.458  
G29  20464568.155   107542032.459  
> 2019 09 08 05 11 20.0000000  0  9                     
G26  21815692.028   114642235.700  
G31  21054803.730   110643741.187  
G32  20464834.733   107543432.321  
G20  20464835.270   107543431.327  
G21  21689638.884   113979822.379  
G16  23982849.321   126030725.292  
G23  20464834.901   107543432.322  
G14  20464834.932   107543431.327  
G29  20464834.631   107543432.317  
> 2019 09 08 05 11 21.0000000  0  9                     
G26  21815209.155   114639698.425  
G31  21055004.090   110644794.910  
G32  20465101.200   107544832.501  
G20  20465101.778   107544831.505  
G21  21689183.127   113977427.819  
G16  23982227.750   126027459.056  
G23  20465101.255   107544832.509  
G14  20465101.387   107544831.512  
G29  20465101.189   107544832.512  
> 2019 09 08 05 11 22.0000000  0  9                     
G26  21814726.284   114637161.388  
G31  21055204.859   110645849.231  
G32  20465367.494   107546233.036  
G20  20465368.473   107546232.036  
G21  21688727.547   113975033.663  
G16  23981606.629   126024192.855  
G23  20465367.844   107546233.030  
G14  20465367.571   107546232.025  
G29  20465367.600   107546233.021  
> 2019 09 08 05 11 23.0000000  0  9                     
G26  21814243.662   114634624.647  
G31  21055405.865   110646904.227  
G32  20465634.084   107547633.986  
G20  20465634.733   107547632.984  
G21  21688271.924   113972640.024  
G16  23980985.056   126020926.780  
G23  20465634.521   107547633.974  
G14  20465633.926   107547632.990  
G29  20465634.296   107547633.989  
> 2019 09 08 05 11 24.0000000  0  9                     
G26  21813760.796   114632088.221  
G31  21055606.587   110647959.914  
G32  20465901.145   107549035.360  
G20  20465901.738   107549034.372  
G21  21687816.655   113970246.871  
G16  23980363.814   126017660.834  
G23  20465901.403   107549035.369  
G14  20465901.072   107549034.366  
G29  20465900.946   107549035.369  
> 2019 09 08 05 11 25.0000000  0  9                     
G26  21813278.418   114629552.144  
G31  21055807.604   110649016.319  
G32  20466167.904   107550437.223  
G20  20466168.218   107550436.229  
G21  21687361.625   113967854.281  
G16  23979742.438   126014395.061  
G23  20466167.929   107550437.227  
G14  20466167.817   107550436.231  
G29  20466167.649   107550437.225  
> 2019 09 08 05 11 26.0000000  0  9                     
G26  21812795.782   114627016.297  
G31  21056008.442   110650073.325  
G32  20466434.587   107551839.428  
G20  20466435.413   107551838.432  
G21  21686906.470   113965462.110  
G16  23979121.014   126011129.334  
G23  20466434.939   107551839.437  
G14  20466434.784   107551838.430  
G29  20466434.285   107551839.429  
> 2019 09 08 05 11 27.0000000  0  9                     
G26  21812312.916   114624480.532  
G31  21056209.835   110651130.792  
G32  20466701.568   107553241.841  
G20  20466701.917   107553240.840  
G21  21686451.140   113963070.224  
G16  23978499.630   126007863.501  
G23  20466701.756   107553241.831  
G14  20466701.503   107553240.839  
G29  20466701.385   107553241.842  
> 2019 09 08 05 11 28.0000000  0  9                     
G26  21811830.538   114621944.971  
G31  21056411.342   110652188.825  
G32  20466968.436   107554644.575  
G20  20466968.875   107554643.561  
G21  21685995.989   113960678.713  
G16  23977878.018   126004597.690  
G23  20466968.394   107554644.559  
G14  20466968.076   107554643.570  
G29  20466968.401   107554644.571  
> 2019 09 08 05 11 29.0000000  0  9                     
G26  21811348.050   114619409.622  
G31  21056612.874   110653247.444  
G32  20467235.180   107556047.629  
G20  20467235.953   107556046.637  
G21  21685540.973   113958287.619  
G16  23977256.313   126001331.907  
G23  20467235.328   107556047.629  
G14  20467234.804   107556046.627  
G29  20467235.357   107556047.634  
> 2019 09 08 05 11 30.0000000  0  9                     
G26  21810865.388   114616874.449  
G31  21056814.406   110654306.619  
G32  20467502.791   107557450.992  
G20  20467503.195   107557450.001  
G21  21685086.281   113955896.916  
G16  23976635.062   125998066.128  
G23  20467502.319   107557450.995  
G14  20467502.142   107557450.001  
G29  20467502.438   107557450.985  
> 2019 09 08 05 11 31.0000000  0  9                     
G26  21810383.032   114614339.605  
G31  21057016.029   110655366.482  
G32  20467770.080   107558854.805  
G20  20467770.144   107558853.813  
G21  21684631.644   113953506.733  
G16  23976013.564   125994800.499  
G23  20467769.517   107558854.808  
G14  20467769.559   107558853.807  
G29  20467769.586   107558854.811  
> 2019 09 08 05 11 32.0000000  0  9                     
G26  21809900.819   114611805.000  
G31  21057217.835   110656426.969  
G32  20468037.242   107560258.982  
G20  20468037.069   107560257.984  
G21  21684176.556   113951116.974  
G16  23975392.313   125991534.925  
G23  20468036.824   107560258.984  
G14  20468036.754   107560257.984  
G29  20468036.858   107560258.978  
> 2019 09 08 05 11 33.0000000  0  9                     
G26  21809418.718   114609270.644  
G31  21057419.821   110657488.077  
G32  20468304.605   107561663.518  
G20  20468304.369   107561662.514  
G21  21683721.738   113948727.659  
G16  23974770.746   125988269.416  
G23  20468304.064   107561663.515  
G14  20468304.262   107561662.514  
G29  20468304.006   107561663.518  
> 2019 09 08 05 11 34.0000000  0  9                     
G26  21808936.610   114606736.482  
G31  21057622.198   110658549.751  
G32  20468571.594   107563068.379  
G20  20468571.548   107563067.388  
G21  21683267.142   113946338.746  
G16  23974149.417   125985003.913  
G23  20468571.646   107563068.380  
G14  20468571.669   107563067.390  
G29  20468571.333   107563068.381  
> 2019 09 08 05 11 35.0000000  0  9                     
G26  21808454.536   114604202.586  
G31  21057824.228   110659612.051  
G32  20468838.704   107564473.617  
G20  20468839.002   107564472.604  
G21  21682812.599   113943950.270  
G16  23973528.056   125981738.503  
G23  20468839.005   107564473.607  
G14  20468838.996   107564472.616  
G29  20468838.606   107564473.619  
> 2019 09 08 05 11 36.0000000  0  9                     
G26  21807972.537   114601668.959  
G31  21058026.673   110660675.005  
G32  20469106.243   107565879.243  
G20  20469106.586   107565878.241  
G21  21682358.229   113941562.290  
G16  23972906.522   125978473.183  
G23  20469106.533   107565879.251  
G14  20469106.404   107565878.243  
G29  20469105.989   107565879.247  
> 2019 09 08 05 11 37.0000000  0  9                     
G26  21807489.991   114599135.616  
G31  21058228.764   110661738.584  
G32  20469373.863   107567285.264  
G20  20469374.063   107567284.272  
G21  21681904.106   113939174.756  
G16  23972285.307   125975207.944  
G23  20469374.166   107567285.269  
G14  20469373.762   107567284.265  
G29  20469373.890   107567285.259  
> 2019 09 08 05 11 38.0000000  0  9                     
G26  21807007.901   114596602.482  
G31  21058431.446   110662802.778  
G32  20469641.393   107568691.631  
G20  20469641.734   107568690.624  
G21  21681449.903   113936787.642  
G16  23971664.216   125971942.759  
G23  20469641.829   107568691.625  
G14  20469641.049   107568690.624  
G29  20469641.564   107568691.628  
> 2019 09 08 05 11 39.0000000  0  9                     
G26  21806526.024   114594069.564  
G31  21058633.921   110663867.547  
G32  20469909.210   107570098.319  
G20  20469909.790   107570097.326  
G21  21680995.626   113934400.940  
G16  23971042.934   125968677.593  
G23  20469909.287   107570098.326  
G14  20469908.735   107570097.330  
G29  20469909.361   107570098.328  
> 2019 09 08 05 11 40.0000000  0  9                     
G26  21806044.117   114591536.890  
G31  21058836.658   110664932.933  
G32  20470176.894   107571505.383  
G20  20470177.407   107571504.389  
G21  21680541.280   113932014.670  
G16  23970421.347   125965412.498  
G23  20470177.041   107571505.389  
G14  20470176.530   107571504.391  
G29  20470176.795   107571505.382  
> 2019 09 08 05 11 41.0000000  0  9                     
G26  21805562.145   114589004.483  
G31  21059039.396   110665998.955  
G32  20470445.044   107572912.831  
G20  20470445.134   107572911.826  
G21  21680087.567   113929628.875  
G16  23969800.154   125962147.485  
G23  20470444.873   107572912.816  
G14  20470444.194   107572911.826  
G29  20470444.820   107572912.828  
> 2019 09 08 05 11 42.0000000  0  9                     
G26  21805080.340   114586472.327  
G31  21059242.251   110667065.586  
G32  20470712.592   107574320.638  
G20  20470712.852   107574319.637  
G21  21679633.444   113927243.514  
G16  23969178.802   125958882.535  
G23  20470712.603   107574320.642  
G14  20470712.293   107574319.641  
G29  20470712.438   107574320.639  
> 2019 09 08 05 11 43.0000000  0  9                     
G26  21804598.379   114583940.405  
G31  21059445.410   110668132.840  
G32  20470980.754   107575728.803  
G20  20470980.842   107575727.803  
G21  21679179.671   113924858.586  
G16  23968557.427   125955617.643  
G23  20470980.404   107575728.801  
G14  20470980.212   107575727.804  
G29  20470980.311   107575728.807  
> 2019 09 08 05 11 44.0000000  0  9                     
G26  21804116.721   114581408.715  
G31  21059648.686   110669200.698  
G32  20471248.894   107577137.323  
G20  20471248.898   107577136.323  
G21  21678725.949   113922474.083  
G16  23967936.040   125952352.803  
G23  20471248.844   107577137.325  
G14  20471248.488   107577136.320  
G29  20471248.387   107577137.324  
> 2019 09 08 05 11 45.0000000  0  9                     
G26  21803635.264   114578877.283  
G31  21059851.836   110670269.163  
G32  20471517.223   107578546.217  
G20  20471516.891   107578545.217  
G21  21678272.238   113920090.042  
G16  23967314.956   125949088.033  
G23  20471517.108   107578546.222  
G14  20471516.581   107578545.213  
G29  20471516.955   107578546.220  
> 2019 09 08 05 11 46.0000000  0  9                     
G26  21803153.438   114576346.045  
G31  21060055.505   110671338.224  
G32  20471785.328   107579955.428  
G20  20471785.184   107579954.439  
G21  21677818.851   113917706.389  
G16  23966693.626   125945823.286  
G23  20471785.276   107579955.427  
G14  20471784.733   107579954.435  
G29  20471785.176   107579955.430  
> 2019 09 08 05 11 47.0000000  0  9                     
G26  21802671.822   114573815.016  
G31  21060259.028   110672407.832  
G32  20472053.569   107581364.963  
G20  20472053.573   107581363.964  
G21  21677365.214   113915323.140  
G16  23966072.232   125942558.550  
G23  20472053.287   107581364.966  
G14  20472052.984   107581363.955  
G29  20472053.424   107581364.959  
> 2019 09 08 05 11 48.0000000  0  9                     
G26  21802190.177   114571284.259  
G31  21060462.755   110673478.110  
G32  20472321.835   107582774.893  
G20  20472321.971   107582773.887  
G21  21676911.760   113912940.365  
G16  23965450.852   125939293.926  
G23  20472321.564   107582774.893  
G14  20472321.138   107582773.897  
G29  20472321.739   107582774.890  
> 2019 09 08 05 11 49.0000000  0  9                     
G26  21801708.507   114568753.782  
G31  21060666.746   110674549.021  
G32  20472590.000   107584185.224  
G20  20472590.445   107584184.208  
G21  21676458.454   113910558.044  
G16  23964829.952   125936029.379  
G23  20472589.810   107584185.206  
G14  20472589.310   107584184.210  
G29  20472589.766   107584185.208  
> 2019 09 08 05 11 50.0000000  0  9                     
G26  21801227.316   114566223.531  
G31  21060870.534   110675620.543  
G32  20472858.384   107585595.883  
G20  20472858.841   107585594.883  
G21  21676005.660   113908176.170  
G16  23964208.716   125932764.895  
G23  20472857.980   107585595.889  
G14  20472858.155   107585594.882  
G29  20472858.381   107585595.890  
> 2019 09 08 05 11 51.0000000  0  9                     
G26  21800745.916   114563693.489  
G31  21061074.656   110676692.627  
G32  20473126.930   107587006.873  
G20  20473127.058   107587005.866  
G21  21675552.392   113905794.678  
G16  23963587.697   125929500.413  
G23  20473126.617   107587006.877  
G14  20473126.631   107587005.879  
G29  20473126.659   107587006.873  
> 2019 09 08 05 11 52.0000000  0  9                     
G26  21800264.633   114561163.651  
G31  21061278.549   110677765.288  
G32  20473395.328   107588418.190  
G20  20473395.563   107588417.194  
G21  21675099.041   113903413.590  
G16  23962966.472   125926235.973  
G23  20473395.467   107588418.197  
G14  20473395.103   107588417.195  
G29  20473395.428   107588418.186  
> 2019 09 08 05 11 53.0000000  0  9                     
G26  21799783.136   114558634.108  
G31  21061482.734   110678838.620  
G32  20473663.786   107589829.918  
G20  20473664.346   107589828.927  
G21  21674646.018   113901033.007  
G16  23962345.216   125922971.650  
G23  20473664.106   107589829.921  
G14  20473663.839   107589828.918  
G29  20473664.121   107589829.918  
> 2019 09 08 05 11 54.0000000  0  9                     
G26  21799301.616   114556104.814  
G31  21061687.058   110679912.563  
G32  20473932.750   107591242.017  
G20  20473932.847   107591241.024  
G21  21674192.985   113898652.853  
G16  23961723.980   125919707.376  
G23  20473932.978   107591242.023  
G14  20473932.520   107591241.013  
G29  20473932.745   107591242.016  
> 2019 09 08 05 11 55.0000000  0  9                     
G26  21798820.197   114553575.779  
G31  21061891.472   110680987.133  
G32  20474201.685   107592654.481  
G20  20474201.665   107592653.481  
G21  21673739.958   113896273.147  
G16  23961102.751   125916443.178  
G23  20474201.700   107592654.490  
G14  20474201.081   107592653.476  
G29  20474201.545   107592654.485  
> 2019 09 08 05 11 56.0000000  0  9                     
G26  21798339.347   114551046.933  
G31  21062096.062   110682062.275  
G32  20474470.391   107594067.269  
G20  20474470.557   107594066.266  
G21  21673287.126   113893893.849  
G16  23960481.280   125913179.016  
G23  20474470.579   107594067.278  
G14  20474470.217   107594066.272  
G29  20474470.506   107594067.269  
> 2019 09 08 05 11 57.0000000  0  9                     
G26  21797858.259   114548518.270  
G31  21062300.596   110683137.967  
G32  20474739.596   107595480.342  
G20  20474739.539   107595479.345  
G21  21672834.457   113891514.918  
G16  23959860.060   125909914.829  
G23  20474739.283   107595480.343  
G14  20474738.995   107595479.353  
G29  20474739.432   107595480.346  
> 2019 09 08 05 11 58.0000000  0  9                     
G26  21797377.166   114545989.837  
G31  21062505.463   110684214.246  
G32  20475008.506   107596893.777  
G20  20475008.668   107596892.779  
G21  21672381.911   113889136.408  
G16  23959238.988   125906650.693  
G23  20475008.327   107596893.770  
G14  20475007.870   107596892.772  
G29  20475008.138   107596893.772  
> 2019 09 08 05 11 59.0000000  0  9                     
G26  21796895.990   114543461.735  
G31  21062710.501   110685291.225  
G32  20475277.611   107598307.645  
G20  20475277.752   107598306.633  
G21  21671929.562   113886758.420  
G16  23958618.018   125903386.711  
G23  20475277.194   107598307.639  
G14  20475277.016   107598306.637  
G29  20475277.180   107598307.642  
> 2019 09 08 05 12 00.0000000  0  9                     
G26  21796414.839   114540933.880  
G31  21062915.574   110686368.838  
G32  20475546.563   107599721.884  
G20  20475546.657   107599720.881  
G21  21671477.136   113884380.882  
G16  23957997.118   125900122.794  
G23  20475546.314   107599721.882  
G14  20475546.036   107599720.883  
G29  20475546.283   107599721.889  
> 2019 09 08 05 12 01.0000000  0  9                     
G26  21795933.509   114538406.264  
G31  21063120.880   110687447.042  
G32  20475815.656   107601136.476  
G20  20475815.876   107601135.470  
G21  21671024.773   113882003.785  
G16  23957375.904   125896858.924  
G23  20475815.570   107601136.477  
G14  20475815.203   107601135.478  
G29  20475815.586   107601136.472  
> 2019 09 08 05 12 02.0000000  0  9                     
G26  21795452.521   114535878.897  
G31  21063326.223   110688525.872  
G32  20476085.022   107602551.434  
G20  20476085.003   107602550.438  
G21  21670572.562   113879627.124  
G16  23956755.082   125893595.140  
G23  20476085.088   107602551.439  
G14  20476084.511   107602550.440  
G29  20476084.952   107602551.428  
> 2019 09 08 05 12 03.0000000  0  9                     
G26  21794971.634   114533351.783  
G31  21063531.355   110689605.328  
G32  20476353.908   107603966.775  
G20  20476354.369   107603965.774  
G21  21670120.589   113877250.926  
G16  23956134.285   125890331.423  
G23  20476354.291   107603966.774  
G14  20476353.935   107603965.775  
G29  20476354.126   107603966.780  
> 2019 09 08 05 12 04.0000000  0  9                     
G26  21794490.931   114530824.913  
G31  21063736.996   110690685.383  
G32  20476623.533   107605382.450  
G20  20476623.970   107605381.463  
G21  21669668.485   113874875.144  
G16  23955512.980   125887067.746  
G23  20476623.813   107605382.455  
G14  20476623.313   107605381.454  
G29  20476623.615   107605382.459  
> 2019 09 08 05 12 05.0000000  0  9                     
G26  21794009.849   114528298.290  
G31  21063942.606   110691766.081  
G32  20476892.681   107606798.516  
G20  20476893.483   107606797.515  
G21  21669216.343   113872499.817  
G16  23954891.887   125883804.163  
G23  20476893.333   107606798.512  
G14  20476893.070   107606797.516  
G29  20476892.846   107606798.526  
> 2019 09 08 05 12 06.0000000  0  9                     
G26  21793528.921   114525771.918  
G31  21064148.488   110692847.362  
G32  20477162.615   107608214.929  
G20  20477162.702   107608213.926  
G21  21668764.309   113870124.931  
G16  23954270.709   125880540.631  
G23  20477162.710   107608214.932  
G14  20477162.550   107608213.931  
G29  20477162.431   107608214.930  
> 2019 09 08 05 12 07.0000000  0  9                     
G26  21793048.573   114523245.791  
G31  21064354.393   110693929.280  
G32  20477431.849   107609631.706  
G20  20477431.891   107609630.718  
G21  21668312.184   113867750.483  
G16  23953649.701   125877277.159  
G23  20477432.304   107609631.712  
G14  20477431.932   107609630.717  
G29  20477431.934   107609631.721  
> 2019 09 08 05 12 08.0000000  0  9                     
G26  21792568.232   114520719.872  
G31  21064560.317   110695011.750  
G32  20477701.741   107611048.817  
G20  20477701.490   107611047.809  
G21  21667860.633   113865376.441  
G16  23953028.877   125874013.717  
G23  20477701.974   107611048.810  
G14  20477701.499   107611047.820  
G29  20477701.720   107611048.815  
> 2019 09 08 05 12 09.0000000  0  9                     
G26  21792087.584   114518194.206  
G31  21064766.421   110696094.877  
G32  20477971.590   107612466.306  
G20  20477971.740   107612465.302  
G21  21667409.070   113863002.873  
G16  23952407.911   125870750.361  
G23  20477971.799   107612466.305  
G14  20477971.324   107612465.298  
G29  20477971.639   107612466.301  
> 2019 09 08 05 12 10.0000000  0  9                     
G26  21791607.014   114515668.810  
G31  21064972.635   110697178.608  
G32  20478241.439   107613884.149  
G20  20478241.775   107613883.150  
G21  21666957.423   113860629.728  
G16  23951786.812   125867487.064  
G23  20478241.675   107613884.151  
G14  20478241.113   107613883.147  
G29  20478241.468   107613884.147  
> 2019 09 08 05 12 11.0000000  0  9                     
G26  21791126.541   114513143.638  
G31  21065179.143   110698262.954  
G32  20478511.114   107615302.347  
G20  20478511.717   107615301.354  
G21  21666505.782   113858257.025  
G16  23951165.875   125864223.828  
G23  20478511.716   107615302.347  
G14  20478510.949   107615301.356  
G29  20478511.447   107615302.351  
> 2019 09 08 05 12 12.0000000  0  9                     
G26  21790646.215   114510618.737  
G31  21065385.933   110699347.930  
G32  20478781.215   107616720.946  
G20  20478781.714   107616719.944  
G21  21666054.573   113855884.794  
G16  23950544.809   125860960.687  
G23  20478781.567   107616720.938  
G14  20478781.198   107616719.946  
G29  20478781.036   107616720.942  
> 2019 09 08 05 12 13.0000000  0  9                     
G26  21790165.616   114508094.093  
G31  21065592.180   110700433.522  
G32  20479051.259   107618139.889  
G20  20479051.652   107618138.887  
G21  21665603.320   113853512.991  
G16  23949923.560   125857697.610  
G23  20479051.389   107618139.896  
G14  20479051.325   107618138.893  
G29  20479050.729   107618139.899  
> 2019 09 08 05 12 14.0000000  0  9                     
G26  21789685.017   114505569.619  
G31  21065798.901   110701519.680  
G32  20479321.233   107619559.155  
G20  20479321.528   107619558.140  
G21  21665151.945   113851141.580  
G16  23949302.505   125854434.528  
G23  20479321.365   107619559.146  
G14  20479321.263   107619558.151  
G29  20479320.811   107619559.141  
> 2019 09 08 05 12 15.0000000  0  9                     
G26  21789204.472   114503045.380  
G31  21066005.285   110702606.410  
G32  20479591.583   107620978.740  
G20  20479591.876   107620977.737  
G21  21664700.796   113848770.585  
G16  23948681.772   125851171.487  
G23  20479591.882   107620978.736  
G14  20479591.224   107620977.741  
G29  20479591.304   107620978.739  
> 2019 09 08 05 12 16.0000000  0  9                     
G26  21788724.495   114500521.399  
G31  21066212.462   110703693.792  
G32  20479861.647   107622398.715  
G20  20479861.705   107622397.706  
G21  21664249.390   113846400.052  
G16  23948060.793   125847908.535  
G23  20479862.091   107622398.718  
G14  20479861.393   107622397.717  
G29  20479861.610   107622398.713  
> 2019 09 08 05 12 17.0000000  0  9                     
G26  21788244.165   114497997.736  
G31  21066419.670   110704781.819  
G32  20480131.867   107623819.104  
G20  20480132.095   107623818.107  
G21  21663798.300   113844030.003  
G16  23947440.297   125844645.699  
G23  20480132.081   107623819.104  
G14  20480131.593   107623818.108  
G29  20480131.783   107623819.099  
> 2019 09 08 05 12 18.0000000  0  9                     
G26  21787764.259   114495474.323  
G31  21066626.574   110705870.507  
G32  20480402.224   107625239.888  
G20  20480402.662   107625238.881  
G21  21663347.341   113841660.438  
G16  23946819.442   125841382.960  
G23  20480402.625   107625239.881  
G14  20480402.070   107625238.882  
G29  20480402.350   107625239.885  
> 2019 09 08 05 12 19.0000000  0  9                     
G26  21787284.020   114492951.264  
G31  21066833.908   110706959.890  
G32  20480672.417   107626661.109  
G20  20480673.103   107626660.102  
G21  21662896.783   113839291.403  
G16  23946198.411   125838120.367  
G23  20480673.089   107626661.107  
G14  20480672.614   107626660.108  
G29  20480672.660   107626661.108  
> 2019 09 08 05 12 20.0000000  0  9                     
G26  21786804.173   114490428.876  
G31  21067041.608   110708050.324  
G32  20480943.351   107628083.136  
G20  20480943.482   107628082.138  
G21  21662446.052   113836923.250  
G16  23945577.876   125834858.274  
G23  20480943.654   107628083.131  
G14  20480943.145   107628082.135  
G29  20480943.198   107628083.139  
> 2019 09 08 05 12 21.0000000  0  9                     
G26  21786324.021   114487906.870  
G31  21067249.060   110709141.487  
G32  20481214.016   107629505.637  
G20  20481214.538   107629504.642  
G21  21661995.355   113834555.647  
G16  23944957.044   125831596.364  
G23  20481214.023   107629505.639  
G14  20481213.985   107629504.644  
G29  20481214.082   107629505.644  
> 2019 09 08 05 12 22.0000000  0  9                     
G26  21785844.140   114485384.738  
G31  21067456.773   110710232.905  
G32  20481484.632   107630928.138  
G20  20481485.016   107630927.145  
G21  21661544.920   113832188.127  
G16  23944336.342   125828334.167  
G23  20481484.751   107630928.140  
G14  20481484.607   107630927.138  
G29  20481484.926   107630928.143  
> 2019 09 08 05 12 23.0000000  0  9                     
G26  21785364.234   114482863.032  
G31  21067664.668   110711325.124  
G32  20481755.450   107632351.199  
G20  20481755.864   107632350.202  
G21  21661094.858   113829821.242  
G16  23943715.553   125825072.206  
G23  20481755.530   107632351.192  
G14  20481755.319   107632350.196  
G29  20481755.716   107632351.193  
> 2019 09 08 05 12 24.0000000  0  9                     
G26  21784884.235   114480341.502  
G31  21067872.444   110712417.888  
G32  20482026.378   107633774.548  
G20  20482026.551   107633773.542  
G21  21660644.253   113827454.726  
G16  23943094.749   125821810.252  
G23  20482026.406   107633774.543  
G14  20482026.063   107633773.546  
G29  20482026.694   107633774.536  
> 2019 09 08 05 12 25.0000000  0  9                     
G26  21784404.490   114477820.065  
G31  21068080.725   110713511.093  
G32  20482297.464   107635198.081  
G20  20482297.328   107635197.074  
G21  21660194.061   113825088.485  
G16  23942474.034   125818548.192  
G23  20482297.375   107635198.080  
G14  20482296.871   107635197.082  
G29  20482297.782   107635198.082  
> 2019 09 08 05 12 26.0000000  0  9                     
G26  21783924.613   114475298.570  
G31  21068288.931   110714604.607  
G32  20482568.332   107636621.661  
G20  20482568.105   107636620.666  
G21  21659743.925   113822722.375  
G16  23941853.169   125815285.869  
G23  20482567.904   107636621.664  
G14  20482567.708   107636620.670  
G29  20482568.282   107636621.661  
> 2019 09 08 05 12 27.0000000  0  9                     
G26  21783444.683   114472777.244  
G31  21068496.926   110715698.668  
G32  20482839.261   107638045.561  
G20  20482839.524   107638044.554  
G21  21659293.713   113820356.648  
G16  23941232.279   125812023.579  
G23  20482838.471   107638045.552  
G14  20482838.695   107638044.552  
G29  20482838.891   107638045.551  
> 2019 09 08 05 12 28.0000000  0  9                     
G26  21782964.737   114470256.203  
G31  21068704.955   110716793.369  
G32  20483110.259   107639469.823  
G20  20483110.227   107639468.827  
G21  21658843.758   113817991.385  
G16  23940611.468   125808761.361  
G23  20483109.670   107639469.831  
G14  20483109.695   107639468.822  
G29  20483109.975   107639469.833  
> 2019 09 08 05 12 29.0000000  0  9                     
G26  21782485.601   114467735.298  
G31  21068913.769   110717888.596  
G32  20483381.385   107640894.371  
G20  20483381.234   107640893.375  
G21  21658393.987   113815626.470  
G16  23939990.791   125805499.115  
G23  20483380.966   107640894.361  
G14  20483381.007   107640893.376  
G29  20483381.036   107640894.367  
> 2019 09 08 05 12 30.0000000  0  9                     
G26  21782005.948   114465214.744  
G31  21069122.125   110718984.518  
G32  20483652.488   107642319.369  
G20  20483652.505   107642318.372  
G21  21657943.965   113813262.094  
G16  23939370.253   125802237.040  
G23  20483652.016   107642319.364  
G14  20483651.996   107642318.365  
G29  20483652.159   107642319.369  
> 2019 09 08 05 12 31.0000000  0  9                     
G26  21781526.451   114462694.440  
G31  21069330.869   110720081.066  
G32  20483923.650   107643744.725  
G20  20483923.770   107643743.731  
G21  21657493.746   113810898.162  
G16  23938749.395   125798975.005  
G23  20483923.455   107643744.731  
G14  20483923.461   107643743.732  
G29  20483923.565   107643744.727  
> 2019 09 08 05 12 32.0000000  0  9                     
G26  21781046.762   114460174.302  
G31  21069539.636   110721178.124  
G32  20484194.767   107645170.354  
G20  20484195.388   107645169.360  
G21  21657043.614   113808534.591  
G16  23938128.530   125795712.970  
G23  20484194.862   107645170.366  
G14  20484194.864   107645169.361  
G29  20484194.994   107645170.365  
> 2019 09 08 05 12 33.0000000  0  9                     
G26  21780567.353   114457654.416  
G31  21069748.430   110722275.829  
G32  20484466.279   107646596.365  
G20  20484466.603   107646595.362  
G21  21656593.919   113806171.463  
G16  23937507.885   125792451.010  
G23  20484466.078   107646596.361  
G14  20484466.280   107646595.365  
G29  20484466.364   107646596.367  
> 2019 09 08 05 13 07.0000000  0  2                     
G14  15078437.315    79237723.2981 
G16  18501098.329    97223926.8441 
> 2019 09 08 05 13 08.0000000  0  6                     
G20  15078711.743    79239164.8291 
G21  16225599.668    85266100.7711 
G23  15078710.840    79239159.8211 
G14  15078711.179    79239161.826  
G26  16348504.195    85911969.0031 
G16  18500477.972    97220667.102  
> 2019 09 08 05 13 09.0000000  0  6                     
G20  15078985.554    79240603.672  
G21  16225153.074    85263753.531  
G23  15078984.905    79240598.677  
G14  15078985.234    79240600.686  
G26  16348026.330    85909457.963  
G16  18499857.758    97217407.392  
> 2019 09 08 05 13 10.0000000  0  6                     
G20  15079259.109    79242042.787  
G21  16224706.258    85261406.620  
G23  15079259.035    79242037.781  
G14  15079258.903    79242039.784  
G26  16347548.654    85906947.062  
G16  18499237.783    97214147.651  
> 2019 09 08 05 13 11.0000000  0  6                     
G20  20775584.737   109176434.964  
G21  21920325.112   115192084.819  
G23  20775584.363   109176429.967  
G14  20775584.290   109176431.972  
G26  22043136.819   115837464.197  
G16  24194685.843   127143929.978  
> 2019 09 08 05 13 12.0000000  0  6                     
G20  20775858.624   109177874.867  
G21  21919878.673   115189738.889  
G23  20775858.454   109177869.865  
G14  20775858.054   109177871.870  
G26  22042659.043   115834953.872  
G16  24194065.668   127140670.447  
> 2019 09 08 05 13 13.0000000  0  6                     
G20  20776132.860   109179315.156  
G21  21919432.131   115187393.422  
G23  20776132.294   109179310.149  
G14  20776131.971   109179312.148  
G26  22042181.366   115832443.835  
G16  24193445.283   127137411.016  
> 2019 09 08 05 13 14.0000000  0  9                     
G29  20776406.691   109180753.8301 
G20  20776406.806   109180755.825  
G21  21918985.792   115185048.437  
G23  20776406.642   109180750.826  
G31  21359169.108   112243190.4271 
G32  20776406.628   109180752.8241 
G14  20776406.398   109180752.831  
G26  22041703.721   115829934.079  
G16  24192824.926   127134151.682  
> 2019 09 08 05 13 15.0000000  0  9                     
G29  20776681.087   109182194.847  
G20  20776681.064   109182196.852  
G21  21918539.836   115182703.886  
G23  20776680.921   109182191.849  
G31  21359382.910   112244313.752  
G32  20776680.819   109182193.849  
G14  20776680.648   109182193.846  
G26  22041226.279   115827424.564  
G16  24192204.707   127130892.398  
> 2019 09 08 05 13 16.0000000  0  9                     
G29  20776955.329   109183636.183  
G20  20776955.618   109183638.177  
G21  21918093.880   115180359.732  
G23  20776955.047   109183633.180  
G31  21359596.546   112245437.652  
G32  20776954.800   109183635.180  
G14  20776954.715   109183635.179  
G26  22040748.831   115824915.244  
G16  24191584.299   127127633.142  
> 2019 09 08 05 13 17.0000000  0  9                     
G29  20777229.694   109185077.899  
G20  20777229.891   109185079.884  
G21  21917647.827   115178016.044  
G23  20777229.687   109185074.888  
G31  21359810.665   112246562.165  
G32  20777229.612   109185076.895  
G14  20777229.124   109185076.894  
G26  22040271.444   115822406.200  
G16  24190964.157   127124373.958  
> 2019 09 08 05 13 18.0000000  0  9                     
G29  20777504.013   109186519.993  
G20  20777504.246   109186521.983  
G21  21917201.770   115175672.833  
G23  20777504.185   109186516.984  
G31  21360024.673   112247687.340  
G32  20777503.885   109186518.981  
G14  20777503.556   109186518.994  
G26  22039793.873   115819897.434  
G16  24190344.026   127121114.880  
> 2019 09 08 05 13 19.0000000  0  9                     
G29  20777778.540   109187962.423  
G20  20777778.598   109187964.411  
G21  21916756.053   115173330.042  
G23  20777778.437   109187959.414  
G31  21360238.615   112248813.078  
G32  20777778.214   109187961.416  
G14  20777777.906   109187961.417  
G26  22039316.314   115817388.891  
G16  24189723.683   127117855.843  
> 2019 09 08 05 13 20.0000000  0  9                     
G29  20778053.150   109189405.168  
G20  20778053.322   109189407.163  
G21  21916310.478   115170987.648  
G23  20778052.972   109189402.165  
G31  21360453.136   112249939.397  
G32  20778052.662   109189404.171  
G14  20778052.456   109189404.158  
G26  22038838.991   115814880.567  
G16  24189103.673   127114596.834  
> 2019 09 08 05 13 21.0000000  0  9                     
G29  20778327.681   109190848.323  
G20  20778327.836   109190850.314  
G21  21915864.821   115168645.749  
G23  20778327.360   109190845.326  
G31  21360667.268   112251066.371  
G32  20778327.187   109190847.318  
G14  20778327.390   109190847.328  
G26  22038361.733   115812372.533  
G16  24188483.537   127111337.940  
> 2019 09 08 05 13 22.0000000  0  9                     
G29  20778602.451   109192291.873  
G20  20778602.742   109192293.870  
G21  21915419.332   115166304.346  
G23  20778601.850   109192288.879  
G31  21360881.805   112252194.005  
G32  20778602.063   109192290.884  
G14  20778602.210   109192290.883  
G26  22037884.777   115809864.789  
G16  24187863.387   127108079.148  
> 2019 09 08 05 13 23.0000000  0  9                     
G29  20778876.947   109193735.775  
G20  20778877.515   109193737.778  
G21  21914973.703   115163963.370  
G23  20778876.718   109193732.774  
G31  21361096.849   112253322.236  
G32  20778876.965   109193734.769  
G14  20778877.172   109193734.768  
G26  22037407.754   115807357.273  
G16  24187243.292   127104820.405  
> 2019 09 08 05 13 24.0000000  0  9                     
G29  20779151.722   109195179.923  
G20  20779152.292   109195181.924  
G21  21914528.162   115161622.736  
G23  20779151.452   109195176.924  
G31  21361311.456   112254450.974  
G32  20779152.022   109195178.920  
G14  20779151.638   109195178.924  
G26  22036930.816   115804849.917  
G16  24186623.221   127101561.633  
> 2019 09 08 05 13 25.0000000  0  9                     
G29  20779426.712   109196624.442  
G20  20779427.205   109196626.441  
G21  21914082.566   115159282.545  
G23  20779426.383   109196621.438  
G31  21361526.355   112255580.321  
G32  20779426.721   109196623.433  
G14  20779426.265   109196623.443  
G26  22036453.915   115802342.814  
G16  24186003.337   127098302.930  
> 2019 09 08 05 13 26.0000000  0  9                     
G29  20779701.870   109198069.371  
G20  20779702.034   109198071.373  
G21  21913637.108   115156942.868  
G23  20779701.508   109198066.374  
G31  21361741.187   112256710.351  
G32  20779701.662   109198068.376  
G14  20779701.037   109198068.378  
G26  22035976.836   115799836.028  
G16  24185383.174   127095044.370  
> 2019 09 08 05 13 27.0000000  0  9                     
G29  20779976.818   109199514.782  
G20  20779977.348   109199516.779  
G21  21913192.166   115154603.754  
G23  20779976.410   109199511.778  
G31  21361956.616   112257841.094  
G32  20779976.508   109199513.781  
G14  20779976.066   109199513.781  
G26  22035499.593   115797329.602  
G16  24184762.848   127091785.974  
> 2019 09 08 05 13 28.0000000  0  9                     
G29  20780252.044   109200960.770  
G20  20780252.289   109200962.767  
G21  21912747.495   115152265.317  
G23  20780251.553   109200957.765  
G31  21362171.874   112258972.676  
G32  20780251.772   109200959.769  
G14  20780251.432   109200959.753  
G26  22035022.672   115794823.655  
G16  24184142.861   127088527.878  
> 2019 09 08 05 13 29.0000000  0  9                     
G29  20780527.277   109202407.254  
G20  20780527.652   109202409.255  
G21  21912302.604   115149927.462  
G23  20780526.859   109202404.256  
G31  21362387.302   112260105.020  
G32  20780527.393   109202406.263  
G14  20780526.853   109202406.250  
G26  22034545.693   115792318.098  
G16  24183522.846   127085269.994  
> 2019 09 08 05 13 30.0000000  0  9                     
G29  20780802.608   109203854.137  
G20  20780802.904   109203856.132  
G21  21911857.852   115147590.077  
G23  20780802.316   109203851.147  
G31  21362602.667   112261238.010  
G32  20780802.573   109203853.136  
G14  20780802.182   109203853.137  
G26  22034068.677   115789812.829  
G16  24182903.012   127082012.209  
> 2019 09 08 05 13 31.0000000  0  9                     
G29  20781078.119   109205301.050  
G20  20781078.364   109205303.043  
G21  21911413.164   115145252.819  
G23  20781077.851   109205298.053  
G31  21362818.563   112262371.266  
G32  20781077.969   109205300.039  
G14  20781077.391   109205300.045  
G26  22033591.962   115787307.473  
G16  24182283.254   127078754.153  
> 2019 09 08 05 13 32.0000000  0  9                     
G29  20781353.428   109206748.252  
G20  20781353.463   109206750.248  
G21  21910968.297   115142915.944  
G23  20781353.421   109206745.243  
G31  21363034.370   112263505.073  
G32  20781353.352   109206747.247  
G14  20781352.695   109206747.249  
G26  22033115.599   115784802.299  
G16  24181663.544   127075496.109  
> 2019 09 08 05 13 33.0000000  0  9                     
G29  20781628.604   109208196.057  
G20  20781628.986   109208198.064  
G21  21910523.550   115140579.773  
G23  20781628.837   109208193.063  
G31  21363250.296   112264639.752  
G32  20781628.937   109208195.052  
G14  20781628.039   109208195.060  
G26  22032638.848   115782297.646  
G16  24181043.307   127072238.385  
> 2019 09 08 05 13 34.0000000  0  9                     
G29  20781904.147   109209644.051  
G20  20781904.586   109209646.049  
G21  21910079.089   115138243.858  
G23  20781904.242   109209641.064  
G31  21363466.361   112265774.864  
G32  20781904.459   109209643.052  
G14  20781903.911   109209643.058  
G26  22032162.351   115779793.067  
G16  24180423.339   127068980.555  
> 2019 09 08 05 13 35.0000000  0  9                     
G29  20782179.665   109211092.316  
G20  20782179.820   109211094.315  
G21  21909634.709   115135908.317  
G23  20782180.039   109211089.321  
G31  21363682.292   112266910.495  
G32  20782179.948   109211091.318  
G14  20782179.408   109211091.316  
G26  22031685.643   115777288.646  
G16  24179803.137   127065722.708  
> 2019 09 08 05 13 36.0000000  0  9                     
G29  20782455.611   109212540.934  
G20  20782455.623   109212542.938  
G21  21909190.391   115133573.208  
G23  20782455.438   109212537.936  
G31  21363898.497   112268046.731  
G32  20782455.391   109212539.928  
G14  20782455.329   109212539.930  
G26  22031209.225   115774784.476  
G16  24179183.165   127062464.916  
> 2019 09 08 05 13 37.0000000  0  9                     
G29  20782731.223   109213989.877  
G20  20782731.701   109213991.875  
G21  21908746.011   115131238.518  
G23  20782731.105   109213986.877  
G31  21364114.924   112269183.549  
G32  20782731.315   109213988.870  
G14  20782731.110   109213988.880  
G26  22030732.458   115772280.521  
G16  24178563.189   127059207.160  
> 2019 09 08 05 13 38.0000000  0  9                     
G29  20783006.939   109215439.077  
G20  20783007.203   109215441.075  
G21  21908302.277   115128904.170  
G23  20783006.907   109215436.074  
G31  21364331.519   112270320.882  
G32  20783007.207   109215438.079  
G14  20783006.746   109215438.074  
G26  22030255.966   115769776.714  
G16  24177943.206   127055949.369  
> 2019 09 08 05 13 39.0000000  0  9                     
G29  20783283.022   109216888.564  
G20  20783283.024   109216890.562  
G21  21907858.141   115126570.200  
G23  20783282.558   109216885.564  
G31  21364547.954   112271458.739  
G32  20783283.073   109216887.562  
G14  20783282.556   109216887.562  
G26  22029779.775   115767273.088  
G16  24177323.315   127052691.581  
> 2019 09 08 05 13 40.0000000  0  9                     
G29  20783559.091   109218338.408  
G20  20783558.862   109218340.406  
G21  21907414.021   115124236.682  
G23  20783558.327   109218335.404  
G31  21364764.589   112272597.227  
G32  20783558.598   109218337.408  
G14  20783558.240   109218337.402  
G26  22029303.374   115764769.729  
G16  24176703.512   127049433.864  
> 2019 09 08 05 13 41.0000000  0  9                     
G29  20783834.946   109219788.602  
G20  20783834.661   109219790.607  
G21  21906969.968   115121903.611  
G23  20783834.412   109219785.611  
G31  21364981.436   112273736.320  
G32  20783834.556   109219787.608  
G14  20783834.471   109219787.614  
G26  22028827.302   115762266.618  
G16  24176083.583   127046176.217  
> 2019 09 08 05 13 42.0000000  0  9                     
G29  20784111.093   109221239.097  
G20  20784110.660   109221241.099  
G21  21906526.047   115119570.917  
G23  20784110.677   109221236.108  
G31  21365198.223   112274875.945  
G32  20784110.534   109221238.099  
G14  20784110.454   109221238.099  
G26  22028350.946   115759763.677  
G16  24175463.926   127042918.558  
> 2019 09 08 05 13 43.0000000  0  9                     
G29  20784386.894   109222689.927  
G20  20784386.448   109222691.923  
G21  21906082.134   115117238.652  
G23  20784386.644   109222686.928  
G31  21365415.031   112276016.176  
G32  20784386.543   109222688.925  
G14  20784386.464   109222688.930  
G26  22027874.543   115757260.982  
G16  24174844.035   127039660.961  
> 2019 09 08 05 13 44.0000000  0  9                     
G29  20784663.093   109224141.185  
G20  20784662.473   109224143.172  
G21  21905638.242   115114906.908  
G23  20784662.676   109224138.179  
G31  21365632.212   112277157.082  
G32  20784662.928   109224140.190  
G14  20784662.611   109224140.191  
G26  22027398.539   115754758.600  
G16  24174224.197   127036403.501  
> 2019 09 08 05 13 45.0000000  0  9                     
G29  20784939.342   109225592.734  
G20  20784938.873   109225594.742  
G21  21905194.353   115112575.547  
G23  20784938.846   109225589.735  
G31  21365849.359   112278298.535  
G32  20784939.215   109225591.741  
G14  20784939.112   109225591.733  
G26  22026922.429   115752256.422  
G16  24173604.127   127033146.043  
> 2019 09 08 05 13 46.0000000  0  9                     
G29  20785215.622   109227044.714  
G20  20785215.477   109227046.706  
G21  21904751.030   115110244.699  
G23  20785215.223   109227041.712  
G31  21366066.808   112279440.660  
G32  20785215.651   109227043.711  
G14  20785215.353   109227043.708  
G26  22026446.403   115749754.552  
G16  24172984.314   127029888.724  
> 2019 09 08 05 13 47.0000000  0  9                     
G29  20785491.979   109228497.024  
G20  20785491.693   109228499.036  
G21  21904307.658   115107914.272  
G23  20785491.728   109228494.031  
G31  21366284.118   112280583.387  
G32  20785492.109   109228496.028  
G14  20785491.899   109228496.032  
G26  22025970.134   115747252.914  
G16  24172364.461   127026631.456  
> 2019 09 08 05 13 48.0000000  0  9                     
G29  20785768.257   109229949.683  
G20  20785768.290   109229951.691  
G21  21903864.409   115105584.289  
G23  20785768.286   109229946.687  
G31  21366501.829   112281726.715  
G32  20785768.629   109229948.689  
G14  20785768.149   109229948.680  
G26  22025493.935   115744751.520  
G16  24171744.461   127023374.231  
> 2019 09 08 05 13 49.0000000  0  9                     
G29  20786044.732   109231402.710  
G20  20786044.984   109231404.703  
G21  21903421.284   115103254.768  
G23  20786044.789   109231399.706  
G31  21366719.618   112282870.650  
G32  20786045.037   109231401.705  
G14  20786044.720   109231401.702  
G26  22025017.796   115742250.390  
G16  24171124.686   127020117.097  
> 2019 09 08 05 13 50.0000000  0  9                     
G29  20786321.175   109232856.075  
G20  20786321.457   109232858.080  
G21  21902977.880   115100925.665  
G23  20786321.640   109232853.079  
G31  21366937.311   112284015.177  
G32  20786321.200   109232855.076  
G14  20786321.118   109232855.076  
G26  22024541.890   115739749.494  
G16  24170504.646   127016860.014  
> 2019 09 08 05 13 51.0000000  0  9                     
G29  20786597.934   109234309.777  
G20  20786597.951   109234311.779  
G21  21902534.851   115098597.009  
G23  20786598.265   109234306.778  
G31  21367155.231   112285160.318  
G32  20786597.959   109234308.779  
G14  20786597.791   109234308.785  
G26  22024066.064   115737248.828  
G16  24169884.915   127013602.984  
> 2019 09 08 05 13 52.0000000  0  9                     
G29  20786874.795   109235763.890  
G20  20786874.662   109235765.880  
G21  21902091.814   115096268.836  
G23  20786874.957   109235760.888  
G31  21367373.067   112286306.098  
G32  20786874.765   109235762.888  
G14  20786874.333   109235762.886  
G26  22023590.332   115734748.467  
G16  24169265.529   127010346.061  
> 2019 09 08 05 13 53.0000000  0  9                     
G29  20787151.524   109237218.355  
G20  20787151.502   109237220.351  
G21  21901648.894   115093941.114  
G23  20787151.692   109237215.356  
G31  21367591.544   112287452.496  
G32  20787151.514   109237217.366  
G14  20787151.228   109237217.360  
G26  22023114.736   115732248.358  
G16  24168645.791   127007089.225  
> 2019 09 08 05 13 54.0000000  0  9                     
G29  20787428.330   109238673.070  
G20  20787428.318   109238675.067  
G21  21901206.104   115091613.728  
G23  20787428.432   109238670.067  
G31  21367809.804   112288599.389  
G32  20787428.301   109238672.066  
G14  20787428.073   109238672.072  
G26  22022639.172   115729748.389  
G16  24168025.824   127003832.326  
> 2019 09 08 05 13 55.0000000  0  9                     
G29  20787705.361   109240128.150  
G20  20787705.521   109240130.157  
G21  21900763.169   115089286.814  
G23  20787705.263   109240125.158  
G31  21368028.148   112289746.916  
G32  20787705.400   109240127.151  
G14  20787705.003   109240127.153  
G26  22022163.410   115727248.694  
G16  24167405.984   127000575.525  
> 2019 09 08 05 13 56.0000000  0  9                     
G29  20787982.176   109241583.681  
G20  20787982.509   109241585.685  
G21  21900320.492   115086960.435  
G23  20787981.973   109241580.681  
G31  21368246.611   112290895.131  
G32  20787982.411   109241582.685  
G14  20787982.278   109241582.691  
G26  22021687.812   115724749.343  
G16  24166786.400   126997318.874  
> 2019 09 08 05 13 57.0000000  0  9                     
G29  20788259.385   109243039.508  
G20  20788259.497   109243041.505  
G21  21899877.555   115084634.431  
G23  20788258.806   109243036.507  
G31  21368465.288   112292043.896  
G32  20788259.122   109243038.506  
G14  20788258.941   109243038.503  
G26  22021212.198   115722250.176  
G16  24166166.755   126994062.222  
> 2019 09 08 05 13 58.0000000  0  9                     
G29  20788536.401   109244495.726  
G20  20788536.825   109244497.732  
G21  21899435.026   115082308.920  
G23  20788535.707   109244492.730  
G31  21368683.977   112293193.315  
G32  20788536.021   109244494.728  
G14  20788536.201   109244494.724  
G26  22020736.623   115719751.304  
G16  24165547.168   126990805.700  
> 2019 09 08 05 13 59.0000000  0  9                     
G29  20788813.781   109245952.329  
G20  20788813.831   109245954.328  
G21  21898992.670   115079983.876  
G23  20788813.166   109245949.333  
G31  21368902.642   112294343.373  
G32  20788813.379   109245951.329  
G14  20788813.045   109245951.330  
G26  22020261.039   115717252.705  
G16  24164927.395   126987549.255  
> 2019 09 08 05 14 00.0000000  0  9                     
G29  20789090.959   109247409.274  
G20  20789091.185   109247411.271  
G21  21898550.474   115077659.275  
G23  20789090.304   109247406.277  
G31  21369121.834   112295494.018  
G32  20789090.611   109247408.271  
G14  20789090.146   109247408.275  
G26  22019785.672   115714754.356  
G16  24164307.577   126984292.885  
> 2019 09 08 05 14 01.0000000  0  9                     
G29  20789368.155   109248866.539  
G20  20789368.455   109248868.529  
G21  21898108.325   115075335.088  
G23  20789367.646   109248863.530  
G31  21369340.972   112296645.229  
G32  20789367.768   109248865.531  
G14  20789367.505   109248865.526  
G26  22019310.333   115712256.204  
G16  24163687.588   126981036.515  
> 2019 09 08 05 14 02.0000000  0  9                     
G29  20789645.462   109250324.218  
G20  20789645.837   109250326.229  
G21  21897665.924   115073011.411  
G23  20789645.183   109250321.222  
G31  21369560.196   112297797.126  
G32  20789645.459   109250323.218  
G14  20789645.061   109250323.228  
G26  22018835.145   115709758.401  
G16  24163067.800   126977780.313  
> 2019 09 08 05 14 03.0000000  0  9                     
G29  20789922.761   109251782.274  
G20  20789923.329   109251784.270  
G21  21897224.033   115070688.188  
G23  20789922.859   109251779.270  
G31  21369779.609   112298949.653  
G32  20789922.949   109251781.271  
G14  20789922.817   109251781.273  
G26  22018359.908   115707260.835  
G16  24162448.425   126974524.172  
> 2019 09 08 05 14 04.0000000  0  9                     
G29  20790200.334   109253240.656  
G20  20790200.730   109253242.657  
G21  21896782.011   115068365.401  
G23  20790200.681   109253237.653  
G31  21369998.712   112300102.750  
G32  20790200.419   109253239.654  
G14  20790200.237   109253239.650  
G26  22017884.569   115704763.504  
G16  24161828.748   126971268.075  
> 2019 09 08 05 14 05.0000000  0  9                     
G29  20790478.013   109254699.285  
G20  20790478.207   109254701.295  
G21  21896339.832   115066042.945  
G23  20790478.494   109254696.282  
G31  21370218.361   112301256.352  
G32  20790478.242   109254698.293  
G14  20790477.797   109254698.292  
G26  22017409.623   115702266.319  
G16  24161209.184   126968011.947  
> 2019 09 08 05 14 06.0000000  0  9                     
G29  20790755.641   109256158.383  
G20  20790755.732   109256160.386  
G21  21895897.933   115063721.045  
G23  20790756.097   109256155.387  
G31  21370438.364   112302410.666  
G32  20790755.954   109256157.382  
G14  20790755.478   109256157.378  
G26  22016934.422   115699769.498  
G16  24160590.158   126964755.987  
> 2019 09 08 05 14 07.0000000  0  9                     
G29  20791033.284   109257617.934  
G20  20791033.643   109257619.940  
G21  21895456.340   115061399.707  
G23  20791033.985   109257614.942  
G31  21370658.276   112303565.712  
G32  20791033.279   109257616.941  
G14  20791033.063   109257616.940  
G26  22016459.137   115697273.036  
G16  24159970.450   126961500.219  
> 2019 09 08 05 14 08.0000000  0  9                     
G29  20791310.950   109259078.091  
G20  20791311.669   109259080.094  
G21  21895014.895   115059079.061  
G23  20791311.678   109259075.094  
G31  21370878.195   112304721.599  
G32  20791311.124   109259077.096  
G14  20791311.078   109259077.102  
G26  22015984.061   115694777.071  
G16  24159350.872   126958244.757  
> 2019 09 08 05 14 09.0000000  0  9                     
G29  20791589.018   109260538.491  
G20  20791589.697   109260540.485  
G21  21894573.147   115056758.738  
G23  20791589.614   109260535.485  
G31  21371097.883   112305877.969  
G32  20791589.146   109260537.480  
G14  20791589.144   109260537.478  
G26  22015509.267   115692281.234  
G16  24158731.299   126954989.227  
> 2019 09 08 05 14 10.0000000  0  9                     
G29  20791867.096   109261999.216  
G20  20791867.503   109262001.215  
G21  21894131.376   115054438.842  
G23  20791867.255   109261996.210  
G31  21371318.117   112307034.947  
G32  20791867.341   109261998.213  
G14  20791867.134   109261998.212  
G26  22015034.626   115689785.641  
G16  24158111.756   126951733.759  
> 2019 09 08 05 14 11.0000000  0  9                     
G29  20792144.961   109263460.301  
G20  20792145.495   109263462.314  
G21  21893690.222   115052119.415  
G23  20792145.172   109263457.312  
G31  21371538.334   112308192.532  
G32  20792145.467   109263459.308  
G14  20792144.715   109263459.311  
G26  22014559.648   115687290.310  
G16  24157492.154   126948478.391  
> 2019 09 08 05 14 12.0000000  0  9                     
G29  20792423.198   109264921.541  
G20  20792423.465   109264923.534  
G21  21893249.034   115049800.204  
G23  20792423.030   109264918.524  
G31  21371758.425   112309350.507  
G32  20792423.505   109264920.524  
G14  20792422.722   109264920.532  
G26  22014084.600   115684795.006  
G16  24156872.703   126945222.836  
> 2019 09 08 05 14 13.0000000  0  9                     
G29  20792701.183   109266383.068  
G20  20792701.792   109266385.063  
G21  21892807.751   115047481.396  
G23  20792701.133   109266380.061  
G31  21371978.962   112310509.040  
G32  20792701.455   109266382.059  
G14  20792700.895   109266382.058  
G26  22013609.862   115682299.908  
G16  24156253.123   126941967.321  
> 2019 09 08 05 14 14.0000000  0  9                     
G29  20792979.617   109267844.889  
G20  20792980.093   109267846.882  
G21  21892366.539   115045162.978  
G23  20792978.965   109267841.893  
G31  21372199.553   112311668.106  
G32  20792979.503   109267843.892  
G14  20792979.219   109267843.890  
G26  22013134.989   115679804.991  
G16  24155633.578   126938711.798  
> 2019 09 08 05 14 15.0000000  0  9                     
G29  20793257.921   109269307.059  
G20  20793258.163   109269309.055  
G21  21891925.415   115042844.991  
G23  20793257.290   109269304.059  
G31  21372420.320   112312827.789  
G32  20793257.669   109269306.057  
G14  20793257.625   109269306.059  
G26  22012660.264   115677310.335  
G16  24155014.096   126935456.355  
> 2019 09 08 05 14 16.0000000  0  9                     
G29  20793536.038   109270769.644  
G20  20793536.342   109270771.632  
G21  21891484.502   115040527.504  
G23  20793536.045   109270766.637  
G31  21372641.102   112313988.124  
G32  20793536.392   109270768.638  
G14  20793536.031   109270768.642  
G26  22012185.583   115674815.963  
G16  24154394.514   126932201.009  
> 2019 09 08 05 14 17.0000000  0  9                     
G29  20793814.464   109272232.542  
G20  20793814.592   109272234.539  
G21  21891043.820   115038210.439  
G23  20793814.442   109272229.539  
G31  21372862.183   112315149.044  
G32  20793814.627   109272231.533  
G14  20793814.284   109272231.539  
G26  22011711.308   115672321.837  
G16  24153775.215   126928945.722  
> 2019 09 08 05 14 18.0000000  0  9                     
G29  20794092.877   109273695.698  
G20  20794093.274   109273697.694  
G21  21890603.081   115035893.728  
G23  20794092.845   109273692.690  
G31  21373082.995   112316310.471  
G32  20794093.079   109273694.687  
G14  20794092.717   109273694.696  
G26  22011236.794   115669827.854  
G16  24153155.805   126925690.397  
> 2019 09 08 05 14 19.0000000  0  9                     
G29  20794371.358   109275159.262  
G20  20794371.557   109275161.258  
G21  21890162.317   115033577.509  
G23  20794371.527   109275156.248  
G31  21373304.261   112317472.552  
G32  20794371.633   109275158.256  
G14  20794371.242   109275158.257  
G26  22010762.140   115667334.175  
G16  24152536.334   126922435.197  
> 2019 09 08 05 14 20.0000000  0  9                     
G29  20794649.925   109276623.206  
G20  20794650.298   109276625.210  
G21  21889721.629   115031261.781  
G23  20794650.134   109276620.210  
G31  21373525.281   112318635.289  
G32  20794650.118   109276622.206  
G14  20794649.696   109276622.213  
G26  22010287.513   115664840.782  
G16  24151916.853   126919180.103  
> 2019 09 08 05 14 21.0000000  0  9                     
G29  20794928.568   109278087.503  
G20  20794928.894   109278089.506  
G21  21889280.726   115028946.491  
G23  20794928.433   109278084.503  
G31  21373746.847   112319798.620  
G32  20794928.646   109278086.502  
G14  20794928.456   109278086.506  
G26  22009813.151   115662347.643  
G16  24151297.488   126915925.053  
> 2019 09 08 05 14 22.0000000  0  9                     
G29  20795207.019   109279552.203  
G20  20795207.579   109279554.209  
G21  21888840.135   115026631.695  
G23  20795207.073   109279549.198  
G31  21373968.294   112320962.601  
G32  20795207.376   109279551.206  
G14  20795207.134   109279551.210  
G26  22009338.811   115659854.797  
G16  24150678.218   126912670.133  
> 2019 09 08 05 14 23.0000000  0  9                     
G29  20795485.724   109281017.270  
G20  20795486.358   109281019.269  
G21  21888399.452   115024317.359  
G23  20795485.920   109281014.277  
G31  21374189.735   112322127.207  
G32  20795486.271   109281016.263  
G14  20795485.882   109281016.273  
G26  22008864.492   115657362.213  
G16  24150058.859   126909415.294  
> 2019 09 08 05 14 24.0000000  0  9                     
G29  20795764.618   109282482.622  
G20  20795765.416   109282484.616  
G21  21887959.306   115022003.400  
G23  20795764.845   109282479.621  
G31  21374411.441   112323292.336  
G32  20795765.061   109282481.619  
G14  20795764.828   109282481.624  
G26  22008390.410   115654869.828  
G16  24149439.756   126906160.444  
> 2019 09 08 05 14 25.0000000  0  9                     
G29  20796043.497   109283948.379  
G20  20796044.309   109283950.381  
G21  21887519.086   115019689.956  
G23  20796043.855   109283945.378  
G31  21374633.362   112324458.144  
G32  20796044.013   109283947.373  
G14  20796043.702   109283947.372  
G26  22007916.014   115652377.749  
G16  24148820.290   126902905.730  
