     2.11           OBSERVATION DATA    G                   RINEX VERSION / TYPE
sbf2rin-12.1.2                          27-FEB-25 09:52     PGM / RUN BY / DATE 
SEPT                                                        MARKER NAME         
Unknown                                                     MARKER NUMBER       
Unknown             Unknown                                 OBSERVER / AGENCY   
2004126             SEPT SSRC2          2.0.1               REC # / TYPE / VERS 
Unknown             Unknown                                 ANT # / TYPE        
  4472422.6417   601432.4166  4492681.5441                  APPROX POSITION XYZ 
        0.0000        0.0000        0.0000                  ANTENNA: DELTA H/E/N
     1     1                                                WAVELENGTH FACT L1/2
     2    C1    L1                                          # / TYPES OF OBSERV 
     1.000                                                  INTERVAL            
  2019     9     8     5     0   37.0000000     GPS         TIME OF FIRST OBS   
  2019     9     8     7     0    0.0000000     GPS         TIME OF LAST OBS    
     9                                                      # OF SATELLITES     
                                                            END OF HEADER       
 19  9  8  5  0 37.0000000  0  7G31G32G20G21G23G14G16
  20650489.510 7 108519056.88007
  20008381.077 7 105144751.31107
  20008381.350 7 105144750.30807
  21699426.093 7 114031252.51307
  20008381.033 7 105144751.31007
  20008380.774 7 105144750.30907
  24084638.488 7 126565629.40807
 19  9  8  5  0 38.0000000  0  9G26G31G32G20G21G23G14G29G16
  21834776.178 7 114742523.44217
  20650613.943 7 108519709.76307
  20008600.902 7 105145908.12707
  20008601.550 7 105145907.12707
  21698919.833 7 114028591.50207
  20008601.272 7 105145908.13107
  20008600.957 7 105145907.12907
  20008601.136 7 105145908.12217
  24084011.410 7 126562334.11107
 19  9  8  5  0 39.0000000  0  9G26G31G32G20G21G23G14G29G16
  21834266.350 7 114739844.27807
  20650738.228 7 108520363.30107
  20008821.031 7 105147065.37007
  20008821.606 7 105147064.37707
  21698413.458 7 114025930.89407
  20008821.371 7 105147065.37407
  20008821.068 7 105147064.36807
  20008821.350 7 105147065.37507
  24083384.385 7 126559038.87607
 19  9  8  5  0 40.0000000  0  9G26G31G32G20G21G23G14G29G16
  21833756.648 7 114737165.43607
  20650862.654 7 108521017.59207
  20009041.384 7 105148223.13507
  20009041.683 7 105148222.13707
  21697907.327 7 114023270.81707
  20009041.572 7 105148223.12707
  20009041.351 7 105148222.13207
  20009041.842 7 105148223.13507
  24082757.288 7 126555743.79807
 19  9  8  5  0 41.0000000  0  9G26G31G32G20G21G23G14G29G16
  21833247.118 7 114734487.31107
  20650987.458 7 108521673.02607
  20009262.020 7 105149381.80007
  20009262.228 7 105149380.79107
  21697401.065 7 114020611.62307
  20009262.078 7 105149381.80107
  20009261.919 7 105149380.79807
  20009262.039 7 105149381.79407
  24082130.294 7 126552449.25407
 19  9  8  5  0 42.0000000  0  9G26G31G32G20G21G23G14G29G16
  21832737.675 7 114731809.40407
  20651112.618 7 108522329.10607
  20009482.733 7 105150540.86807
  20009482.693 7 105150539.86907
  21696895.234 7 114017952.85407
  20009482.586 7 105150540.87007
  20009482.226 7 105150539.87207
  20009482.639 7 105150540.87207
  24081503.363 7 126549154.76907
 19  9  8  5  0 43.0000000  0  9G26G31G32G20G21G23G14G29G16
  21832227.881 7 114729131.46707
  20651237.524 7 108522985.58507
  20009703.252 7 105151700.11307
  20009703.388 7 105151699.11107
  21696389.387 7 114015294.23407
  20009703.123 7 105151700.11307
  20009702.871 7 105151699.10307
  20009703.164 7 105151700.10907
  24080876.270 7 126545860.07607
 19  9  8  5  0 44.0000000  0  9G26G31G32G20G21G23G14G29G16
  21831718.282 7 114726453.51807
  20651362.505 7 108523642.48307
  20009923.836 7 105152859.53007
  20009924.099 7 105152858.53207
  21695883.747 7 114012635.79407
  20009923.745 7 105152859.53107
  20009923.355 7 105152858.53707
  20009923.647 7 105152859.52707
  24080249.336 7 126542565.20207
 19  9  8  5  0 45.0000000  0  9G26G31G32G20G21G23G14G29G16
  21831208.978 7 114723776.09107
  20651487.661 7 108524300.34207
  20010144.601 7 105154019.67107
  20010144.851 7 105154018.67207
  21695377.829 7 114009978.08107
  20010144.221 7 105154019.67107
  20010144.078 7 105154018.66107
  20010144.518 7 105154019.67607
  24079622.321 7 126539270.68507
 19  9  8  5  0 46.0000000  0  9G26G31G32G20G21G23G14G29G16
  21830699.267 7 114721098.62207
  20651613.034 7 108524958.57307
  20010365.440 7 105155179.94607
  20010365.570 7 105155178.95807
  21694872.211 7 114007320.50307
  20010364.900 7 105155179.95107
  20010364.876 7 105155178.94807
  20010365.462 7 105155179.95107
  24078995.391 7 126535975.94607
 19  9  8  5  0 47.0000000  0  9G26G31G32G20G21G23G14G29G16
  21830189.763 7 114718421.41807
  20651738.418 7 108525617.50507
  20010586.284 7 105156340.69207
  20010586.668 7 105156339.69007
  21694366.551 7 114004663.37907
  20010585.785 7 105156340.68707
  20010585.667 7 105156339.69007
  20010586.376 7 105156340.68507
  24078368.488 7 126532681.30807
 19  9  8  5  0 48.0000000  0  9G26G31G32G20G21G23G14G29G16
  21829680.304 7 114715744.13507
  20651863.568 7 108526276.79107
  20010807.118 7 105157501.56207
  20010807.629 7 105157500.55307
  21693860.629 7 114002006.37607
  20010806.945 7 105157501.55807
  20010806.755 7 105157500.55307
  20010807.193 7 105157501.55907
  24077741.659 7 126529386.43107
 19  9  8  5  0 49.0000000  0  9G26G31G32G20G21G23G14G29G16
  21829170.816 7 114713067.16907
  20651989.396 7 108526936.81007
  20011027.987 7 105158662.90307
  20011028.477 7 105158661.91307
  21693355.229 7 113999349.86707
  20011028.016 7 105158662.90507
  20011028.062 7 105158661.90507
  20011028.043 7 105158662.91507
  24077114.622 7 126526091.67407
 19  9  8  5  0 50.0000000  0  9G26G31G32G20G21G23G14G29G16
  21828661.512 7 114710390.19607
  20652114.991 7 108527597.25107
  20011249.033 7 105159824.46007
  20011249.473 7 105159823.46107
  21692849.861 7 113996693.54907
  20011249.303 7 105159824.45507
  20011249.127 7 105159823.46507
  20011249.141 7 105159824.46007
  24076487.644 7 126522796.76307
 19  9  8  5  0 51.0000000  0  9G26G31G32G20G21G23G14G29G16
  21828152.176 7 114707713.52307
  20652240.633 7 108528258.42807
  20011470.004 7 105160986.49807
  20011470.727 7 105160985.50407
  21692344.394 7 113994037.71607
  20011470.438 7 105160986.50507
  20011470.179 7 105160985.49707
  20011470.383 7 105160986.50007
  24075860.731 7 126519501.97407
 19  9  8  5  0 52.0000000  0  8G26G31G32G20G21G23G14G29
  21827643.010 7 114705037.15607
  20652366.576 7 108528920.34707
  20011691.527 7 105162149.03607
  20011692.101 7 105162148.03707
  21691839.212 7 113991382.37907
  20011691.761 7 105162149.04007
  20011691.360 7 105162148.03307
  20011691.598 7 105162149.04007
 19  9  8  5  0 53.0000000  0  8G26G31G32G20G21G23G14G29
  22126926.881 7 116277783.89707
  20952284.746 7 110105002.45807
  20311705.254 7 106738731.04307
  20311705.800 7 106738730.04107
  21991126.985 7 115564150.33407
  20311705.250 7 106738731.04107
  20311704.886 7 106738730.04007
  20311705.215 7 106738731.04807
 19  9  8  5  0 54.0000000  0  8G26G31G32G20G21G23G14G29
  22126417.617 7 116275108.43307
  20952411.212 7 110105666.12107
  20311926.656 7 106739894.85407
  20311927.200 7 106739893.85607
  21990622.033 7 115561496.27407
  20311926.901 7 106739894.85107
  20311926.588 7 106739893.85607
  20311926.652 7 106739894.85307
 19  9  8  5  0 55.0000000  0  8G26G31G32G20G21G23G14G29
  22125908.497 7 116272432.96707
  20952537.563 7 110106330.21607
  20312148.485 7 106741058.87107
  20312148.599 7 106741057.86807
  21990117.001 7 115558842.40607
  20312148.329 7 106741058.86707
  20312148.008 7 106741057.87107
  20312148.013 7 106741058.87507
 19  9  8  5  0 56.0000000  0  8G26G31G32G20G21G23G14G29
  22125399.504 7 116269757.55607
  20952664.179 7 110106994.79307
  20312369.967 7 106742223.12307
  20312370.035 7 106742222.12507
  21989611.950 7 115556188.78807
  20312369.783 7 106742223.12507
  20312369.458 7 106742222.12007
  20312369.901 7 106742223.12507
 19  9  8  5  0 57.0000000  0  8G26G31G32G20G21G23G14G29
  22124890.173 7 116267081.96407
  20952790.647 7 110107659.61607
  20312591.412 7 106743387.38607
  20312591.711 7 106743386.40307
  21989107.129 7 115553535.18307
  20312591.125 7 106743387.39607
  20312590.876 7 106743386.39907
  20312591.520 7 106743387.39507
 19  9  8  5  0 58.0000000  0  8G26G31G32G20G21G23G14G29
  22124380.916 7 116264406.72907
  20952917.629 7 110108325.23307
  20312813.047 7 106744552.21607
  20312813.297 7 106744551.21607
  21988601.997 7 115550882.12607
  20312812.605 7 106744552.21907
  20312812.690 7 106744551.22407
  20312813.025 7 106744552.21707
 19  9  8  5  0 59.0000000  0  8G26G31G32G20G21G23G14G29
  22123871.779 7 116261731.74007
  20953044.563 7 110108991.52407
  20313034.698 7 106745717.47107
  20313035.064 7 106745716.46707
  21988097.312 7 115548229.50007
  20313034.686 7 106745717.47007
  20313034.284 7 106745716.46607
  20313034.866 7 106745717.47407
 19  9  8  5  1  0.0000000  0  8G26G31G32G20G21G23G14G29
  22123363.071 7 116259057.33307
  20953171.402 7 110109658.83407
  20313256.777 7 106746883.50507
  20313256.932 7 106746882.50207
  21987592.947 7 115545577.65907
  20313256.659 7 106746883.50407
  20313256.373 7 106746882.50407
  20313256.647 7 106746883.50307
 19  9  8  5  1  1.0000000  0  8G26G31G32G20G21G23G14G29
  22122854.280 7 116256383.10907
  20953298.528 7 110110326.73707
  20313478.675 7 106748049.90207
  20313478.862 7 106748048.89707
  21987088.379 7 115542926.17507
  20313478.463 7 106748049.89307
  20313478.283 7 106748048.90007
  20313478.600 7 106748049.90307
 19  9  8  5  1  2.0000000  0  8G26G31G32G20G21G23G14G29
  22122345.311 7 116253708.65207
  20953425.493 7 110110994.83407
  20313700.578 7 106749216.25007
  20313700.611 7 106749215.25507
  21986583.562 7 115540274.65107
  20313700.320 7 106749216.25507
  20313700.342 7 106749215.25707
  20313700.751 7 106749216.25107
 19  9  8  5  1  3.0000000  0  8G26G31G32G20G21G23G14G29
  22121836.364 7 116251034.51907
  20953552.515 7 110111663.68707
  20313922.528 7 106750383.12907
  20313922.761 7 106750382.12207
  21986079.122 7 115537623.64007
  20313922.147 7 106750383.12107
  20313922.274 7 106750382.12707
  20313922.664 7 106750383.12707
 19  9  8  5  1  4.0000000  0  8G26G31G32G20G21G23G14G29
  22121327.354 7 116248360.75607
  20953680.174 7 110112333.34407
  20314144.418 7 106751550.56207
  20314144.935 7 106751549.55807
  21985574.620 7 115534973.20707
  20314144.393 7 106751550.56407
  20314144.269 7 106751549.55607
  20314144.841 7 106751550.56407
 19  9  8  5  1  5.0000000  0  8G26G31G32G20G21G23G14G29
  22120818.596 7 116245687.11407
  20953807.768 7 110113003.53907
  20314366.792 7 106752718.30207
  20314367.098 7 106752717.30507
  21985070.195 7 115532323.05807
  20314366.760 7 106752718.30007
  20314366.527 7 106752717.30407
  20314367.044 7 106752718.30107
 19  9  8  5  1  6.0000000  0  8G26G31G32G20G21G23G14G29
  22120310.191 7 116243013.62607
  20953935.383 7 110113674.31007
  20314589.171 7 106753886.38207
  20314589.228 7 106753885.38507
  21984566.014 7 115529673.27107
  20314589.239 7 106753886.38407
  20314588.925 7 106753885.39207
  20314589.283 7 106753886.38607
 19  9  8  5  1  7.0000000  0  8G26G31G32G20G21G23G14G29
  22119801.444 7 116240340.42107
  20954062.997 7 110114345.81107
  20314811.511 7 106755054.94607
  20314811.662 7 106755053.94807
  21984061.797 7 115527023.94907
  20314811.370 7 106755054.94807
  20314811.222 7 106755053.94707
  20314811.534 7 106755054.95007
 19  9  8  5  1  8.0000000  0  8G26G31G32G20G21G23G14G29
  22119292.618 7 116237666.96707
  20954190.897 7 110115017.48107
  20315034.268 7 106756223.44107
  20315033.926 7 106756222.44507
  21983557.716 7 115524374.57707
  20315033.847 7 106756223.44507
  20315033.497 7 106756222.44607
  20315033.649 7 106756223.45007
 19  9  8  5  1  9.0000000  0  8G26G31G32G20G21G23G14G29
  22118784.034 7 116234994.17007
  20954319.153 7 110115690.22407
  20315256.810 7 106757392.79807
  20315256.507 7 106757391.79207
  21983053.489 7 115521726.04707
  20315256.460 7 106757392.78907
  20315255.905 7 106757391.79007
  20315256.276 7 106757392.79107
 19  9  8  5  1 10.0000000  0  8G26G31G32G20G21G23G14G29
  22118275.593 7 116232321.49107
  20954447.085 7 110116363.53207
  20315479.287 7 106758562.45207
  20315479.144 7 106758561.45307
  21982549.511 7 115519077.82707
  20315478.920 7 106758562.45607
  20315478.578 7 106758561.45207
  20315478.979 7 106758562.45507
 19  9  8  5  1 11.0000000  0  8G26G31G32G20G21G23G14G29
  22117767.031 7 116229648.81307
  20954575.557 7 110117037.24607
  20315701.626 7 106759732.29107
  20315701.702 7 106759731.29707
  21982045.541 7 115516429.78507
  20315701.432 7 106759732.29207
  20315701.374 7 106759731.28707
  20315701.557 7 106759732.29007
 19  9  8  5  1 12.0000000  0  8G26G31G32G20G21G23G14G29
  22117258.531 7 116226976.55407
  20954704.081 7 110117711.82607
  20315924.562 7 106760902.74507
  20315924.654 7 106760901.73807
  21981541.835 7 115513782.37807
  20315924.134 7 106760902.74507
  20315923.976 7 106760901.75407
  20315924.418 7 106760902.74707
 19  9  8  5  1 13.0000000  0  8G26G31G32G20G21G23G14G29
  22116749.867 7 116224304.89907
  20954832.494 7 110118387.44007
  20316147.261 7 106762073.99607
  20316147.568 7 106762072.99407
  21981038.196 7 115511135.74807
  20316147.188 7 106762073.99807
  20316146.874 7 106762073.00207
  20316147.323 7 106762073.99807
 19  9  8  5  1 14.0000000  0  8G26G31G32G20G21G23G14G29
  22116241.453 7 116221633.65407
  20954961.066 7 110119063.87607
  20316370.137 7 106763245.84307
  20316370.442 7 106763244.84407
  21980534.889 7 115508489.72307
  20316370.216 7 106763245.84407
  20316370.154 7 106763244.84707
  20316370.247 7 106763245.84507
 19  9  8  5  1 15.0000000  0  8G26G31G32G20G21G23G14G29
  22115733.354 7 116218962.50307
  20955089.686 7 110119740.83207
  20316593.269 7 106764417.97007
  20316593.682 7 106764416.97207
  21980031.543 7 115505843.98207
  20316593.442 7 106764417.97507
  20316593.345 7 106764416.97407
  20316593.280 7 106764417.97107
 19  9  8  5  1 16.0000000  0  8G26G31G32G20G21G23G14G29
  22115224.909 7 116216291.17307
  20955218.569 7 110120418.04407
  20316816.250 7 106765590.12207
  20316816.743 7 106765589.11307
  21979528.140 7 115503198.25807
  20316816.489 7 106765590.11507
  20316816.158 7 106765589.10907
  20316816.167 7 106765590.10807
 19  9  8  5  1 17.0000000  0  8G26G31G32G20G21G23G14G29
  22114716.577 7 116213620.34707
  20955347.756 7 110121096.17207
  20317039.673 7 106766762.94607
  20317039.881 7 106766761.94007
  21979024.790 7 115500553.22107
  20317039.465 7 106766762.94007
  20317039.504 7 106766761.94207
  20317039.520 7 106766762.94507
 19  9  8  5  1 18.0000000  0  8G26G31G32G20G21G23G14G29
  22114208.283 7 116210949.46007
  20955476.905 7 110121774.68707
  20317262.811 7 106767935.89607
  20317263.270 7 106767934.90107
  21978521.468 7 115497908.30907
  20317262.607 7 106767935.90207
  20317262.658 7 106767934.89107
  20317262.855 7 106767935.90007
 19  9  8  5  1 19.0000000  0  8G26G31G32G20G21G23G14G29
  22113700.094 7 116208278.76807
  20955606.093 7 110122453.81007
  20317486.101 7 106769109.24907
  20317486.626 7 106769108.24707
  21978018.281 7 115495263.79207
  20317486.045 7 106769109.24507
  20317485.739 7 106769108.24607
  20317486.120 7 106769109.24807
 19  9  8  5  1 20.0000000  0  8G26G31G32G20G21G23G14G29
  22113191.971 7 116205608.31907
  20955735.501 7 110123133.61307
  20317709.304 7 106770283.02907
  20317709.775 7 106770282.02707
  21977514.930 7 115492619.71407
  20317709.435 7 106770283.02207
  20317708.941 7 106770282.02707
  20317709.277 7 106770283.02607
 19  9  8  5  1 21.0000000  0  8G26G31G32G20G21G23G14G29
  22112683.948 7 116202937.98107
  20955865.114 7 110123813.94207
  20317932.605 7 106771457.09407
  20317933.084 7 106771456.09207
  21977011.905 7 115489975.91707
  20317932.584 7 106771457.09307
  20317932.222 7 106771456.10007
  20317932.773 7 106771457.09407
 19  9  8  5  1 22.0000000  0  8G26G31G32G20G21G23G14G29
  22112175.922 7 116200267.83207
  20955994.767 7 110124494.88707
  20318155.907 7 106772631.54207
  20318156.639 7 106772630.55207
  21976508.936 7 115487332.51807
  20318156.169 7 106772631.54507
  20318155.770 7 106772630.54307
  20318156.374 7 106772631.55107
 19  9  8  5  1 23.0000000  0  8G26G31G32G20G21G23G14G29
  22111667.677 7 116197597.54407
  20956124.099 7 110125176.12107
  20318379.705 7 106773806.03907
  20318379.957 7 106773805.04207
  21976006.091 7 115484689.15807
  20318379.688 7 106773806.04107
  20318379.233 7 106773805.03507
  20318379.431 7 106773806.03807
 19  9  8  5  1 24.0000000  0  8G26G31G32G20G21G23G14G29
  22111159.496 7 116194927.73707
  20956253.505 7 110125858.26807
  20318603.522 7 106774981.21107
  20318603.658 7 106774980.22107
  21975503.169 7 115482046.47807
  20318603.262 7 106774981.21607
  20318602.927 7 106774980.21607
  20318603.112 7 106774981.21307
 19  9  8  5  1 25.0000000  0  8G26G31G32G20G21G23G14G29
  22110651.402 7 116192258.13107
  20956383.650 7 110126541.03307
  20318827.372 7 106776156.77607
  20318827.420 7 106776155.77107
  21975000.289 7 115479404.18807
  20318826.948 7 106776156.76907
  20318826.585 7 106776155.77507
  20318826.729 7 106776156.77207
 19  9  8  5  1 26.0000000  0  8G26G31G32G20G21G23G14G29
  22110143.390 7 116189588.61607
  20956513.727 7 110127224.32307
  20319050.940 7 106777332.61407
  20319051.258 7 106777331.61307
  21974497.709 7 115476762.18207
  20319050.818 7 106777332.61707
  20319050.431 7 106777331.61307
  20319050.708 7 106777332.62207
 19  9  8  5  1 27.0000000  0  8G26G31G32G20G21G23G14G29
  22109635.738 7 116186919.83107
  20956644.086 7 110127908.77107
  20319274.692 7 106778509.37507
  20319275.057 7 106778508.37607
  21973995.214 7 115474121.09007
  20319274.608 7 106778509.37007
  20319274.469 7 106778508.37107
  20319274.774 7 106778509.36807
 19  9  8  5  1 28.0000000  0  8G26G31G32G20G21G23G14G29
  22109127.920 7 116184251.16207
  20956774.324 7 110128593.74907
  20319498.999 7 106779686.43507
  20319498.706 7 106779685.43607
  21973492.327 7 115471480.31807
  20319498.760 7 106779686.43107
  20319498.330 7 106779685.43007
  20319498.812 7 106779686.43507
 19  9  8  5  1 29.0000000  0  8G26G31G32G20G21G23G14G29
  22108620.091 7 116181582.76507
  20956904.635 7 110129279.42707
  20319722.860 7 106780863.94207
  20319722.725 7 106780862.94007
  21972989.824 7 115468839.99507
  20319722.813 7 106780863.94407
  20319722.542 7 106780862.94607
  20319722.747 7 106780863.94707
 19  9  8  5  1 30.0000000  0  8G26G31G32G20G21G23G14G29
  22108112.438 7 116178914.44707
  20957035.454 7 110129965.60807
  20319947.358 7 106782041.72707
  20319947.094 7 106782040.72707
  21972487.420 7 115466199.93607
  20319946.678 7 106782041.73107
  20319946.656 7 106782040.72507
  20319947.192 7 106782041.72707
 19  9  8  5  1 31.0000000  0  8G26G31G32G20G21G23G14G29
  22107604.927 7 116176246.07807
  20957166.214 7 110130652.18507
  20320171.457 7 106783219.65307
  20320171.480 7 106783218.65707
  21971985.278 7 115463560.04507
  20320171.075 7 106783219.65907
  20320170.851 7 106783218.66207
  20320171.177 7 106783219.65907
 19  9  8  5  1 32.0000000  0  8G26G31G32G20G21G23G14G29
  22107097.180 7 116173577.77507
  20957296.763 7 110131339.22907
  20320395.564 7 106784397.82407
  20320395.749 7 106784396.82707
  21971483.145 7 115460920.37707
  20320395.335 7 106784397.81807
  20320394.943 7 106784396.82607
  20320395.468 7 106784397.82507
 19  9  8  5  1 33.0000000  0  8G26G31G32G20G21G23G14G29
  22106589.137 7 116170909.69307
  20957427.795 7 110132026.93707
  20320619.915 7 106785576.41307
  20320619.799 7 106785575.41407
  21970980.870 7 115458281.14207
  20320619.401 7 106785576.42107
  20320619.306 7 106785575.42107
  20320619.543 7 106785576.42007
 19  9  8  5  1 34.0000000  0  8G26G31G32G20G21G23G14G29
  22106081.460 7 116168241.97307
  20957558.860 7 110132715.42007
  20320843.974 7 106786755.54007
  20320844.031 7 106786754.53707
  21970478.556 7 115455642.46707
  20320843.748 7 106786755.54807
  20320843.660 7 106786754.55407
  20320844.013 7 106786755.54707
 19  9  8  5  1 35.0000000  0  8G26G31G32G20G21G23G14G29
  22105573.878 7 116165574.43507
  20957690.028 7 110133404.50407
  20321068.604 7 106787935.03907
  20321068.493 7 106787934.03707
  21969976.263 7 115453004.13207
  20321068.225 7 106787935.04507
  20321068.096 7 106787934.03507
  20321068.441 7 106787935.03807
 19  9  8  5  1 36.0000000  0  8G26G31G32G20G21G23G14G29
  22105066.283 7 116162907.45507
  20957821.225 7 110134094.57607
  20321293.137 7 106789115.28607
  20321293.027 7 106789114.28607
  21969474.417 7 115450366.57607
  20321292.968 7 106789115.28307
  20321292.657 7 106789114.28207
  20321293.021 7 106789115.28207
 19  9  8  5  1 37.0000000  0  8G26G31G32G20G21G23G14G29
  22104558.839 7 116160240.66107
  20957952.537 7 110134785.26707
  20321517.502 7 106790295.90807
  20321517.421 7 106790294.90707
  21968972.662 7 115447729.38307
  20321517.698 7 106790295.90207
  20321517.235 7 106790294.90307
  20321517.455 7 106790295.89807
 19  9  8  5  1 38.0000000  0  8G26G31G32G20G21G23G14G29
  22104051.057 7 116157573.73507
  20958084.068 7 110135476.24507
  20321742.278 7 106791476.57407
  20321742.510 7 106791475.58107
  21968470.832 7 115445092.24307
  20321742.709 7 106791476.57407
  20321741.993 7 106791475.58107
  20321742.100 7 106791476.57507
 19  9  8  5  1 39.0000000  0  8G26G31G32G20G21G23G14G29
  22103543.643 7 116154906.97807
  20958215.672 7 110136167.81807
  20321967.028 7 106792657.59907
  20321967.453 7 106792656.60107
  21967968.942 7 115442455.47307
  20321967.273 7 106792657.59707
  20321966.875 7 106792656.60407
  20321966.976 7 106792657.59807
 19  9  8  5  1 40.0000000  0  8G26G31G32G20G21G23G14G29
  22103036.529 7 116152240.51007
  20958347.439 7 110136860.09807
  20322191.999 7 106793839.09807
  20322192.278 7 106793838.10407
  21967467.302 7 115439819.18207
  20322192.016 7 106793839.10207
  20322191.851 7 106793838.10507
  20322191.792 7 106793839.10307
 19  9  8  5  1 41.0000000  0  8G26G31G32G20G21G23G14G29
  22102529.401 7 116149574.36207
  20958479.354 7 110137553.13107
  20322416.869 7 106795021.11107
  20322417.091 7 106795020.11607
  21966965.905 7 115437183.39807
  20322416.826 7 106795021.11007
  20322416.878 7 106795020.11907
  20322416.741 7 106795021.11207
 19  9  8  5  1 42.0000000  0  8G26G31G32G20G21G23G14G29
  22102022.015 7 116146908.23907
  20958611.349 7 110138246.61607
  20322641.767 7 106796203.33207
  20322642.218 7 106796202.33207
  21966464.337 7 115434547.83607
  20322641.877 7 106796203.33407
  20322641.587 7 106796202.32907
  20322641.541 7 106796203.32707
 19  9  8  5  1 43.0000000  0  8G26G31G32G20G21G23G14G29
  22101514.628 7 116144242.33107
  20958743.560 7 110138940.74007
  20322866.915 7 106797385.95507
  20322867.241 7 106797384.96107
  21965962.873 7 115431912.68207
  20322866.805 7 106797385.95907
  20322866.503 7 106797384.95607
  20322866.586 7 106797385.95207
 19  9  8  5  1 44.0000000  0  8G26G31G32G20G21G23G14G29
  22101007.249 7 116141576.69007
  20958875.744 7 110139635.55407
  20323091.941 7 106798569.03207
  20323092.315 7 106798568.03107
  21965461.572 7 115429277.97707
  20323092.161 7 106798569.03307
  20323091.554 7 106798568.03507
  20323091.799 7 106798569.03407
 19  9  8  5  1 45.0000000  0  8G26G31G32G20G21G23G14G29
  22100499.926 7 116138911.19907
  20959008.060 7 110140330.93907
  20323317.258 7 106799752.43907
  20323317.368 7 106799751.43807
  21964960.071 7 115426643.61507
  20323317.268 7 106799752.44507
  20323316.688 7 106799751.43707
  20323317.275 7 106799752.43207
 19  9  8  5  1 46.0000000  0  8G26G31G32G20G21G23G14G29
  22099992.742 7 116136245.87307
  20959140.628 7 110141026.91307
  20323542.464 7 106800936.20607
  20323542.750 7 106800935.19307
  21964458.741 7 115424009.60707
  20323542.409 7 106800936.20407
  20323542.156 7 106800935.20507
  20323542.475 7 106800936.20107
 19  9  8  5  1 47.0000000  0  8G26G31G32G20G21G23G14G29
  22099485.457 7 116133580.59807
  20959273.138 7 110141723.35807
  20323767.953 7 106802120.19407
  20323767.925 7 106802119.19807
  21963957.656 7 115421375.85007
  20323767.678 7 106802120.19907
  20323767.525 7 106802119.19807
  20323767.948 7 106802120.19907
 19  9  8  5  1 48.0000000  0  8G26G31G32G20G21G23G14G29
  22098978.585 7 116130915.66507
  20959405.794 7 110142420.57007
  20323993.171 7 106803304.71307
  20323993.502 7 106803303.72307
  21963456.530 7 115418742.61407
  20323993.177 7 106803304.72307
  20323993.046 7 106803303.72007
  20323993.103 7 106803304.72107
 19  9  8  5  1 49.0000000  0  8G26G31G32G20G21G23G14G29
  22098471.541 7 116128251.02807
  20959538.493 7 110143118.52107
  20324218.419 7 106804489.72607
  20324218.885 7 106804488.72907
  21962955.543 7 115416109.88107
  20324218.508 7 106804489.73307
  20324218.413 7 106804488.73707
  20324218.438 7 106804489.73607
 19  9  8  5  1 50.0000000  0  8G26G31G32G20G21G23G14G29
  22097964.464 7 116125586.73107
  20959671.454 7 110143817.21007
  20324444.160 7 106805675.26407
  20324444.369 7 106805674.25507
  21962454.700 7 115413477.67007
  20324444.269 7 106805675.25607
  20324444.155 7 106805674.26107
  20324444.186 7 106805675.26007
 19  9  8  5  1 51.0000000  0  8G26G31G32G20G21G23G14G29
  22097457.394 7 116122922.50807
  20959804.615 7 110144516.41707
  20324669.890 7 106806861.05307
  20324670.085 7 106806860.04807
  21961953.700 7 115410845.72207
  20324669.958 7 106806861.04407
  20324669.751 7 106806860.05107
  20324669.926 7 106806861.05107
 19  9  8  5  1 52.0000000  0  8G26G31G32G20G21G23G14G29
  22096950.457 7 116120258.93807
  20959937.818 7 110145216.69507
  20324895.733 7 106808047.68407
  20324896.085 7 106808046.68407
  21961453.038 7 115408214.62407
  20324896.047 7 106808047.69007
  20324895.500 7 106808046.68007
  20324895.542 7 106808047.67907
 19  9  8  5  1 53.0000000  0  8G26G31G32G20G21G23G14G29
  22096443.754 7 116117595.36407
  20960071.227 7 110145917.38807
  20325121.582 7 106809234.48907
  20325121.915 7 106809233.48607
  21960952.386 7 115405583.70907
  20325121.762 7 106809234.49607
  20325121.136 7 106809233.48607
  20325121.720 7 106809234.49307
 19  9  8  5  1 54.0000000  0  8G26G31G32G20G21G23G14G29
  22095936.957 7 116114932.13007
  20960204.639 7 110146618.84307
  20325347.694 7 106810421.82307
  20325347.710 7 106810420.81807
  21960451.985 7 115402953.31507
  20325347.933 7 106810421.82807
  20325347.319 7 106810420.82207
  20325347.637 7 106810421.82107
 19  9  8  5  1 55.0000000  0  8G26G31G32G20G21G23G14G29
  22095430.224 7 116112269.03207
  20960338.235 7 110147320.86307
  20325573.727 7 106811609.47407
  20325573.573 7 106811608.47207
  21959951.644 7 115400323.25607
  20325573.758 7 106811609.47207
  20325573.252 7 106811608.48107
  20325573.562 7 106811609.48407
 19  9  8  5  1 56.0000000  0  8G26G31G32G20G21G23G14G29
  22094923.304 7 116109605.77007
  20960471.935 7 110148023.14807
  20325799.488 7 106812797.15407
  20325799.624 7 106812796.14907
  21959451.219 7 115397693.23107
  20325799.592 7 106812797.15307
  20325799.146 7 106812796.15207
  20325799.468 7 106812797.14707
 19  9  8  5  1 57.0000000  0  8G26G31G32G20G21G23G14G29
  22094416.287 7 116106942.74407
  20960605.800 7 110148726.09107
  20326025.472 7 106813985.24607
  20326026.057 7 106813984.24407
  21958950.741 7 115395063.62107
  20326025.718 7 106813985.24707
  20326025.261 7 106813984.24407
  20326025.458 7 106813985.24907
 19  9  8  5  1 58.0000000  0  8G26G31G32G20G21G23G14G29
  22093909.612 7 116104279.95707
  20960739.493 7 110149429.67707
  20326251.845 7 106815173.76007
  20326252.161 7 106815172.77007
  21958450.523 7 115392434.44707
  20326252.003 7 106815173.76507
  20326251.713 7 106815172.75807
  20326251.751 7 106815173.76007
 19  9  8  5  1 59.0000000  0  8G26G31G32G20G21G23G14G29
  22093403.238 7 116101617.44107
  20960873.538 7 110150133.98107
  20326478.171 7 106816362.74007
  20326478.572 7 106816361.73607
  21957950.264 7 115389805.73907
  20326478.090 7 106816362.74407
  20326478.074 7 106816361.74107
  20326478.254 7 106816362.73807
 19  9  8  5  2  0.0000000  0  8G26G31G32G20G21G23G14G29
  22092896.992 7 116098955.20707
  20961007.891 7 110150838.97507
  20326704.289 7 106817552.18707
  20326704.905 7 106817551.18207
  21957450.052 7 115387177.49907
  20326704.258 7 106817552.17607
  20326704.252 7 106817551.18407
  20326704.579 7 106817552.17907
 19  9  8  5  2  1.0000000  0  8G26G31G32G20G21G23G14G29
  22092390.178 7 116096293.41807
  20961142.150 7 110151544.84607
  20326930.783 7 106818742.25407
  20326931.243 7 106818741.26007
  21956950.045 7 115384549.90307
  20326930.537 7 106818742.25307
  20326930.905 7 106818741.26007
  20326930.935 7 106818742.25007
 19  9  8  5  2  2.0000000  0  8G26G31G32G20G21G23G14G29
  22091883.544 7 116093631.63707
  20961276.586 7 110152251.14507
  20327157.344 7 106819932.51107
  20327157.528 7 106819931.51507
  21956450.207 7 115381922.49907
  20327157.228 7 106819932.51807
  20327157.389 7 106819931.51807
  20327157.467 7 106819932.51307
 19  9  8  5  2  3.0000000  0  8G26G31G32G20G21G23G14G29
  22091376.912 7 116090969.90607
  20961411.136 7 110152957.90607
  20327383.887 7 106821123.00507
  20327384.137 7 106821122.00207
  21955950.190 7 115379295.34107
  20327383.586 7 106821123.01207
  20327383.938 7 106821122.00307
  20327383.889 7 106821123.00507
 19  9  8  5  2  4.0000000  0  8G26G31G32G20G21G23G14G29
  22090870.459 7 116088308.34507
  20961545.576 7 110153665.27107
  20327610.285 7 106822313.86007
  20327610.805 7 106822312.86907
  21955450.173 7 115376668.53707
  20327610.291 7 106822313.85907
  20327610.422 7 106822312.85307
  20327610.597 7 106822313.85407
 19  9  8  5  2  5.0000000  0  8G26G31G32G20G21G23G14G29
  22090364.103 7 116085647.26407
  20961680.225 7 110154373.53907
  20327837.071 7 106823505.35907
  20327837.282 7 106823504.35307
  21954950.510 7 115374042.40107
  20327837.028 7 106823505.36307
  20327836.959 7 106823504.36007
  20327837.114 7 106823505.36407
 19  9  8  5  2  6.0000000  0  8G26G31G32G20G21G23G14G29
  22089857.815 7 116082986.18107
  20961815.325 7 110155082.23007
  20328064.159 7 106824697.06007
  20328064.036 7 106824696.05707
  21954450.692 7 115371416.45707
  20328063.895 7 106824697.05407
  20328063.748 7 106824696.05907
  20328063.980 7 106824697.06207
 19  9  8  5  2  7.0000000  0  8G26G31G32G20G21G23G14G29
  22089351.650 7 116080325.31207
  20961950.094 7 110155791.54507
  20328290.823 7 106825889.14607
  20328290.985 7 106825888.14707
  21953951.036 7 115368790.92307
  20328291.013 7 106825889.14707
  20328290.549 7 106825888.15207
  20328290.858 7 106825889.14707
 19  9  8  5  2  8.0000000  0  8G26G31G32G20G21G23G14G29
  22088845.395 7 116077664.63107
  20962085.028 7 110156501.49107
  20328517.682 7 106827081.61307
  20328518.023 7 106827080.61607
  21953451.501 7 115366165.77307
  20328517.834 7 106827081.61907
  20328517.605 7 106827080.61907
  20328517.822 7 106827081.60907
 19  9  8  5  2  9.0000000  0  8G26G31G32G20G21G23G14G29
  22088338.955 7 116075004.20707
  20962220.341 7 110157212.10107
  20328744.581 7 106828274.50607
  20328744.944 7 106828273.51507
  21952951.972 7 115363541.05807
  20328744.834 7 106828274.50807
  20328744.552 7 106828273.50307
  20328744.688 7 106828274.50607
 19  9  8  5  2 10.0000000  0  8G26G31G32G20G21G23G14G29
  22087832.492 7 116072343.88107
  20962355.907 7 110157923.24507
  20328971.577 7 106829467.70207
  20328972.216 7 106829466.70207
  21952452.455 7 115360916.64707
  20328971.784 7 106829467.70207
  20328971.510 7 106829466.69607
  20328971.622 7 106829467.69707
 19  9  8  5  2 11.0000000  0  8G26G31G32G20G21G23G14G29
  22087326.317 7 116069683.77807
  20962491.346 7 110158635.01607
  20329198.533 7 106830661.28707
  20329199.194 7 106830660.28607
  21951953.161 7 115358292.64707
  20329198.837 7 106830661.28507
  20329198.617 7 106830660.28307
  20329198.749 7 106830661.29007
 19  9  8  5  2 12.0000000  0  8G26G31G32G20G21G23G14G29
  22086820.159 7 116067023.85307
  20962626.861 7 110159347.39807
  20329425.793 7 106831855.23907
  20329426.347 7 106831854.24007
  21951454.060 7 115355669.00207
  20329426.065 7 106831855.22707
  20329425.594 7 106831854.23607
  20329426.157 7 106831855.23407
 19  9  8  5  2 13.0000000  0  8G26G31G32G20G21G23G14G29
  22086314.001 7 116064364.18807
  20962762.582 7 110160060.45307
  20329653.148 7 106833049.62607
  20329654.066 7 106833048.63207
  21950954.785 7 115353045.81607
  20329653.250 7 106833049.62907
  20329653.097 7 106833048.62507
  20329653.467 7 106833049.62607
 19  9  8  5  2 14.0000000  0  8G26G31G32G20G21G23G14G29
  22085808.107 7 116061704.79407
  20962898.546 7 110160774.20307
  20329880.667 7 106834244.47907
  20329881.456 7 106834243.47007
  21950455.796 7 115350423.09507
  20329880.540 7 106834244.46907
  20329880.511 7 106834243.47707
  20329880.652 7 106834244.47307
 19  9  8  5  2 15.0000000  0  8G26G31G32G20G21G23G14G29
  22085302.217 7 116059045.36007
  20963034.534 7 110161488.34907
  20330107.965 7 106835439.46507
  20330108.683 7 106835438.46807
  21949956.945 7 115347800.52507
  20330108.071 7 106835439.46807
  20330107.928 7 106835438.46407
  20330108.123 7 106835439.46307
 19  9  8  5  2 16.0000000  0  8G26G31G32G20G21G23G14G29
  22084796.210 7 116056386.38507
  20963170.424 7 110162203.36407
  20330335.582 7 106836635.09907
  20330335.963 7 106836634.09907
  21949458.133 7 115345178.61207
  20330335.721 7 106836635.09607
  20330335.446 7 106836634.09207
  20330335.586 7 106836635.09607
 19  9  8  5  2 17.0000000  0  8G26G31G32G20G21G23G14G29
  22084290.108 7 116053727.54907
  20963306.436 7 110162918.93607
  20330563.369 7 106837831.03907
  20330563.383 7 106837830.04407
  21948959.248 7 115342557.01207
  20330563.230 7 106837831.04007
  20330562.961 7 106837830.04007
  20330563.354 7 106837831.04307
 19  9  8  5  2 18.0000000  0  8G26G31G32G20G21G23G14G29
  22083784.077 7 116051069.27907
  20963442.667 7 110163635.50907
  20330791.252 7 106839027.73507
  20330791.006 7 106839026.74207
  21948460.414 7 115339936.18607
  20330791.044 7 106839027.74307
  20330790.516 7 106839026.73907
  20330791.041 7 106839027.74107
 19  9  8  5  2 19.0000000  0  8G26G31G32G20G21G23G14G29
  22083278.218 7 116048411.28707
  20963579.364 7 110164352.78207
  20331019.017 7 106840224.90407
  20331018.780 7 106840223.90207
  21947961.765 7 115337315.82507
  20331018.822 7 106840224.90607
  20331018.451 7 106840223.90107
  20331018.891 7 106840224.90507
 19  9  8  5  2 20.0000000  0  8G26G31G32G20G21G23G14G29
  22082772.457 7 116045753.26307
  20963715.749 7 110165070.43807
  20331246.872 7 106841422.21007
  20331246.713 7 106841421.22507
  21947463.194 7 115334695.62307
  20331246.475 7 106841422.21407
  20331246.235 7 106841421.21907
  20331246.700 7 106841422.22007
 19  9  8  5  2 21.0000000  0  8G26G31G32G20G21G23G14G29
  22082266.765 7 116043095.54907
  20963852.561 7 110165788.81707
  20331474.778 7 106842620.02307
  20331474.865 7 106842619.02007
  21946964.635 7 115332075.91707
  20331474.740 7 106842620.01507
  20331474.188 7 106842619.02207
  20331474.497 7 106842620.01407
 19  9  8  5  2 22.0000000  0  8G26G31G32G20G21G23G14G29
  22081761.083 7 116040437.74007
  20963989.142 7 110166507.53407
  20331702.744 7 106843817.90307
  20331702.961 7 106843816.90407
  21946465.865 7 115329456.31007
  20331702.669 7 106843817.90507
  20331702.218 7 106843816.89707
  20331702.624 7 106843817.90607
 19  9  8  5  2 23.0000000  0  8G26G31G32G20G21G23G14G29
  22081255.097 7 116037780.19607
  20964126.184 7 110167226.93307
  20331930.628 7 106845016.24307
  20331930.954 7 106845015.24407
  21945967.369 7 115326837.16407
  20331930.621 7 106845016.23607
  20331930.130 7 106845015.24507
  20331930.675 7 106845016.24107
 19  9  8  5  2 24.0000000  0  8G26G31G32G20G21G23G14G29
  22080749.527 7 116035122.89307
  20964263.274 7 110167946.99707
  20332158.599 7 106846214.99407
  20332159.127 7 106846214.00307
  21945469.074 7 115324218.44307
  20332158.689 7 106846214.99707
  20332158.277 7 106846213.99307
  20332158.836 7 106846214.99507
 19  9  8  5  2 25.0000000  0  8G26G31G32G20G21G23G14G29
  22080244.113 7 116032465.83907
  20964400.469 7 110168667.72907
  20332386.481 7 106847414.18707
  20332387.139 7 106847413.19007
  21944970.804 7 115321600.16907
  20332386.779 7 106847414.18707
  20332386.545 7 106847413.18707
  20332387.210 7 106847414.18207
 19  9  8  5  2 26.0000000  0  8G26G31G32G20G21G23G14G29
  22079738.676 7 116029808.69507
  20964537.712 7 110169388.79007
  20332614.841 7 106848613.45907
  20332615.210 7 106848612.46607
  21944472.654 7 115318981.99107
  20332615.060 7 106848613.45707
  20332614.584 7 106848612.45807
  20332615.307 7 106848613.46507
 19  9  8  5  2 27.0000000  0  8G26G31G32G20G21G23G14G29
  22079233.074 7 116027151.85207
  20964674.929 7 110170110.57407
  20332843.391 7 106849813.22507
  20332843.596 7 106849812.22307
  21943974.314 7 115316364.30407
  20332843.367 7 106849813.22807
  20332843.300 7 106849812.22707
  20332843.644 7 106849813.23307
 19  9  8  5  2 28.0000000  0  8G26G31G32G20G21G23G14G29
  22078727.744 7 116024495.45907
  20964812.441 7 110170833.23907
  20333071.808 7 106851013.61407
  20333072.096 7 106851012.61607
  21943476.341 7 115313747.27207
  20333071.607 7 106851013.62407
  20333071.809 7 106851012.62007
  20333072.013 7 106851013.61807
 19  9  8  5  2 29.0000000  0  8G26G31G32G20G21G23G14G29
  22078222.007 7 116021839.10107
  20964950.139 7 110171556.34907
  20333300.370 7 106852214.22507
  20333300.480 7 106852213.22407
  21942978.619 7 115311130.45407
  20333300.292 7 106852214.22907
  20333300.163 7 106852213.22607
  20333300.328 7 106852214.22007
 19  9  8  5  2 30.0000000  0  8G26G31G32G20G21G23G14G29
  22077716.360 7 116019183.00307
  20965087.618 7 110172280.14607
  20333529.000 7 106853415.27007
  20333529.274 7 106853414.27407
  21942480.905 7 115308514.09507
  20333528.792 7 106853415.27007
  20333528.869 7 106853414.27807
  20333528.756 7 106853415.26907
 19  9  8  5  2 31.0000000  0  8G26G31G32G20G21G23G14G29
  22077211.048 7 116016527.10807
  20965225.541 7 110173004.55907
  20333757.693 7 106854616.70907
  20333758.086 7 106854615.72007
  21941983.222 7 115305898.11907
  20333757.493 7 106854616.70507
  20333757.610 7 106854615.70407
  20333757.449 7 106854616.71107
 19  9  8  5  2 32.0000000  0  8G26G31G32G20G21G23G14G29
  22076705.667 7 116013871.46007
  20965363.464 7 110173729.64007
  20333986.307 7 106855818.57007
  20333986.754 7 106855817.57107
  21941485.522 7 115303282.59907
  20333986.320 7 106855818.56507
  20333986.165 7 106855817.57407
  20333986.114 7 106855818.57407
 19  9  8  5  2 33.0000000  0  8G26G31G32G20G21G23G14G29
  22076200.326 7 116011215.91607
  20965501.767 7 110174455.25507
  20334215.168 7 106857020.70907
  20334215.328 7 106857019.71807
  21940987.836 7 115300667.35907
  20334215.185 7 106857020.71507
  20334214.480 7 106857019.71407
  20334214.878 7 106857020.71507
 19  9  8  5  2 34.0000000  0  8G26G31G32G20G21G23G14G29
  22075695.029 7 116008561.01207
  20965639.718 7 110175181.92507
  20334444.022 7 106858223.68507
  20334444.225 7 106858222.68307
  21940490.343 7 115298052.95407
  20334444.109 7 106858223.68607
  20334443.644 7 106858222.68507
  20334443.636 7 106858223.68207
 19  9  8  5  2 35.0000000  0  8G26G31G32G20G21G23G14G29
  22075189.973 7 116005906.15207
  20965778.335 7 110175909.04207
  20334672.933 7 106859426.86707
  20334673.227 7 106859425.86507
  21939992.815 7 115295438.78207
  20334673.013 7 106859426.86707
  20334672.603 7 106859425.86607
  20334672.517 7 106859426.86907
 19  9  8  5  2 36.0000000  0  8G26G31G32G20G21G23G14G29
  22074684.697 7 116003251.42507
  20965916.813 7 110176636.73507
  20334901.686 7 106860630.37207
  20334902.138 7 106860629.36507
  21939495.479 7 115292824.94607
  20334901.924 7 106860630.36907
  20334901.568 7 106860629.37207
  20334901.778 7 106860630.37407
 19  9  8  5  2 37.0000000  0  8G26G31G32G20G21G23G14G29
  22074179.776 7 116000596.69907
  20966055.454 7 110177364.84407
  20335130.964 7 106861834.05307
  20335131.281 7 106861833.05307
  21938998.148 7 115290211.29707
  20335131.112 7 106861834.05207
  20335130.783 7 106861833.05807
  20335130.855 7 106861834.06007
 19  9  8  5  2 38.0000000  0  8G26G31G32G20G21G23G14G29
  22073674.562 7 115997942.29307
  20966194.034 7 110178093.68907
  20335359.948 7 106863038.23707
  20335360.190 7 106863037.22607
  21938500.828 7 115287598.15107
  20335360.106 7 106863038.23107
  20335359.813 7 106863037.22907
  20335360.061 7 106863038.23207
 19  9  8  5  2 39.0000000  0  8G26G31G32G20G21G23G14G29
  22073169.563 7 115995287.96907
  20966332.560 7 110178823.04607
  20335589.133 7 106864242.68607
  20335589.599 7 106864241.69107
  21938003.645 7 115284985.29207
  20335589.123 7 106864242.68607
  20335589.036 7 106864241.68907
  20335589.417 7 106864242.68707
 19  9  8  5  2 40.0000000  0  8G26G31G32G20G21G23G14G29
  22072664.519 7 115992634.01107
  20966471.604 7 110179553.17907
  20335818.763 7 106865447.68207
  20335818.890 7 106865446.67207
  21937506.734 7 115282372.98307
  20335818.351 7 106865447.68207
  20335818.405 7 106865446.68207
  20335818.751 7 106865447.67907
 19  9  8  5  2 41.0000000  0  9G26G31G32G20G21G16G23G14G29
  22072159.366 7 115989980.14907
  20966610.616 7 110180283.81907
  20336048.032 7 106866652.94007
  20336048.173 7 106866651.94507
  21937009.470 7 115279760.96307
  24306730.067 7
  20336047.822 7 106866652.94207
  20336047.860 7 106866651.94907
  20336048.233 7 106866652.94507
 19  9  8  5  2 42.0000000  0  9G26G31G32G20G21G16G23G14G29
  22071654.464 7 115987326.73607
  20966750.006 7 110181015.34507
  20336277.274 7 106867858.84007
  20336277.509 7 106867857.83507
  21936512.467 7 115277149.57907
  24306104.326 7
  20336277.376 7 106867858.83507
  20336277.137 7 106867857.83007
  20336277.389 7 106867858.83307
 19  9  8  5  2 43.0000000  0  9G26G31G32G20G21G16G23G14G29
  22071149.565 7 115984673.50507
  20966889.340 7 110181747.46307
  20336506.790 7 106869065.09007
  20336506.986 7 106869064.09207
  21936015.463 7 115274538.57207
  24305478.343 7
  20336506.857 7 106869065.08807
  20336506.744 7 106869064.08507
  20336507.082 7 106869065.09007
 19  9  8  5  2 44.0000000  0  9G26G31G32G20G21G16G23G14G29
  22070644.714 7 115982020.24207
  20967028.635 7 110182479.97607
  20336736.426 7 106870271.49207
  20336736.730 7 106870270.49307
  21935518.473 7 115271927.72007
  24304851.878 7 127722855.53217
  20336736.489 7 106870271.49207
  20336736.297 7 106870270.49207
  20336736.547 7 106870271.48407
 19  9  8  5  2 45.0000000  0  9G26G31G32G20G21G16G23G14G29
  22070139.730 7 115979367.28307
  20967168.481 7 110183213.21007
  20336966.223 7 106871478.38007
  20336966.500 7 106871477.39507
  21935021.715 7 115269317.38307
  24304225.775 7 127719564.93207
  20336966.031 7 106871478.38407
  20336965.916 7 106871477.39107
  20336966.125 7 106871478.39007
 19  9  8  5  2 46.0000000  0  9G26G31G32G20G21G16G23G14G29
  22069634.954 7 115976714.49407
  20967308.004 7 110183947.03207
  20337195.989 7 106872685.61807
  20337196.234 7 106872684.62707
  21934525.182 7 115266707.38607
  24303599.703 7 127716274.31707
  20337195.599 7 106872685.62707
  20337195.758 7 106872684.61707
  20337195.938 7 106872685.61807
 19  9  8  5  2 47.0000000  0  9G26G31G32G20G21G16G23G14G29
  22069130.376 7 115974061.99607
  20967447.729 7 110184681.56807
  20337425.693 7 106873893.33107
  20337426.270 7 106873892.33307
  21934028.463 7 115264097.89107
  24302973.801 7 127712983.82807
  20337425.420 7 106873893.33607
  20337425.464 7 106873892.33807
  20337425.447 7 106873893.33607
 19  9  8  5  2 48.0000000  0  9G26G31G32G20G21G16G23G14G29
  22068625.748 7 115971409.72607
  20967587.352 7 110185416.74407
  20337655.562 7 106875101.44307
  20337656.372 7 106875100.43807
  21933532.011 7 115261488.79107
  24302347.661 7 127709693.37207
  20337655.391 7 106875101.43707
  20337655.494 7 106875100.43607
  20337655.238 7 106875101.44107
 19  9  8  5  2 49.0000000  0  9G26G31G32G20G21G16G23G14G29
  22068120.945 7 115968757.57307
  20967727.413 7 110186152.45907
  20337885.374 7 106876309.84907
  20337886.142 7 106876308.84407
  21933035.693 7 115258880.01907
  24301721.390 7 127706402.87607
  20337885.099 7 106876309.85107
  20337885.552 7 106876308.84907
  20337885.332 7 106876309.84807
 19  9  8  5  2 50.0000000  0  9G26G31G32G20G21G16G23G14G29
  22067616.094 7 115966105.72507
  20967867.527 7 110186888.90407
  20338115.581 7 106877518.74307
  20338115.822 7 106877517.74207
  21932539.226 7 115256271.74307
  24301095.484 7 127703112.50607
  20338115.419 7 106877518.74107
  20338115.477 7 106877517.74507
  20338115.333 7 106877518.74407
 19  9  8  5  2 51.0000000  0  9G26G31G32G20G21G16G23G14G29
  22067111.608 7 115963453.98007
  20968007.726 7 110187625.86307
  20338345.896 7 106878727.90807
  20338346.022 7 106878726.91107
  21932043.063 7 115253663.75207
  24300469.364 7 127699822.07107
  20338345.502 7 106878727.90907
  20338345.449 7 106878726.91307
  20338345.215 7 106878727.91507
 19  9  8  5  2 52.0000000  0  9G26G31G32G20G21G16G23G14G29
  22066606.673 7 115960802.55307
  20968147.999 7 110188363.56307
  20338575.983 7 106879937.58507
  20338575.992 7 106879936.58707
  21931546.953 7 115251056.27807
  24299843.060 7 127696531.78107
  20338575.824 7 106879937.58507
  20338575.552 7 106879936.58707
  20338575.340 7 106879937.58607
 19  9  8  5  2 53.0000000  0  9G26G31G32G20G21G16G23G14G29
  22066102.116 7 115958150.98107
  20968288.336 7 110189101.53807
  20338806.037 7 106881147.28607
  20338806.271 7 106881146.29207
  21931051.058 7 115248448.85907
  24299216.763 7 127693241.18507
  20338806.160 7 106881147.29407
  20338805.919 7 106881146.29207
  20338805.669 7 106881147.29307
 19  9  8  5  2 54.0000000  0  9G26G31G32G20G21G16G23G14G29
  22065597.680 7 115955499.93607
  20968429.216 7 110189840.46607
  20339036.443 7 106882357.70507
  20339036.803 7 106882356.70807
  21930554.948 7 115245842.14507
  24298590.528 7 127689950.92807
  20339036.355 7 106882357.70907
  20339036.285 7 106882356.70707
  20339036.134 7 106882357.70607
 19  9  8  5  2 55.0000000  0  9G26G31G32G20G21G16G23G14G29
  22065093.149 7 115952849.03107
  20968570.190 7 110190579.94107
  20339266.622 7 106883568.43007
  20339267.237 7 106883567.42707
  21930058.860 7 115243235.76307
  24297964.522 7 127686660.64107
  20339266.686 7 106883568.43307
  20339266.674 7 106883567.42907
  20339266.705 7 106883568.43107
 19  9  8  5  2 56.0000000  0  9G26G31G32G20G21G16G23G14G29
  22064588.760 7 115950198.36807
  20968711.315 7 110191320.08107
  20339496.946 7 106884779.57707
  20339497.659 7 106884778.58107
  21929562.903 7 115240629.82207
  24297338.302 7 127683370.42607
  20339497.529 7 106884779.57407
  20339497.303 7 106884778.58107
  20339497.300 7 106884779.57407
 19  9  8  5  2 57.0000000  0  9G26G31G32G20G21G16G23G14G29
  22064084.456 7 115947548.02907
  20968852.260 7 110192060.95607
  20339727.370 7 106885991.22207
  20339728.306 7 106885990.22307
  21929066.758 7 115238024.37907
  24296712.211 7 127680080.36307
  20339728.149 7 106885991.22107
  20339727.886 7 106885990.22707
  20339728.054 7 106885991.22307
 19  9  8  5  2 58.0000000  0  9G26G31G32G20G21G16G23G14G29
  22063580.260 7 115944897.71807
  20968993.013 7 110192802.27707
  20339958.337 7 106887203.08007
  20339958.811 7 106887202.08007
  21928570.900 7 115235419.17507
  24296086.090 7 127676790.15907
  20339958.517 7 106887203.07907
  20339958.497 7 106887202.07107
  20339958.798 7 106887203.07207
 19  9  8  5  2 59.0000000  0  9G26G31G32G20G21G16G23G14G29
  22063075.989 7 115942247.77107
  20969134.174 7 110193544.38207
  20340189.349 7 106888415.46707
  20340189.842 7 106888414.47007
  21928075.532 7 115232814.51907
  24295460.096 7 127673500.12607
  20340189.096 7 106888415.47007
  20340188.998 7 106888414.46807
  20340189.581 7 106888415.47307
 19  9  8  5  3  0.0000000  0  9G26G31G32G20G21G16G23G14G29
  22062571.858 7 115939598.13607
  20969275.408 7 110194287.22707
  20340420.178 7 106889628.35507
  20340420.555 7 106889627.35407
  21927580.073 7 115230210.37007
  24294834.378 7 127670210.25507
  20340419.815 7 106889628.35107
  20340419.771 7 106889627.35807
  20340420.045 7 106889628.36107
 19  9  8  5  3  1.0000000  0  9G26G31G32G20G21G16G23G14G29
  22062067.839 7 115936948.93607
  20969416.949 7 110195030.92307
  20340650.980 7 106890841.85707
  20340651.178 7 106890840.85507
  21927084.880 7 115227606.84707
  24294208.325 7 127666920.64207
  20340650.758 7 106890841.86107
  20340650.603 7 106890840.84707
  20340650.922 7 106890841.85907
 19  9  8  5  3  2.0000000  0  9G26G31G32G20G21G16G23G14G29
  22061563.887 7 115934300.14007
  20969558.503 7 110195775.44007
  20340881.919 7 106892055.93907
  20340882.114 7 106892054.94007
  21926589.303 7 115225003.92207
  24293582.298 7 127663631.25707
  20340881.781 7 106892055.93907
  20340881.696 7 106892054.93507
  20340881.924 7 106892055.93607
 19  9  8  5  3  3.0000000  0  9G26G31G32G20G21G16G23G14G29
  22061059.759 7 115931651.29307
  20969700.142 7 110196520.32207
  20341113.348 7 106893270.14307
  20341113.042 7 106893269.13907
  21926093.810 7 115222401.13407
  24292956.042 7 127660341.64407
  20341112.991 7 106893270.13407
  20341112.894 7 106893269.13507
  20341112.942 7 106893270.13907
 19  9  8  5  3  4.0000000  0  9G26G31G32G20G21G16G23G14G29
  22060555.878 7 115929002.42407
  20969842.062 7 110197265.59207
  20341344.206 7 106894484.49307
  20341344.295 7 106894483.48807
  21925598.626 7 115219798.50607
  24292329.984 7 127657051.83407
  20341344.313 7 106894484.49807
  20341343.791 7 106894483.49807
  20341344.202 7 106894484.49907
 19  9  8  5  3  5.0000000  0  9G26G31G32G20G21G16G23G14G29
  22060051.749 7 115926353.73807
  20969983.924 7 110198011.48107
  20341575.419 7 106895699.22707
  20341575.335 7 106895698.22907
  21925103.573 7 115217196.28507
  24291703.850 7 127653762.05507
  20341575.228 7 106895699.22807
  20341575.045 7 106895698.22907
  20341575.323 7 106895699.22707
 19  9  8  5  3  6.0000000  0  9G26G31G32G20G21G16G23G14G29
  22059547.926 7 115923705.08307
  20970126.014 7 110198757.81507
  20341806.661 7 106896914.16007
  20341806.623 7 106896913.16107
  21924608.444 7 115214594.25807
  24291077.864 7 127650472.12307
  20341806.391 7 106896914.15607
  20341806.144 7 106896913.16607
  20341806.397 7 106896914.15407
 19  9  8  5  3  7.0000000  0  9G26G31G32G20G21G16G23G14G29
  22059043.591 7 115921056.80707
  20970268.217 7 110199504.93007
  20342038.095 7 106898129.62807
  20342038.057 7 106898128.63707
  21924113.494 7 115211992.81207
  24290452.027 7 127647182.39707
  20342037.570 7 106898129.63707
  20342037.320 7 106898128.63207
  20342037.739 7 106898129.63407
 19  9  8  5  3  8.0000000  0  9G26G31G32G20G21G16G23G14G29
  22058539.805 7 115918408.97207
  20970410.594 7 110200252.90307
  20342269.530 7 106899345.74207
  20342269.449 7 106899344.73707
  21923618.786 7 115209391.99607
  24289826.102 7 127643892.93207
  20342269.027 7 106899345.74007
  20342268.793 7 106899344.73707
  20342269.185 7 106899345.73807
 19  9  8  5  3  9.0000000  0  9G26G31G32G20G21G16G23G14G29
  22058035.797 7 115915761.34607
  20970553.030 7 110201001.52807
  20342500.970 7 106900562.22407
  20342500.991 7 106900561.23007
  21923123.916 7 115206791.58607
  24289199.919 7 127640603.50007
  20342500.553 7 106900562.22807
  20342500.358 7 106900561.22907
  20342500.824 7 106900562.22207
 19  9  8  5  3 10.0000000  0  9G26G31G32G20G21G16G23G14G29
  22057532.021 7 115913113.66907
  20970695.748 7 110201750.49407
  20342732.287 7 106901778.83607
  20342732.386 7 106901777.83607
  21922629.172 7 115204191.30607
  24288573.688 7 127637313.84407
  20342732.009 7 106901778.83607
  20342731.903 7 106901777.83607
  20342732.071 7 106901778.83207
 19  9  8  5  3 11.0000000  0  9G26G31G32G20G21G16G23G14G29
  22057027.963 7 115910466.24207
  20970838.232 7 110202500.14507
  20342963.863 7 106902995.87607
  20342963.899 7 106902994.87707
  21922134.089 7 115201591.47807
  24287948.025 7 127634024.29107
  20342963.385 7 106902995.87407
  20342963.315 7 106902994.87207
  20342963.943 7 106902995.87607
 19  9  8  5  3 12.0000000  0  9G26G31G32G20G21G16G23G14G29
  22056524.405 7 115907819.03707
  20970980.999 7 110203250.42607
  20343195.382 7 106904213.31107
  20343195.555 7 106904212.30807
  21921639.508 7 115198992.05807
  24287322.242 7 127630734.75607
  20343195.097 7 106904213.30907
  20343195.051 7 106904212.31007
  20343195.642 7 106904213.31407
 19  9  8  5  3 13.0000000  0  9G26G31G32G20G21G16G23G14G29
  22056021.068 7 115905172.05707
  20971123.939 7 110204001.34807
  20343427.121 7 106905431.14707
  20343427.379 7 106905430.14907
  21921144.984 7 115196393.05507
  24286696.017 7 127627445.28907
  20343426.696 7 106905431.14607
  20343426.997 7 106905430.15107
  20343427.278 7 106905431.14207
 19  9  8  5  3 14.0000000  0  9G26G31G32G20G21G16G23G14G29
  22055517.331 7 115902525.23607
  20971266.839 7 110204752.84507
  20343659.006 7 106906649.32507
  20343659.292 7 106906648.32607
  21920650.349 7 115193794.41407
  24286070.178 7 127624155.80807
  20343658.723 7 106906649.32207
  20343658.931 7 106906648.32507
  20343659.197 7 106906649.32507
 19  9  8  5  3 15.0000000  0  9G26G31G32G20G21G16G23G14G29
  22055013.855 7 115899878.51307
  20971409.936 7 110205504.86907
  20343890.980 7 106907867.78007
  20343891.392 7 106907866.77207
  21920156.071 7 115191196.06507
  24285444.430 7 127620866.24507
  20343890.618 7 106907867.78007
  20343890.954 7 106907866.77207
  20343890.885 7 106907867.77407
 19  9  8  5  3 16.0000000  0  9G26G31G32G20G21G16G23G14G29
  22054510.067 7 115897232.11107
  20971553.095 7 110206257.62207
  20344122.838 7 106909086.71307
  20344123.167 7 106909085.72607
  21919661.668 7 115188598.20607
  24284818.423 7 127617576.84107
  20344122.848 7 106909086.72007
  20344122.713 7 106909085.71507
  20344122.931 7 106909086.71307
 19  9  8  5  3 17.0000000  0  9G26G31G32G20G21G16G23G14G29
  22054006.516 7 115894585.90407
  20971696.747 7 110207010.98907
  20344354.597 7 106910306.03307
  20344355.432 7 106910305.03407
  21919167.351 7 115186000.75407
  24284192.306 7 127614287.45107
  20344354.996 7 106910306.04007
  20344354.676 7 106910305.02807
  20344354.853 7 106910306.03407
 19  9  8  5  3 18.0000000  0  9G26G31G32G20G21G16G23G14G29
  22053502.730 7 115891939.86307
  20971840.221 7 110207764.93907
  20344586.923 7 106911525.68207
  20344587.545 7 106911524.69407
  21918673.131 7 115183403.65607
  24283566.594 7 127610998.05207
  20344587.053 7 106911525.69007
  20344586.887 7 106911524.69007
  20344586.913 7 106911525.69107
 19  9  8  5  3 19.0000000  0  9G26G31G32G20G21G16G23G14G29
  22052999.023 7 115889294.12707
  20971983.536 7 110208519.59807
  20344819.095 7 106912745.82207
  20344819.820 7 106912744.82007
  21918179.068 7 115180807.04607
  24282940.626 7 127607708.78007
  20344819.096 7 106912745.81607
  20344819.094 7 106912744.82107
  20344819.129 7 106912745.82007
 19  9  8  5  3 20.0000000  0  9G26G31G32G20G21G16G23G14G29
  22052495.578 7 115886648.42107
  20972127.312 7 110209274.72707
  20345051.527 7 106913966.17107
  20345051.505 7 106913965.17507
  21917685.060 7 115178210.67207
  24282314.644 7 127604419.38807
  20345051.060 7 106913966.16907
  20345051.296 7 106913965.17207
  20345051.641 7 106913966.16807
 19  9  8  5  3 21.0000000  0  9G26G31G32G20G21G16G23G14G29
  22051992.374 7 115884003.09307
  20972271.396 7 110210030.63107
  20345284.021 7 106915187.05907
  20345283.918 7 106915186.06907
  21917191.174 7 115175614.86507
  24281688.652 7 127601130.17707
  20345283.178 7 106915187.06207
  20345283.800 7 106915186.06007
  20345284.132 7 106915187.06407
 19  9  8  5  3 22.0000000  0  9G26G31G32G20G21G16G23G14G29
  22051488.874 7 115881357.76907
  20972415.164 7 110210786.97507
  20345516.163 7 106916408.13807
  20345516.073 7 106916407.13307
  21916697.199 7 115173019.24907
  24281062.578 7 127597840.81707
  20345515.583 7 106916408.14207
  20345515.661 7 106916407.14307
  20345516.400 7 106916408.14007
 19  9  8  5  3 23.0000000  0  9G26G31G32G20G21G16G23G14G29
  22050985.543 7 115878712.88407
  20972559.504 7 110211544.15707
  20345748.562 7 106917629.83507
  20345748.491 7 106917628.83107
  21916203.431 7 115170424.26807
  24280436.790 7 127594551.71207
  20345748.059 7 106917629.82407
  20345747.903 7 106917628.83307
  20345748.852 7 106917629.83007
 19  9  8  5  3 24.0000000  0  9G26G31G32G20G21G16G23G14G29
  22050482.249 7 115876067.95307
  20972703.785 7 110212301.70707
  20345980.940 7 106918851.64007
  20345981.009 7 106918850.64107
  21915709.594 7 115167829.42107
  24279810.720 7 127591262.38607
  20345980.564 7 106918851.64107
  20345980.463 7 106918850.64307
  20345981.146 7 106918851.64607
 19  9  8  5  3 25.0000000  0  9G26G31G32G20G21G16G23G14G29
  22049979.178 7 115873423.29207
  20972848.022 7 110213059.96307
  20346213.574 7 106920073.90707
  20346213.480 7 106920072.90307
  21915215.991 7 115165235.04507
  24279184.914 7 127587973.16107
  20346213.340 7 106920073.91007
  20346213.078 7 106920072.90407
  20346213.804 7 106920073.90607
 19  9  8  5  3 26.0000000  0  9G26G31G32G20G21G16G23G14G29
  22049476.086 7 115870778.99007
  20972992.106 7 110213818.97707
  20346446.375 7 106921296.70207
  20346446.374 7 106921295.70307
  21914722.397 7 115162641.22507
  24278558.976 7 127584684.11907
  20346446.337 7 106921296.70507
  20346445.900 7 106921295.71007
  20346446.243 7 106921296.70007
 19  9  8  5  3 27.0000000  0  9G26G31G32G20G21G16G23G14G29
  22048972.898 7 115868134.78607
  20973136.670 7 110214578.51607
  20346678.897 7 106922519.76907
  20346679.420 7 106922518.76907
  21914228.729 7 115160047.69907
  24277933.162 7 127581394.99207
  20346679.103 7 106922519.76807
  20346678.716 7 106922518.76907
  20346678.823 7 106922519.76307
 19  9  8  5  3 28.0000000  0  9G26G31G32G20G21G16G23G14G29
  22048470.055 7 115865490.96607
  20973281.430 7 110215338.84307
  20346911.652 7 106923743.39507
  20346912.379 7 106923742.39407
  21913735.511 7 115157454.73207
  24277307.398 7 127578106.09207
  20346912.235 7 106923743.39507
  20346911.657 7 106923742.39407
  20346911.606 7 106923743.39907
 19  9  8  5  3 29.0000000  0  9G26G31G32G20G21G16G23G14G29
  22047967.277 7 115862847.66207
  20973426.570 7 110216100.11007
  20347144.956 7 106924967.72307
  20347145.288 7 106924966.71907
  21913242.218 7 115154862.49007
  24276681.587 7 127574817.52807
  20347145.096 7 106924967.71507
  20347144.593 7 106924966.71907
  20347144.580 7 106924967.71607
 19  9  8  5  3 30.0000000  0  9G26G31G32G20G21G16G23G14G29
  22047464.156 7 115860204.50507
  20973571.350 7 110216861.93807
  20347378.015 7 106926192.35407
  20347378.340 7 106926191.35607
  21912748.988 7 115152270.57807
  24276055.799 7 127571528.93107
  20347377.931 7 106926192.35407
  20347377.615 7 106926191.35507
  20347377.763 7 106926192.35707
 19  9  8  5  3 31.0000000  0  9G26G31G32G20G21G16G23G14G29
  22046960.956 7 115857561.35007
  20973716.454 7 110217624.19407
  20347610.871 7 106927417.17607
  20347611.383 7 106927416.17007
  21912255.810 7 115149678.85907
  24275429.929 7 127568240.17807
  20347610.987 7 106927417.16907
  20347610.658 7 106927416.17507
  20347611.088 7 106927417.17307
 19  9  8  5  3 32.0000000  0  9G26G31G32G20G21G16G23G14G29
  22046458.024 7 115854918.37707
  20973861.374 7 110218387.03007
  20347843.737 7 106928642.34107
  20347844.547 7 106928641.33807
  21911762.660 7 115147087.52207
  24274803.958 7 127564951.42407
  20347844.061 7 106928642.34207
  20347843.954 7 106928641.34107
  20347844.118 7 106928642.33207
 19  9  8  5  3 33.0000000  0  9G26G31G32G20G21G16G23G14G29
  22045955.130 7 115852275.82307
  20974007.005 7 110219150.70907
  20348077.071 7 106929868.09507
  20348077.842 7 106929867.10207
  21911269.274 7 115144496.78407
  24274178.217 7 127561662.90907
  20348077.375 7 106929868.10007
  20348077.227 7 106929867.09507
  20348077.338 7 106929868.09807
 19  9  8  5  3 34.0000000  0  9G26G31G32G20G21G16G23G14G29
  22045452.421 7 115849633.29007
  20974152.598 7 110219914.82807
  20348310.693 7 106931094.06107
  20348311.187 7 106931093.05607
  21910776.389 7 115141906.26707
  24273552.315 7 127558374.26107
  20348310.634 7 106931094.05807
  20348310.394 7 106931093.05807
  20348310.567 7 106931094.06307
 19  9  8  5  3 35.0000000  0  9G26G31G32G20G21G16G23G14G29
  22044949.495 7 115846990.96607
  20974298.068 7 110220679.55707
  20348544.296 7 106932320.39807
  20348544.423 7 106932319.40007
  21910283.549 7 115139316.14507
  24272926.717 7 127555085.63307
  20348544.232 7 106932320.40207
  20348543.464 7 106932319.40107
  20348543.834 7 106932320.40107
 19  9  8  5  3 36.0000000  0  9G26G31G32G20G21G16G23G14G29
  22044446.526 7 115844348.70407
  20974443.779 7 110221444.77507
  20348777.721 7 106933546.97707
  20348777.786 7 106933545.97807
  21909790.745 7 115136726.28407
  24272300.885 7 127551796.90507
  20348777.447 7 106933546.97307
  20348776.806 7 106933545.97307
  20348777.570 7 106933546.97407
 19  9  8  5  3 37.0000000  0  9G26G31G32G20G21G16G23G14G29
  22043943.464 7 115841706.70807
  20974589.448 7 110222210.67707
  20349011.163 7 106934773.99507
  20349011.450 7 106934772.98907
  21909297.946 7 115134136.88607
  24271674.867 7 127548508.26107
  20349010.848 7 106934773.98607
  20349010.540 7 106934772.98707
  20349011.127 7 106934773.99007
 19  9  8  5  3 38.0000000  0  9G26G31G32G20G21G16G23G14G29
  22043440.795 7 115839064.82907
  20974735.180 7 110222977.10407
  20349244.606 7 106936001.30007
  20349244.834 7 106936000.29807
  21908805.458 7 115131547.79207
  24271049.178 7 127545219.56207
  20349244.651 7 106936001.29607
  20349244.020 7 106936000.29507
  20349244.697 7 106936001.30407
 19  9  8  5  3 39.0000000  0  9G26G31G32G20G21G16G23G14G29
  22042938.614 7 115836423.27707
  20974881.216 7 110223744.27507
  20349478.203 7 106937229.10207
  20349478.524 7 106937228.10107
  21908313.101 7 115128959.21507
  24270423.242 7 127541931.00907
  20349478.205 7 106937229.10307
  20349477.535 7 106937228.09407
  20349478.592 7 106937229.10407
 19  9  8  5  3 40.0000000  0  9G26G31G32G20G21G16G23G14G29
  22042435.919 7 115833781.89107
  20975027.293 7 110224512.03407
  20349711.733 7 106938457.25207
  20349712.014 7 106938456.26007
  21907820.390 7 115126371.00707
  24269797.236 7 127538642.46907
  20349711.840 7 106938457.25307
  20349711.136 7 106938456.26007
  20349712.088 7 106938457.24907
 19  9  8  5  3 41.0000000  0  9G26G31G32G20G21G16G23G14G29
  22041933.127 7 115831140.46507
  20975173.106 7 110225280.16607
  20349945.347 7 106939685.53307
  20349945.770 7 106939684.53007
  21907327.596 7 115123782.94307
  24269171.182 7 127535353.70007
  20349945.449 7 106939685.53407
  20349944.982 7 106939684.53507
  20349945.599 7 106939685.53807
 19  9  8  5  3 42.0000000  0  9G26G31G32G20G21G16G23G14G29
  22041430.537 7 115828499.59107
  20975319.624 7 110226049.24407
  20350179.443 7 106940914.52807
  20350179.893 7 106940913.52207
  21906835.296 7 115121195.61407
  24268545.418 7 127532065.31607
  20350179.649 7 106940914.52507
  20350179.252 7 106940913.52507
  20350179.391 7 106940914.52207
 19  9  8  5  3 43.0000000  0  9G26G31G32G20G21G16G23G14G29
  22040927.846 7 115825858.73607
  20975466.235 7 110226818.77107
  20350413.390 7 106942143.72707
  20350413.662 7 106942142.73407
  21906342.952 7 115118608.51407
  24267919.883 7 127528776.77707
  20350413.358 7 106942143.71907
  20350413.195 7 106942142.72807
  20350413.286 7 106942143.72207
 19  9  8  5  3 44.0000000  0  9G26G31G32G20G21G16G23G14G29
  22040425.203 7 115823218.28707
  20975612.808 7 110227589.12307
  20350647.764 7 106943373.50607
  20350647.845 7 106943372.50207
  21905850.767 7 115116022.01007
  24267294.341 7 127525488.46607
  20350647.208 7 106943373.49707
  20350647.208 7 106943372.50407
  20350647.239 7 106943373.50307
 19  9  8  5  3 45.0000000  0  9G26G31G32G20G21G16G23G14G29
  22039923.155 7 115820578.25407
  20975759.526 7 110228360.30107
  20350881.726 7 106944603.86807
  20350881.852 7 106944602.85707
  21905358.831 7 115113436.10507
  24266668.415 7 127522200.39707
  20350881.312 7 106944603.87207
  20350881.251 7 106944602.86407
  20350881.491 7 106944603.86507
 19  9  8  5  3 46.0000000  0  9G26G31G32G20G21G16G23G14G29
  22039420.723 7 115817938.30907
  20975906.357 7 110229131.98207
  20351115.865 7 106945834.48407
  20351116.029 7 106945833.48007
  21904866.646 7 115110850.47207
  24266042.443 7 127518912.23807
  20351115.558 7 106945834.48007
  20351115.397 7 106945833.47907
  20351115.884 7 106945834.47907
 19  9  8  5  3 47.0000000  0  9G26G31G32G20G21G16G23G14G29
  22038918.547 7 115815298.65207
  20976053.250 7 110229904.37307
  20351350.041 7 106947065.56607
  20351350.214 7 106947064.56707
  21904374.419 7 115108265.33507
  24265417.038 7 127515624.21007
  20351350.202 7 106947065.56907
  20351349.699 7 106947064.56307
  20351350.145 7 106947065.56307
 19  9  8  5  3 48.0000000  0  9G26G31G32G20G21G16G23G14G29
  22038416.292 7 115812659.20807
  20976200.259 7 110230677.38807
  20351584.227 7 106948297.03907
  20351584.805 7 106948296.03707
  21903882.780 7 115105680.60607
  24264791.368 7 127512336.21907
  20351584.428 7 106948297.03807
  20351584.235 7 106948296.04007
  20351584.306 7 106948297.04207
 19  9  8  5  3 49.0000000  0  9G26G31G32G20G21G16G23G14G29
  22037914.069 7 115810019.48107
  20976347.539 7 110231450.52207
  20351818.592 7 106949528.39307
  20351819.122 7 106949527.40107
  21903391.020 7 115103095.77707
  24264165.507 7 127509047.76707
  20351818.809 7 106949528.39807
  20351818.480 7 106949527.39207
  20351818.425 7 106949528.39507
 19  9  8  5  3 50.0000000  0  9G26G31G32G20G21G16G23G14G29
  22037411.612 7 115807380.22707
  20976494.700 7 110232224.54607
  20352053.124 7 106950760.38507
  20352053.740 7 106950759.39307
  21902899.109 7 115100511.61007
  24263539.841 7 127505759.59907
  20352053.307 7 106950760.38907
  20352052.705 7 106950759.39207
  20352052.871 7 106950760.39207
 19  9  8  5  3 51.0000000  0  9G26G31G32G20G21G16G23G14G29
  22036909.499 7 115804741.11707
  20976642.226 7 110232999.15107
  20352287.743 7 106951992.72307
  20352288.124 7 106951991.71707
  21902407.459 7 115097927.79507
  24262914.137 7 127502471.41207
  20352287.769 7 106951992.71807
  20352287.177 7 106951991.72107
  20352287.484 7 106951992.72107
 19  9  8  5  3 52.0000000  0  9G26G31G32G20G21G16G23G14G29
  22036407.507 7 115802102.29207
  20976789.778 7 110233774.43007
  20352522.054 7 106953225.49007
  20352522.522 7 106953224.48707
  21901915.886 7 115095344.44207
  24262288.899 7 127499183.34807
  20352522.146 7 106953225.49007
  20352521.863 7 106953224.49407
  20352522.178 7 106953225.48607
 19  9  8  5  3 53.0000000  0  9G26G31G32G20G21G16G23G14G29
  22035905.243 7 115799463.74007
  20976937.583 7 110234550.39307
  20352756.914 7 106954458.70607
  20352757.273 7 106954457.70507
  21901424.403 7 115092761.56407
  24261662.904 7 127495895.37307
  20352756.765 7 106954458.71507
  20352756.507 7 106954457.71007
  20352756.552 7 106954458.71307
 19  9  8  5  3 54.0000000  0  9G26G31G32G20G21G16G23G14G29
  22035403.017 7 115796825.30207
  20977085.369 7 110235326.90407
  20352991.878 7 106955692.22207
  20352991.939 7 106955691.21607
  21900933.076 7 115090178.99007
  24261037.231 7 127492607.34607
  20352991.272 7 106955692.21007
  20352991.263 7 106955691.21807
  20352991.369 7 106955692.22107
 19  9  8  5  3 55.0000000  0  9G26G31G32G20G21G16G23G14G29
  22034900.930 7 115794187.20107
  20977233.216 7 110236104.15907
  20353226.419 7 106956926.23007
  20353226.707 7 106956925.23007
  21900441.480 7 115087596.95007
  24260411.364 7 127489319.47607
  20353226.208 7 106956926.23907
  20353226.067 7 106956925.22907
  20353226.223 7 106956926.23507
 19  9  8  5  3 56.0000000  0  9G26G31G32G20G21G16G23G14G29
  22034399.156 7 115791549.40007
  20977381.207 7 110236882.12307
  20353461.171 7 106958160.71907
  20353461.383 7 106958159.71007
  21899950.219 7 115085015.39207
  24259785.703 7 127486031.72107
  20353461.115 7 106958160.71407
  20353460.921 7 106958159.71307
  20353461.297 7 106958160.71407
 19  9  8  5  3 57.0000000  0  9G26G31G32G20G21G16G23G14G29
  22033897.234 7 115788911.73507
  20977529.231 7 110237660.63007
  20353696.008 7 106959395.50207
  20353696.481 7 106959394.50107
  21899458.898 7 115082434.17107
  24259160.171 7 127482743.94607
  20353695.959 7 106959395.49907
  20353695.675 7 106959394.49907
  20353696.185 7 106959395.50507
 19  9  8  5  3 58.0000000  0  9G26G31G32G20G21G16G23G14G29
  22033395.288 7 115786274.16107
  20977677.445 7 110238439.65707
  20353931.115 7 106960630.55807
  20353931.771 7 106960629.56107
  21898967.900 7 115079853.22507
  24258534.608 7 127479456.08107
  20353931.160 7 106960630.56307
  20353930.838 7 106960629.56907
  20353931.096 7 106960630.56007
 19  9  8  5  3 59.0000000  0  9G26G31G32G20G21G16G23G14G29
  22032893.436 7 115783636.86907
  20977825.896 7 110239219.36807
  20354166.324 7 106961866.06507
  20354166.834 7 106961865.06507
  21898477.086 7 115077272.75907
  24257908.840 7 127476168.31707
  20354166.119 7 106961866.06807
  20354166.165 7 106961865.06507
  20354166.050 7 106961866.06607
 19  9  8  5  4  0.0000000  0  9G26G31G32G20G21G16G23G14G29
  22032391.634 7 115780999.79707
  20977974.090 7 110239999.72507
  20354401.527 7 106963101.97407
  20354401.985 7 106963100.97307
  21897986.256 7 115074692.71607
  24257283.339 7 127472880.62007
  20354401.336 7 106963101.97307
  20354401.180 7 106963100.97007
  20354401.351 7 106963101.97607
 19  9  8  5  4  1.0000000  0  9G26G31G32G20G21G16G23G14G29
  22031889.824 7 115778362.86607
  20978122.844 7 110240780.63007
  20354636.994 7 106964338.18507
  20354637.223 7 106964337.18207
  21897495.488 7 115072112.99607
  24256657.565 7 127469592.88307
  20354636.811 7 106964338.18307
  20354636.421 7 106964337.18807
  20354636.839 7 106964338.18607
 19  9  8  5  4  2.0000000  0  9G26G31G32G20G21G16G23G14G29
  22031388.005 7 115775726.28107
  20978271.568 7 110241562.29107
  20354872.167 7 106965574.90807
  20354872.542 7 106965573.91107
  21897004.361 7 115069533.82007
  24256031.940 7 127466305.30807
  20354872.067 7 106965574.90507
  20354872.000 7 106965573.91407
  20354872.364 7 106965574.90907
 19  9  8  5  4  3.0000000  0  9G26G31G32G20G21G16G23G14G29
  22030886.380 7 115773089.81707
  20978420.417 7 110242344.48707
  20355107.685 7 106966811.91807
  20355107.904 7 106966810.92807
  21896513.567 7 115066954.94707
  24255406.187 7 127463017.68007
  20355107.411 7 106966811.92507
  20355107.451 7 106966810.92807
  20355107.671 7 106966811.93407
 19  9  8  5  4  4.0000000  0  9G26G31G32G20G21G16G23G14G29
  22030384.786 7 115770453.60807
  20978569.448 7 110243127.34007
  20355343.071 7 106968049.37207
  20355343.286 7 106968048.36807
  21896022.794 7 115064376.52507
  24254780.686 7 127459730.13707
  20355342.874 7 106968049.37307
  20355342.873 7 106968048.36407
  20355342.829 7 106968049.37307
 19  9  8  5  4  5.0000000  0  9G26G31G32G20G21G16G23G14G29
  22029883.157 7 115767817.64107
  20978718.598 7 110243910.86807
  20355578.712 7 106969287.22107
  20355578.749 7 106969286.23007
  21895532.324 7 115061798.54307
  24254155.178 7 127456442.67207
  20355578.622 7 106969287.23707
  20355578.441 7 106969286.22107
  20355578.296 7 106969287.23807
 19  9  8  5  4  6.0000000  0  9G26G31G32G20G21G16G23G14G29
  22029381.459 7 115765181.70007
  20978867.977 7 110244694.82007
  20355814.343 7 106970525.27807
  20355814.525 7 106970524.27807
  21895041.995 7 115059220.77207
  24253529.273 7 127453155.04307
  20355814.335 7 106970525.28107
  20355814.026 7 106970524.27907
  20355814.225 7 106970525.28407
 19  9  8  5  4  7.0000000  0  9G26G31G32G20G21G16G23G14G29
  22028879.921 7 115762546.17307
  20979017.344 7 110245479.60507
  20356049.883 7 106971763.90907
  20356050.078 7 106971762.91007
  21894551.355 7 115056643.61507
  24252903.981 7 127449867.66007
  20356049.941 7 106971763.90807
  20356049.403 7 106971762.91607
  20356049.979 7 106971763.91407
 19  9  8  5  4  8.0000000  0  9G26G31G32G20G21G16G23G14G29
  22028378.444 7 115759910.57507
  20979166.670 7 110246264.72807
  20356285.691 7 106973002.64907
  20356285.872 7 106973001.64007
  21894060.968 7 115054066.57307
  24252278.565 7 127446580.03207
  20356285.616 7 106973002.64207
  20356284.997 7 106973001.64707
  20356285.560 7 106973002.64707
 19  9  8  5  4  9.0000000  0  9G26G31G32G20G21G16G23G14G29
  22027876.897 7 115757275.37407
  20979316.295 7 110247050.66707
  20356521.312 7 106974241.95707
  20356521.893 7 106974240.95507
  21893570.850 7 115051490.13307
  24251653.071 7 127443292.62507
  20356521.541 7 106974241.95607
  20356521.038 7 106974240.95607
  20356521.114 7 106974241.95607
 19  9  8  5  4 10.0000000  0  9G26G31G32G20G21G16G23G14G29
  22027375.633 7 115754640.48507
  20979465.904 7 110247837.33007
  20356757.154 7 106975481.74607
  20356757.752 7 106975480.73507
  21893080.453 7 115048914.18207
  24251027.216 6 127440005.37206
  20356757.397 7 106975481.74207
  20356757.164 7 106975480.73907
  20356757.096 7 106975481.73907
 19  9  8  5  4 11.0000000  0  9G26G31G32G20G21G16G23G14G29
  22026874.218 7 115752005.56607
  20979615.691 7 110248624.36407
  20356993.377 7 106976721.65807
  20356993.547 7 106976720.65407
  21892590.187 7 115046338.39607
  24250401.802 6 127436717.88806
  20356993.435 7 106976721.65907
  20356993.311 7 106976720.65807
  20356993.069 7 106976721.65207
 19  9  8  5  4 12.0000000  0  9G26G31G32G20G21G16G23G14G29
  22026372.930 7 115749371.08907
  20979765.497 7 110249412.26807
  20357229.214 7 106977962.19807
  20357229.740 7 106977961.19707
  21892100.245 7 115043763.25207
  24249776.431 6 127433430.70106
  20357229.356 7 106977962.19707
  20357229.251 7 106977961.19607
  20357229.214 7 106977962.20107
 19  9  8  5  4 13.0000000  0  9G26G31G32G20G21G16G23G14G29
  22025871.620 7 115746736.81307
  20979915.612 7 110250200.77507
  20357465.707 7 106979203.10507
  20357465.744 7 106979202.09907
  21891610.390 7 115041188.49907
  24249150.814 6 127430143.52206
  20357465.472 7 106979203.10007
  20357465.352 7 106979202.10607
  20357465.453 7 106979203.10207
 19  9  8  5  4 14.0000000  0  9G26G31G32G20G21G16G23G14G29
  22025370.202 7 115744102.72407
  20980065.566 7 110250989.88307
  20357701.965 7 106980444.36907
  20357701.749 7 106980443.36107
  21891120.583 7 115038614.11907
  24248525.230 7 127426856.35607
  20357701.516 7 106980444.36107
  20357701.549 7 106980443.36407
  20357701.770 7 106980444.35807
 19  9  8  5  4 15.0000000  0  9G26G31G32G20G21G16G23G14G29
  22024869.165 7 115741468.69207
  20980215.755 7 110251779.46307
  20357938.269 7 106981685.85707
  20357938.305 7 106981684.85307
  21890630.757 7 115036040.01007
  24247899.509 7 127423569.08307
  20357937.879 7 106981685.85107
  20357937.905 7 106981684.85907
  20357938.212 7 106981685.85707
 19  9  8  5  4 16.0000000  0  9G26G31G32G20G21G16G23G14G29
  22024367.967 7 115738835.08507
  20980366.235 7 110252569.88207
  20358174.540 7 106982927.94907
  20358174.618 7 106982926.93607
  21890140.972 7 115033466.50007
  24247274.088 7 127420282.06107
  20358174.448 7 106982927.93807
  20358174.389 7 106982926.94207
  20358174.656 7 106982927.93907
 19  9  8  5  4 17.0000000  0  9G26G31G32G20G21G16G23G14G29
  22023866.624 7 115736201.68607
  20980516.864 7 110253360.91207
  20358410.876 7 106984170.39407
  20358411.122 7 106984169.39607
  21889651.213 7 115030893.38807
  24246648.795 7 127416995.06307
  20358411.057 7 106984170.39507
  20358410.598 7 106984169.40307
  20358410.994 7 106984170.40107
 19  9  8  5  4 18.0000000  0  9G26G31G32G20G21G16G23G14G29
  22023365.722 7 115733568.72807
  20980667.605 7 110254152.79907
  20358647.369 7 106985413.46707
  20358647.716 7 106985412.47007
  21889161.612 7 115028320.92107
  24246023.371 7 127413708.33107
  20358647.758 7 106985413.46507
  20358647.231 7 106985412.46407
  20358647.479 7 106985413.46407
 19  9  8  5  4 19.0000000  0  9G26G31G32G20G21G16G23G14G29
  22022864.753 7 115730936.15407
  20980818.442 7 110254945.48007
  20358884.206 7 106986657.10107
  20358884.324 7 106986656.09807
  21888672.209 7 115025749.03807
  24245397.801 7 127410421.82107
  20358884.263 7 106986657.09507
  20358883.857 7 106986656.09307
  20358884.115 7 106986657.09207
 19  9  8  5  4 20.0000000  0  9G26G31G32G20G21G16G23G14G29
  22022363.805 7 115728303.59007
  20980969.442 7 110255738.58507
  20359120.685 7 106987900.89207
  20359121.054 7 106987899.89307
  21888182.749 7 115023177.33307
  24244772.562 7 127407135.14107
  20359120.823 7 106987900.89007
  20359120.128 7 106987899.89007
  20359120.778 7 106987900.89107
 19  9  8  5  4 21.0000000  0  9G26G31G32G20G21G16G23G14G29
  22021863.167 7 115725671.23707
  20981120.571 7 110256532.31707
  20359357.509 7 106989145.07807
  20359357.766 7 106989144.08007
  21887693.598 7 115020606.05007
  24244147.259 6 127403848.48506
  20359357.470 7 106989145.08507
  20359357.245 7 106989144.07907
  20359357.512 7 106989145.08007
 19  9  8  5  4 22.0000000  0  9G26G31G32G20G21G16G23G14G29
  22021362.137 7 115723039.01507
  20981271.685 7 110257326.59107
  20359594.324 7 106990389.55907
  20359594.660 7 106990388.55907
  21887204.363 7 115018035.09407
  24243521.819 7 127400561.80907
  20359594.129 7 106990389.55607
  20359594.037 7 106990388.56107
  20359594.400 7 106990389.55807
 19  9  8  5  4 23.0000000  0  9G26G31G32G20G21G16G23G14G29
  22020861.235 7 115720406.79807
  20981422.757 7 110258121.26407
  20359831.162 7 106991634.21107
  20359831.497 7 106991633.21007
  21886715.506 7 115015464.32207
  24242896.432 7 127397274.95107
  20359830.805 7 106991634.20807
  20359830.839 7 106991633.21707
  20359831.338 7 106991634.20707
 19  9  8  5  4 24.0000000  0  9G26G31G32G20G21G16G23G14G29
  22020360.238 7 115717774.89307
  20981573.923 7 110258916.67707
  20360068.196 7 106992879.34207
  20360068.271 7 106992878.34207
  21886226.568 7 115012894.05607
  24242270.819 7 127393988.22307
  20360067.893 7 106992879.34207
  20360067.619 7 106992878.34107
  20360068.250 7 106992879.33907
 19  9  8  5  4 25.0000000  0  9G26G31G32G20G21G16G23G14G29
  22019859.687 7 115715143.07507
  20981725.463 7 110259712.58207
  20360304.998 7 106994124.73207
  20360305.401 7 106994123.72707
  21885737.471 7 115010324.08107
  24241645.371 7 127390701.42607
  20360305.029 7 106994124.72607
  20360304.722 7 106994123.72807
  20360304.989 7 106994124.72907
 19  9  8  5  4 26.0000000  0  9G26G31G32G20G21G16G23G14G29
  22019358.858 7 115712511.55407
  20981877.035 7 110260509.19707
  20360542.054 7 106995370.58507
  20360542.180 7 106995369.59107
  21885248.184 7 115007754.58607
  24241019.985 7 127387414.74707
  20360542.005 7 106995370.58307
  20360541.796 7 106995369.58807
  20360542.116 7 106995370.59407
 19  9  8  5  4 27.0000000  0  9G26G31G32G20G21G16G23G14G29
  22018857.896 7 115709880.29907
  20982028.822 7 110261306.48007
  20360779.265 7 106996616.87307
  20360779.409 7 106996615.86507
  21884759.299 7 115005185.55407
  24240394.466 7 127384128.14507
  20360779.218 7 106996616.86807
  20360779.146 7 106996615.86807
  20360779.139 7 106996616.86407
 19  9  8  5  4 28.0000000  0  9G26G31G32G20G21G16G23G14G29
  22018357.390 7 115707249.08407
  20982180.906 7 110262104.22907
  20361016.216 7 106997863.36607
  20361016.786 7 106997862.36407
  21884270.123 7 115002616.74907
  24239768.890 7 127380841.41907
  20361016.371 7 106997863.36207
  20361016.413 7 106997862.36407
  20361016.485 7 106997863.35807
 19  9  8  5  4 29.0000000  0  9G26G31G32G20G21G16G23G14G29
  22017856.658 7 115704618.23207
  20982333.101 7 110262902.75607
  20361253.632 7 106999110.39807
  20361254.178 7 106999109.40007
  21883781.500 7 115000048.50707
  24239143.505 7 127377554.89307
  20361253.725 7 106999110.39607
  20361253.686 7 106999109.39007
  20361253.825 7 106999110.39507
 19  9  8  5  4 30.0000000  0  9G26G31G32G20G21G16G23G14G29
  22017356.291 7 115701987.60907
  20982485.082 7 110263701.91307
  20361491.038 7 107000357.82307
  20361491.445 7 107000356.82507
  21883292.925 7 114997480.68107
  24238518.215 7 127374268.41107
  20361490.918 7 107000357.82007
  20361491.011 7 107000356.82707
  20361491.376 7 107000357.83007
 19  9  8  5  4 31.0000000  0  9G26G31G32G20G21G16G23G14G29
  22016855.769 7 115699357.39907
  20982637.327 7 110264501.88207
  20361728.743 7 107001605.81807
  20361729.118 7 107001604.81607
  21882804.398 7 114994913.46607
  24237892.901 7 127370982.16307
  20361728.576 7 107001605.81407
  20361728.351 7 107001604.82307
  20361728.656 7 107001605.82107
 19  9  8  5  4 32.0000000  0  9G26G31G32G20G21G16G23G14G29
  22016355.047 7 115696727.30407
  20982789.529 7 110265302.39907
  20361966.374 7 107002854.11007
  20361966.485 7 107002853.10607
  21882316.058 7 114992346.56107
  24237267.646 7 127367695.85707
  20361966.381 7 107002854.11407
  20361965.743 7 107002853.10507
  20361966.183 7 107002854.10707
 19  9  8  5  4 33.0000000  0  9G26G31G32G20G21G16G23G14G29
  22015854.480 7 115694097.34207
  20982941.931 7 110266103.45307
  20362204.094 7 107004102.69907
  20362204.192 7 107004101.69507
  21881827.869 7 114989779.98107
  24236642.131 7 127364409.51407
  20362203.987 7 107004102.69807
  20362203.229 7 107004101.69707
  20362203.567 7 107004102.70607
 19  9  8  5  4 34.0000000  0  9G26G31G32G20G21G16G23G14G29
  22015354.045 7 115691467.59007
  20983094.541 7 110266905.10907
  20362441.658 7 107005351.65507
  20362441.962 7 107005350.66207
  21881339.452 7 114987213.80507
  24236016.603 7 127361123.20707
  20362441.716 7 107005351.66007
  20362441.083 7 107005350.65207
  20362441.400 7 107005351.65107
 19  9  8  5  4 35.0000000  0  9G26G31G32G20G21G16G23G14G29
  22014853.494 7 115688837.94907
  20983247.188 7 110267707.31007
  20362679.266 7 107006600.90807
  20362679.324 7 107006599.90207
  21880851.138 7 114984647.93107
  24235391.135 7 127357836.84207
  20362679.244 7 107006600.90207
  20362679.009 7 107006599.90907
  20362679.277 7 107006600.90807
 19  9  8  5  4 36.0000000  0  9G26G31G32G20G21G16G23G14G29
  22014352.948 7 115686208.56907
  20983399.988 7 110268510.17207
  20362916.915 7 107007850.57607
  20362917.061 7 107007849.57507
  21880362.835 7 114982082.50007
  24234765.949 7 127354550.55107
  20362917.170 7 107007850.57607
  20362916.886 7 107007849.56307
  20362917.145 7 107007850.56807
 19  9  8  5  4 37.0000000  0  9G26G31G32G20G21G16G23G14G29
  22013852.688 7 115683579.45007
  20983552.763 7 110269313.71307
  20363154.705 7 107009100.66907
  20363154.844 7 107009099.67007
  21879874.594 7 114979517.54507
  24234140.497 7 127351264.34607
  20363154.675 7 107009100.66507
  20363154.670 7 107009099.67007
  20363154.938 7 107009100.66407
 19  9  8  5  4 38.0000000  0  9G26G31G32G20G21G16G23G14G29
  22013352.316 7 115680950.39107
  20983705.479 7 110270117.71407
  20363392.461 7 107010350.99507
  20363393.083 7 107010349.99907
  21879386.564 7 114976952.82007
  24233515.078 7 127347978.04207
  20363392.253 7 107010350.99707
  20363392.498 7 107010350.00007
  20363392.862 7 107010350.98907
 19  9  8  5  4 39.0000000  0  9G26G31G32G20G21G16G23G14G29
  22012852.222 7 115678321.70007
  20983858.776 7 110270922.50207
  20363630.689 7 107011601.86307
  20363630.954 7 107011600.85607
  21878898.540 7 114974388.67207
  24232889.816 7 127344691.93807
  20363630.516 7 107011601.85007
  20363630.599 7 107011600.84907
  20363630.751 7 107011601.86407
 19  9  8  5  4 40.0000000  0  9G26G31G32G20G21G16G23G14G29
  22012352.349 7 115675693.24707
  20984011.858 7 110271727.92007
  20363868.934 7 107012853.11007
  20363869.130 7 107012852.11107
  21878410.767 7 114971824.93807
  24232264.028 7 127341405.86507
  20363868.932 7 107012853.11407
  20363868.594 7 107012852.10807
  20363868.792 7 107012853.11107
 19  9  8  5  4 41.0000000  0  9G26G31G32G20G21G16G23G14G29
  22011852.475 7 115673065.12207
  20984165.385 7 110272534.08707
  20364107.026 7 107014104.86707
  20364107.541 7 107014103.87207
  21877922.977 7 114969261.73707
  24231638.919 6 127338119.96306
  20364107.196 7 107014104.86407
  20364106.641 7 107014103.86307
  20364107.186 7 107014104.86807
 19  9  8  5  4 42.0000000  0  9G26G31G32G20G21G16G23G14G29
  22011352.396 7 115670437.10207
  20984318.750 7 110273340.77407
  20364345.499 7 107015356.89607
  20364345.865 7 107015355.89407
  21877435.280 7 114966698.83507
  24231013.892 7 127334833.99607
  20364345.376 7 107015356.90107
  20364345.186 7 107015355.90907
  20364345.299 7 107015356.89507
 19  9  8  5  4 43.0000000  0  9G26G31G32G20G21G16G23G14G29
  22010852.360 7 115667809.15507
  20984472.644 7 110274147.93407
  20364583.940 7 107016609.17107
  20364584.399 7 107016608.16307
  21876947.587 7 114964136.20607
  24230388.718 7 127331547.91807
  20364583.649 7 107016609.15707
  20364583.255 7 107016608.16507
  20364583.598 7 107016609.16807
 19  9  8  5  4 44.0000000  0  9G26G31G32G20G21G16G23G14G29
  22010352.026 7 115665181.50307
  20984626.359 7 110274955.80207
  20364822.324 7 107017861.89607
  20364822.501 7 107017860.89007
  21876459.913 7 114961574.04507
  24229763.464 6 127328261.96206
  20364822.029 7 107017861.89407
  20364821.516 7 107017860.89407
  20364822.186 7 107017861.89207
 19  9  8  5  4 45.0000000  0  9G26G31G32G20G21G16G23G14G29
  22009851.984 7 115662554.12007
  20984780.149 7 110275764.35307
  20365060.699 7 107019115.06707
  20365060.855 7 107019114.06307
  21875972.647 7 114959012.36107
  24229138.145 7 127324976.11107
  20365060.654 7 107019115.05707
  20365060.161 7 107019114.05707
  20365060.642 7 107019115.06007
 19  9  8  5  4 46.0000000  0  9G26G31G32G20G21G16G23G14G29
  22009352.189 7 115659926.83807
  20984934.074 7 110276573.41107
  20365299.048 7 107020368.49207
  20365299.342 7 107020367.48507
  21875485.355 7 114956450.96907
  24228512.905 7 127321690.17407
  20365298.909 7 107020368.48707
  20365298.864 7 107020367.49507
  20365299.105 7 107020368.48807
 19  9  8  5  4 47.0000000  0  9G26G31G32G20G21G16G23G14G29
  22008852.235 7 115657299.82107
  20985088.092 7 110277383.14507
  20365537.589 7 107021622.35207
  20365537.857 7 107021621.34807
  21874998.224 7 114953890.03507
  24227887.695 7 127318404.33307
  20365537.289 7 107021622.35107
  20365537.682 7 107021621.34607
  20365537.784 7 107021622.35007
 19  9  8  5  4 48.0000000  0  9G26G31G32G20G21G16G23G14G29
  22008352.384 7 115654673.07207
  20985242.356 7 110278193.56007
  20365776.305 7 107022876.65307
  20365776.747 7 107022875.64407
  21874510.902 7 114951329.56207
  24227262.545 7 127315118.58607
  20365776.002 7 107022876.64307
  20365776.205 7 107022875.64507
  20365776.506 7 107022876.65007
 19  9  8  5  4 49.0000000  0  9G26G31G32G20G21G16G23G14G29
  22007852.622 7 115652046.56107
  20985396.576 7 110279004.61407
  20366015.065 7 107024131.34507
  20366015.558 7 107024130.34807
  21874023.703 7 114948769.52107
  24226637.211 7 127311832.89807
  20366014.885 7 107024131.34107
  20366014.743 7 107024130.33407
  20366015.040 7 107024131.33907
 19  9  8  5  4 50.0000000  0  9G26G31G32G20G21G16G23G14G29
  22007352.986 7 115649420.26607
  20985551.231 7 110279816.29307
  20366253.501 7 107025386.42007
  20366254.045 7 107025385.41907
  21873536.744 7 114946209.87207
  24226011.986 7 127308547.25807
  20366253.656 7 107025386.42507
  20366253.530 7 107025385.42307
  20366254.002 7 107025386.41607
 19  9  8  5  4 51.0000000  0  9G26G31G32G20G21G16G23G14G29
  22006853.253 7 115646793.90307
  20985705.820 7 110280628.31907
  20366492.485 7 107026641.60607
  20366493.007 7 107026640.60107
  21873049.642 7 114943650.37107
  24225386.483 6 127305261.37506
  20366492.622 7 107026641.60407
  20366492.344 7 107026640.59907
  20366492.720 7 107026641.59707
 19  9  8  5  4 52.0000000  0  9G26G31G32G20G21G16G23G14G29
  22006353.466 7 115644168.00107
  20985860.551 7 110281441.21907
  20366731.434 7 107027897.40607
  20366731.789 7 107027896.40607
  21872562.899 7 114941091.51807
  24224761.182 6 127301975.78106
  20366731.789 7 107027897.40807
  20366731.253 7 107027896.40307
  20366731.894 7 107027897.41107
 19  9  8  5  4 53.0000000  0  9G26G31G32G20G21G16G23G14G29
  22005854.053 7 115641542.34907
  20986015.390 7 110282254.76507
  20366970.608 7 107029153.62807
  20366971.008 7 107029152.62607
  21872075.955 7 114938533.11107
  24224135.932 7 127298690.24507
  20366970.796 7 107029153.63107
  20366970.193 7 107029152.62607
  20366971.102 7 107029153.62507
 19  9  8  5  4 54.0000000  0  9G26G31G32G20G21G16G23G14G29
  22005354.295 7 115638916.68607
  20986170.164 7 110283068.70907
  20367209.685 7 107030409.99907
  20367210.138 7 107030408.99907
  21871589.040 7 114935974.86907
  24223510.685 6 127295404.53606
  20367209.675 7 107030409.99207
  20367209.408 7 107030408.99207
  20367210.194 7 107030409.99707
 19  9  8  5  4 55.0000000  0  9G26G31G32G20G21G16G23G14G29
  22004854.638 7 115636291.45607
  20986325.247 7 110283883.49907
  20367448.937 7 107031666.96207
  20367449.390 7 107031665.96607
  21871102.158 7 114933417.27007
  24222885.584 6 127292119.08406
  20367448.922 7 107031666.96407
  20367448.600 7 107031665.96407
  20367449.007 7 107031666.96807
 19  9  8  5  4 56.0000000  0  9G26G31G32G20G21G16G23G14G29
  22004355.332 7 115633666.44807
  20986480.295 7 110284698.92207
  20367688.455 7 107032924.31307
  20367688.508 7 107032923.31507
  21870615.491 7 114930860.07107
  24222260.418 7 127288833.66707
  20367688.161 7 107032924.31207
  20367688.245 7 107032923.31507
  20367688.451 7 107032924.31307
 19  9  8  5  4 57.0000000  0  9G26G31G32G20G21G16G23G14G29
  22003855.624 7 115631041.45407
  20986635.628 7 110285514.77607
  20367927.729 7 107034181.86307
  20367927.550 7 107034180.86207
  21870129.061 7 114928303.11207
  24221635.158 6 127285548.11406
  20367927.581 7 107034181.85807
  20367927.463 7 107034180.85707
  20367927.805 7 107034181.85907
 19  9  8  5  4 58.0000000  0  9G26G31G32G20G21G16G23G14G29
  22003356.184 7 115628416.84607
  20986791.135 7 110286331.41807
  20368167.130 7 107035439.94307
  20368167.171 7 107035438.93807
  21869642.633 7 114925746.70207
  24221009.725 7 127282262.76307
  20368166.999 7 107035439.94207
  20368166.797 7 107035438.94307
  20368167.228 7 107035439.94407
 19  9  8  5  4 59.0000000  0  9G26G31G32G20G21G16G23G14G29
  22002856.603 7 115625792.48407
  20986947.066 7 110287148.70007
  20368406.529 7 107036698.44507
  20368406.687 7 107036697.43707
  21869156.263 7 114923190.73907
  24220384.644 7 127278977.47707
  20368406.468 7 107036698.43307
  20368406.308 7 107036697.43007
  20368406.735 7 107036698.43807
 19  9  8  5  5  0.0000000  0  9G26G31G32G20G21G16G23G14G29
  22002357.351 7 115623168.35307
  20987102.608 7 110287966.63007
  20368646.335 7 107037957.32807
  20368646.384 7 107037956.33507
  21868670.036 7 114920635.20507
  24219759.763 7 127275692.24507
  20368646.113 7 107037957.33207
  20368645.949 7 107037956.33007
  20368646.336 7 107037957.32707
 19  9  8  5  5  1.0000000  0  9G26G31G32G20G21G16G23G14G29
  22001858.119 7 115620544.20507
  20987258.130 7 110288784.95107
  20368885.696 7 107039216.36907
  20368885.815 7 107039215.35907
  21868183.817 7 114918079.83607
  24219134.302 7 127272406.83607
  20368885.604 7 107039216.36507
  20368885.368 7 107039215.35807
  20368885.791 7 107039216.36007
 19  9  8  5  5  2.0000000  0  9G26G31G32G20G21G16G23G14G29
  22001359.047 7 115617920.46807
  20987413.749 7 110289604.09907
  20369125.399 7 107040475.98407
  20369125.669 7 107040474.97507
  21867697.653 7 114915525.07307
  24218509.186 7 127269121.64807
  20369125.559 7 107040475.97807
  20369125.170 7 107040474.97907
  20369125.499 7 107040475.97707
 19  9  8  5  5  3.0000000  0  9G26G31G32G20G21G16G23G14G29
  22000860.063 7 115615296.98807
  20987569.477 7 110290423.89407
  20369365.127 7 107041736.00807
  20369365.350 7 107041735.00407
  21867211.397 7 114912970.76107
  24217884.060 7 127265836.53307
  20369365.367 7 107041736.00807
  20369364.899 7 107041735.01207
  20369365.309 7 107041736.01107
 19  9  8  5  5  4.0000000  0  9G26G31G32G20G21G16G23G14G29
  22000360.644 7 115612673.72707
  20987725.374 7 110291244.33707
  20369604.853 7 107042996.43307
  20369605.163 7 107042995.43507
  21866725.251 7 114910416.87607
  24217259.098 7 127262551.48507
  20369605.264 7 107042996.43207
  20369604.730 7 107042995.43107
  20369604.808 7 107042996.43607
 19  9  8  5  5  5.0000000  0  9G26G31G32G20G21G16G23G14G29
  21999861.268 7 115610050.95607
  20987881.993 7 110292065.65907
  20369844.955 7 107044257.49707
  20369845.069 7 107044256.49807
  21866239.167 7 114907863.65307
  24216634.209 7 127259266.74007
  20369845.086 7 107044257.49507
  20369844.700 7 107044256.49707
  20369844.952 7 107044257.49407
 19  9  8  5  5  6.0000000  0  9G26G31G32G20G21G16G23G14G29
  21999362.161 7 115607428.34607
  20988038.563 7 110292887.56607
  20370085.208 7 107045518.89607
  20370085.332 7 107045517.89407
  21865753.545 7 114905310.79907
  24216009.215 7 127255981.98407
  20370084.966 7 107045518.88907
  20370084.601 7 107045517.89207
  20370085.022 7 107045518.89107
 19  9  8  5  5  7.0000000  0  9G26G31G32G20G21G16G23G14G29
  21998863.083 7 115604805.86407
  20988194.876 7 110293710.00907
  20370325.101 7 107046780.59307
  20370325.442 7 107046779.58907
  21865268.067 7 114902758.26707
  24215384.189 7 127252697.19107
  20370324.984 7 107046780.58507
  20370324.726 7 107046779.58707
  20370325.108 7 107046780.58907
 19  9  8  5  5  8.0000000  0  9G26G31G32G20G21G16G23G14G29
  21998364.048 7 115602183.36107
  20988351.566 7 110294532.82707
  20370565.011 7 107048042.42307
  20370565.593 7 107048041.41407
  21864782.322 7 114900205.90407
  24214758.865 7 127249412.19107
  20370565.115 7 107048042.41107
  20370565.262 7 107048041.41507
  20370565.147 7 107048042.40907
 19  9  8  5  5  9.0000000  0  9G26G31G32G20G21G16G23G14G29
  21997865.085 7 115599561.07807
  20988508.290 7 110295356.26507
  20370805.240 7 107049304.62407
  20370805.719 7 107049303.62107
  21864296.782 7 114897653.93907
  24214133.230 7 127246127.23307
  20370805.271 7 107049304.62307
  20370805.238 7 107049303.62607
  20370805.244 7 107049304.62407
 19  9  8  5  5 10.0000000  0  9G26G31G32G20G21G16G23G14G29
  21997365.951 7 115596939.11607
  20988665.235 7 110296180.44207
  20371045.344 7 107050567.31607
  20371046.040 7 107050566.31507
  21863811.032 7 114895102.50307
  24213508.292 7 127242842.41907
  20371045.334 7 107050567.32207
  20371045.758 7 107050566.31407
  20371045.281 7 107050567.31607
 19  9  8  5  5 11.0000000  0  9G26G31G32G20G21G16G23G14G29
  21996867.077 7 115594317.55007
  20988822.309 7 110297005.43207
  20371285.781 7 107051830.57207
  20371286.120 7 107051829.57407
  21863325.637 7 114892551.66107
  24212883.566 7 127239557.83907
  20371285.912 7 107051830.57707
  20371286.230 7 107051829.57507
  20371285.562 7 107051830.57807
 19  9  8  5  5 12.0000000  0  9G26G31G32G20G21G16G23G14G29
  21996368.219 7 115591696.04707
  20988979.354 7 110297830.87707
  20371526.390 7 107053094.04807
  20371526.378 7 107053093.04307
  21862840.294 7 114890001.06707
  24212258.633 7 127236273.13107
  20371526.188 7 107053094.05307
  20371526.613 7 107053093.04807
  20371525.849 7 107053094.05107
 19  9  8  5  5 13.0000000  0  9G26G31G32G20G21G16G23G14G29
  21995869.441 7 115589074.76007
  20989136.415 7 110298656.95307
  20371766.865 7 107054357.91507
  20371767.069 7 107054356.91907
  21862354.960 7 114887450.87707
  24211633.592 7 127232988.48207
  20371767.066 7 107054357.92107
  20371766.980 7 107054356.91207
  20371766.897 7 107054357.91407
 19  9  8  5  5 14.0000000  0  9G26G31G32G20G21G16G23G14G29
  21995370.886 7 115586453.65207
  20989293.657 7 110299483.63107
  20372007.380 7 107055622.11607
  20372007.537 7 107055621.12007
  21861869.756 7 114884901.07307
  24211008.400 7 127229703.82307
  20372008.038 7 107055622.11907
  20372007.230 7 107055621.11507
  20372007.630 7 107055622.11907
 19  9  8  5  5 15.0000000  0  9G26G31G32G20G21G16G23G14G29
  21994872.126 7 115583832.79907
  20989451.366 7 110300310.94107
  20372248.171 7 107056886.73507
  20372248.551 7 107056885.73807
  21861384.619 7 114882351.70707
  24210383.313 7 127226419.24707
  20372248.654 7 107056886.73007
  20372247.920 7 107056885.73807
  20372248.185 7 107056886.73907
 19  9  8  5  5 16.0000000  0  9G26G31G32G20G21G16G23G14G29
  21994373.600 7 115581212.18407
  20989608.687 7 110301138.90707
  20372488.907 7 107058151.74807
  20372489.159 7 107058150.75407
  21860899.692 7 114879802.77607
  24209758.406 7 127223134.73007
  20372489.017 7 107058151.75307
  20372488.792 7 107058150.75207
  20372488.929 7 107058151.75407
 19  9  8  5  5 17.0000000  0  9G26G31G32G20G21G16G23G14G29
  21993875.083 7 115578591.49607
  20989766.485 7 110301967.20107
  20372730.025 7 107059416.85607
  20372729.825 7 107059415.86707
  21860414.968 7 114877253.96507
  24209133.358 7 127219849.98507
  20372729.634 7 107059416.86607
  20372729.533 7 107059415.85607
  20372729.573 7 107059416.86607
 19  9  8  5  5 18.0000000  0  9G26G31G32G20G21G16G23G14G29
  21993376.270 7 115575971.26407
  20989924.085 7 110302796.36007
  20372970.895 7 107060682.58807
  20372970.902 7 107060681.58707
  21859929.944 7 114874705.79907
  24208508.089 7 127216565.49007
  20372970.216 7 107060682.58507
  20372970.354 7 107060681.58607
  20372970.488 7 107060682.58207
 19  9  8  5  5 19.0000000  0  9G26G31G32G20G21G16G23G14G29
  21992877.597 7 115573351.24807
  20990081.965 7 110303626.15607
  20373211.713 7 107061948.70607
  20373212.077 7 107061947.70107
  21859444.847 7 114872158.05807
  24207883.209 7 127213281.06107
  20373211.025 7 107061948.70207
  20373210.970 7 107061947.69507
  20373211.622 7 107061948.70707
 19  9  8  5  5 20.0000000  0  9G26G31G32G20G21G16G23G14G29
  21992379.132 7 115570731.23307
  20990239.996 7 110304456.34807
  20373452.775 7 107063214.96107
  20373452.852 7 107063213.97007
  21858959.932 7 114869610.49807
  24207258.184 7 127209996.45107
  20373452.057 7 107063214.96507
  20373452.147 7 107063213.96507
  20373452.636 7 107063214.96607
 19  9  8  5  5 21.0000000  0  9G26G31G32G20G21G16G23G14G29
  21991880.712 7 115568111.65407
  20990397.932 7 110305287.38907
  20373693.598 7 107064481.84507
  20373694.011 7 107064480.83407
  21858475.175 7 114867063.57507
  24206633.288 7 127206712.10807
  20373693.393 7 107064481.84107
  20373693.347 7 107064480.83707
  20373693.256 7 107064481.83807
 19  9  8  5  5 22.0000000  0  9G26G31G32G20G21G16G23G14G29
  21991382.067 7 115565492.29707
  20990556.340 7 110306119.06007
  20373934.766 7 107065749.09607
  20373934.887 7 107065748.09507
  21857990.576 7 114864517.06207
  24206008.405 7 127203427.80807
  20373934.762 7 107065749.09207
  20373934.525 7 107065748.09607
  20373934.451 7 107065749.09507
 19  9  8  5  5 23.0000000  0  9G26G31G32G20G21G16G23G14G29
  21990883.414 7 115562872.93807
  20990714.894 7 110306951.11507
  20374175.849 7 107067016.49907
  20374175.944 7 107067015.49207
  21857505.964 7 114861970.73107
  24205383.128 7 127200143.32307
  20374175.995 7 107067016.49707
  20374175.438 7 107067015.49307
  20374175.812 7 107067016.49907
 19  9  8  5  5 24.0000000  0  9G26G31G32G20G21G16G23G14G29
  21990384.992 7 115560254.00507
  20990873.572 7 110307784.01407
  20374417.361 7 107068284.49507
  20374417.258 7 107068283.49207
  21857021.729 7 114859425.02807
  24204758.115 7 127196859.07807
  20374417.257 7 107068284.49107
  20374416.778 7 107068283.48907
  20374416.998 7 107068284.48107
 19  9  8  5  5 25.0000000  0  9G26G31G32G20G21G16G23G14G29
  21989886.507 7 115557635.32207
  20991031.988 7 110308617.56407
  20374658.489 7 107069552.89207
  20374658.657 7 107069551.89707
  21856537.734 7 114856879.77207
  24204133.364 7 127193574.92207
  20374658.699 7 107069552.89407
  20374658.369 7 107069551.89007
  20374658.510 7 107069552.89707
 19  9  8  5  5 26.0000000  0  9G26G31G32G20G21G16G23G14G29
  21989388.227 7 115555016.75007
  20991190.770 7 110309451.63807
  20374899.789 7 107070821.58607
  20374900.004 7 107070820.58707
  21856053.547 7 114854334.82507
  24203508.647 7 127190290.71307
  20374900.070 7 107070821.58907
  20374899.888 7 107070820.58207
  20374899.953 7 107070821.58707
 19  9  8  5  5 27.0000000  0  9G26G31G32G20G21G16G23G14G29
  21988890.132 7 115552398.30207
  20991349.326 7 110310286.24707
  20375141.214 7 107072090.55907
  20375141.550 7 107072089.55607
  21855569.216 7 114851790.19007
  24202883.561 7 127187006.44607
  20375141.412 7 107072090.55807
  20375141.238 7 107072089.55807
  20375141.441 7 107072090.55407
 19  9  8  5  5 28.0000000  0  9G26G31G32G20G21G16G23G14G29
  21988391.956 7 115549780.27907
  20991508.180 7 110311121.67107
  20375382.961 7 107073360.09807
  20375383.263 7 107073359.09807
  21855085.163 7 114849246.16207
  24202258.309 7 127183722.42007
  20375383.052 7 107073360.09207
  20375382.746 7 107073359.10007
  20375382.917 7 107073360.10007
 19  9  8  5  5 29.0000000  0  9G26G31G32G20G21G16G23G14G29
  21987893.857 7 115547162.44807
  20991667.238 7 110311957.71207
  20375624.692 7 107074630.00907
  20375624.756 7 107074629.00507
  21854601.354 7 114846702.54107
  24201633.568 7 127180438.41007
  20375624.741 7 107074630.00907
  20375624.285 7 107074629.00507
  20375624.680 7 107074630.00807
 19  9  8  5  5 30.0000000  0  9G26G31G32G20G21G16G23G14G29
  21987395.819 7 115544544.84407
  20991826.439 7 110312794.37807
  20375866.419 7 107075900.30607
  20375866.689 7 107075899.30907
  21854117.424 7 114844159.33107
  24201008.538 7 127177154.45107
  20375866.535 7 107075900.30907
  20375866.166 7 107075899.30407
  20375866.007 7 107075900.30507
 19  9  8  5  5 31.0000000  0  9G26G31G32G20G21G16G23G14G29
  21986897.635 7 115541927.64707
  20991985.994 7 110313631.84907
  20376107.947 7 107077171.16207
  20376108.702 7 107077170.16607
  21853633.338 7 114841616.71307
  24200383.670 7 127173870.74007
  20376108.112 7 107077171.16407
  20376107.808 7 107077170.16707
  20376107.960 7 107077171.16807
 19  9  8  5  5 32.0000000  0  9G26G31G32G20G21G16G23G14G29
  21986399.648 7 115539310.53807
  20992145.470 7 110314469.81407
  20376349.958 7 107078442.27307
  20376350.587 7 107078441.26607
  21853149.348 7 114839074.38507
  24199758.566 7 127170586.92507
  20376350.116 7 107078442.28007
  20376349.902 7 107078441.27307
  20376350.025 7 107078442.27407
 19  9  8  5  5 33.0000000  0  9G26G31G32G20G21G16G23G14G29
  21985901.650 7 115536693.60307
  20992305.192 7 110315308.36107
  20376591.909 7 107079713.72307
  20376592.450 7 107079712.71307
  21852665.308 7 114836532.42207
  24199133.628 7 127167303.11807
  20376592.015 7 107079713.71807
  20376591.764 7 107079712.72107
  20376591.912 7 107079713.72107
 19  9  8  5  5 34.0000000  0  9G26G31G32G20G21G16G23G14G29
  21985403.542 7 115534076.92907
  20992464.905 7 110316147.58607
  20376834.070 7 107080985.58307
  20376834.340 7 107080984.58907
  21852181.819 7 114833990.90707
  24198508.675 7 127164019.39007
  20376833.960 7 107080985.57807
  20376833.938 7 107080984.58507
  20376834.124 7 107080985.58007
 19  9  8  5  5 35.0000000  0  9G26G31G32G20G21G16G23G14G29
  21984905.846 7 115531460.43007
  20992624.705 7 110316987.38907
  20377076.161 7 107082257.78707
  20377076.293 7 107082256.78707
  21851698.231 7 114831449.77407
  24197883.856 7 127160735.65907
  20377075.982 7 107082257.78607
  20377075.985 7 107082256.79307
  20377076.407 7 107082257.79007
 19  9  8  5  5 36.0000000  0  9G26G31G32G20G21G16G23G14G29
  21984408.062 7 115528844.14107
  20992784.526 7 110317827.79207
  20377318.353 7 107083530.36707
  20377318.339 7 107083529.36707
  21851214.868 7 114828909.03807
  24197259.084 7 127157451.97007
  20377318.226 7 107083530.36407
  20377318.291 7 107083529.37107
  20377318.557 7 107083530.35507
 19  9  8  5  5 37.0000000  0  9G26G31G32G20G21G16G23G14G29
  21983910.272 7 115526227.86207
  20992944.590 7 110318668.61207
  20377560.596 7 107084803.10007
  20377560.607 7 107084802.10407
  21850731.171 7 114826368.50507
  24196634.387 7 127154168.11807
  20377560.618 7 107084803.10307
  20377560.391 7 107084802.10007
  20377560.760 7 107084803.10007
 19  9  8  5  5 38.0000000  0  9G26G31G32G20G21G16G23G14G29
  21983412.357 7 115523611.97107
  20993104.673 7 110319510.22507
  20377802.871 7 107086076.39007
  20377803.034 7 107086075.38807
  21850247.853 7 114823828.55107
  24196009.622 7 127150884.47107
  20377803.117 7 107086076.38807
  20377802.679 7 107086075.39107
  20377803.308 7 107086076.39507
 19  9  8  5  5 39.0000000  0  9G26G31G32G20G21G16G23G14G29
  21982914.730 7 115520996.33307
  20993264.688 7 110320352.50907
  20378045.141 7 107087350.10107
  20378045.530 7 107087349.09407
  21849764.642 7 114821289.04607
  24195384.599 7 127147600.89907
  20378045.481 7 107087350.09207
  20378045.262 7 107087349.09507
  20378045.628 7 107087350.09107
 19  9  8  5  5 40.0000000  0  9G26G31G32G20G21G16G23G14G29
  21982416.733 7 115518380.92107
  20993425.032 7 110321195.41707
  20378287.689 7 107088624.18307
  20378288.164 7 107088623.19107
  21849281.546 7 114818749.96407
  24194759.650 7 127144317.39107
  20378287.762 7 107088624.19207
  20378287.463 7 107088623.18507
  20378287.844 7 107088624.19507
 19  9  8  5  5 41.0000000  0  9G26G31G32G20G21G16G23G14G29
  21981919.089 7 115515765.47907
  20993585.758 7 110322038.70207
  20378530.286 7 107089898.39607
  20378530.452 7 107089897.40107
  21848798.448 7 114816211.04307
  24194134.718 7 127141033.66207
  20378530.419 7 107089898.40007
  20378529.981 7 107089897.39907
  20378529.987 7 107089898.40107
 19  9  8  5  5 42.0000000  0  9G26G31G32G20G21G16G23G14G29
  21981421.570 7 115513150.49007
  20993746.620 7 110322882.83807
  20378772.992 7 107091173.22907
  20378773.010 7 107091172.24207
  21848315.568 7 114813672.76307
  24193509.757 7 127137750.21807
  20378773.031 7 107091173.23607
  20378772.635 7 107091172.23507
  20378772.783 7 107091173.23607
 19  9  8  5  5 43.0000000  0  9G26G31G32G20G21G16G23G14G29
  21980924.121 7 115510535.72707
  20993907.433 7 110323727.61107
  20379015.813 7 107092448.45707
  20379015.663 7 107092447.45807
  21847832.868 7 114811134.91707
  24192884.913 7 127134466.83807
  20379015.601 7 107092448.46507
  20379015.223 7 107092447.46107
  20379015.436 7 107092448.46607
 19  9  8  5  5 44.0000000  0  9G26G31G32G20G21G16G23G14G29
  21980426.412 7 115507921.16307
  20994068.361 7 110324572.97807
  20379258.172 7 107093724.02307
  20379258.252 7 107093723.02607
  21847350.018 7 114808597.43907
  24192260.221 7 127131183.45107
  20379258.303 7 107093724.02207
  20379258.005 7 107093723.02207
  20379258.051 7 107093724.02707
 19  9  8  5  5 45.0000000  0  9G26G31G32G20G21G16G23G14G29
  21979928.862 7 115505306.58407
  20994229.473 7 110325418.74007
  20379500.986 7 107094999.73207
  20379500.866 7 107094998.74207
  21846867.149 7 114806060.17007
  24191635.651 7 127127899.89107
  20379500.911 7 107094999.74407
  20379500.675 7 107094998.74707
  20379500.834 7 107094999.74407
 19  9  8  5  5 46.0000000  0  9G26G31G32G20G21G16G23G14G29
  21979431.432 7 115502692.36807
  20994390.206 7 110326265.27107
  20379743.704 7 107096275.98507
  20379743.707 7 107096274.99107
  21846384.374 7 114803523.43607
  24191010.607 7 127124616.51307
  20379743.973 7 107096275.98607
  20379743.379 7 107096274.98507
  20379743.703 7 107096275.98707
 19  9  8  5  5 47.0000000  0  9G26G31G32G20G21G16G23G14G29
  21978934.050 7 115500078.49007
  20994551.321 7 110327112.53307
  20379986.745 7 107097552.71907
  20379986.684 7 107097551.71907
  21845901.692 7 114800987.23107
  24190386.087 7 127121333.30807
  20379986.778 7 107097552.71807
  20379986.492 7 107097551.71607
  20379986.873 7 107097552.71407
 19  9  8  5  5 48.0000000  0  9G26G31G32G20G21G16G23G14G29
  21978436.520 7 115497464.84207
  20994712.932 7 110327960.44707
  20380229.772 7 107098829.85107
  20380229.945 7 107098828.85207
  21845419.175 7 114798451.46907
  24189761.690 7 127118050.15207
  20380229.753 7 107098829.85507
  20380229.679 7 107098828.84707
  20380229.930 7 107098829.84707
 19  9  8  5  5 49.0000000  0  9G26G31G32G20G21G16G23G14G29
  21977939.414 7 115494851.58307
  20994874.389 7 110328809.13507
  20380473.200 7 107100107.51707
  20380473.130 7 107100106.52107
  21844936.696 7 114795916.27207
  24189136.917 7 127114767.19507
  20380472.884 7 107100107.52607
  20380472.698 7 107100106.51707
  20380473.096 7 107100107.52307
 19  9  8  5  5 50.0000000  0  9G26G31G32G20G21G16G23G14G29
  21977442.232 7 115492238.45207
  20995035.972 7 110329658.37507
  20380716.434 7 107101385.49407
  20380716.628 7 107101384.49507
  21844454.211 7 114793381.42107
  24188511.991 7 127111484.22107
  20380716.082 7 107101385.48707
  20380715.780 7 107101384.49307
  20380716.046 7 107101385.49107
 19  9  8  5  5 51.0000000  0  9G26G31G32G20G21G16G23G14G29
  21976944.950 7 115489625.44607
  20995197.738 7 110330508.13207
  20380959.604 7 107102663.73407
  20380959.965 7 107102662.73607
  21843971.844 7 114790846.86707
  24187887.098 7 127108201.17507
  20380959.337 7 107102663.73207
  20380959.170 7 107102662.73707
  20380959.494 7 107102663.73607
 19  9  8  5  5 52.0000000  0  9G26G31G32G20G21G16G23G14G29
  21976447.301 7 115487012.66407
  20995359.393 7 110331358.52607
  20381202.719 7 107103942.36107
  20381203.327 7 107103941.36807
  21843489.569 7 114788312.72907
  24187262.095 7 127104918.18207
  20381202.589 7 107103942.36707
  20381202.357 7 107103941.36007
  20381202.701 7 107103942.36607
 19  9  8  5  5 53.0000000  0  9G26G31G32G20G21G16G23G14G29
  21975950.307 7 115484399.87107
  20995521.219 7 110332209.29307
  20381446.217 7 107105221.13607
  20381446.293 7 107105220.13007
  21843007.430 7 114785778.76707
  24186637.102 7 127101634.98107
  20381445.906 7 107105221.12807
  20381445.544 7 107105220.12507
  20381446.096 7 107105221.13107
 19  9  8  5  5 54.0000000  0  9G26G31G32G20G21G16G23G14G29
  21975452.964 7 115481787.39507
  20995683.246 7 110333060.80307
  20381689.486 7 107106500.39007
  20381689.752 7 107106499.38607
  21842525.362 7 114783245.34607
  24186012.450 7 127098351.95507
  20381689.290 7 107106500.39207
  20381689.042 7 107106499.39007
  20381689.195 7 107106500.38707
 19  9  8  5  5 55.0000000  0  9G26G31G32G20G21G16G23G14G29
  21974956.142 7 115479175.26707
  20995845.363 7 110333913.04707
  20381932.968 7 107107780.14507
  20381933.317 7 107107779.13307
  21842043.265 7 114780712.43807
  24185387.779 7 127095069.08107
  20381933.029 7 107107780.12907
  20381932.741 7 107107779.13307
  20381932.745 7 107107780.13407
 19  9  8  5  5 56.0000000  0  9G26G31G32G20G21G16G23G14G29
  21974459.099 7 115476563.36207
  20996007.918 7 110334765.92007
  20382176.531 7 107109060.27907
  20382177.044 7 107109059.28207
  21841561.108 7 114778179.97107
  24184763.427 7 127091786.27007
  20382176.614 7 107109060.27507
  20382176.163 7 107109059.28307
  20382176.310 7 107109060.27807
 19  9  8  5  5 57.0000000  0  9G26G31G32G20G21G16G23G14G29
  21973962.224 7 115473951.58107
  20996170.324 7 110335619.31007
  20382420.330 7 107110340.68907
  20382420.763 7 107110339.69107
  21841079.266 7 114775647.79207
  24184138.706 7 127088503.39107
  20382420.129 7 107110340.69107
  20382419.944 7 107110339.69007
  20382420.266 7 107110340.68707
 19  9  8  5  5 58.0000000  0  9G26G31G32G20G21G16G23G14G29
  21973465.376 7 115471340.06807
  20996332.742 7 110336473.41207
  20382663.942 7 107111621.55307
  20382664.205 7 107111620.55407
  21840597.738 7 114773116.11407
  24183513.911 7 127085220.61807
  20382663.913 7 107111621.55007
  20382663.426 7 107111620.54707
  20382663.936 7 107111621.55207
 19  9  8  5  5 59.0000000  0  9G26G31G32G20G21G16G23G14G29
  21972968.879 7 115468728.85807
  20996495.375 7 110337328.18707
  20382907.838 7 107112902.85507
  20382908.242 7 107112901.85607
  21840116.392 7 114770584.90307
  24182889.118 7 127081937.96407
  20382907.833 7 107112902.85907
  20382907.342 7 107112901.85407
  20382907.868 7 107112902.85407
 19  9  8  5  6  0.0000000  0  9G26G31G32G20G21G16G23G14G29
  21972472.074 7 115466117.87907
  20996657.981 7 110338183.59807
  20383151.568 7 107114184.54207
  20383152.258 7 107114183.53907
  21839635.143 7 114768054.12307
  24182264.573 6 127078655.36406
  20383151.546 7 107114184.53807
  20383151.501 7 107114183.54607
  20383151.798 7 107114184.54507
 19  9  8  5  6  1.0000000  0  9G26G31G32G20G21G16G23G14G29
  21971975.288 7 115463506.95407
  20996820.967 7 110339039.46507
  20383395.374 7 107115466.45507
  20383396.234 7 107115465.44707
  21839153.598 7 114765523.58707
  24181639.887 7 127075372.64407
  20383395.706 7 107115466.44607
  20383395.647 7 107115465.45207
  20383395.846 7 107115466.44307
 19  9  8  5  6  2.0000000  0  9G26G31G32G20G21G16G23G14G29
  21971478.394 7 115460896.33307
  20996983.860 7 110339896.05507
  20383639.449 7 107116748.82307
  20383639.971 7 107116747.82207
  21838672.089 7 114762993.56607
  24181015.258 7 127072090.05707
  20383639.595 7 107116748.82007
  20383639.712 7 107116747.82107
  20383639.777 7 107116748.82107
 19  9  8  5  6  3.0000000  0  9G26G31G32G20G21G16G23G14G29
  21970981.335 7 115458285.99707
  20997147.155 7 110340753.31607
  20383883.673 7 107118031.62507
  20383884.054 7 107118030.63307
  21838190.514 7 114760463.99207
  24180390.661 7 127068807.56907
  20383883.770 7 107118031.62907
  20383883.829 7 107118030.62507
  20383883.819 7 107118031.62007
 19  9  8  5  6  4.0000000  0  9G26G31G32G20G21G16G23G14G29
  21970484.577 7 115455675.82207
  20997310.394 7 110341611.14207
  20384127.990 7 107119314.73507
  20384128.262 7 107119313.75307
  21837709.104 7 114757934.79207
  24179765.989 6 127065525.07506
  20384128.100 7 107119314.74607
  20384127.872 7 107119313.74707
  20384128.057 7 107119314.75607
 19  9  8  5  6  5.0000000  0  9G26G31G32G20G21G16G23G14G29
  21969988.028 7 115453065.90407
  20997473.544 7 110342469.64507
  20384372.523 7 107120598.30307
  20384372.471 7 107120597.30807
  21837227.997 7 114755406.06007
  24179141.301 6 127062242.66606
  20384372.172 7 107120598.30007
  20384371.906 7 107120597.30307
  20384372.046 7 107120598.30107
 19  9  8  5  6  6.0000000  0  9G26G31G32G20G21G16G23G14G29
  21969491.378 7 115450456.02507
  20997636.811 7 110343328.57707
  20384616.467 7 107121882.03707
  20384616.922 7 107121881.03507
  21836746.817 7 114752877.53607
  24178516.577 7 127058960.10907
  20384616.351 7 107121882.03907
  20384616.268 7 107121881.03207
  20384616.235 7 107121882.04107
 19  9  8  5  6  7.0000000  0  9G26G31G32G20G21G16G23G14G29
  21968994.680 7 115447846.52607
  20997800.671 7 110344188.28607
  20384860.783 7 107123166.31507
  20384861.081 7 107123165.30907
  21836265.639 7 114750349.58907
  24177892.039 7 127055677.75407
  20384860.520 7 107123166.30807
  20384860.789 7 107123165.32007
  20384860.623 7 107123166.30507
 19  9  8  5  6  8.0000000  0  9G26G31G32G20G21G16G23G14G29
  21968497.860 7 115445237.27607
  20997964.608 7 110345048.65007
  20385105.379 7 107124450.98507
  20385105.391 7 107124449.99007
  21835784.749 7 114747822.09307
  24177267.816 7 127052395.47207
  20385105.019 7 107124450.99307
  20385105.255 7 107124449.98307
  20385104.977 7 107124450.98407
 19  9  8  5  6  9.0000000  0  9G26G31G32G20G21G16G23G14G29
  21968001.181 7 115442628.24507
  20998128.406 7 110345909.63007
  20385349.943 7 107125736.04207
  20385350.414 7 107125735.04707
  21835303.826 7 114745295.00407
  24176643.285 7 127049113.23907
  20385350.002 7 107125736.04207
  20385349.690 7 107125735.03807
  20385349.612 7 107125736.04107
 19  9  8  5  6 10.0000000  0  9G26G31G32G20G21G16G23G14G29
  21967505.062 7 115440019.40807
  20998292.315 7 110346771.21907
  20385594.201 7 107127021.44707
  20385595.077 7 107127020.45007
  21834822.780 7 114742768.30507
  24176018.747 7 127045831.02507
  20385594.396 7 107127021.45907
  20385594.224 7 107127020.45207
  20385594.100 7 107127021.45807
 19  9  8  5  6 11.0000000  0  9G26G31G32G20G21G16G23G14G29
  21967008.879 7 115437410.67807
  20998456.421 7 110347633.30507
  20385838.622 7 107128307.11307
  20385839.469 7 107128306.12107
  21834341.973 7 114740241.90207
  24175394.014 7 127042548.74107
  20385839.075 7 107128307.11107
  20385839.025 7 107128306.11107
  20385839.065 7 107128307.11107
 19  9  8  5  6 12.0000000  0  9G26G31G32G20G21G16G23G14G29
  21966512.554 7 115434802.25107
  20998620.715 7 110348496.09407
  20386083.669 7 107129593.23707
  20386083.841 7 107129592.24707
  21833861.327 7 114737716.00107
  24174769.310 6 127039266.57806
  20386083.769 7 107129593.24307
  20386083.736 7 107129592.23807
  20386084.106 7 107129593.24507
 19  9  8  5  6 13.0000000  0  9G26G31G32G20G21G16G23G14G29
  21966016.436 7 115432194.08907
  20998784.915 7 110349359.55307
  20386328.674 7 107130879.79107
  20386328.560 7 107130878.79507
  21833380.905 7 114735190.55407
  24174144.760 7 127035984.50707
  20386328.427 7 107130879.79107
  20386328.259 7 107130878.79407
  20386329.042 7 107130879.78707
 19  9  8  5  6 14.0000000  0  9G26G31G32G20G21G16G23G14G29
  21965520.332 7 115429586.11407
  20998949.437 7 110350223.61607
  20386573.680 7 107132166.69107
  20386573.626 7 107132165.68807
  21832900.597 7 114732665.49907
  24173520.142 6 127032702.45006
  20386573.510 7 107132166.68907
  20386573.237 7 107132165.68507
  20386573.658 7 107132166.68807
 19  9  8  5  6 15.0000000  0  9G26G31G32G20G21G16G23G14G29
  21965023.923 7 115426978.39907
  20999113.931 7 110351088.31507
  20386818.730 7 107133453.99607
  20386818.702 7 107133452.98807
  21832419.917 7 114730140.88907
  24172895.552 7 127029420.47507
  20386818.490 7 107133454.00207
  20386817.895 7 107133452.99807
  20386818.676 7 107133453.99307
 19  9  8  5  6 16.0000000  0  9G26G31G32G20G21G16G23G14G29
  21964527.768 7 115424370.89507
  20999278.556 7 110351953.64507
  20387063.820 7 107134741.66507
  20387063.873 7 107134740.66607
  21831939.503 7 114727616.68307
  24172270.728 7 127026138.53407
  20387063.750 7 107134741.66907
  20387063.166 7 107134740.66907
  20387063.514 7 107134741.66307
 19  9  8  5  6 17.0000000  0  9G26G31G32G20G21G16G23G14G29
  21964031.462 7 115421763.63207
  20999443.326 7 110352819.61307
  20387308.769 7 107136029.73507
  20387308.891 7 107136028.74007
  21831459.289 7 114725092.91207
  24171646.121 7 127022856.66507
  20387308.913 7 107136029.74107
  20387308.182 7 107136028.74107
  20387308.340 7 107136029.74107
 19  9  8  5  6 18.0000000  0  9G26G31G32G20G21G16G23G14G29
  21963535.311 7 115419156.57207
  20999608.141 7 110353686.18907
  20387553.882 7 107137318.17807
  20387553.990 7 107137317.17307
  21830979.198 7 114722569.53907
  24171021.768 7 127019574.82407
  20387553.920 7 107137318.16507
  20387553.622 7 107137317.18307
  20387553.584 7 107137318.17507
 19  9  8  5  6 19.0000000  0  9G26G31G32G20G21G16G23G14G29
  21963039.183 7 115416549.74707
  20999773.117 7 110354553.39807
  20387798.815 7 107138606.99207
  20387799.104 7 107138605.99607
  21830499.033 7 114720046.60407
  24170397.195 7 127016293.02307
  20387798.813 7 107138606.99307
  20387798.948 7 107138605.99007
  20387798.714 7 107138606.99507
 19  9  8  5  6 20.0000000  0  9G26G31G32G20G21G16G23G14G29
  21962543.250 7 115413943.11807
  20999938.388 7 110355421.20607
  20388044.099 7 107139896.17507
  20388044.585 7 107139895.17807
  21830018.948 7 114717524.05707
  24169772.772 7 127013011.26407
  20388044.004 7 107139896.18307
  20388043.944 7 107139895.17207
  20388043.954 7 107139896.17207
 19  9  8  5  6 21.0000000  0  9G26G31G32G20G21G16G23G14G29
  21962047.307 7 115411336.75607
  21000103.946 7 110356289.67607
  20388289.571 7 107141185.75707
  20388290.066 7 107141184.75907
  21829539.129 7 114715001.95307
  24169148.348 7 127009729.57507
  20388289.595 7 107141185.75407
  20388289.512 7 107141184.75607
  20388289.531 7 107141185.74807
 19  9  8  5  6 22.0000000  0  9G26G31G32G20G21G16G23G14G29
  21961550.959 7 115408730.60807
  21000269.195 7 110357158.76807
  20388535.288 7 107142475.73307
  20388535.623 7 107142474.73407
  21829059.067 7 114712480.28007
  24168523.967 7 127006447.94207
  20388535.197 7 107142475.74007
  20388535.015 7 107142474.73607
  20388535.158 7 107142475.73807
 19  9  8  5  6 23.0000000  0  9G26G31G32G20G21G16G23G14G29
  21961055.065 7 115406124.71307
  21000434.683 7 110358028.51407
  20388781.082 7 107143766.10207
  20388781.231 7 107143765.09907
  21828579.313 7 114709959.04707
  24167899.703 7 127003166.38807
  20388780.944 7 107143766.10107
  20388780.831 7 107143765.10507
  20388780.858 7 107143766.10607
 19  9  8  5  6 24.0000000  0  9G26G31G32G20G21G16G23G14G29
  21960559.544 7 115403519.29207
  21000600.053 7 110358899.12807
  20389026.507 7 107145057.10007
  20389026.990 7 107145056.09807
  21828099.651 7 114707438.46607
  24167275.445 7 126999885.11407
  20389026.624 7 107145057.10307
  20389026.563 7 107145056.09807
  20389026.708 7 107145057.10107
 19  9  8  5  6 25.0000000  0  9G26G31G32G20G21G16G23G14G29
  21960063.680 7 115400914.36107
  21000765.798 7 110359770.62607
  20389272.407 7 107146348.74707
  20389272.766 7 107146347.75007
  21827620.225 7 114704918.59207
  24166651.041 7 126996604.16207
  20389272.407 7 107146348.74007
  20389272.307 7 107146347.74707
  20389272.616 7 107146348.74407
 19  9  8  5  6 26.0000000  0  9G26G31G32G20G21G16G23G14G29
  21959567.951 7 115398309.76707
  21000931.637 7 110360642.86907
  20389518.120 7 107147640.88407
  20389518.515 7 107147639.87607
  21827140.785 7 114702399.22107
  24166026.827 7 126993323.36007
  20389518.400 7 107147640.87907
  20389518.123 7 107147639.87807
  20389518.620 7 107147640.88307
 19  9  8  5  6 27.0000000  0  9G26G31G32G20G21G16G23G14G29
  21959072.364 7 115395705.07507
  21001097.883 7 110361515.42907
  20389764.330 7 107148933.07807
  20389764.530 7 107148932.07007
  21826661.324 7 114699879.96807
  24165402.800 7 126990042.29107
  20389764.353 7 107148933.07507
  20389763.801 7 107148932.07007
  20389764.304 7 107148933.06807
 19  9  8  5  6 28.0000000  0  9G26G31G32G20G21G16G23G14G29
  21958576.919 7 115393100.78607
  21001264.089 7 110362388.76707
  20390010.339 7 107150225.81707
  20390010.503 7 107150224.80907
  21826182.085 7 114697361.29807
  24164778.298 6 126986761.44706
  20390010.274 7 107150225.81907
  20390009.792 7 107150224.81707
  20390010.127 7 107150225.81307
 19  9  8  5  6 29.0000000  0  9G26G31G32G20G21G16G23G14G29
  21958081.365 7 115390496.58407
  21001430.536 7 110363262.62007
  20390256.166 7 107151518.82407
  20390256.621 7 107151517.81607
  21825703.007 7 114694842.93607
  24164153.804 6 126983480.52406
  20390256.139 7 107151518.82107
  20390255.781 7 107151517.82007
  20390256.202 7 107151518.82207
 19  9  8  5  6 30.0000000  0  9G26G31G32G20G21G16G23G14G29
  21957585.778 7 115387892.47807
  21001597.051 7 110364136.95707
  20390502.137 7 107152812.07207
  20390502.627 7 107152811.06807
  21825223.808 7 114692324.84907
  24163528.964 7 126980199.52407
  20390502.001 7 107152812.07107
  20390501.644 7 107152811.07007
  20390502.391 7 107152812.06807
 19  9  8  5  6 31.0000000  0  9G26G31G32G20G21G16G23G14G29
  21957090.382 7 115385288.31307
  21001763.187 7 110365011.62507
  20390748.249 7 107154105.39407
  20390748.649 7 107154104.40407
  21824744.689 7 114689806.88507
  24162904.591 7 126976918.27207
  20390748.191 7 107154105.39907
  20390748.151 7 107154104.40307
  20390748.500 7 107154105.40107
 19  9  8  5  6 32.0000000  0  9G26G31G32G20G21G16G23G14G29
  21956594.985 7 115382684.33607
  21001929.601 7 110365886.89007
  20390994.346 7 107155399.07007
  20390995.033 7 107155398.07807
  21824265.745 7 114687289.30507
  24162280.234 6 126973637.03606
  20390994.483 7 107155399.07707
  20390994.244 7 107155398.07707
  20390995.066 7 107155399.07407
 19  9  8  5  6 33.0000000  0  9G26G31G32G20G21G16G23G14G29
  21956099.471 7 115380080.58507
  21002096.440 7 110366762.78307
  20391240.956 7 107156693.13407
  20391241.323 7 107156692.13607
  21823786.711 7 114684772.15007
  24161655.969 6 126970355.85206
  20391240.731 7 107156693.13207
  20391240.465 7 107156692.13607
  20391241.155 7 107156693.13907
 19  9  8  5  6 34.0000000  0  9G26G31G32G20G21G16G23G14G29
  21955603.883 7 115377477.04507
  21002263.388 7 110367639.28907
  20391487.010 7 107157987.56707
  20391487.310 7 107157986.57007
  21823307.722 7 114682255.40907
  24161031.565 6 126967074.71206
  20391486.967 7 107157987.56907
  20391486.805 7 107157986.56907
  20391487.277 7 107157987.57107
 19  9  8  5  6 35.0000000  0  9G26G31G32G20G21G16G23G14G29
  21955108.534 7 115374873.76607
  21002430.397 7 110368516.45207
  20391733.597 7 107159282.40707
  20391733.834 7 107159281.39807
  21822828.855 7 114679739.12007
  24160407.249 6 126963793.63406
  20391733.666 7 107159282.40707
  20391733.276 7 107159281.40907
  20391733.489 7 107159282.40107
 19  9  8  5  6 36.0000000  0  9G26G31G32G20G21G16G23G14G29
  21954613.143 7 115372270.68807
  21002597.754 7 110369394.20707
  20391980.193 7 107160577.60107
  20391980.087 7 107160576.59607
  21822350.206 7 114677223.21807
  24159782.914 7 126960512.59207
  20391980.028 7 107160577.59407
  20391979.674 7 107160576.59607
  20391979.699 7 107160577.59607
 19  9  8  5  6 37.0000000  0  9G26G31G32G20G21G16G23G14G29
  21954117.938 7 115369667.85407
  21002764.764 7 110370272.61707
  20392226.772 7 107161873.19107
  20392226.674 7 107161872.18507
  21821871.687 7 114674707.75707
  24159158.704 7 126957231.61907
  20392226.486 7 107161873.18907
  20392226.548 7 107161872.18807
  20392226.461 7 107161873.18807
 19  9  8  5  6 38.0000000  0  9G26G31G32G20G21G16G23G14G29
  21953622.393 7 115367065.15207
  21002931.960 7 110371151.55507
  20392473.232 7 107163169.06107
  20392473.197 7 107163168.05607
  21821393.134 7 114672192.61507
  24158534.376 7 126953950.60607
  20392473.036 7 107163169.05507
  20392473.022 7 107163168.06307
  20392472.816 7 107163169.06607
 19  9  8  5  6 39.0000000  0  9G26G31G32G20G21G16G23G14G29
  21953126.995 7 115364462.73807
  21003099.216 7 110372031.18507
  20392719.989 7 107164465.37807
  20392720.120 7 107164464.37707
  21820914.386 7 114669677.96507
  24157910.305 7 126950669.68907
  20392719.857 7 107164465.38207
  20392719.534 7 107164464.37807
  20392719.702 7 107164465.38007
 19  9  8  5  6 40.0000000  0  9G26G31G32G20G21G16G23G14G29
  21952632.052 7 115361860.65007
  21003266.598 7 110372911.54907
  20392966.741 7 107165762.18207
  20392967.028 7 107165761.18707
  21820435.754 7 114667163.84907
  24157285.597 7 126947388.95607
  20392966.574 7 107165762.18007
  20392966.265 7 107165761.18707
  20392966.470 7 107165762.18707
 19  9  8  5  6 41.0000000  0  9G26G31G32G20G21G16G23G14G29
  21952137.158 7 115359259.18207
  21003434.474 7 110373792.90007
  20393213.594 7 107167059.74407
  20393213.955 7 107167058.75107
  21819957.286 7 114664650.51607
  24156661.485 7 126944108.62707
  20393213.721 7 107167059.74007
  20393213.315 7 107167058.75007
  20393213.485 7 107167059.74907
 19  9  8  5  6 42.0000000  0  9G26G31G32G20G21G16G23G14G29
  21951641.864 7 115356657.89907
  21003602.231 7 110374674.86307
  20393460.830 7 107168357.65407
  20393461.122 7 107168356.65407
  21819479.071 7 114662137.58207
  24156037.368 7 126940828.32207
  20393460.753 7 107168357.65807
  20393460.042 7 107168356.65607
  20393460.558 7 107168357.66107
 19  9  8  5  6 43.0000000  0  9G26G31G32G20G21G16G23G14G29
  21951147.035 7 115354056.64707
  21003770.183 7 110375557.24107
  20393707.694 7 107169655.73807
  20393708.104 7 107169654.74307
  21819001.086 7 114659624.86107
  24155413.116 7 126937547.86707
  20393707.600 7 107169655.74407
  20393707.089 7 107169654.73007
  20393707.185 7 107169655.74207
 19  9  8  5  6 44.0000000  0  9G26G31G32G20G21G16G23G14G29
  21950652.123 7 115351455.33807
  21003938.160 7 110376439.97007
  20393954.422 7 107170953.93907
  20393955.282 7 107170952.93807
  21818523.014 7 114657112.29007
  24154788.608 7 126934267.19007
  20393954.322 7 107170953.93607
  20393954.272 7 107170952.93907
  20393954.171 7 107170953.93807
 19  9  8  5  6 45.0000000  0  9G26G31G32G20G21G16G23G14G29
  21950157.126 7 115348854.26907
  21004106.139 7 110377323.33307
  20394201.573 7 107172252.50807
  20394202.189 7 107172251.51207
  21818044.975 7 114654600.13607
  24154164.144 7 126930986.56007
  20394201.327 7 107172252.51207
  20394201.380 7 107172251.51107
  20394201.500 7 107172252.50907
 19  9  8  5  6 46.0000000  0  9G26G31G32G20G21G16G23G14G29
  21949662.184 7 115346253.45407
  21004274.236 7 110378207.36107
  20394448.592 7 107173551.49507
  20394449.342 7 107173550.49807
  21817566.970 7 114652088.44507
  24153539.820 7 126927706.02807
  20394448.476 7 107173551.49707
  20394448.580 7 107173550.49407
  20394448.776 7 107173551.50307
 19  9  8  5  6 47.0000000  0  9G26G31G32G20G21G16G23G14G29
  21949167.211 7 115343652.89307
  21004442.848 7 110379092.03807
  20394695.737 7 107174850.90107
  20394696.242 7 107174849.90207
  21817089.224 7 114649577.21107
  24152915.777 7 126924425.55307
  20394695.887 7 107174850.89807
  20394695.761 7 107174849.89707
  20394696.052 7 107174850.90107
 19  9  8  5  6 48.0000000  0  9G26G31G32G20G21G16G23G14G29
  21948672.244 7 115341052.70607
  21004611.417 7 110379977.47007
  20394943.293 7 107176150.80607
  20394943.731 7 107176149.80507
  21816611.375 7 114647066.52007
  24152291.167 7 126921145.28807
  20394943.284 7 107176150.81107
  20394943.259 7 107176149.80707
  20394943.597 7 107176150.81107
 19  9  8  5  6 49.0000000  0  9G26G31G32G20G21G16G23G14G29
  21948177.517 7 115338452.82207
  21004780.082 7 110380863.61207
  20395190.563 7 107177451.18007
  20395191.486 7 107177450.17907
  21816133.837 7 114644556.33707
  24151667.003 7 126917865.14007
  20395190.884 7 107177451.17407
  20395190.732 7 107177450.17607
  20395191.004 7 107177451.18207
 19  9  8  5  6 50.0000000  0  9G26G31G32G20G21G16G23G14G29
  21947683.079 7 115335852.91807
  21004948.779 7 110381750.13207
  20395438.008 7 107178751.68407
  20395438.737 7 107178750.68307
  21815656.051 7 114642046.33507
  24151043.102 7 126914584.79307
  20395438.272 7 107178751.68507
  20395437.970 7 107178750.68507
  20395438.339 7 107178751.68507
 19  9  8  5  6 51.0000000  0  9G26G31G32G20G21G16G23G14G29
  21947188.418 7 115333253.17107
  21005117.547 7 110382637.21307
  20395685.958 7 107180052.50107
  20395686.285 7 107180051.49807
  21815178.313 7 114639536.67507
  24150419.003 7 126911304.43807
  20395685.906 7 107180052.50007
  20395685.512 7 107180051.50107
  20395685.832 7 107180052.49607
 19  9  8  5  6 52.0000000  0  9G26G31G32G20G21G16G23G14G29
  21946693.772 7 115330653.66007
  21005286.572 7 110383524.93207
  20395933.635 7 107181353.70707
  20395933.859 7 107181352.70807
  21814700.771 7 114637027.45807
  24149794.297 7 126908024.13607
  20395933.656 7 107181353.69707
  20395933.280 7 107181352.70407
  20395933.486 7 107181353.70807
 19  9  8  5  6 53.0000000  0  9G26G31G32G20G21G16G23G14G29
  21946199.181 7 115328054.35107
  21005455.653 7 110384413.24807
  20396181.394 7 107182655.26807
  20396181.604 7 107182654.25707
  21814223.538 7 114634518.62507
  24149170.390 7 126904743.86007
  20396181.181 7 107182655.26107
  20396180.581 7 107182654.26307
  20396181.122 7 107182655.26207
 19  9  8  5  6 54.0000000  0  9G26G31G32G20G21G16G23G14G29
  21945704.575 7 115325455.28107
  21005624.760 7 110385302.19707
  20396429.006 7 107183957.20507
  20396429.159 7 107183956.20607
  21813746.103 7 114632010.22807
  24148546.292 7 126901463.64207
  20396429.161 7 107183957.20307
  20396428.616 7 107183956.20507
  20396429.282 7 107183957.20107
 19  9  8  5  6 55.0000000  0  9G26G31G32G20G21G16G23G14G29
  21945210.031 7 115322856.48807
  21005794.009 7 110386191.82507
  20396676.949 7 107185259.57907
  20396676.764 7 107185258.58507
  21813268.979 7 114629502.30007
  24147922.033 7 126898183.53507
  20396677.219 7 107185259.57807
  20396676.311 7 107185258.58007
  20396676.933 7 107185259.57307
 19  9  8  5  6 56.0000000  0  9G26G31G32G20G21G16G23G14G29
  21944715.438 7 115320257.93007
  21005963.620 7 110387082.07507
  20396924.907 7 107186562.33507
  20396924.780 7 107186561.34007
  21812791.897 7 114626994.80107
  24147297.774 7 126894903.48207
  20396925.191 7 107186562.33407
  20396924.276 7 107186561.33907
  20396924.914 7 107186562.34007
 19  9  8  5  6 57.0000000  0  9G26G31G32G20G21G16G23G14G29
  21944220.913 7 115317659.54207
  21006132.834 7 110387972.90907
  20397172.711 7 107187865.42407
  20397172.882 7 107187864.42207
  21812315.072 7 114624487.67707
  24146673.755 7 126891623.42207
  20397172.885 7 107187865.42407
  20397172.306 7 107187864.42107
  20397172.637 7 107187865.41707
 19  9  8  5  6 58.0000000  0  9G26G31G32G20G21G16G23G14G29
  21943726.193 7 115315061.36307
  21006302.226 7 110388864.33507
  20397420.752 7 107189168.86807
  20397421.205 7 107189167.85907
  21811837.921 7 114621980.93407
  24146049.546 7 126888343.38807
  20397420.575 7 107189168.86007
  20397420.484 7 107189167.85807
  20397420.590 7 107189168.86107
 19  9  8  5  6 59.0000000  0  9G26G31G32G20G21G16G23G14G29
  21943232.001 7 115312463.36307
  21006472.192 7 110389756.35107
  20397668.806 7 107190472.63607
  20397669.145 7 107190471.64507
  21811361.045 7 114619474.58107
  24145425.158 7 126885063.36307
  20397668.691 7 107190472.63707
  20397668.387 7 107190471.64007
  20397668.731 7 107190472.63207
 19  9  8  5  7  0.0000000  0  9G26G31G32G20G21G16G23G14G29
  21942737.766 7 115309865.56307
  21006642.106 7 110390648.95807
  20397917.008 7 107191776.75807
  20397917.114 7 107191775.75507
  21810884.171 7 114616968.61507
  24144801.099 7 126881783.35007
  20397917.099 7 107191776.75507
  20397916.564 7 107191775.75807
  20397917.257 7 107191776.75707
 19  9  8  5  7  1.0000000  0  9G26G31G32G20G21G16G23G14G29
  21942243.556 7 115307268.04507
  21006811.900 7 110391542.24207
  20398165.083 7 107193081.31307
  20398165.227 7 107193080.31607
  21810407.389 7 114614463.12307
  24144176.934 7 126878503.45507
  20398165.302 7 107193081.31107
  20398164.824 7 107193080.31407
  20398165.794 7 107193081.31107
 19  9  8  5  7  2.0000000  0  9G26G31G32G20G21G16G23G14G29
  21941749.341 7 115304670.72907
  21006982.231 7 110392436.13407
  20398413.482 7 107194386.22407
  20398413.671 7 107194385.22807
  21809930.582 7 114611958.03907
  24143552.609 7 126875223.58007
  20398413.352 7 107194386.21707
  20398413.507 7 107194385.22607
  20398413.656 7 107194386.22707
 19  9  8  5  7  3.0000000  0  9G26G31G32G20G21G16G23G14G29
  21941255.180 7 115302073.58307
  21007152.326 7 110393330.57807
  20398661.800 7 107195691.45607
  20398662.119 7 107195690.44907
  21809453.860 7 114609453.31207
  24142928.383 7 126871943.68707
  20398662.133 7 107195691.45007
  20398661.796 7 107195690.45107
  20398662.148 7 107195691.45007
 19  9  8  5  7  4.0000000  0  9G26G31G32G20G21G16G23G14G29
  21940760.914 7 115299476.61707
  21007322.612 7 110394225.62707
  20398910.340 7 107196997.01707
  20398910.645 7 107196996.01607
  21808977.223 7 114606948.97207
  24142304.592 7 126868663.83307
  20398910.431 7 107196997.01807
  20398910.246 7 107196996.02307
  20398910.236 7 107196997.02807
 19  9  8  5  7  5.0000000  0  9G26G31G32G20G21G16G23G14G29
  21940266.598 7 115296879.98007
  21007493.003 7 110395121.38107
  20399158.942 7 107198303.05807
  20399159.323 7 107198302.05907
  21808500.675 7 114604445.15507
  24141680.546 7 126865384.09807
  20399158.867 7 107198303.05407
  20399158.615 7 107198302.05807
  20399158.992 7 107198303.05807
 19  9  8  5  7  6.0000000  0  9G26G31G32G20G21G16G23G14G29
  21939772.352 7 115294283.55607
  21007663.680 7 110396017.76007
  20399407.511 7 107199609.47007
  20399407.887 7 107199608.46907
  21808024.316 7 114601941.73407
  24141056.187 7 126862104.41607
  20399407.469 7 107199609.46307
  20399407.272 7 107199608.46307
  20399407.382 7 107199609.46407
 19  9  8  5  7  7.0000000  0  9G26G31G32G20G21G16G23G14G29
  21939278.390 7 115291687.33807
  21007834.183 7 110396914.71307
  20399655.968 7 107200916.20707
  20399656.585 7 107200915.21207
  21807548.202 7 114599438.69407
  24140432.145 7 126858824.73507
  20399656.127 7 107200916.20907
  20399656.256 7 107200915.20207
  20399656.273 7 107200916.21007
 19  9  8  5  7  8.0000000  0  9G26G31G32G20G21G16G23G14G29
  21938784.369 7 115289091.38607
  21008005.142 7 110397812.35007
  20399904.820 7 107202223.38807
  20399905.451 7 107202222.38307
  21807072.113 7 114596936.14307
  24139808.231 7 126855545.16807
  20399905.000 7 107202223.39407
  20399904.874 7 107202222.38407
  20399904.801 7 107202223.38807
 19  9  8  5  7  9.0000000  0  9G26G31G32G20G21G16G23G14G29
  21938290.445 7 115286495.65207
  21008176.045 7 110398710.60507
  20400153.699 7 107203530.94207
  20400154.247 7 107203529.93707
  21806595.905 7 114594434.00807
  24139184.158 7 126852265.63807
  20400153.924 7 107203530.93207
  20400153.704 7 107203529.94407
  20400153.834 7 107203530.93707
 19  9  8  5  7 10.0000000  0  9G26G31G32G20G21G16G23G14G29
  21937796.611 7 115283900.13907
  21008347.132 7 110399609.46407
  20400402.598 7 107204838.84107
  20400403.171 7 107204837.83407
  21806119.896 7 114591932.25807
  24138560.019 7 126848986.14707
  20400402.844 7 107204838.84907
  20400402.395 7 107204837.84507
  20400402.631 7 107204838.84207
 19  9  8  5  7 11.0000000  0  9G26G31G32G20G21G16G23G14G29
  21937302.773 7 115281304.85507
  21008518.263 7 110400508.94807
  20400651.509 7 107206147.13307
  20400652.005 7 107206146.13507
  21805643.823 7 114589430.95207
  24137935.759 7 126845706.71607
  20400651.774 7 107206147.12807
  20400651.553 7 107206146.13107
  20400651.589 7 107206147.13407
 19  9  8  5  7 12.0000000  0  9G26G31G32G20G21G16G23G14G29
  21936809.057 7 115278709.80107
  21008689.624 7 110401409.07307
  20400900.530 7 107207455.80807
  20400900.732 7 107207454.80707
  21805167.973 7 114586930.07407
  24137312.121 6 126842427.32906
  20400900.713 7 107207455.80907
  20400900.515 7 107207454.81407
  20400900.616 7 107207455.80707
 19  9  8  5  7 13.0000000  0  9G26G31G32G20G21G16G23G14G29
  21936315.407 7 115276114.99007
  21008861.033 7 110402309.83207
  20401149.497 7 107208764.86807
  20401150.161 7 107208763.87007
  21804692.342 7 114584429.62607
  24136688.140 6 126839148.01106
  20401150.061 7 107208764.87007
  20401149.439 7 107208763.87307
  20401149.804 7 107208764.87207
 19  9  8  5  7 14.0000000  0  9G26G31G32G20G21G16G23G14G29
  21935821.541 7 115273520.38307
  21009032.754 7 110403211.18007
  20401398.987 7 107210074.29107
  20401399.275 7 107210073.28607
  21804216.604 7 114581929.57507
  24136063.877 7 126835868.72607
  20401399.012 7 107210074.29107
  20401398.940 7 107210073.29107
  20401398.953 7 107210074.28607
 19  9  8  5  7 15.0000000  0  9G26G31G32G20G21G16G23G14G29
  21935327.843 7 115270925.94107
  21009204.612 7 110404113.11307
  20401648.053 7 107211384.01707
  20401648.454 7 107211383.01007
  21803740.666 7 114579429.88207
  24135439.522 7 126832589.41507
  20401647.971 7 107211384.01907
  20401647.966 7 107211383.01107
  20401648.246 7 107211384.00507
 19  9  8  5  7 16.0000000  0  9G26G31G32G20G21G16G23G14G29
  21934834.326 7 115268331.81807
  21009375.844 7 110405015.72907
  20401897.201 7 107212694.20607
  20401897.615 7 107212693.20807
  21803264.785 7 114576930.70507
  24134815.825 6 126829310.26506
  20401897.287 7 107212694.21107
  20401897.141 7 107212693.21707
  20401897.479 7 107212694.20807
 19  9  8  5  7 17.0000000  0  9G26G31G32G20G21G16G23G14G29
  21934340.612 7 115265737.95807
  21009547.927 7 110405919.03407
  20402146.680 7 107214004.81907
  20402147.005 7 107214003.81907
  21802789.574 7 114574431.98707
  24134191.723 6 126826031.18006
  20402146.763 7 107214004.82007
  20402146.398 7 107214003.82007
  20402146.812 7 107214004.82607
 19  9  8  5  7 18.0000000  0  9G26G31G32G20G21G16G23G14G29
  21933847.148 7 115263144.36307
  21009720.006 7 110406822.98707
  20402396.362 7 107215315.84407
  20402396.517 7 107215314.84607
  21802314.165 7 114571933.72307
  24133567.699 7 126822752.19007
  20402396.401 7 107215315.85007
  20402396.094 7 107215314.84307
  20402396.424 7 107215315.84507
 19  9  8  5  7 19.0000000  0  9G26G31G32G20G21G16G23G14G29
  21933353.572 7 115260551.34107
  21009892.394 7 110407727.89707
  20402646.142 7 107216627.58507
  20402646.148 7 107216626.58007
  21801838.879 7 114569436.21907
  24132943.798 6 126819473.59506
  20402646.179 7 107216627.58207
  20402645.776 7 107216626.58507
  20402646.031 7 107216627.58007
 19  9  8  5  7 20.0000000  0  9G26G31G32G20G21G16G23G14G29
  21932860.055 7 115257958.56907
  21010064.379 7 110408633.48507
  20402896.019 7 107217939.74607
  20402895.906 7 107217938.74307
  21801363.635 7 114566939.18507
  24132319.920 6 126816195.08606
  20402895.769 7 107217939.74507
  20402895.599 7 107217938.74407
  20402895.744 7 107217939.74307
 19  9  8  5  7 21.0000000  0  9G26G31G32G20G21G16G23G14G29
  21932366.645 7 115255366.00707
  21010236.592 7 110409539.65207
  20403145.803 7 107219252.23907
  20403145.655 7 107219251.24007
  21800888.471 7 114564442.54107
  24131696.251 6 126812916.59406
  20403145.330 7 107219252.23707
  20403145.189 7 107219251.24707
  20403145.468 7 107219252.23707
 19  9  8  5  7 22.0000000  0  9G26G31G32G20G21G16G23G14G29
  21931873.284 7 115252773.31507
  21010409.047 7 110410446.07907
  20403395.226 7 107220564.74907
  20403395.465 7 107220563.75207
  21800413.361 7 114561945.95407
  24131072.313 6 126809637.79006
  20403394.952 7 107220564.75207
  20403394.945 7 107220563.75807
  20403395.152 7 107220564.74207
 19  9  8  5  7 23.0000000  0  9G26G31G32G20G21G16G23G14G29
  21931379.800 7 115250180.88107
  21010581.925 7 110411353.17807
  20403645.020 7 107221877.68507
  20403645.402 7 107221876.69007
  21799938.551 7 114559449.82807
  24130448.188 6 126806359.08006
  20403645.054 7 107221877.68207
  20403644.926 7 107221876.68907
  20403644.887 7 107221877.68107
 19  9  8  5  7 24.0000000  0  9G26G31G32G20G21G16G23G14G29
  21930886.496 7 115247588.91807
  21010754.702 7 110412261.14807
  20403894.983 7 107223191.23907
  20403895.303 7 107223190.24307
  21799464.087 7 114556954.37707
  24129824.719 6 126803080.67706
  20403894.890 7 107223191.24407
  20403894.807 7 107223190.23607
  20403895.137 7 107223191.24007
 19  9  8  5  7 25.0000000  0  9G26G31G32G20G21G16G23G14G29
  21930393.609 7 115244997.02907
  21010927.669 7 110413169.57307
  20404144.989 7 107224505.00207
  20404145.348 7 107224504.00607
  21798989.291 7 114554459.17807
  24129200.944 6 126799802.14906
  20404144.744 7 107224505.01407
  20404144.918 7 107224504.01407
  20404145.320 7 107224505.00607
 19  9  8  5  7 26.0000000  0  9G26G31G32G20G21G16G23G14G29
  21929900.150 7 115242405.25407
  21011100.689 7 110414078.50707
  20404395.019 7 107225819.03407
  20404395.405 7 107225818.04007
  21798514.576 7 114551964.28907
  24128576.998 6 126796523.55606
  20404394.873 7 107225819.03707
  20404394.904 7 107225818.03907
  20404395.216 7 107225819.03407
 19  9  8  5  7 27.0000000  0  9G26G31G32G20G21G16G23G14G29
  21929407.169 7 115239813.72207
  21011273.672 7 110414988.08507
  20404645.141 7 107227133.45807
  20404645.579 7 107227132.45407
  21798039.766 7 114549469.83107
  24127952.929 6 126793245.03606
  20404645.109 7 107227133.46307
  20404645.021 7 107227132.46407
  20404645.368 7 107227133.46207
 19  9  8  5  7 28.0000000  0  9G26G31G32G20G21G16G23G14G29
  21928914.256 7 115237222.35607
  21011446.815 7 110415898.22007
  20404895.170 7 107228448.19507
  20404895.691 7 107228447.19207
  21797565.123 7 114546975.74707
  24127328.682 6 126789966.49706
  20404895.276 7 107228448.19707
  20404894.951 7 107228447.20007
  20404895.376 7 107228448.18507
 19  9  8  5  7 29.0000000  0  9G26G31G32G20G21G16G23G14G29
  21928421.032 7 115234631.10607
  21011620.110 7 110416808.86907
  20405145.451 7 107229763.19407
  20405146.059 7 107229762.19607
  21797090.434 7 114544481.97607
  24126704.750 6 126786687.90906
  20405145.271 7 107229763.19507
  20405145.133 7 107229762.19607
  20405145.594 7 107229763.19507
 19  9  8  5  7 30.0000000  0  9G26G31G32G20G21G16G23G14G29
  21927927.790 7 115232040.06307
  21011793.363 7 110417720.12607
  20405395.821 7 107231078.54907
  20405396.267 7 107231077.55207
  21796615.800 7 114541988.60607
  24126080.890 6 126783409.34506
  20405395.566 7 107231078.54507
  20405395.466 7 107231077.54507
  20405395.976 7 107231078.54707
 19  9  8  5  7 31.0000000  0  9G26G31G32G20G21G16G23G14G29
  21927434.727 7 115229449.26907
  21011966.927 7 110418632.01707
  20405646.297 7 107232394.29307
  20405646.420 7 107232393.29007
  21796141.294 7 114539495.66107
  24125457.117 6 126780130.85306
  20405645.713 7 107232394.29507
  20405645.942 7 107232393.28807
  20405646.178 7 107232394.29907
 19  9  8  5  7 32.0000000  0  9G26G31G32G20G21G16G23G14G29
  21926941.873 7 115226858.69107
  21012140.352 7 110419544.51807
  20405896.923 7 107233710.40307
  20405896.938 7 107233709.40307
  21795667.020 7 114537003.14207
  24124833.422 6 126776852.39406
  20405896.517 7 107233710.40207
  20405896.424 7 107233709.40107
  20405896.645 7 107233710.40607
 19  9  8  5  7 33.0000000  0  9G26G31G32G20G21G16G23G14G29
  21926448.899 7 115224268.31307
  21012314.332 7 110420457.62607
  20406147.336 7 107235026.87507
  20406147.264 7 107235025.87107
  21795193.019 7 114534511.02807
  24124209.751 6 126773573.97706
  20406147.452 7 107235026.87807
  20406147.045 7 107235025.87307
  20406147.199 7 107235026.87807
 19  9  8  5  7 34.0000000  0  9G26G31G32G20G21G16G23G14G29
  21925955.943 7 115221678.19607
  21012488.251 7 110421371.37307
  20406397.767 7 107236343.74707
  20406397.840 7 107236342.73907
  21794718.754 7 114532019.34607
  24123585.729 6 126770295.62206
  20406397.921 7 107236343.73707
  20406397.433 7 107236342.74107
  20406398.022 7 107236343.74707
 19  9  8  5  7 35.0000000  0  9G26G31G32G20G21G16G23G14G29
  21925463.049 7 115219088.28207
  21012662.332 7 110422285.72407
  20406648.531 7 107237660.95607
  20406648.687 7 107237659.95907
  21794244.635 7 114529528.07207
  24122961.976 6 126767017.29806
  20406648.345 7 107237660.96507
  20406648.231 7 107237659.95707
  20406648.370 7 107237660.96007
 19  9  8  5  7 36.0000000  0  9G26G31G32G20G21G16G23G14G29
  21924970.495 7 115216498.50207
  21012836.316 7 110423200.60207
  20406899.313 7 107238978.45507
  20406899.605 7 107238977.45507
  21793770.596 7 114527037.11407
  24122338.126 6 126763738.91906
  20406899.166 7 107238978.45607
  20406898.524 7 107238977.45107
  20406899.242 7 107238978.45507
 19  9  8  5  7 37.0000000  0  9G26G31G32G20G21G16G23G14G29
  21924478.035 7 115213909.02007
  21013010.370 7 110424116.18407
  20407150.086 7 107240296.40907
  20407150.168 7 107240295.40607
  21793296.516 7 114524546.67507
  24121714.218 6 126760460.68206
  20407150.131 7 107240296.40507
  20407149.613 7 107240295.40707
  20407150.131 7 107240296.40607
 19  9  8  5  7 38.0000000  0  9G26G31G32G20G21G16G23G14G29
  21923985.455 7 115211319.80107
  21013184.837 7 110425032.40907
  20407400.962 7 107241614.76807
  20407400.979 7 107241613.76907
  21792822.752 7 114522056.67407
  24121090.056 6 126757182.52606
  20407400.888 7 107241614.76007
  20407400.574 7 107241613.76107
  20407400.920 7 107241614.76107
 19  9  8  5  7 39.0000000  0  9G26G31G32G20G21G16G23G14G29
  21923492.820 7 115208730.77807
  21013359.056 7 110425949.22307
  20407652.065 7 107242933.44807
  20407652.042 7 107242932.44907
  21792349.058 7 114519567.06507
  24120466.408 6 126753904.38306
  20407651.852 7 107242933.45207
  20407651.555 7 107242932.45507
  20407651.688 7 107242933.45307
 19  9  8  5  7 40.0000000  0  9G26G31G32G20G21G16G23G14G29
  21923000.119 7 115206142.02507
  21013533.644 7 110426866.71407
  20407902.941 7 107244252.57307
  20407903.048 7 107244251.55807
  21791875.222 7 114517077.93007
  24119842.368 6 126750626.32806
  20407902.602 7 107244252.57007
  20407902.652 7 107244251.57507
  20407902.662 7 107244252.57107
 19  9  8  5  7 41.0000000  0  9G26G31G32G20G21G16G23G14G29
  21922507.359 7 115203553.49807
  21013708.442 7 110427784.81007
  20408154.168 7 107245572.05007
  20408154.251 7 107245571.05907
  21791401.731 7 114514589.20307
  24119218.602 6 126747348.32406
  20408153.650 7 107245572.05707
  20408153.606 7 107245571.05207
  20408153.889 7 107245572.04707
 19  9  8  5  7 42.0000000  0  9G26G31G32G20G21G16G23G14G29
  21922014.633 7 115200965.14007
  21013883.446 7 110428703.48507
  20408405.126 7 107246891.85407
  20408405.625 7 107246890.85707
  21790928.197 7 114512100.85007
  24118594.927 6 126744070.31906
  20408404.676 7 107246891.84607
  20408404.612 7 107246890.84907
  20408404.923 7 107246891.85007
 19  9  8  5  7 43.0000000  0  9G26G31G32G20G21G16G23G14G29
  21921522.280 7 115198377.05707
  21014058.439 7 110429622.82607
  20408656.438 7 107248212.07907
  20408656.941 7 107248211.07607
  21790454.568 7 114509612.96107
  24117971.245 6 126740792.41106
  20408656.042 7 107248212.07907
  20408655.995 7 107248211.07507
  20408656.054 7 107248212.07707
 19  9  8  5  7 44.0000000  0  9G26G31G32G20G21G16G23G14G29
  21921029.684 7 115195789.21007
  21014233.496 7 110430542.78907
  20408907.648 7 107249532.68407
  20408908.259 7 107249531.68107
  21789981.237 7 114507125.50107
  24117347.228 6 126737514.55706
  20408907.516 7 107249532.67507
  20408907.117 7 107249531.68107
  20408907.286 7 107249532.67607
 19  9  8  5  7 45.0000000  0  9G26G31G32G20G21G16G23G14G29
  21920537.490 7 115193201.54807
  21014408.789 7 110431463.32707
  20409158.953 7 107250853.60107
  20409159.651 7 107250852.60807
  21789507.912 7 114504638.42107
  24116723.761 6 126734236.71106
  20409159.130 7 107250853.60807
  20409158.467 7 107250852.61007
  20409158.674 7 107250853.61107
 19  9  8  5  7 46.0000000  0  9G26G31G32G20G21G16G23G14G29
  21920044.996 7 115190614.14607
  21014584.304 7 110432384.52307
  20409410.153 7 107252174.94707
  20409411.034 7 107252173.94307
  21789034.794 7 114502151.80107
  24116100.219 7 126730958.93207
  20409410.262 7 107252174.94607
  20409409.933 7 107252173.95007
  20409410.194 7 107252174.94807
 19  9  8  5  7 47.0000000  0  9G26G31G32G20G21G16G23G14G29
  21919552.717 7 115188027.01407
  21014759.536 7 110433306.37907
  20409661.914 7 107253496.71107
  20409662.330 7 107253495.70407
  21788561.748 7 114499665.64507
  24115476.363 7 126727681.26907
  20409661.831 7 107253496.71107
  20409661.567 7 107253495.70007
  20409662.027 7 107253496.70107
 19  9  8  5  7 48.0000000  0  9G26G31G32G20G21G16G23G14G29
  21919060.143 7 115185440.08507
  21014935.063 7 110434228.83507
  20409913.221 7 107254818.80407
  20409913.733 7 107254817.81007
  21788088.691 7 114497179.87407
  24114852.791 7 126724403.61007
  20409913.365 7 107254818.81507
  20409913.116 7 107254817.80707
  20409913.489 7 107254818.81007
 19  9  8  5  7 49.0000000  0  9G26G31G32G20G21G16G23G14G29
  21918567.788 7 115182853.41107
  21015110.623 7 110435151.94007
  20410164.999 7 107256141.30907
  20410165.437 7 107256140.30907
  21787616.060 7 114494694.56407
  24114228.856 7 126721126.04607
  20410164.898 7 107256141.31007
  20410164.915 7 107256140.30607
  20410165.250 7 107256141.30507
 19  9  8  5  7 50.0000000  0  9G26G31G32G20G21G16G23G14G29
  21918075.567 7 115180267.09707
  21015286.546 7 110436075.80107
  20410417.068 7 107257464.31807
  20410417.556 7 107257463.31307
  21787143.207 7 114492209.80907
  24113605.547 7 126717848.66007
  20410416.843 7 107257464.31707
  20410416.878 7 107257463.32307
  20410416.852 7 107257464.31907
 19  9  8  5  7 51.0000000  0  9G26G31G32G20G21G16G23G14G29
  21917583.760 7 115177681.25707
  21015462.623 7 110437000.52807
  20410668.888 7 107258787.94907
  20410669.545 7 107258786.95407
  21786670.433 7 114489725.72907
  24112981.800 7 126714571.57407
  20410668.486 7 107258787.95207
  20410668.753 7 107258786.94907
  20410668.790 7 107258787.95307
 19  9  8  5  7 52.0000000  0  9G26G31G32G20G21G16G23G14G29
  21917091.752 7 115175095.53207
  21015638.590 7 110437925.75707
  20410920.616 7 107260111.84107
  20410921.232 7 107260110.83907
  21786197.848 7 114487241.94807
  24112358.241 7 126711294.41507
  20410920.677 7 107260111.84707
  20410920.588 7 107260110.84107
  20410920.737 7 107260111.84007
 19  9  8  5  7 53.0000000  0  9G26G31G32G20G21G16G23G14G29
  21916599.789 7 115172510.15007
  21015814.882 7 110438851.72207
  20411172.936 7 107261436.20907
  20411173.151 7 107261435.20707
  21785725.312 7 114484758.69107
  24111734.805 7 126708017.42407
  20411172.803 7 107261436.21407
  20411172.676 7 107261435.21307
  20411172.692 7 107261436.20807
 19  9  8  5  7 54.0000000  0  9G26G31G32G20G21G16G23G14G29
  21916108.156 7 115169924.66007
  21015991.015 7 110439777.97607
  20411424.774 7 107262760.62507
  20411425.134 7 107262759.62707
  21785252.838 7 114482275.54207
  24111111.253 7 126704740.14707
  20411425.003 7 107262760.62407
  20411424.775 7 107262759.62907
  20411424.771 7 107262760.62707
 19  9  8  5  7 55.0000000  0  9G26G31G32G20G21G16G23G14G29
  21915615.976 7 115167339.30507
  21016167.279 7 110440704.75707
  20411676.906 7 107264085.31307
  20411677.268 7 107264084.31707
  21784780.140 7 114479792.70807
  24110487.633 7 126701462.82807
  20411676.994 7 107264085.31907
  20411676.740 7 107264084.31007
  20411676.586 7 107264085.31407
 19  9  8  5  7 56.0000000  0  9G26G31G32G20G21G16G23G14G29
  21915123.965 7 115164754.16807
  21016344.050 7 110441632.14107
  20411929.054 7 107265410.36907
  20411929.195 7 107265409.37207
  21784307.809 7 114477310.29507
  24109863.796 7 126698185.53707
  20411929.386 7 107265410.36507
  20411928.817 7 107265409.36807
  20411928.687 7 107265410.36907
 19  9  8  5  7 57.0000000  0  9G26G31G32G20G21G16G23G14G29
  21914632.181 7 115162169.20007
  21016520.547 7 110442560.08607
  20412181.352 7 107266735.73707
  20412181.536 7 107266734.73207
  21783835.293 7 114474828.24307
  24109239.913 7 126694908.25307
  20412181.424 7 107266735.73407
  20412180.925 7 107266734.74507
  20412181.001 7 107266735.73307
 19  9  8  5  7 58.0000000  0  9G26G31G32G20G21G16G23G14G29
  21914140.092 7 115159584.43007
  21016697.237 7 110443488.63407
  20412433.556 7 107268061.45807
  20412433.796 7 107268060.45407
  21783363.045 7 114472346.59407
  24108616.287 7 126691630.99007
  20412433.496 7 107268061.45307
  20412433.292 7 107268060.45107
  20412433.304 7 107268061.45007
 19  9  8  5  7 59.0000000  0  9G26G31G32G20G21G16G23G14G29
  21913648.328 7 115157000.01407
  21016873.579 7 110444417.94307
  20412686.062 7 107269387.66507
  20412686.378 7 107269386.66607
  21782890.911 7 114469865.48307
  24107992.621 7 126688353.91007
  20412685.827 7 107269387.65907
  20412685.740 7 107269386.66507
  20412685.686 7 107269387.65807
 19  9  8  5  8  0.0000000  0  9G26G31G32G20G21G16G23G14G29
  21913156.481 7 115154415.79607
  21017050.474 7 110445347.80907
  20412938.523 7 107270714.20607
  20412938.747 7 107270713.21107
  21782419.025 7 114467384.76207
  24107369.184 7 126685076.83507
  20412938.407 7 107270714.21007
  20412938.043 7 107270713.20907
  20412938.000 7 107270714.21007
 19  9  8  5  8  1.0000000  0  9G26G31G32G20G21G16G23G14G29
  21912664.665 7 115151831.74307
  21017227.501 7 110446278.24607
  20413190.857 7 107272041.07607
  20413191.212 7 107272040.07707
  21781947.010 7 114464904.41307
  24106745.802 7 126681799.74107
  20413190.752 7 107272041.07807
  20413190.343 7 107272040.07507
  20413190.533 7 107272041.07107
 19  9  8  5  8  2.0000000  0  9G26G31G32G20G21G16G23G14G29
  21912173.106 7 115149247.99507
  21017405.026 7 110447209.38507
  20413443.635 7 107273368.39207
  20413443.809 7 107273367.39107
  21781475.196 7 114462424.56007
  24106121.943 7 126678522.80007
  20413443.443 7 107273368.39207
  20413442.815 7 107273367.39507
  20413443.267 7 107273368.40307
 19  9  8  5  8  3.0000000  0  9G26G31G32G20G21G16G23G14G29
  21911681.409 7 115146664.47907
  21017582.163 7 110448141.12507
  20413696.431 7 107274696.06907
  20413696.391 7 107274695.05707
  21781003.409 7 114459945.12007
  24105498.273 7 126675245.88107
  20413696.198 7 107274696.06207
  20413695.640 7 107274695.06107
  20413696.311 7 107274696.06907
 19  9  8  5  8  4.0000000  0  9G26G31G32G20G21G16G23G14G29
  21911190.000 7 115144081.14907
  21017759.568 7 110449073.46307
  20413948.807 7 107276024.07507
  20413948.946 7 107276023.08107
  21780531.762 7 114457466.06607
  24104874.698 7 126671968.98607
  20413948.875 7 107276024.08507
  20413948.220 7 107276023.08707
  20413948.942 7 107276024.08607
 19  9  8  5  8  5.0000000  0  9G26G31G32G20G21G16G23G14G29
  21910698.640 7 115141498.16407
  21017937.208 7 110450006.53207
  20414201.547 7 107277352.58007
  20414201.539 7 107277351.57507
  21780060.122 7 114454987.55107
  24104251.325 7 126668692.25407
  20414201.627 7 107277352.57507
  20414200.880 7 107277351.58107
  20414201.520 7 107277352.57507
 19  9  8  5  8  6.0000000  0  9G26G31G32G20G21G16G23G14G29
  21910207.032 7 115138915.51907
  21018115.128 7 110450940.32907
  20414454.484 7 107278681.57407
  20414454.649 7 107278680.57007
  21779588.501 7 114452509.58407
  24103627.540 7 126665415.69307
  20414454.265 7 107278681.57107
  20414453.965 7 107278680.56607
  20414454.460 7 107278681.57407
 19  9  8  5  8  7.0000000  0  9G26G31G32G20G21G16G23G14G29
  21909715.543 7 115136333.10007
  21018293.040 7 110451874.76707
  20414707.538 7 107280010.94307
  20414707.754 7 107280009.93807
  21779117.194 7 114450032.04407
  24103004.368 7 126662139.18107
  20414707.468 7 107280010.92807
  20414706.737 7 107280009.93407
  20414707.227 7 107280010.93207
 19  9  8  5  8  8.0000000  0  9G26G31G32G20G21G16G23G14G29
  21909223.964 7 115133750.78107
  21018470.765 7 110452809.66407
  20414960.600 7 107281340.52607
  20414960.618 7 107281339.53307
  21778645.693 7 114447554.77107
  24102380.891 7 126658862.56407
  20414960.486 7 107281340.52707
  20414959.916 7 107281339.52507
  20414960.482 7 107281340.53107
 19  9  8  5  8  9.0000000  0  9G26G31G32G20G21G16G23G14G29
  21908732.468 7 115131168.62307
  21018648.765 7 110453745.12707
  20415213.629 7 107282670.43207
  20415213.707 7 107282669.43507
  21778174.357 7 114445077.86407
  24101757.225 7 126655585.96307
  20415213.767 7 107282670.43007
  20415213.276 7 107282669.43007
  20415213.433 7 107282670.43807
 19  9  8  5  8 10.0000000  0  9G26G31G32G20G21G16G23G14G29
  21908241.187 7 115128586.67307
  21018826.874 7 110454681.19507
  20415466.761 7 107284000.69107
  20415467.114 7 107283999.67907
  21777702.997 7 114442601.36907
  24101133.656 7 126652309.37607
  20415466.879 7 107284000.68307
  20415466.265 7 107283999.68207
  20415466.618 7 107284000.68107
 19  9  8  5  8 11.0000000  0  9G26G31G32G20G21G16G23G14G29
  21907750.016 7 115126004.92807
  21019005.314 7 110455617.84207
  20415719.790 7 107285331.29207
  20415720.280 7 107285330.29007
  21777231.583 7 114440125.25807
  24100510.249 7 126649032.82407
  20415720.330 7 107285331.28907
  20415719.540 7 107285330.28707
  20415719.774 7 107285331.29207
 19  9  8  5  8 12.0000000  0  9G26G31G32G20G21G16G23G14G29
  21907258.868 7 115123423.49007
  21019183.598 7 110456555.20507
  20415973.177 7 107286662.33007
  20415973.485 7 107286661.33407
  21776760.506 7 114437649.66007
  24099886.677 7 126645756.38807
  20415973.806 7 107286662.33207
  20415972.924 7 107286661.33507
  20415973.042 7 107286662.33507
 19  9  8  5  8 13.0000000  0  9G26G31G32G20G21G16G23G14G29
  21906767.616 7 115120842.25307
  21019361.966 7 110457493.14907
  20416226.714 7 107287993.73507
  20416226.898 7 107287992.73207
  21776289.280 7 114435174.45807
  24099263.094 7 126642479.98407
  20416226.775 7 107287993.73307
  20416226.333 7 107287992.73307
  20416226.398 7 107287993.73507
 19  9  8  5  8 14.0000000  0  9G26G31G32G20G21G16G23G14G29
  21906276.129 7 115118261.22807
  21019540.438 7 110458431.70907
  20416480.009 7 107289325.49907
  20416480.229 7 107289324.49607
  21775818.219 7 114432699.66507
  24098639.668 7 126639203.61807
  20416480.016 7 107289325.48907
  20416479.959 7 107289324.49307
  20416479.921 7 107289325.49207
 19  9  8  5  8 15.0000000  0  9G26G31G32G20G21G16G23G14G29
  21905785.072 7 115115680.46207
  21019719.507 7 110459370.90607
  20416733.310 7 107290657.64007
  20416733.781 7 107290656.64607
  21775347.579 7 114430225.31207
  24098015.906 7 126635927.32407
  20416733.541 7 107290657.63507
  20416733.457 7 107290656.64507
  20416733.692 7 107290657.64307
 19  9  8  5  8 16.0000000  0  9G26G31G32G20G21G16G23G14G29
  21905294.300 7 115113099.94107
  21019898.164 7 110460310.74907
  20416987.050 7 107291990.18407
  20416987.316 7 107291989.18207
  21774876.903 7 114427751.41507
  24097392.484 7 126632651.10707
  20416987.054 7 107291990.17707
  20416986.871 7 107291989.19107
  20416987.244 7 107291990.18207
 19  9  8  5  8 17.0000000  0  9G26G31G32G20G21G16G23G14G29
  21904803.501 7 115110519.64607
  21020077.216 7 110461251.19007
  20417240.605 7 107293323.08907
  20417241.460 7 107293322.08507
  21774406.178 7 114425277.91907
  24096769.020 7 126629374.92407
  20417240.682 7 107293323.08607
  20417240.434 7 107293322.08507
  20417240.709 7 107293323.07907
 19  9  8  5  8 18.0000000  0  9G26G31G32G20G21G16G23G14G29
  21904312.504 7 115107939.57907
  21020256.240 7 110462192.28407
  20417494.130 7 107294656.36907
  20417495.091 7 107294655.36107
  21773935.898 7 114422804.86807
  24096145.531 7 126626098.79407
  20417494.516 7 107294656.37207
  20417494.391 7 107294655.37407
  20417494.434 7 107294656.36207
 19  9  8  5  8 19.0000000  0  9G26G31G32G20G21G16G23G14G29
  21903821.593 7 115105359.66207
  21020435.183 7 110463133.88407
  20417747.698 7 107295989.94007
  20417748.601 7 107295988.94307
  21773465.276 7 114420332.15107
  24095522.212 7 126622822.65007
  20417748.115 7 107295989.93607
  20417747.818 7 107295988.94507
  20417748.333 7 107295989.94307
 19  9  8  5  8 20.0000000  0  9G26G31G32G20G21G16G23G14G29
  21903330.826 7 115102780.00507
  21020614.487 7 110464076.15407
  20418001.666 7 107297323.89707
  20418002.200 7 107297322.90607
  21772994.615 7 114417859.87907
  24094898.824 7 126619546.56307
  20418001.822 7 107297323.90707
  20418001.739 7 107297322.90707
  20418002.066 7 107297323.90407
 19  9  8  5  8 21.0000000  0  9G26G31G32G20G21G16G23G14G29
  21902839.937 7 115100200.60007
  21020793.763 7 110465019.04607
  20418255.605 7 107298658.27607
  20418255.938 7 107298657.27507
  21772524.075 7 114415388.06407
  24094275.303 7 126616270.57107
  20418255.812 7 107298658.27507
  20418255.602 7 107298657.27507
  20418255.875 7 107298658.27707
 19  9  8  5  8 22.0000000  0  9G26G31G32G20G21G16G23G14G29
  21902349.009 7 115097621.37807
  21020973.549 7 110465962.51307
  20418509.580 7 107299992.96207
  20418510.155 7 107299991.95707
  21772053.703 7 114412916.62907
  24093652.230 7 126612994.57407
  20418509.791 7 107299992.95307
  20418509.617 7 107299991.95107
  20418509.877 7 107299992.95407
 19  9  8  5  8 23.0000000  0  9G26G31G32G20G21G16G23G14G29
  21901858.387 7 115095042.37607
  21021153.416 7 110466906.60607
  20418763.815 7 107301328.01007
  20418764.288 7 107301327.00907
  21771583.380 7 114410445.59807
  24093028.865 7 126609718.60807
  20418763.753 7 107301328.01307
  20418763.399 7 107301326.99907
  20418763.874 7 107301328.00107
 19  9  8  5  8 24.0000000  0  9G26G31G32G20G21G16G23G14G29
  21901367.555 7 115092463.66807
  21021333.348 7 110467851.37107
  20419017.984 7 107302663.48707
  20419018.390 7 107302662.48207
  21771113.406 7 114407975.06307
  24092405.340 7 126606442.77407
  20419017.842 7 107302663.48107
  20419017.441 7 107302662.49107
  20419018.215 7 107302663.48707
 19  9  8  5  8 25.0000000  0  9G26G31G32G20G21G16G23G14G29
  21900876.806 7 115089885.13607
  21021513.035 7 110468796.72207
  20419271.968 7 107303999.29207
  20419272.705 7 107303998.30607
  21770643.504 7 114405504.91007
  24091781.973 7 126603166.93707
  20419271.940 7 107303999.29407
  20419271.823 7 107303998.30507
  20419272.277 7 107303999.30907
 19  9  8  5  8 26.0000000  0  9G26G31G32G20G21G16G23G14G29
  21900385.958 7 115087306.73307
  21021693.078 7 110469742.58407
  20419526.022 7 107305335.37607
  20419526.574 7 107305334.38007
  21770173.532 7 114403035.06807
  24091158.718 7 126599891.05107
  20419526.176 7 107305335.37607
  20419526.124 7 107305334.37607
  20419526.789 7 107305335.37407
 19  9  8  5  8 27.0000000  0  9G26G31G32G20G21G16G23G14G29
  21899895.600 7 115084728.63707
  21021873.334 7 110470689.12107
  20419780.718 7 107306671.89707
  20419781.007 7 107306670.89107
  21769703.896 7 114400565.73207
  24090535.275 7 126596615.27607
  20419780.629 7 107306671.89807
  20419780.320 7 107306670.89907
  20419781.012 7 107306671.89307
 19  9  8  5  8 28.0000000  0  9G26G31G32G20G21G16G23G14G29
  21899404.882 7 115082150.77207
  21022053.813 7 110471636.31307
  20420035.122 7 107308008.80007
  20420035.452 7 107308007.80507
  21769234.183 7 114398096.82507
  24089911.924 7 126593339.58707
  20420034.904 7 107308008.79707
  20420035.033 7 107308007.81107
  20420035.190 7 107308008.80507
 19  9  8  5  8 29.0000000  0  9G26G31G32G20G21G16G23G14G29
  21898914.222 7 115079573.16407
  21022234.037 7 110472584.12107
  20420289.488 7 107309346.09507
  20420289.801 7 107309345.08807
  21768764.339 7 114395628.35807
  24089288.817 7 126590063.95507
  20420289.420 7 107309346.08307
  20420289.580 7 107309345.08907
  20420289.723 7 107309346.08707
 19  9  8  5  8 30.0000000  0  9G26G31G32G20G21G16G23G14G29
  21898424.027 7 115076995.82807
  21022414.221 7 110473532.60207
  20420543.957 7 107310683.79007
  20420544.580 7 107310682.79307
  21768294.704 7 114393160.35707
  24088665.450 7 126586788.40507
  20420544.242 7 107310683.78907
  20420543.977 7 107310682.79207
  20420543.763 7 107310683.78707
 19  9  8  5  8 31.0000000  0  9G26G31G32G20G21G16G23G14G29
  21897933.941 7 115074418.73107
  21022594.671 7 110474481.70207
  20420798.840 7 107312021.88407
  20420799.204 7 107312020.87107
  21767825.182 7 114390692.79607
  24088042.104 6 126583512.92306
  20420799.078 7 107312021.86607
  20420798.829 7 107312020.87407
  20420798.490 7 107312021.86707
 19  9  8  5  8 32.0000000  0  9G26G31G32G20G21G16G23G14G29
  21897443.771 7 115071841.82307
  21022775.399 7 110475431.39707
  20421053.445 7 107313360.28407
  20421053.923 7 107313359.28907
  21767355.643 7 114388225.62507
  24087418.668 6 126580237.46606
  20421053.667 7 107313360.29107
  20421053.259 7 107313359.28807
  20421053.400 7 107313360.28807
 19  9  8  5  8 33.0000000  0  9G26G31G32G20G21G16G23G14G29
  21896953.287 7 115069265.14107
  21022956.379 7 110476381.69907
  20421307.995 7 107314699.07707
  20421308.660 7 107314698.07407
  21766886.336 7 114385758.86907
  24086795.437 6 126576962.05806
  20421308.255 7 107314699.07207
  20421308.159 7 107314698.06907
  20421308.115 7 107314699.06807
 19  9  8  5  8 34.0000000  0  9G26G31G32G20G21G16G23G14G29
  21896462.714 7 115066688.70807
  21023137.453 7 110477332.64107
  20421563.065 7 107316038.23407
  20421563.389 7 107316037.23607
  21766416.844 7 114383292.55307
  24086172.111 7 126573686.70307
  20421562.697 7 107316038.23607
  20421563.055 7 107316037.24107
  20421563.129 7 107316038.23707
 19  9  8  5  8 35.0000000  0  9G26G31G32G20G21G16G23G14G29
  21895972.513 7 115064112.51407
  21023318.620 7 110478284.20307
  20421818.002 7 107317377.78307
  20421818.227 7 107317376.78807
  21765947.738 7 114380826.67307
  24085548.809 6 126570411.40706
  20421817.745 7 107317377.78307
  20421818.141 7 107317376.78507
  20421817.945 7 107317377.77907
 19  9  8  5  8 36.0000000  0  9G26G31G32G20G21G16G23G14G29
  21895482.246 7 115061536.48407
  21023500.161 7 110479236.33807
  20422073.249 7 107318717.65307
  20422073.311 7 107318716.64607
  21765478.446 7 114378361.16507
  24084925.472 7 126567136.11907
  20422072.750 7 107318717.65107
  20422073.021 7 107318716.63807
  20422072.873 7 107318717.64607
 19  9  8  5  8 37.0000000  0  9G26G31G32G20G21G16G23G14G29
  21894992.120 7 115058960.72507
  21023681.335 7 110480189.11107
  20422328.036 7 107320057.90207
  20422328.476 7 107320056.90407
  21765009.355 7 114375896.09607
  24084302.203 7 126563860.89707
  20422327.969 7 107320057.90207
  20422328.071 7 107320056.90307
  20422328.163 7 107320057.90607
 19  9  8  5  8 38.0000000  0  9G26G31G32G20G21G16G23G14G29
  21894502.002 7 115056385.21707
  21023862.760 7 110481142.52807
  20422583.153 7 107321398.56007
  20422583.649 7 107321397.55807
  21764540.494 7 114373431.49607
  24083679.127 6 126560585.75206
  20422583.189 7 107321398.55807
  20422582.932 7 107321397.55807
  20422583.537 7 107321398.55907
 19  9  8  5  8 39.0000000  0  9G26G31G32G20G21G16G23G14G29
  21894011.948 7 115053809.95507
  21024044.182 7 110482096.58507
  20422838.523 7 107322739.60107
  20422838.836 7 107322738.60107
  21764071.525 7 114370967.33507
  24083056.085 6 126557310.69206
  20422838.355 7 107322739.60507
  20422838.056 7 107322738.60407
  20422838.623 7 107322739.61007
 19  9  8  5  8 40.0000000  0  9G26G31G32G20G21G16G23G14G29
  21893522.073 7 115051234.92207
  21024225.909 7 110483051.25407
  20423093.725 7 107324081.00907
  20423093.902 7 107324080.00507
  21763602.855 7 114368503.58507
  24082433.009 6 126554035.66406
  20423093.606 7 107324081.00507
  20423093.294 7 107324080.01307
  20423093.886 7 107324081.01407
 19  9  8  5  8 41.0000000  0  9G26G31G32G20G21G16G23G14G29
  21893032.095 7 115048659.99207
  21024407.595 7 110484006.41207
  20423349.079 7 107325422.65807
  20423349.003 7 107325421.66807
  21763134.061 7 114366040.13607
  24081809.633 6 126550760.57106
  20423348.948 7 107325422.66407
  20423348.675 7 107325421.66607
  20423349.123 7 107325422.65707
 19  9  8  5  8 42.0000000  0  9G26G31G32G20G21G16G23G14G29
  21892542.027 7 115046085.34507
  21024589.480 7 110484962.24707
  20423604.431 7 107326764.73607
  20423604.545 7 107326763.73607
  21762665.417 7 114363577.17307
  24081186.305 6 126547485.59206
  20423604.503 7 107326764.74107
  20423604.168 7 107326763.74007
  20423604.533 7 107326764.74007
 19  9  8  5  8 43.0000000  0  9G26G31G32G20G21G16G23G14G29
  21892052.257 7 115043511.00507
  21024771.432 7 110485918.77507
  20423859.861 7 107328107.25407
  20423860.356 7 107328106.26007
  21762196.880 7 114361114.69707
  24080563.180 6 126544210.70806
  20423860.014 7 107328107.25107
  20423859.536 7 107328106.25107
  20423860.019 7 107328107.25007
 19  9  8  5  8 44.0000000  0  9G26G31G32G20G21G16G23G14G29
  21891562.000 7 115040936.90207
  21024953.530 7 110486875.93307
  20424115.491 7 107329450.14907
  20424115.763 7 107329449.15307
  21761728.295 7 114358652.66607
  24079940.328 6 126540935.90906
  20424115.612 7 107329450.15107
  20424114.959 7 107329449.15507
  20424115.315 7 107329450.15307
 19  9  8  5  8 45.0000000  0  9G26G31G32G20G21G16G23G14G29
  21891072.203 7 115038362.99807
  21025135.569 7 110487833.67507
  20424371.069 7 107330793.38707
  20424371.196 7 107330792.38707
  21761259.626 7 114356191.02907
  24079316.858 6 126537661.13506
  20424370.881 7 107330793.39207
  20424370.667 7 107330792.38907
  20424371.005 7 107330793.39207
 19  9  8  5  8 46.0000000  0  9G26G31G32G20G21G16G23G14G29
  21890582.603 7 115035789.33107
  21025318.159 7 110488792.03607
  20424626.414 7 107332136.99407
  20424626.831 7 107332135.99507
  21760791.340 7 114353729.82607
  24078693.355 6 126534386.39906
  20424626.535 7 107332137.00307
  20424626.386 7 107332136.00307
  20424626.579 7 107332137.00007
 19  9  8  5  8 47.0000000  0  9G26G31G32G20G21G16G23G14G29
  21890092.795 7 115033216.15307
  21025500.536 7 110489751.27707
  20424881.996 7 107333481.23707
  20424882.501 7 107333480.22907
  21760322.895 7 114351269.29607
  24078070.463 6 126531111.98906
  20424882.386 7 107333481.23607
  20424882.127 7 107333480.23407
  20424882.389 7 107333481.23707
 19  9  8  5  8 48.0000000  0  9G26G31G32G20G21G16G23G14G29
  21889603.301 7 115030643.52107
  21025683.287 7 110490711.45207
  20425138.100 7 107334826.15707
  20425138.493 7 107334825.15807
  21759854.854 7 114348809.50307
  24077447.295 6 126527837.93206
  20425138.315 7 107334826.15907
  20425137.909 7 107334825.15207
  20425138.426 7 107334826.15307
 19  9  8  5  8 49.0000000  0  9G26G31G32G20G21G16G23G14G29
  21889113.902 7 115028071.20407
  21025865.861 7 110491672.34507
  20425394.089 7 107336171.54007
  20425394.741 7 107336170.53607
  21759387.015 7 114346350.23907
  24076824.380 6 126524564.02806
  20425394.369 7 107336171.54007
  20425393.918 7 107336170.54407
  20425394.297 7 107336171.54407
 19  9  8  5  8 50.0000000  0  9G26G31G32G20G21G16G23G14G29
  21888624.369 7 115025498.76107
  21026048.735 7 110492633.49107
  20425650.293 7 107337516.93407
  20425650.981 7 107337515.92907
  21758918.981 7 114343891.04507
  24076201.653 6 126521289.81906
  20425650.394 7 107337516.93707
  20425649.813 7 107337515.93807
  20425650.480 7 107337516.93107
 19  9  8  5  8 51.0000000  0  9G26G31G32G20G21G16G23G14G29
  21888134.943 7 115022926.71007
  21026231.913 7 110493595.40507
  20425906.436 7 107338862.84907
  20425906.997 7 107338861.84707
  21758451.044 7 114341432.41307
  24075578.389 6 126518015.80606
  20425906.370 7 107338862.84607
  20425905.913 7 107338861.85607
  20425906.633 7 107338862.85107
 19  9  8  5  8 52.0000000  0  9G26G31G32G20G21G16G23G14G29
  21887645.484 7 115020354.77307
  21026415.441 7 110494557.82307
  20426162.851 7 107340209.01807
  20426163.259 7 107340208.01807
  21757983.418 7 114338974.10307
  24074955.167 6 126514741.73106
  20426162.540 7 107340209.02107
  20426162.298 7 107340208.02207
  20426162.850 7 107340209.02207
 19  9  8  5  8 53.0000000  0  9G26G31G32G20G21G16G23G14G29
  21887156.360 7 115017782.93107
  21026598.581 7 110495520.72507
  20426419.115 7 107341555.42207
  20426419.462 7 107341554.43607
  21757515.669 7 114336516.08907
  24074332.098 6 126511467.58406
  20426418.798 7 107341555.43207
  20426418.340 7 107341554.42407
  20426419.025 7 107341555.42707
 19  9  8  5  8 54.0000000  0  9G26G31G32G20G21G16G23G14G29
  21886666.824 7 115015211.29807
  21026781.578 7 110496484.21807
  20426675.272 7 107342902.16707
  20426675.456 7 107342901.17407
  21757047.821 7 114334058.46107
  24073709.201 6 126508193.45806
  20426675.064 7 107342902.17407
  20426674.875 7 107342901.17507
  20426675.450 7 107342902.16907
 19  9  8  5  8 55.0000000  0  9G26G31G32G20G21G16G23G14G29
  21886177.344 7 115012639.70407
  21026965.129 7 110497448.15907
  20426931.704 7 107344249.10807
  20426931.872 7 107344248.11507
  21756580.185 7 114331601.09007
  24073086.156 6 126504919.20606
  20426931.555 7 107344249.10907
  20426931.265 7 107344248.11507
  20426931.627 7 107344249.11207
 19  9  8  5  8 56.0000000  0  9G26G31G32G20G21G16G23G14G29
  21885688.279 7 115010068.34407
  21027148.687 7 110498412.68207
  20427188.029 7 107345596.39307
  20427188.257 7 107345595.39907
  21756112.632 7 114329144.12007
  24072463.174 6 126501644.97506
  20427188.108 7 107345596.39407
  20427187.782 6 107345595.39706
  20427188.000 7 107345596.39107
 19  9  8  5  8 57.0000000  0  9G26G31G32G20G21G16G23G14G29
  21885198.817 7 115007497.17807
  21027332.272 6 110499377.81006
  20427444.347 7 107346944.04407
  20427444.516 7 107346943.03507
  21755645.153 7 114326687.55507
  24071840.174 6 126498370.78606
  20427444.526 7 107346944.03207
  20427444.430 7 107346943.03607
  20427444.421 7 107346944.03707
 19  9  8  5  8 58.0000000  0  9G26G31G32G20G21G16G23G14G29
  21884709.514 7 115004926.22707
  21027515.937 7 110500343.53807
  20427700.766 7 107348292.02707
  20427700.975 7 107348291.02307
  21755178.043 7 114324231.40807
  24071217.083 6 126495096.63606
  20427700.835 6 107348292.02506
  20427700.748 7 107348291.02307
  20427701.032 7 107348292.01607
 19  9  8  5  8 59.0000000  0  9G26G31G32G20G21G16G23G14G29
  21884220.458 7 115002355.49107
  21027699.900 7 110501309.87607
  20427957.406 6 107349640.35806
  20427957.660 6 107349639.35006
  21754710.690 7 114321775.66307
  24070593.846 6 126491822.51006
  20427957.424 6 107349640.35706
  20427957.026 7 107349639.36907
  20427957.795 7 107349640.36507
 19  9  8  5  9  0.0000000  0  9G26G31G32G20G21G16G23G14G29
  21883731.531 7 114999785.02207
  21027884.294 7 110502276.85807
  20428213.807 7 107350989.09107
  20428214.570 7 107350988.10207
  21754243.403 7 114319320.38507
  24069970.803 6 126488548.47706
  20428214.075 7 107350989.10407
  20428213.590 7 107350988.10107
  20428214.222 7 107350989.10407
 19  9  8  5  9  1.0000000  0  9G26G31G32G20G21G16G23G14G29
  21883242.496 7 114997214.74307
  21028068.158 7 110503244.42507
  20428470.366 7 107352338.17207
  20428471.221 7 107352337.17107
  21753776.375 6 114316865.49306
  24069347.705 6 126485274.45706
  20428470.959 7 107352338.17307
  20428470.219 7 107352337.17507
  20428470.591 7 107352338.17807
 19  9  8  5  9  2.0000000  0  9G26G31G32G20G21G16G23G14G29
  21882753.155 7 114994644.63207
  21028252.251 6 110504212.53306
  20428727.331 7 107353687.54607
  20428728.170 7 107353686.54507
  21753308.979 7 114314410.95307
  24068724.814 6 126482000.42406
  20428727.652 7 107353687.55107
  20428726.839 6 107353686.55006
  20428727.256 7 107353687.54307
 19  9  8  5  9  3.0000000  0  9G26G31G32G20G21G16G23G14G29
  21882264.326 7 114992074.87407
  21028437.302 7 110505181.38307
  20428984.451 7 107355037.40207
  20428985.046 7 107355036.40707
  21752842.063 7 114311956.95707
  24068101.962 6 126478726.56306
  20428984.429 7 107355037.40707
  20428983.723 7 107355036.39707
  20428984.057 7 107355037.40407
 19  9  8  5  9  4.0000000  0  9G26G31G32G20G21G16G23G14G29
  21881775.367 7 114989505.33707
  21028622.107 7 110506150.85107
  20429241.294 7 107356387.64007
  20429241.910 7 107356386.63507
  21752375.275 7 114309503.38807
  24067478.995 6 126475452.74406
  20429241.317 7 107356387.63607
  20429240.888 7 107356386.63807
  20429241.030 7 107356387.63207
 19  9  8  5  9  5.0000000  0  9G26G31G32G20G21G16G23G14G29
  21881286.241 7 114986935.93607
  21028806.210 7 110507120.83207
  20429498.343 7 107357738.13707
  20429498.893 7 107357737.12607
  21751908.666 7 114307050.15507
  24066856.044 6 126472178.88506
  20429498.118 7 107357738.12707
  20429498.320 7 107357737.13407
  20429498.142 7 107357738.13307
 19  9  8  5  9  6.0000000  0  9G26G31G32G20G21G16G23G14G29
  21880797.448 7 114984366.89807
  21028990.821 7 110508091.56007
  20429755.609 7 107359089.11007
  20429755.989 7 107359088.11207
  21751442.206 7 114304597.46607
  24066233.141 6 126468905.20106
  20429755.384 7 107359089.11407
  20429755.409 7 107359088.11607
  20429755.895 7 107359089.12007
 19  9  8  5  9  7.0000000  0  9G26G31G32G20G21G16G23G14G29
  21880308.643 7 114981798.03907
  21029175.476 7 110509062.84207
  20430012.629 7 107360440.41907
  20430012.996 7 107360439.42407
  21750975.326 7 114302145.14707
  24065610.161 6 126465631.51806
  20430012.574 7 107360440.42007
  20430012.519 7 107360439.42507
  20430012.931 7 107360440.42807
 19  9  8  5  9  8.0000000  0  9G26G31G32G20G21G16G23G14G29
  21879819.904 7 114979229.37307
  21029360.551 7 110510034.74007
  20430269.645 7 107361792.08307
  20430270.083 7 107361791.07207
  21750508.587 7 114299693.24707
  24064986.946 6 126462357.87106
  20430269.831 7 107361792.07607
  20430269.688 7 107361791.07307
  20430270.065 7 107361792.07307
 19  9  8  5  9  9.0000000  0  9G26G31G32G20G21G16G23G14G29
  21879331.079 7 114976661.02907
  21029545.602 7 110511007.30707
  20430527.143 7 107363144.16807
  20430527.351 7 107363143.16707
  21750042.118 7 114297241.82907
  24064364.007 6 126459084.34506
  20430527.052 7 107363144.16407
  20430526.844 7 107363143.16907
  20430527.096 7 107363144.16807
 19  9  8  5  9 10.0000000  0  9G26G31G32G20G21G16G23G14G29
  21878842.062 7 114974092.87007
  21029730.788 7 110511980.48107
  20430784.552 7 107364496.59307
  20430784.693 7 107364495.58907
  21749575.614 7 114294790.81507
  24063741.331 6 126455810.83906
  20430784.515 7 107364496.59607
  20430784.262 7 107364495.59707
  20430784.661 7 107364496.59207
 19  9  8  5  9 11.0000000  0  9G26G31G32G20G21G16G23G14G29
  21878353.146 7 114971524.91507
  21029915.821 7 110512954.21307
  20431041.943 7 107365849.35207
  20431042.218 7 107365848.34407
  21749109.414 7 114292340.19807
  24063118.509 6 126452537.34906
  20431041.855 7 107365849.35307
  20431041.789 7 107365848.34707
  20431041.947 7 107365849.35507
 19  9  8  5  9 12.0000000  0  9G26G31G32G20G21G16G23G14G29
  21877864.763 7 114968957.33407
  21030101.244 7 110513928.71307
  20431299.658 7 107367202.61307
  20431299.762 7 107367201.62207
  21748643.155 7 114289890.13507
  24062495.686 6 126449264.04406
  20431299.304 7 107367202.62107
  20431299.100 7 107367201.61107
  20431299.510 7 107367202.62207
 19  9  8  5  9 13.0000000  0  9G26G31G32G20G21G16G23G14G29
  21877376.466 7 114966390.11307
  21030287.078 7 110514903.96807
  20431557.076 7 107368556.38507
  20431557.495 7 107368555.38407
  21748177.096 7 114287440.63307
  24061872.652 6 126445990.93706
  20431557.089 7 107368556.39007
  20431556.771 7 107368555.38707
  20431556.977 7 107368556.38607
 19  9  8  5  9 14.0000000  0  9G26G31G32G20G21G16G23G14G29
  21876888.098 7 114963823.31707
  21030472.822 7 110515880.02707
  20431814.920 7 107369910.71707
  20431815.120 7 107369909.71807
  21747711.146 7 114284991.76407
  24061249.746 6 126442718.06806
  20431814.932 7 107369910.72807
  20431814.638 7 107369909.71707
  20431814.813 7 107369910.72107
 19  9  8  5  9 15.0000000  0  9G26G31G32G20G21G16G23G14G29
  21876399.566 7 114961256.68107
  21030658.582 7 110516856.62507
  20432072.474 7 107371265.33707
  20432072.936 7 107371264.33107
  21747245.129 7 114282543.21907
  24060626.840 6 126439445.18206
  20432072.372 7 107371265.33407
  20432072.213 7 107371264.33607
  20432072.861 7 107371265.33207
 19  9  8  5  9 16.0000000  0  9G26G31G32G20G21G16G23G14G29
  21875911.328 7 114958690.31507
  21030844.572 7 110517833.88607
  20432330.536 7 107372620.36707
  20432331.078 7 107372619.36607
  21746779.118 7 114280095.17207
  24060003.956 6 126436172.39506
  20432330.201 7 107372620.36807
  20432330.159 7 107372619.37107
  20432330.731 7 107372620.36607
 19  9  8  5  9 17.0000000  0  9G26G31G32G20G21G16G23G14G29
  21875422.950 7 114956123.87707
  21031030.330 7 110518811.45407
  20432588.562 7 107373975.45107
  20432588.809 7 107373974.46307
  21746313.323 7 114277647.22907
  24059381.292 6 126432899.34106
  20432588.192 7 107373975.45707
  20432587.986 7 107373974.44807
  20432588.598 7 107373975.45507
 19  9  8  5  9 18.0000000  0  9G26G31G32G20G21G16G23G14G29
  21874934.760 7 114953557.58207
  21031216.394 7 110519789.55207
  20432846.859 7 107375330.81807
  20432846.848 7 107375329.82607
  21745847.446 7 114275199.62807
  24058758.277 6 126429626.24706
  20432846.095 7 107375330.81907
  20432845.728 7 107375329.82007
  20432846.509 7 107375330.82307
 19  9  8  5  9 19.0000000  0  9G26G31G32G20G21G16G23G14G29
  21874446.242 7 114950991.53807
  21031402.839 7 110520768.28707
  20433104.448 7 107376686.58007
  20433104.578 7 107376685.58107
  21745381.877 7 114272752.47907
  24058135.586 6 126426353.24306
  20433104.315 7 107376686.57707
  20433103.372 7 107376685.58307
  20433104.356 7 107376686.58507
 19  9  8  5  9 20.0000000  0  9G26G31G32G20G21G16G23G14G29
  21873957.773 7 114948425.62907
  21031589.319 7 110521747.55207
  20433362.349 7 107378042.61207
  20433362.489 7 107378041.61607
  21744916.222 7 114270305.66107
  24057512.546 6 126423080.17906
  20433362.556 7 107378042.61407
  20433361.624 7 107378041.61007
  20433362.431 7 107378042.61007
 19  9  8  5  9 21.0000000  0  9G26G31G32G20G21G16G23G14G29
  21873469.736 7 114945860.04807
  21031775.609 7 110522727.50607
  20433620.413 7 107379399.09007
  20433620.636 7 107379398.08007
  21744450.451 7 114267859.34607
  24056890.005 6 126419807.26506
  20433620.483 7 107379399.08207
  20433619.914 7 107379398.09007
  20433620.464 7 107379399.08807
 19  9  8  5  9 22.0000000  0  9G26G31G32G20G21G16G23G14G29
  21872981.448 7 114943294.66807
  21031962.204 7 110523708.06607
  20433878.987 7 107380755.92007
  20433879.174 7 107380754.92607
  21743985.096 7 114265413.44607
  24056267.029 6 126416534.39106
  20433878.638 7 107380755.92407
  20433878.356 7 107380754.92407
  20433878.754 7 107380755.92407
 19  9  8  5  9 23.0000000  0  9G26G31G32G20G21G16G23G14G29
  21872493.311 7 114940729.46407
  21032148.939 7 110524689.18107
  20434137.037 7 107382113.05807
  20434137.083 7 107382112.05107
  21743519.946 7 114262967.91607
  24055644.210 6 126413261.49406
  20434136.950 7 107382113.05907
  20434136.118 7 107382112.05907
  20434136.926 7 107382113.05907
 19  9  8  5  9 24.0000000  0  9G26G31G32G20G21G16G23G14G29
  21872005.128 7 114938164.59607
  21032335.786 7 110525671.00407
  20434395.408 7 107383470.65107
  20434395.364 7 107383469.65107
  21743054.663 7 114260522.90007
  24055021.542 6 126409988.75406
  20434395.316 7 107383470.64907
  20434394.318 7 107383469.65307
  20434395.095 7 107383470.65607
 19  9  8  5  9 25.0000000  0  9G26G31G32G20G21G16G23G14G29
  21871517.160 7 114935599.92907
  21032522.838 7 110526653.43407
  20434653.731 7 107384828.61007
  20434653.591 7 107384827.61307
  21742589.482 7 114258078.30207
  24054398.667 6 126406716.06406
  20434653.523 7 107384828.61107
  20434652.902 7 107384827.60707
  20434653.597 7 107384828.60907
 19  9  8  5  9 26.0000000  0  9G26G31G32G20G21G16G23G14G29
  21871029.130 7 114933035.58707
  21032710.208 7 110527636.54007
  20434912.238 7 107386186.99707
  20434912.196 7 107386185.99407
  21742124.473 7 114255634.20707
  24053775.868 6 126403443.47706
  20434912.052 7 107386186.99507
  20434911.661 7 107386186.00607
  20434911.842 7 107386186.99707
 19  9  8  5  9 27.0000000  0  9G26G31G32G20G21G16G23G14G29
  21870541.277 7 114930471.67307
  21032896.916 7 110528620.48307
  20435170.693 7 107387545.96607
  20435170.839 7 107387544.96207
  21741659.465 7 114253190.74107
  24053153.191 6 126400171.15906
  20435170.585 7 107387545.96407
  20435170.400 7 107387544.96207
  20435170.369 7 107387545.96607
 19  9  8  5  9 28.0000000  0  9G26G31G32G20G21G16G23G14G29
  21870053.426 7 114927907.92207
  21033084.436 7 110529604.98107
  20435429.236 7 107388905.23107
  20435429.617 7 107388904.23507
  21741194.251 7 114250747.64507
  24052530.732 6 126396898.83706
  20435429.416 7 107388905.22807
  20435429.421 7 107388904.22907
  20435429.064 7 107388905.23007
 19  9  8  5  9 29.0000000  0  9G26G31G32G20G21G16G23G14G29
  21869565.746 7 114925344.22207
  21033271.607 7 110530589.89907
  20435688.250 7 107390264.67807
  20435688.363 7 107390263.67407
  21740729.397 7 114248304.78107
  24051907.649 6 126393626.37106
  20435687.746 7 107390264.67107
  20435687.785 7 107390263.67007
  20435687.819 7 107390264.66807
 19  9  8  5  9 30.0000000  0  9G26G31G32G20G21G16G23G14G29
  21869077.852 7 114922780.75407
  21033459.565 7 110531575.43207
  20435946.873 7 107391624.49107
  20435947.251 7 107391623.49107
  21740264.610 7 114245862.34807
  24051284.873 6 126390353.96006
  20435946.799 7 107391624.48307
  20435946.692 7 107391623.48807
  20435946.742 7 107391624.48507
 19  9  8  5  9 31.0000000  0  9G26G31G32G20G21G16G23G14G29
  21868590.048 7 114920217.52307
  21033646.906 7 110532561.58507
  20436205.599 7 107392984.65707
  20436206.138 7 107392983.66507
  21739799.716 7 114243420.34407
  24050662.134 6 126387081.59806
  20436205.596 7 107392984.67007
  20436205.523 7 107392983.66307
  20436206.042 7 107392984.66207
 19  9  8  5  9 32.0000000  0  9G26G31G32G20G21G16G23G14G29
  21868102.563 7 114917654.47407
  21033834.920 7 110533548.30607
  20436464.613 7 107394345.16607
  20436464.877 7 107394344.16007
  21739335.224 7 114240978.71607
  24050039.448 6 126383809.25306
  20436464.429 7 107394345.16307
  20436464.211 7 107394344.15907
  20436464.857 7 107394345.15507
 19  9  8  5  9 33.0000000  0  9G26G31G32G20G21G16G23G14G29
  21867614.834 7 114915091.62907
  21034022.829 7 110534535.62007
  20436723.508 7 107395705.99907
  20436723.927 7 107395704.99607
  21738870.638 7 114238537.49807
  24049416.665 6 126380536.93006
  20436723.247 7 107395705.99107
  20436723.120 7 107395704.99407
  20436723.614 7 107395705.99907
 19  9  8  5  9 34.0000000  0  9G26G31G32G20G21G16G23G14G29
  21867127.168 7 114912529.04507
  21034210.898 7 110535523.57307
  20436982.574 7 107397067.22807
  20436982.778 7 107397066.22907
  21738406.367 7 114236096.72707
  24048794.101 6 126377264.68006
  20436982.203 7 107397067.22707
  20436982.027 7 107397066.22607
  20436982.523 7 107397067.22807
 19  9  8  5  9 35.0000000  0  9G26G31G32G20G21G16G23G14G29
  21866639.370 7 114909966.73807
  21034398.997 7 110536512.18007
  20437241.412 7 107398428.87507
  20437241.920 7 107398427.86507
  21737942.085 7 114233656.42707
  24048171.553 6 126373992.53606
  20437241.506 7 107398428.87307
  20437241.191 7 107398427.85907
  20437241.620 7 107398428.86007
 19  9  8  5  9 36.0000000  0  9G26G31G32G20G21G16G23G14G29
  21866151.730 7 114907404.64407
  21034587.044 7 110537501.39107
  20437500.441 7 107399790.85807
  20437500.887 7 107399789.85707
  21737478.067 7 114231216.54307
  24047549.157 6 126370720.41606
  20437500.835 7 107399790.85707
  20437500.586 7 107399789.85007
  20437501.155 7 107399790.85507
 19  9  8  5  9 37.0000000  0  9G26G31G32G20G21G16G23G14G29
  21865664.004 7 114904842.78807
  21034775.027 7 110538491.22507
  20437759.469 7 107401153.21507
  20437760.306 7 107401152.21307
  21737013.861 7 114228777.08807
  24046926.649 6 126367448.35906
  20437759.919 7 107401153.20507
  20437759.812 7 107401152.21207
  20437760.170 7 107401153.20907
 19  9  8  5  9 38.0000000  0  9G26G31G32G20G21G16G23G14G29
  21865176.778 7 114902281.14507
  21034963.350 7 110539481.65607
  20438019.058 7 107402515.91607
  20438019.580 7 107402514.91507
  21736549.867 7 114226338.03607
  24046303.906 6 126364176.33506
  20438019.324 7 107402515.92307
  20438019.240 7 107402514.92007
  20438019.691 7 107402515.92207
 19  9  8  5  9 39.0000000  0  9G26G31G32G20G21G16G23G14G29
  21864689.288 7 114899719.79707
  21035152.077 7 110540472.76207
  20438278.607 7 107403879.05207
  20438279.182 7 107403878.04707
  21736085.813 7 114223899.47807
  24045681.221 6 126360904.42706
  20438278.882 7 107403879.04607
  20438278.474 7 107403878.04907
  20438278.690 7 107403879.04707
 19  9  8  5  9 40.0000000  0  9G26G31G32G20G21G16G23G14G29
  21864202.118 7 114897158.63707
  21035340.832 7 110541464.43507
  20438538.341 7 107405242.50907
  20438538.624 7 107405241.50707
  21735621.614 7 114221461.30307
  24045058.503 6 126357632.52706
  20438538.433 7 107405242.49907
  20438538.094 7 107405241.51107
  20438538.093 7 107405242.50807
 19  9  8  5  9 41.0000000  0  9G26G31G32G20G21G16G23G14G29
  21863714.526 7 114894597.66607
  21035529.680 7 110542456.68507
  20438797.657 7 107406606.27707
  20438797.957 7 107406605.28507
  21735157.674 7 114219023.52007
  24044435.895 6 126354360.64406
  20438797.662 7 107406606.28207
  20438797.381 7 107406605.29207
  20438797.735 7 107406606.28507
 19  9  8  5  9 42.0000000  0  9G26G31G32G20G21G16G23G14G29
  21863227.276 7 114892036.98707
  21035718.838 7 110543449.60507
  20439057.360 7 107407970.47907
  20439057.350 7 107407969.48007
  21734693.799 7 114216586.20507
  24043812.991 6 126351088.87306
  20439057.452 7 107407970.48007
  20439056.768 7 107407969.48007
  20439057.103 7 107407970.47507
 19  9  8  5  9 43.0000000  0  9G26G31G32G20G21G16G23G14G29
  21862740.138 7 114889476.50707
  21035908.086 7 110544443.09007
  20439317.038 7 107409334.99407
  20439317.171 7 107409334.00707
  21734229.930 7 114214149.29507
  24043190.635 6 126347817.09606
  20439317.070 7 107409335.00107
  20439316.490 7 107409334.00007
  20439316.608 7 107409335.00207
 19  9  8  5  9 44.0000000  0  9G26G31G32G20G21G16G23G14G29
  21862252.986 7 114886916.22107
  21036096.798 7 110545437.18407
  20439576.853 7 107410699.86907
  20439577.013 7 107410698.86707
  21733766.308 7 114211712.78507
  24042567.857 6 126344545.36706
  20439576.755 7 107410699.87407
  20439576.255 7 107410698.87007
  20439576.575 7 107410699.87507
 19  9  8  5  9 45.0000000  0  9G26G31G32G20G21G16G23G14G29
  21861765.901 7 114884356.24807
  21036286.419 7 110546431.95007
  20439836.390 7 107412065.16407
  20439837.100 7 107412064.16707
  21733302.804 7 114209276.76707
  24041945.423 7 126341273.74707
  20439836.550 7 107412065.16107
  20439836.191 7 107412064.17007
  20439836.552 7 107412065.17307
 19  9  8  5  9 46.0000000  0  9G26G31G32G20G21G16G23G14G29
  21861278.843 7 114881796.43007
  21036475.871 7 110547427.27207
  20440096.145 7 107413430.77807
  20440096.830 7 107413429.76807
  21732839.256 7 114206841.10707
  24041322.792 7 126338002.12207
  20440096.402 7 107413430.77207
  20440096.008 7 107413429.76607
  20440096.452 7 107413430.77107
 19  9  8  5  9 47.0000000  0  9G26G31G32G20G21G16G23G14G29
  21860791.810 7 114879236.88907
  21036665.517 7 110548423.23607
  20440356.051 7 107414796.75707
  20440356.751 7 107414795.75607
  21732375.897 7 114204405.90607
  24040700.078 6 126334730.57806
  20440356.114 7 107414796.75607
  20440355.943 7 107414795.76907
  20440356.074 7 107414796.75807
 19  9  8  5  9 48.0000000  0  9G26G31G32G20G21G16G23G14G29
  21860304.832 7 114876677.60307
  21036855.686 7 110549419.85107
  20440615.973 7 107416163.14407
  20440616.628 7 107416162.14607
  21731912.611 7 114201971.17707
  24040077.740 6 126331459.11606
  20440616.144 7 107416163.14307
  20440616.147 7 107416162.14507
  20440616.170 7 107416163.15107
 19  9  8  5  9 49.0000000  0  9G26G31G32G20G21G16G23G14G29
  21859817.589 7 114874118.51207
  21037045.513 7 110550417.03107
  20440875.917 7 107417529.85007
  20440876.668 7 107417528.86607
  21731449.261 7 114199536.82807
  24039455.275 6 126328187.66806
  20440876.283 7 107417529.86107
  20440876.471 7 107417528.86407
  20440876.593 7 107417529.85707
 19  9  8  5  9 50.0000000  0  9G26G31G32G20G21G16G23G14G29
  21859330.705 7 114871559.54307
  21037234.991 7 110551414.72707
  20441136.204 7 107418896.83907
  20441136.664 7 107418895.83107
  21730986.136 7 114197102.79807
  24038832.389 6 126324916.17006
  20441136.547 7 107418896.83407
  20441136.228 7 107418895.83807
  20441136.795 7 107418896.83907
 19  9  8  5  9 51.0000000  0  9G26G31G32G20G21G16G23G14G29
  21858843.701 7 114869000.92307
  21037425.131 7 110552413.13407
  20441396.683 7 107420264.26607
  20441397.160 7 107420263.26607
  21730522.967 7 114194669.30607
  24038210.161 6 126321644.82306
  20441396.885 7 107420264.27107
  20441396.324 7 107420263.26007
  20441396.844 7 107420264.26807
 19  9  8  5  9 52.0000000  0  9G26G31G32G20G21G16G23G14G29
  21858356.875 7 114866442.57407
  21037615.186 7 110553412.20707
  20441657.034 7 107421632.12307
  20441657.447 7 107421631.11507
  21730059.938 7 114192236.27607
  24037587.547 6 126318373.58706
  20441657.457 7 107421632.12307
  20441656.526 7 107421631.11907
  20441656.838 7 107421632.11007
 19  9  8  5  9 53.0000000  0  9G26G31G32G20G21G16G23G14G29
  21857870.077 7 114863884.42907
  21037805.266 7 110554411.87907
  20441917.490 7 107423000.30907
  20441917.930 7 107422999.30607
  21729596.857 7 114189803.66007
  24036964.930 6 126315102.36206
  20441917.643 7 107423000.30907
  20441916.622 7 107422999.31207
  20441917.178 7 107423000.31007
 19  9  8  5  9 54.0000000  0  9G26G31G32G20G21G16G23G14G29
  21857383.403 7 114861326.53407
  21037995.142 7 110555412.15907
  20442177.873 7 107424368.87707
  20442178.297 7 107424367.87607
  21729134.144 7 114187371.47207
  24036342.429 7 126311831.21507
  20442177.951 7 107424368.87207
  20442177.269 7 107424367.87407
  20442177.500 7 107424368.87707
 19  9  8  5  9 55.0000000  0  9G26G31G32G20G21G16G23G14G29
  21856896.946 7 114858768.90807
  21038185.492 7 110556413.09907
  20442438.466 7 107425737.83507
  20442438.836 7 107425736.84207
  21728671.602 7 114184939.75607
  24035719.961 7 126308560.14407
  20442438.519 7 107425737.83707
  20442438.157 7 107425736.82907
  20442438.086 7 107425737.83807
 19  9  8  5  9 56.0000000  0  9G26G31G32G20G21G16G23G14G29
  21856410.434 7 114856211.49007
  21038375.872 7 110557414.62407
  20442698.638 7 107427107.14807
  20442699.558 7 107427106.15207
  21728209.131 7 114182508.45007
  24035097.806 7 126305289.11007
  20442699.054 7 107427107.14507
  20442698.797 7 107427106.14607
  20442698.699 7 107427107.14307
 19  9  8  5  9 57.0000000  0  9G26G31G32G20G21G16G23G14G29
  21855923.572 7 114853654.27307
  21038566.549 7 110558416.74107
  20442959.276 7 107428476.78507
  20442960.012 7 107428475.77907
  21727746.687 7 114180077.53707
  24034475.182 7 126302018.09807
  20442959.854 7 107428476.78507
  20442959.343 7 107428475.77607
  20442959.670 7 107428476.78707
 19  9  8  5  9 58.0000000  0  9G26G31G32G20G21G16G23G14G29
  21855436.930 7 114851097.34707
  21038757.635 7 110559419.51007
  20443220.403 7 107429846.83507
  20443220.633 7 107429845.84507
  21727283.985 7 114177647.10307
  24033853.096 7 126298747.18607
  20443220.333 7 107429846.84107
  20443219.884 7 107429845.83907
  20443220.337 7 107429846.83407
 19  9  8  5  9 59.0000000  0  9G26G31G32G20G21G16G23G14G29
  21854950.187 7 114848540.64207
  21038948.914 7 110560422.90607
  20443480.862 7 107431217.25407
  20443481.371 7 107431216.25807
  21726821.443 7 114175217.09007
  24033230.611 7 126295476.33507
  20443481.078 7 107431217.26007
  20443480.687 7 107431216.25307
  20443481.111 7 107431217.25507
 19  9  8  5 10  0.0000000  0  9G26G31G32G20G21G16G23G14G29
  21854463.601 7 114845984.15407
  21039140.086 7 110561426.88407
  20443741.754 7 107432588.01007
  20443742.323 7 107432587.00207
  21726358.990 7 114172787.49107
  24032608.190 7 126292205.50707
  20443742.269 7 107432588.00707
  20443741.622 7 107432587.00907
  20443742.041 7 107432588.01507
 19  9  8  5 10  1.0000000  0  9G26G31G32G20G21G16G23G14G29
  21853977.354 7 114843427.89907
  21039330.976 7 110562431.48407
  20444003.065 7 107433959.14707
  20444003.231 7 107433958.13307
  21725896.814 7 114170358.32107
  24031985.801 7 126288934.74507
  20444003.030 7 107433959.13907
  20444002.580 7 107433958.14407
  20444003.175 7 107433959.13807
 19  9  8  5 10  2.0000000  0  9G26G31G32G20G21G16G23G14G29
  21853490.889 7 114840871.90807
  21039522.712 7 110563436.71207
  20444263.971 7 107435330.64707
  20444264.300 7 107435329.64407
  21725434.555 7 114167929.60607
  24031363.254 7 126285664.05107
  20444263.955 7 107435330.64407
  20444263.282 7 107435329.64907
  20444264.107 7 107435330.65507
 19  9  8  5 10  3.0000000  0  9G26G31G32G20G21G16G23G14G29
  21853004.533 7 114838316.16507
  21039714.055 7 110564442.57807
  20444524.828 7 107436702.53907
  20444525.498 7 107436701.54007
  21724972.759 7 114165501.32907
  24030740.994 7 126282393.42607
  20444524.871 7 107436702.53907
  20444524.454 7 107436701.53707
  20444525.160 7 107436702.53707
 19  9  8  5 10  4.0000000  0  9G26G31G32G20G21G16G23G14G29
  21852518.347 7 114835760.61607
  21039905.406 7 110565449.02207
  20444785.946 7 107438074.76907
  20444786.412 7 107438073.76007
  21724510.704 7 114163073.45007
  24030118.388 7 126279122.82707
  20444786.130 7 107438074.76307
  20444785.796 7 107438073.75607
  20444786.365 7 107438074.76807
 19  9  8  5 10  5.0000000  0  9G26G31G32G20G21G16G23G14G29
  21852032.056 7 114833205.23607
  21040096.747 7 110566456.02007
  20445047.064 7 107439447.27707
  20445047.533 7 107439446.27907
  21724048.857 7 114160645.92707
  24029495.936 7 126275852.20907
  20445047.199 7 107439447.27707
  20445046.731 7 107439446.27307
  20445047.358 7 107439447.28107
 19  9  8  5 10  6.0000000  0  9G26G31G32G20G21G16G23G14G29
  21851546.021 7 114830650.17807
  21040288.461 7 110567463.70107
  20445308.475 7 107440820.23707
  20445308.885 7 107440819.24107
  21723586.952 7 114158218.91807
  24028873.613 7 126272581.72207
  20445308.422 7 107440820.24007
  20445308.231 7 107440819.24507
  20445308.284 7 107440820.24407
 19  9  8  5 10  7.0000000  0  9G26G31G32G20G21G16G23G14G29
  21851059.953 7 114828095.37407
  21040480.705 7 110568472.04407
  20445569.683 7 107442193.60207
  20445570.169 7 107442192.59607
  21723124.959 7 114155792.38207
  24028251.027 7 126269311.32907
  20445569.692 7 107442193.60207
  20445569.466 7 107442192.59807
  20445569.793 7 107442193.59907
 19  9  8  5 10  8.0000000  0  9G26G31G32G20G21G16G23G14G29
  21850573.872 7 114825540.78007
  21040672.779 7 110569480.96407
  20445831.022 7 107443567.30407
  20445831.204 7 107443566.30007
  21722663.276 7 114153366.23407
  24027628.957 7 126266040.96107
  20445830.908 7 107443567.30007
  20445830.839 7 107443566.29707
  20445831.322 7 107443567.30107
 19  9  8  5 10  9.0000000  0  9G26G31G32G20G21G16G23G14G29
  21850087.713 7 114822986.36207
  21040865.179 7 110570490.42507
  20446092.509 7 107444941.29207
  20446092.792 7 107444940.29707
  21722201.563 7 114150940.46107
  24027006.659 7 126262770.58807
  20446092.376 7 107444941.29107
  20446092.621 7 107444940.29407
  20446092.549 7 107444941.29607
 19  9  8  5 10 10.0000000  0  9G26G31G32G20G21G16G23G14G29
  21849601.541 7 114820432.29107
  21041057.143 7 110571500.63107
  20446353.869 7 107446315.76607
  20446354.478 7 107446314.76907
  21721740.167 7 114148515.22207
  24026384.482 7 126259500.36907
  20446353.979 7 107446315.75907
  20446354.127 7 107446314.76107
  20446354.063 7 107446315.76707
 19  9  8  5 10 11.0000000  0  9G26G31G32G20G21G16G23G14G29
  21849115.301 7 114817878.48607
  21041249.452 7 110572511.47207
  20446615.615 7 107447690.63507
  20446616.345 7 107447689.64107
  21721278.900 7 114146090.45507
  24025762.259 7 126256230.25007
  20446615.775 7 107447690.63907
  20446615.777 7 107447689.63607
  20446615.594 7 107447690.63807
 19  9  8  5 10 12.0000000  0  9G26G31G32G20G21G16G23G14G29
  21848629.524 7 114815325.12207
  21041442.375 7 110573523.15107
  20446877.570 7 107449066.08407
  20446877.953 7 107449065.07907
  21720817.446 7 114143666.31807
  24025140.003 7 126252960.39107
  20446877.410 7 107449066.07707
  20446877.266 7 107449065.07907
  20446877.484 7 107449066.07607
 19  9  8  5 10 13.0000000  0  9G26G31G32G20G21G16G23G14G29
  21848143.903 7 114812772.25007
  21041635.134 7 110574535.67307
  20447139.352 7 107450442.12607
  20447139.896 7 107450441.13307
  21720356.330 7 114141242.86007
  24024518.106 7 126249690.82307
  20447139.594 7 107450442.12707
  20447138.923 7 107450441.13607
  20447139.381 7 107450442.12507
 19  9  8  5 10 14.0000000  0  9G26G31G32G20G21G16G23G14G29
  21847658.039 7 114810219.55507
  21041827.659 7 110575548.78107
  20447401.450 7 107451818.49707
  20447401.765 7 107451817.49607
  21719895.232 7 114138819.78607
  24023895.623 7 126246421.27407
  20447401.584 7 107451818.49907
  20447400.790 7 107451817.49507
  20447401.329 7 107451818.50307
 19  9  8  5 10 15.0000000  0  9G26G31G32G20G21G16G23G14G29
  21847172.280 7 114807666.86007
  21042020.415 7 110576562.26207
  20447663.323 7 107453195.00507
  20447663.795 7 107453194.02207
  21719434.349 7 114136396.91507
  24023273.522 7 126243151.55807
  20447663.476 7 107453195.01407
  20447662.915 7 107453194.00307
  20447663.368 7 107453195.01207
 19  9  8  5 10 16.0000000  0  9G26G31G32G20G21G16G23G14G29
  21846686.741 7 114805114.20607
  21042213.059 7 110577576.15807
  20447925.193 7 107454571.67107
  20447925.679 7 107454570.66407
  21718973.096 7 114133974.26707
  24022651.086 7 126239881.68007
  20447925.349 7 107454571.66907
  20447924.650 7 107454570.67807
  20447925.237 7 107454571.67007
 19  9  8  5 10 17.0000000  0  9G26G31G32G20G21G16G23G14G29
  21846200.948 7 114802561.76107
  21042405.799 7 110578590.63507
  20448187.129 7 107455948.67507
  20448187.772 7 107455947.68007
  21718512.130 7 114131552.02007
  24022029.124 7 126236611.83507
  20448187.084 7 107455948.67107
  20448186.616 7 107455947.68107
  20448187.460 7 107455948.67607
 19  9  8  5 10 18.0000000  0  9G26G31G32G20G21G16G23G14G29
  21845715.243 7 114800009.56007
  21042599.045 7 110579605.74107
  20448449.396 7 107457326.04507
  20448449.858 7 107457325.04507
  21718051.416 7 114129130.22107
  24021406.971 7 126233342.04207
  20448449.056 7 107457326.04407
  20448448.937 7 107457325.04707
  20448449.582 7 107457326.04107
 19  9  8  5 10 19.0000000  0  9G26G31G32G20G21G16G23G14G29
  21845229.674 7 114797457.68007
  21042792.343 7 110580621.54707
  20448711.653 7 107458703.87807
  20448711.910 7 107458702.87707
  21717590.710 7 114126708.94007
  24020784.735 7 126230072.40207
  20448711.272 7 107458703.87407
  20448711.059 7 107458702.87807
  20448711.699 7 107458703.87707
 19  9  8  5 10 20.0000000  0  9G26G31G32G20G21G16G23G14G29
  21844744.056 7 114794906.22507
  21042985.929 7 110581638.15707
  20448974.128 7 107460082.25107
  20448974.207 7 107460081.24507
  21717129.960 7 114124288.26907
  24020162.269 7 126226803.00707
  20448973.721 7 107460082.25207
  20448973.566 7 107460081.25607
  20448973.830 7 107460082.25007
 19  9  8  5 10 21.0000000  0  9G26G31G32G20G21G16G23G14G29
  21844258.463 7 114792354.87907
  21043180.290 7 110582655.25607
  20449236.281 7 107461460.86607
  20449236.579 7 107461459.86207
  21716669.257 7 114121867.90707
  24019540.293 7 126223533.54907
  20449236.085 7 107461460.86907
  20449235.939 7 107461459.86207
  20449236.241 7 107461460.87207
 19  9  8  5 10 22.0000000  0  9G26G31G32G20G21G16G23G14G29
  21843773.167 7 114789803.62607
  21043373.832 7 110583672.82707
  20449498.929 7 107462839.71707
  20449498.999 7 107462838.70907
  21716208.841 7 114119447.83907
  24018917.939 7 126220263.99807
  20449498.406 7 107462839.70607
  20449498.334 7 107462838.71607
  20449498.644 7 107462839.71307
 19  9  8  5 10 23.0000000  0  9G26G31G32G20G21G16G23G14G29
  21843287.629 7 114787252.60507
  21043567.410 7 110584691.01107
  20449761.156 7 107464218.91307
  20449761.354 7 107464217.90907
  21715748.528 7 114117028.19907
  24018295.590 7 126216994.48807
  20449760.875 7 107464218.90907
  20449760.774 7 107464217.91007
  20449761.124 7 107464218.91607
 19  9  8  5 10 24.0000000  0  9G26G31G32G20G21G16G23G14G29
  21842802.098 7 114784701.82907
  21043760.220 7 110585709.80807
  20450023.206 7 107465598.48107
  20450023.789 7 107465597.48007
  21715287.863 7 114114608.98807
  24017673.488 7 126213725.04907
  20450023.431 7 107465598.47107
  20450023.171 7 107465597.47107
  20450023.858 7 107465598.47207
 19  9  8  5 10 25.0000000  0  9G26G31G32G20G21G16G23G14G29
  21842316.708 7 114782151.33407
  21043954.396 7 110586729.26707
  20450285.668 7 107466978.44907
  20450286.378 7 107466977.45307
  21714827.556 7 114112190.25507
  24017051.358 7 126210455.71307
  20450285.765 7 107466978.45807
  20450285.669 7 107466977.45907
  20450286.242 7 107466978.45807
 19  9  8  5 10 26.0000000  0  9G26G31G32G20G21G16G23G14G29
  21841831.562 7 114779601.04707
  21044148.809 7 110587749.32307
  20450548.595 7 107468358.77607
  20450548.990 7 107468357.78107
  21714367.428 7 114109771.93207
  24016429.329 7 126207186.40207
  20450548.534 7 107468358.77307
  20450548.370 7 107468357.78507
  20450548.892 7 107468358.78007
 19  9  8  5 10 27.0000000  0  9G26G31G32G20G21G16G23G14G29
  21841346.324 7 114777050.95007
  21044342.938 7 110588769.94107
  20450811.603 7 107469739.40907
  20450811.834 7 107469738.40407
  21713907.421 7 114107353.99407
  24015807.400 7 126203917.09807
  20450811.485 7 107469739.40707
  20450811.071 7 107469738.39807
  20450811.479 7 107469739.40107
 19  9  8  5 10 28.0000000  0  9G26G31G32G20G21G16G23G14G29
  21840861.081 7 114774501.09707
  21044537.230 7 110589791.18007
  20451074.389 7 107471120.40407
  20451074.645 7 107471119.40707
  21713447.356 7 114104936.48507
  24015185.077 7 126200647.85607
  20451074.629 7 107471120.40207
  20451074.085 7 107471119.40207
  20451074.399 7 107471120.40607
 19  9  8  5 10 29.0000000  0  9G26G31G32G20G21G16G23G14G29
  21840375.912 7 114771951.48007
  21044731.927 7 110590813.03207
  20451337.117 7 107472501.77507
  20451337.290 7 107472500.77707
  21712987.530 7 114102519.42007
  24014563.117 7 126197378.67407
  20451337.726 7 107472501.77707
  20451337.075 7 107472500.77607
  20451337.161 7 107472501.77007
 19  9  8  5 10 30.0000000  0  9G26G31G32G20G21G16G23G14G29
  21839890.844 7 114769402.01707
  21044926.619 7 110591835.41707
  20451600.070 7 107473883.41807
  20451600.134 7 107473882.41707
  21712527.718 7 114100102.69607
  24013941.083 7 126194109.46707
  20451600.577 7 107473883.41807
  20451599.944 7 107473882.41907
  20451599.862 7 107473883.41407
 19  9  8  5 10 31.0000000  0  9G26G31G32G20G21G16G23G14G29
  21839405.943 7 114766852.83507
  21045121.407 7 110592858.45807
  20451863.082 7 107475265.47407
  20451863.113 7 107475264.47207
  21712067.738 7 114097686.44207
  24013319.067 7 126190840.36207
  20451863.411 7 107475265.47607
  20451862.866 7 107475264.47307
  20451862.972 7 107475265.47407
 19  9  8  5 10 32.0000000  0  9G26G31G32G20G21G16G23G14G29
  21838920.939 7 114764303.86207
  21045316.164 7 110593882.10107
  20452126.298 7 107476647.87407
  20452126.190 7 107476646.86807
  21711608.185 7 114095270.61807
  24012696.834 7 126187571.28707
  20452126.456 7 107476647.88107
  20452125.713 7 107476646.87607
  20452126.226 7 107476647.88207
 19  9  8  5 10 33.0000000  0  9G26G31G32G20G21G16G23G14G29
  21838435.759 7 114761755.09607
  21045511.044 7 110594906.31507
  20452389.422 7 107478030.61007
  20452389.314 7 107478029.61007
  21711148.388 7 114092855.17907
  24012074.422 7 126184302.23307
  20452389.637 7 107478030.60807
  20452388.959 7 107478029.60507
  20452389.359 7 107478030.61307
 19  9  8  5 10 34.0000000  0  9G26G31G32G20G21G16G23G14G29
  21837950.778 7 114759206.66907
  21045705.989 7 110595931.24407
  20452652.657 7 107479413.79107
  20452652.588 7 107479412.79607
  21710688.933 7 114090440.26907
  24011452.543 7 126181033.33007
  20452652.846 7 107479413.78807
  20452652.248 7 107479412.79907
  20452652.702 7 107479413.79807
 19  9  8  5 10 35.0000000  0  9G26G31G32G20G21G16G23G14G29
  21837465.853 7 114756658.44307
  21045901.196 7 110596956.76407
  20452915.966 7 107480797.32007
  20452916.022 7 107480796.31407
  21710229.492 7 114088025.76707
  24010830.589 7 126177764.46207
  20452915.994 7 107480797.32107
  20452915.647 7 107480796.31607
  20452916.226 7 107480797.31307
 19  9  8  5 10 36.0000000  0  9G26G31G32G20G21G16G23G14G29
  21836981.155 7 114754110.45307
  21046096.266 7 110597982.86607
  20453179.296 7 107482181.19007
  20453179.122 7 107482180.18507
  21709770.100 7 114085611.67607
  24010208.683 7 126174495.63507
  20453179.091 7 107482181.19007
  20453178.833 7 107482180.18807
  20453179.629 7 107482181.18907
 19  9  8  5 10 37.0000000  0  9G26G31G32G20G21G16G23G14G29
  21836496.344 7 114751562.57307
  21046291.497 7 110599009.48507
  20453442.768 7 107483565.30207
  20453442.498 7 107483564.29707
  21709311.059 7 114083197.89107
  24009586.553 7 126171226.73607
  20453442.489 7 107483565.30607
  20453442.291 7 107483564.30507
  20453442.866 7 107483565.30807
 19  9  8  5 10 38.0000000  0  9G26G31G32G20G21G16G23G14G29
  21836011.314 7 114749014.98307
  21046487.090 7 110600036.78007
  20453706.319 7 107484949.84907
  20453706.107 7 107484948.85007
  21708851.785 7 114080784.63307
  24008964.364 7 126167957.97807
  20453706.022 7 107484949.85607
  20453705.857 7 107484948.85807
  20453706.231 7 107484949.85707
 19  9  8  5 10 39.0000000  0  9G26G31G32G20G21G16G23G14G29
  21835526.509 7 114746467.67107
  21046682.824 7 110601064.69407
  20453969.840 7 107486334.77807
  20453969.607 7 107486333.79107
  21708392.554 7 114078371.80007
  24008342.162 7 126164689.28607
  20453969.599 7 107486334.78207
  20453969.522 7 107486333.77907
  20453969.517 7 107486334.78407
 19  9  8  5 10 40.0000000  0  9G26G31G32G20G21G16G23G14G29
  21835041.866 7 114743920.64007
  21046878.437 7 110602093.28507
  20454233.312 7 107487720.13007
  20454233.166 7 107487719.12307
  21707933.227 7 114075959.46507
  24007720.142 7 126161420.70107
  20454233.031 7 107487720.12807
  20454233.010 7 107487719.12407
  20454232.992 7 107487720.12507
 19  9  8  5 10 41.0000000  0  9G26G31G32G20G21G16G23G14G29
  21834557.283 7 114741373.86107
  21047074.502 7 110603122.51307
  20454497.057 7 107489105.84607
  20454497.012 7 107489104.84907
  21707474.152 7 114073547.57807
  24007098.329 7 126158152.18507
  20454496.710 7 107489105.85207
  20454496.782 7 107489104.84807
  20454496.722 7 107489105.84907
 19  9  8  5 10 42.0000000  0  9G26G31G32G20G21G16G23G14G29
  21834072.800 7 114738827.28807
  21047270.377 7 110604152.31707
  20454760.742 7 107490491.90707
  20454761.194 7 107490490.90907
  21707015.055 7 114071136.09107
  24006476.537 7 126154883.70907
  20454760.516 7 107490491.90907
  20454760.389 7 107490490.90807
  20454760.465 7 107490491.91107
 19  9  8  5 10 43.0000000  0  9G26G31G32G20G21G16G23G14G29
  21833588.358 7 114736280.95907
  21047466.433 7 110605182.74207
  20455024.679 7 107491878.33407
  20455024.892 7 107491877.33907
  21706556.298 7 114068725.03907
  24005854.608 7 126151615.28307
  20455024.628 7 107491878.33107
  20455024.119 7 107491877.33907
  20455024.463 7 107491878.33607
 19  9  8  5 10 44.0000000  0  9G26G31G32G20G21G16G23G14G29
  21833103.685 7 114733734.86907
  21047662.402 7 110606213.76907
  20455288.545 7 107493265.12407
  20455288.688 7 107493264.12207
  21706097.726 7 114066314.41907
  24005232.741 7 126148346.91607
  20455288.483 7 107493265.12907
  20455288.190 7 107493264.12507
  20455288.505 7 107493265.12707
 19  9  8  5 10 45.0000000  0  9G26G31G32G20G21G16G23G14G29
  21832619.359 7 114731189.02007
  21047858.862 7 110607245.44207
  20455552.616 7 107494652.29407
  20455552.588 7 107494651.29507
  21705639.189 7 114063904.25607
  24004610.796 6 126145078.62106
  20455552.444 7 107494652.28607
  20455551.933 7 107494651.29407
  20455552.027 7 107494652.29207
 19  9  8  5 10 46.0000000  0  9G26G31G32G20G21G16G23G14G29
  21832134.809 7 114728643.44507
  21048055.321 7 110608277.73807
  20455816.513 7 107496039.83807
  20455816.635 7 107496038.82907
  21705180.595 7 114061494.54207
  24003988.943 6 126141810.40106
  20455816.574 7 107496039.82907
  20455816.186 7 107496038.83907
  20455816.342 7 107496039.82807
 19  9  8  5 10 47.0000000  0  9G26G31G32G20G21G16G23G14G29
  21831650.686 7 114726098.04407
  21048251.956 7 110609310.58607
  20456080.533 7 107497427.68807
  20456080.834 7 107497426.69207
  21704722.057 7 114059085.20207
  24003366.927 6 126138542.17406
  20456080.795 7 107497427.70007
  20456080.069 7 107497426.69207
  20456080.550 7 107497427.69907
 19  9  8  5 10 48.0000000  0  9G26G31G32G20G21G16G23G14G29
  21831166.436 7 114723552.89607
  21048448.562 7 110610344.08307
  20456344.562 7 107498815.92707
  20456345.221 7 107498814.93607
  21704263.803 7 114056676.31007
  24002744.837 6 126135274.04406
  20456344.867 7 107498815.92907
  20456344.414 7 107498814.93507
  20456344.662 7 107498815.92707
 19  9  8  5 10 49.0000000  0  9G26G31G32G20G21G16G23G14G29
  21830682.262 7 114721008.02107
  21048645.539 7 110611378.20507
  20456608.878 7 107500204.55207
  20456609.311 7 107500203.54507
  21703805.148 7 114054267.87707
  24002122.752 7 126132005.98007
  20456609.076 7 107500204.55407
  20456608.765 7 107500203.56007
  20456608.908 7 107500204.55607
 19  9  8  5 10 50.0000000  0  9G26G31G32G20G21G16G23G14G29
  21830197.915 7 114718463.38407
  21048842.512 7 110612412.96407
  20456873.189 7 107501593.54907
  20456873.465 7 107501592.55007
  21703347.180 7 114051859.90107
  24001501.035 6 126128737.98906
  20456873.199 7 107501593.55607
  20456873.143 7 107501592.55607
  20456873.617 7 107501593.55407
 19  9  8  5 10 51.0000000  0  9G26G31G32G20G21G16G23G14G29
  21829713.672 7 114715918.90507
  21049039.286 7 110613448.25407
  20457137.507 7 107502982.83807
  20457137.823 7 107502981.83507
  21702889.087 7 114049452.26107
  24000879.178 7 126125469.96107
  20457137.872 7 107502982.83307
  20457137.432 7 107502981.83207
  20457137.728 7 107502982.82407
 19  9  8  5 10 52.0000000  0  9G26G31G32G20G21G16G23G14G29
  21829229.236 7 114713374.65507
  21049236.596 7 110614484.13007
  20457401.813 7 107504372.45207
  20457402.404 7 107504371.45207
  21702431.112 7 114047045.04007
  24000257.008 6 126122201.98706
  20457402.460 7 107504372.45007
  20457402.060 7 107504371.45007
  20457402.081 7 107504372.45107
 19  9  8  5 10 53.0000000  0  9G26G31G32G20G21G16G23G14G29
  21828744.984 7 114710830.71807
  21049433.556 7 110615520.70807
  20457666.520 7 107505762.52807
  20457666.990 7 107505761.52807
  21701973.095 7 114044638.33107
  23999635.213 6 126118934.14806
  20457666.668 7 107505762.52707
  20457666.373 7 107505761.51907
  20457666.707 7 107505762.52107
 19  9  8  5 10 54.0000000  0  9G26G31G32G20G21G16G23G14G29
  21828260.985 7 114708287.04907
  21049631.264 7 110616557.92707
  20457931.021 7 107507152.98307
  20457931.587 7 107507151.98607
  21701515.013 7 114042232.09507
  23999013.541 6 126115666.39006
  20457931.046 7 107507152.98607
  20457931.004 7 107507151.98207
  20457931.114 7 107507152.98807
 19  9  8  5 10 55.0000000  0  9G26G31G32G20G21G16G23G14G29
  21827777.059 7 114705743.54607
  21049828.458 7 110617595.70807
  20458195.833 7 107508543.74507
  20458196.142 7 107508542.75607
  21701057.233 7 114039826.22107
  23998391.588 6 126112398.64506
  20458195.672 7 107508543.74907
  20458195.487 7 107508542.75007
  20458195.721 7 107508543.75307
 19  9  8  5 10 56.0000000  0  9G26G31G32G20G21G16G23G14G29
  21827292.903 7 114703200.34007
  21050026.122 7 110618634.13107
  20458460.830 7 107509934.92207
  20458460.806 7 107509933.92207
  21700599.618 7 114037420.82607
  23997769.777 6 126109130.98606
  20458460.620 7 107509934.92207
  20458460.258 7 107509933.91907
  20458460.481 7 107509934.92207
 19  9  8  5 10 57.0000000  0  9G26G31G32G20G21G16G23G14G29
  21826809.000 7 114700657.47407
  21050223.810 7 110619673.27307
  20458725.268 7 107511326.55307
  20458725.756 7 107511325.54507
  21700141.959 7 114035015.97107
  23997148.072 6 126105863.48906
  20458725.389 7 107511326.54507
  20458725.010 7 107511325.53607
  20458725.212 7 107511326.54507
 19  9  8  5 10 58.0000000  0  9G26G31G32G20G21G16G23G14G29
  21826325.358 7 114698115.10107
  21050421.791 7 110620713.29207
  20458990.319 7 107512718.80907
  20458990.670 7 107512717.80807
  21699684.442 7 114032611.80007
  23996526.425 6 126102596.31906
  20458990.254 7 107512718.81507
  20458990.000 7 107512717.81107
  20458990.408 7 107512718.81107
 19  9  8  5 10 59.0000000  0  9G26G31G32G20G21G16G23G14G29
  21825841.515 7 114695572.91707
  21050619.546 7 110621753.88107
  20459255.352 7 107514111.37007
  20459255.694 7 107514110.37007
  21699226.926 7 114030208.01907
  23995904.552 6 126099329.13106
  20459255.254 7 107514111.36707
  20459255.116 7 107514110.36407
  20459255.397 7 107514111.36807
 19  9  8  5 11  0.0000000  0  9G26G31G32G20G21G16G23G14G29
  21825358.016 7 114693030.81907
  21050817.888 7 110622794.92007
  20459520.238 7 107515504.15007
  20459520.845 7 107515503.15807
  21698769.392 7 114027804.53607
  23995282.969 6 126096061.87206
  20459520.408 7 107515504.14907
  20459520.044 7 107515503.15307
  20459520.246 7 107515504.14907
 19  9  8  5 11  1.0000000  0  9G26G31G32G20G21G16G23G14G29
  21824874.209 7 114690489.02107
  21051016.162 7 110623836.63607
  20459785.360 7 107516897.34007
  20459786.193 7 107516896.34407
  21698312.048 7 114025401.51407
  23994661.261 6 126092794.71206
  20459785.582 7 107516897.34107
  20459785.108 7 107516896.34307
  20459785.563 7 107516897.34607
 19  9  8  5 11  2.0000000  0  9G26G31G32G20G21G16G23G14G29
  21824390.896 7 114687947.30207
  21051214.515 7 110624878.80707
  20460050.460 7 107518290.75307
  20460051.333 7 107518289.74707
  21697855.131 7 114022998.79807
  23994039.585 6 126089527.47006
  20460050.700 7 107518290.75107
  20460050.392 7 107518289.74307
  20460050.891 7 107518290.74907
 19  9  8  5 11  3.0000000  0  9G26G31G32G20G21G16G23G14G29
  21823907.283 7 114685405.73607
  21051413.046 7 110625921.51007
  20460315.722 7 107519684.42707
  20460316.355 7 107519683.43207
  21697397.964 7 114020596.40707
  23993417.978 6 126086260.19206
  20460315.928 7 107519684.42907
  20460315.868 7 107519683.42707
  20460315.848 7 107519684.43207
 19  9  8  5 11  4.0000000  0  9G26G31G32G20G21G16G23G14G29
  21823423.299 7 114682864.38907
  21051611.758 7 110626964.78607
  20460581.003 7 107521078.44407
  20460581.486 7 107521077.44607
  21696940.790 7 114018194.44307
  23992796.335 6 126082992.94306
  20460581.466 7 107521078.44407
  20460580.941 7 107521077.44707
  20460581.044 7 107521078.43807
 19  9  8  5 11  5.0000000  0  9G26G31G32G20G21G16G23G14G29
  21822939.711 7 114680323.27207
  21051810.213 7 110628008.68307
  20460846.257 7 107522472.82207
  20460846.837 7 107522471.81507
  21696483.882 7 114015792.89307
  23992174.357 6 126079725.74806
  20460846.398 7 107522472.81107
  20460846.416 7 107522471.81107
  20460846.616 7 107522472.81607
 19  9  8  5 11  6.0000000  0  9G26G31G32G20G21G16G23G14G29
  21822456.146 7 114677782.42007
  21052009.095 7 110629053.22607
  20461111.456 7 107523867.58807
  20461112.283 7 107523866.58707
  21696026.951 7 114013391.81507
  23991552.813 6 126076458.64706
  20461111.912 7 107523867.57907
  20461111.529 7 107523866.58307
  20461111.890 7 107523867.58707
 19  9  8  5 11  7.0000000  0  9G26G31G32G20G21G16G23G14G29
  21821972.665 7 114675241.81707
  21052207.785 7 110630098.38907
  20461377.043 7 107525262.71507
  20461377.799 7 107525261.71807
  21695570.291 7 114010991.18007
  23990931.159 6 126073191.60106
  20461377.464 7 107525262.72207
  20461377.273 7 107525261.71407
  20461377.435 7 107525262.71607
 19  9  8  5 11  8.0000000  0  9G26G31G32G20G21G16G23G14G29
  21821489.355 7 114672701.46007
  21052406.689 7 110631144.16107
  20461642.707 7 107526658.21807
  20461643.263 7 107526657.22607
  21695113.304 7 114008590.98007
  23990309.546 6 126069924.62906
  20461643.002 7 107526658.21807
  20461642.802 7 107526657.22207
  20461643.031 7 107526658.21507
 19  9  8  5 11  9.0000000  0  9G26G31G32G20G21G16G23G14G29
  21821006.058 7 114670161.32507
  21052605.760 7 110632190.54607
  20461908.348 7 107528054.07807
  20461908.779 7 107528053.07007
  21694656.928 7 114006191.20807
  23989687.807 6 126066657.70506
  20461908.560 7 107528054.08007
  20461908.280 7 107528053.07307
  20461908.579 7 107528054.07107
 19  9  8  5 11 10.0000000  0  9G26G31G32G20G21G16G23G14G29
  21820522.481 7 114667621.45407
  21052805.120 7 110633237.54807
  20462174.134 7 107529450.29707
  20462174.278 7 107529449.30007
  21694200.179 7 114003791.88207
  23989066.093 6 126063390.84006
  20462174.519 7 107529450.30407
  20462173.809 7 107529449.29507
  20462174.052 7 107529450.29807
 19  9  8  5 11 11.0000000  0  9G26G31G32G20G21G16G23G14G29
  21820039.134 7 114665081.80507
  21053004.496 7 110634285.16207
  20462440.209 7 107530846.88507
  20462440.178 7 107530845.89007
  21693743.615 7 114001392.98807
  23988444.387 6 126060124.03406
  20462440.251 7 107530846.89007
  20462439.755 7 107530845.88607
  20462439.803 7 107530846.89107
 19  9  8  5 11 12.0000000  0  9G26G31G32G20G21G16G23G14G29
  21819555.796 7 114662542.38807
  21053204.025 7 110635333.38007
  20462706.051 7 107532243.82007
  20462706.029 7 107532242.81307
  21693287.132 7 113998994.51007
  23987822.740 6 126056857.27206
  20462705.736 7 107532243.81407
  20462705.778 7 107532242.81507
  20462705.668 7 107532243.81807
 19  9  8  5 11 13.0000000  0  9G26G31G32G20G21G16G23G14G29
  21819072.341 7 114660003.16307
  21053403.363 7 110636382.15707
  20462971.938 7 107533641.06907
  20462971.883 7 107533640.07007
  21692830.819 7 113996596.41807
  23987201.059 6 126053590.52206
  20462971.426 7 107533641.06807
  20462971.547 7 107533640.06107
  20462971.634 7 107533641.07107
 19  9  8  5 11 14.0000000  0  9G26G31G32G20G21G16G23G14G29
  21818589.520 7 114657464.26207
  21053603.081 7 110637431.63607
  20463237.877 7 107535038.76307
  20463237.880 7 107535037.75607
  21692374.765 7 113994198.84807
  23986579.367 6 126050323.92206
  20463237.134 7 107535038.75507
  20463237.179 7 107535037.75607
  20463237.680 7 107535038.75907
 19  9  8  5 11 15.0000000  0  9G26G31G32G20G21G16G23G14G29
  21818106.578 7 114654925.57607
  21053803.182 7 110638481.70407
  20463503.804 7 107536436.79107
  20463504.127 7 107536435.79907
  21691918.517 7 113991801.69507
  23985957.707 7 126047057.32807
  20463503.216 7 107536436.78507
  20463503.366 7 107536435.79907
  20463503.728 7 107536436.78707
 19  9  8  5 11 16.0000000  0  9G26G31G32G20G21G16G23G14G29
  21817623.623 7 114652387.11007
  21054003.066 7 110639532.35907
  20463769.922 7 107537835.16707
  20463770.253 7 107537834.16407
  21691462.392 7 113989404.94207
  23985336.129 6 126043790.79006
  20463769.598 7 107537835.15607
  20463769.740 7 107537834.16107
  20463769.814 7 107537835.15607
 19  9  8  5 11 17.0000000  0  9G26G31G32G20G21G16G23G14G29
  21817140.883 7 114649848.80207
  21054203.032 7 110640583.55907
  20464035.632 7 107539233.82307
  20464036.044 7 107539232.82007
  21691006.472 7 113987008.55807
  23984714.656 6 126040524.24806
  20464036.252 7 107539233.82107
  20464035.813 7 107539232.81507
  20464036.045 7 107539233.82807
 19  9  8  5 11 18.0000000  0  9G26G31G32G20G21G16G23G14G29
  21816657.887 7 114647310.85707
  21054403.204 7 110641635.48507
  20464302.076 7 107540632.96107
  20464302.163 7 107540631.95207
  21690550.746 7 113984612.73107
  23984092.774 6 126037257.86706
  20464302.383 7 107540632.95607
  20464302.098 7 107540631.95807
  20464301.960 7 107540632.96007
 19  9  8  5 11 19.0000000  0  9G26G31G32G20G21G16G23G14G29
  21816174.844 7 114644773.15507
  21054603.470 7 110642688.01907
  20464568.571 7 107542032.45707
  20464568.837 7 107542031.46007
  21690094.744 7 113982217.33007
  23983471.037 6 126033991.54906
  20464568.907 7 107542032.45307
  20464568.292 7 107542031.45807
  20464568.155 7 107542032.45907
 19  9  8  5 11 20.0000000  0  9G26G31G32G20G21G16G23G14G29
  21815692.028 7 114642235.70007
  21054803.730 7 110643741.18707
  20464834.733 7 107543432.32107
  20464835.270 7 107543431.32707
  21689638.884 7 113979822.37907
  23982849.321 6 126030725.29206
  20464834.901 7 107543432.32207
  20464834.932 7 107543431.32707
  20464834.631 7 107543432.31707
 19  9  8  5 11 21.0000000  0  9G26G31G32G20G21G16G23G14G29
  21815209.155 7 114639698.42507
  21055004.090 7 110644794.91007
  20465101.200 7 107544832.50107
  20465101.778 7 107544831.50507
  21689183.127 7 113977427.81907
  23982227.750 6 126027459.05606
  20465101.255 7 107544832.50907
  20465101.387 7 107544831.51207
  20465101.189 7 107544832.51207
 19  9  8  5 11 22.0000000  0  9G26G31G32G20G21G16G23G14G29
  21814726.284 7 114637161.38807
  21055204.859 7 110645849.23107
  20465367.494 7 107546233.03607
  20465368.473 7 107546232.03607
  21688727.547 7 113975033.66307
  23981606.629 6 126024192.85506
  20465367.844 7 107546233.03007
  20465367.571 7 107546232.02507
  20465367.600 7 107546233.02107
 19  9  8  5 11 23.0000000  0  9G26G31G32G20G21G16G23G14G29
  21814243.662 7 114634624.64707
  21055405.865 7 110646904.22707
  20465634.084 7 107547633.98607
  20465634.733 7 107547632.98407
  21688271.924 7 113972640.02407
  23980985.056 6 126020926.78006
  20465634.521 7 107547633.97407
  20465633.926 7 107547632.99007
  20465634.296 7 107547633.98907
 19  9  8  5 11 24.0000000  0  9G26G31G32G20G21G16G23G14G29
  21813760.796 7 114632088.22107
  21055606.587 7 110647959.91407
  20465901.145 7 107549035.36007
  20465901.738 7 107549034.37207
  21687816.655 7 113970246.87107
  23980363.814 6 126017660.83406
  20465901.403 7 107549035.36907
  20465901.072 7 107549034.36607
  20465900.946 7 107549035.36907
 19  9  8  5 11 25.0000000  0  9G26G31G32G20G21G16G23G14G29
  21813278.418 7 114629552.14407
  21055807.604 7 110649016.31907
  20466167.904 7 107550437.22307
  20466168.218 7 107550436.22907
  21687361.625 7 113967854.28107
  23979742.438 6 126014395.06106
  20466167.929 7 107550437.22707
  20466167.817 7 107550436.23107
  20466167.649 7 107550437.22507
 19  9  8  5 11 26.0000000  0  9G26G31G32G20G21G16G23G14G29
  21812795.782 7 114627016.29707
  21056008.442 7 110650073.32507
  20466434.587 7 107551839.42807
  20466435.413 7 107551838.43207
  21686906.470 7 113965462.11007
  23979121.014 6 126011129.33406
  20466434.939 7 107551839.43707
  20466434.784 7 107551838.43007
  20466434.285 7 107551839.42907
 19  9  8  5 11 27.0000000  0  9G26G31G32G20G21G16G23G14G29
  21812312.916 7 114624480.53207
  21056209.835 7 110651130.79207
  20466701.568 7 107553241.84107
  20466701.917 7 107553240.84007
  21686451.140 7 113963070.22407
  23978499.630 6 126007863.50106
  20466701.756 7 107553241.83107
  20466701.503 7 107553240.83907
  20466701.385 7 107553241.84207
 19  9  8  5 11 28.0000000  0  9G26G31G32G20G21G16G23G14G29
  21811830.538 7 114621944.97107
  21056411.342 7 110652188.82507
  20466968.436 7 107554644.57507
  20466968.875 7 107554643.56107
  21685995.989 7 113960678.71307
  23977878.018 6 126004597.69006
  20466968.394 7 107554644.55907
  20466968.076 7 107554643.57007
  20466968.401 7 107554644.57107
 19  9  8  5 11 29.0000000  0  9G26G31G32G20G21G16G23G14G29
  21811348.050 7 114619409.62207
  21056612.874 7 110653247.44407
  20467235.180 7 107556047.62907
  20467235.953 7 107556046.63707
  21685540.973 7 113958287.61907
  23977256.313 6 126001331.90706
  20467235.328 7 107556047.62907
  20467234.804 7 107556046.62707
  20467235.357 7 107556047.63407
 19  9  8  5 11 30.0000000  0  9G26G31G32G20G21G16G23G14G29
  21810865.388 7 114616874.44907
  21056814.406 7 110654306.61907
  20467502.791 7 107557450.99207
  20467503.195 7 107557450.00107
  21685086.281 7 113955896.91607
  23976635.062 6 125998066.12806
  20467502.319 7 107557450.99507
  20467502.142 7 107557450.00107
  20467502.438 7 107557450.98507
 19  9  8  5 11 31.0000000  0  9G26G31G32G20G21G16G23G14G29
  21810383.032 7 114614339.60507
  21057016.029 7 110655366.48207
  20467770.080 7 107558854.80507
  20467770.144 7 107558853.81307
  21684631.644 7 113953506.73307
  23976013.564 6 125994800.49906
  20467769.517 7 107558854.80807
  20467769.559 7 107558853.80707
  20467769.586 7 107558854.81107
 19  9  8  5 11 32.0000000  0  9G26G31G32G20G21G16G23G14G29
  21809900.819 7 114611805.00007
  21057217.835 7 110656426.96907
  20468037.242 7 107560258.98207
  20468037.069 7 107560257.98407
  21684176.556 7 113951116.97407
  23975392.313 6 125991534.92506
  20468036.824 7 107560258.98407
  20468036.754 7 107560257.98407
  20468036.858 7 107560258.97807
 19  9  8  5 11 33.0000000  0  9G26G31G32G20G21G16G23G14G29
  21809418.718 7 114609270.64407
  21057419.821 7 110657488.07707
  20468304.605 7 107561663.51807
  20468304.369 7 107561662.51407
  21683721.738 7 113948727.65907
  23974770.746 6 125988269.41606
  20468304.064 7 107561663.51507
  20468304.262 7 107561662.51407
  20468304.006 7 107561663.51807
 19  9  8  5 11 34.0000000  0  9G26G31G32G20G21G16G23G14G29
  21808936.610 7 114606736.48207
  21057622.198 7 110658549.75107
  20468571.594 7 107563068.37907
  20468571.548 7 107563067.38807
  21683267.142 7 113946338.74607
  23974149.417 6 125985003.91306
  20468571.646 7 107563068.38007
  20468571.669 7 107563067.39007
  20468571.333 7 107563068.38107
 19  9  8  5 11 35.0000000  0  9G26G31G32G20G21G16G23G14G29
  21808454.536 7 114604202.58607
  21057824.228 7 110659612.05107
  20468838.704 7 107564473.61707
  20468839.002 7 107564472.60407
  21682812.599 7 113943950.27007
  23973528.056 6 125981738.50306
  20468839.005 7 107564473.60707
  20468838.996 7 107564472.61607
  20468838.606 7 107564473.61907
 19  9  8  5 11 36.0000000  0  9G26G31G32G20G21G16G23G14G29
  21807972.537 7 114601668.95907
  21058026.673 7 110660675.00507
  20469106.243 7 107565879.24307
  20469106.586 7 107565878.24107
  21682358.229 7 113941562.29007
  23972906.522 6 125978473.18306
  20469106.533 7 107565879.25107
  20469106.404 7 107565878.24307
  20469105.989 7 107565879.24707
 19  9  8  5 11 37.0000000  0  9G26G31G32G20G21G16G23G14G29
  21807489.991 7 114599135.61607
  21058228.764 7 110661738.58407
  20469373.863 7 107567285.26407
  20469374.063 7 107567284.27207
  21681904.106 7 113939174.75607
  23972285.307 6 125975207.94406
  20469374.166 7 107567285.26907
  20469373.762 7 107567284.26507
  20469373.890 7 107567285.25907
 19  9  8  5 11 38.0000000  0  9G26G31G32G20G21G16G23G14G29
  21807007.901 7 114596602.48207
  21058431.446 7 110662802.77807
  20469641.393 7 107568691.63107
  20469641.734 7 107568690.62407
  21681449.903 7 113936787.64207
  23971664.216 6 125971942.75906
  20469641.829 7 107568691.62507
  20469641.049 7 107568690.62407
  20469641.564 7 107568691.62807
 19  9  8  5 11 39.0000000  0  9G26G31G32G20G21G16G23G14G29
  21806526.024 7 114594069.56407
  21058633.921 7 110663867.54707
  20469909.210 7 107570098.31907
  20469909.790 7 107570097.32607
  21680995.626 7 113934400.94007
  23971042.934 6 125968677.59306
  20469909.287 7 107570098.32607
  20469908.735 7 107570097.33007
  20469909.361 7 107570098.32807
 19  9  8  5 11 40.0000000  0  9G26G31G32G20G21G16G23G14G29
  21806044.117 7 114591536.89007
  21058836.658 7 110664932.93307
  20470176.894 7 107571505.38307
  20470177.407 7 107571504.38907
  21680541.280 7 113932014.67007
  23970421.347 6 125965412.49806
  20470177.041 7 107571505.38907
  20470176.530 7 107571504.39107
  20470176.795 7 107571505.38207
 19  9  8  5 11 41.0000000  0  9G26G31G32G20G21G16G23G14G29
  21805562.145 7 114589004.48307
  21059039.396 7 110665998.95507
  20470445.044 7 107572912.83107
  20470445.134 7 107572911.82607
  21680087.567 7 113929628.87507
  23969800.154 6 125962147.48506
  20470444.873 7 107572912.81607
  20470444.194 7 107572911.82607
  20470444.820 7 107572912.82807
 19  9  8  5 11 42.0000000  0  9G26G31G32G20G21G16G23G14G29
  21805080.340 7 114586472.32707
  21059242.251 7 110667065.58607
  20470712.592 7 107574320.63807
  20470712.852 7 107574319.63707
  21679633.444 7 113927243.51407
  23969178.802 6 125958882.53506
  20470712.603 7 107574320.64207
  20470712.293 7 107574319.64107
  20470712.438 7 107574320.63907
 19  9  8  5 11 43.0000000  0  9G26G31G32G20G21G16G23G14G29
  21804598.379 7 114583940.40507
  21059445.410 7 110668132.84007
  20470980.754 7 107575728.80307
  20470980.842 7 107575727.80307
  21679179.671 7 113924858.58607
  23968557.427 6 125955617.64306
  20470980.404 7 107575728.80107
  20470980.212 7 107575727.80407
  20470980.311 7 107575728.80707
 19  9  8  5 11 44.0000000  0  9G26G31G32G20G21G16G23G14G29
  21804116.721 7 114581408.71507
  21059648.686 7 110669200.69807
  20471248.894 7 107577137.32307
  20471248.898 7 107577136.32307
  21678725.949 7 113922474.08307
  23967936.040 6 125952352.80306
  20471248.844 7 107577137.32507
  20471248.488 7 107577136.32007
  20471248.387 7 107577137.32407
 19  9  8  5 11 45.0000000  0  9G26G31G32G20G21G16G23G14G29
  21803635.264 7 114578877.28307
  21059851.836 7 110670269.16307
  20471517.223 7 107578546.21707
  20471516.891 7 107578545.21707
  21678272.238 7 113920090.04207
  23967314.956 6 125949088.03306
  20471517.108 7 107578546.22207
  20471516.581 7 107578545.21307
  20471516.955 7 107578546.22007
 19  9  8  5 11 46.0000000  0  9G26G31G32G20G21G16G23G14G29
  21803153.438 7 114576346.04507
  21060055.505 7 110671338.22407
  20471785.328 7 107579955.42807
  20471785.184 7 107579954.43907
  21677818.851 7 113917706.38907
  23966693.626 6 125945823.28606
  20471785.276 7 107579955.42707
  20471784.733 7 107579954.43507
  20471785.176 7 107579955.43007
 19  9  8  5 11 47.0000000  0  9G26G31G32G20G21G16G23G14G29
  21802671.822 7 114573815.01607
  21060259.028 7 110672407.83207
  20472053.569 7 107581364.96307
  20472053.573 7 107581363.96407
  21677365.214 7 113915323.14007
  23966072.232 6 125942558.55006
  20472053.287 7 107581364.96607
  20472052.984 7 107581363.95507
  20472053.424 7 107581364.95907
 19  9  8  5 11 48.0000000  0  9G26G31G32G20G21G16G23G14G29
  21802190.177 7 114571284.25907
  21060462.755 7 110673478.11007
  20472321.835 7 107582774.89307
  20472321.971 7 107582773.88707
  21676911.760 7 113912940.36507
  23965450.852 6 125939293.92606
  20472321.564 7 107582774.89307
  20472321.138 7 107582773.89707
  20472321.739 7 107582774.89007
 19  9  8  5 11 49.0000000  0  9G26G31G32G20G21G16G23G14G29
  21801708.507 7 114568753.78207
  21060666.746 7 110674549.02107
  20472590.000 7 107584185.22407
  20472590.445 7 107584184.20807
  21676458.454 7 113910558.04407
  23964829.952 6 125936029.37906
  20472589.810 7 107584185.20607
  20472589.310 7 107584184.21007
  20472589.766 7 107584185.20807
 19  9  8  5 11 50.0000000  0  9G26G31G32G20G21G16G23G14G29
  21801227.316 7 114566223.53107
  21060870.534 7 110675620.54307
  20472858.384 7 107585595.88307
  20472858.841 7 107585594.88307
  21676005.660 7 113908176.17007
  23964208.716 6 125932764.89506
  20472857.980 7 107585595.88907
  20472858.155 7 107585594.88207
  20472858.381 7 107585595.89007
 19  9  8  5 11 51.0000000  0  9G26G31G32G20G21G16G23G14G29
  21800745.916 7 114563693.48907
  21061074.656 7 110676692.62707
  20473126.930 7 107587006.87307
  20473127.058 7 107587005.86607
  21675552.392 7 113905794.67807
  23963587.697 6 125929500.41306
  20473126.617 7 107587006.87707
  20473126.631 7 107587005.87907
  20473126.659 7 107587006.87307
 19  9  8  5 11 52.0000000  0  9G26G31G32G20G21G16G23G14G29
  21800264.633 7 114561163.65107
  21061278.549 7 110677765.28807
  20473395.328 7 107588418.19007
  20473395.563 7 107588417.19407
  21675099.041 7 113903413.59007
  23962966.472 6 125926235.97306
  20473395.467 7 107588418.19707
  20473395.103 7 107588417.19507
  20473395.428 7 107588418.18607
 19  9  8  5 11 53.0000000  0  9G26G31G32G20G21G16G23G14G29
  21799783.136 7 114558634.10807
  21061482.734 7 110678838.62007
  20473663.786 7 107589829.91807
  20473664.346 7 107589828.92707
  21674646.018 7 113901033.00707
  23962345.216 7 125922971.65007
  20473664.106 7 107589829.92107
  20473663.839 7 107589828.91807
  20473664.121 7 107589829.91807
 19  9  8  5 11 54.0000000  0  9G26G31G32G20G21G16G23G14G29
  21799301.616 7 114556104.81407
  21061687.058 7 110679912.56307
  20473932.750 7 107591242.01707
  20473932.847 7 107591241.02407
  21674192.985 7 113898652.85307
  23961723.980 6 125919707.37606
  20473932.978 7 107591242.02307
  20473932.520 7 107591241.01307
  20473932.745 7 107591242.01607
 19  9  8  5 11 55.0000000  0  9G26G31G32G20G21G16G23G14G29
  21798820.197 7 114553575.77907
  21061891.472 7 110680987.13307
  20474201.685 7 107592654.48107
  20474201.665 7 107592653.48107
  21673739.958 7 113896273.14707
  23961102.751 6 125916443.17806
  20474201.700 7 107592654.49007
  20474201.081 7 107592653.47607
  20474201.545 7 107592654.48507
 19  9  8  5 11 56.0000000  0  9G26G31G32G20G21G16G23G14G29
  21798339.347 7 114551046.93307
  21062096.062 7 110682062.27507
  20474470.391 7 107594067.26907
  20474470.557 7 107594066.26607
  21673287.126 7 113893893.84907
  23960481.280 7 125913179.01607
  20474470.579 7 107594067.27807
  20474470.217 7 107594066.27207
  20474470.506 7 107594067.26907
 19  9  8  5 11 57.0000000  0  9G26G31G32G20G21G16G23G14G29
  21797858.259 7 114548518.27007
  21062300.596 7 110683137.96707
  20474739.596 7 107595480.34207
  20474739.539 7 107595479.34507
  21672834.457 7 113891514.91807
  23959860.060 6 125909914.82906
  20474739.283 7 107595480.34307
  20474738.995 7 107595479.35307
  20474739.432 7 107595480.34607
 19  9  8  5 11 58.0000000  0  9G26G31G32G20G21G16G23G14G29
  21797377.166 7 114545989.83707
  21062505.463 7 110684214.24607
  20475008.506 7 107596893.77707
  20475008.668 7 107596892.77907
  21672381.911 7 113889136.40807
  23959238.988 6 125906650.69306
  20475008.327 7 107596893.77007
  20475007.870 7 107596892.77207
  20475008.138 7 107596893.77207
 19  9  8  5 11 59.0000000  0  9G26G31G32G20G21G16G23G14G29
  21796895.990 7 114543461.73507
  21062710.501 7 110685291.22507
  20475277.611 7 107598307.64507
  20475277.752 7 107598306.63307
  21671929.562 7 113886758.42007
  23958618.018 6 125903386.71106
  20475277.194 7 107598307.63907
  20475277.016 7 107598306.63707
  20475277.180 7 107598307.64207
 19  9  8  5 12  0.0000000  0  9G26G31G32G20G21G16G23G14G29
  21796414.839 7 114540933.88007
  21062915.574 7 110686368.83807
  20475546.563 7 107599721.88407
  20475546.657 7 107599720.88107
  21671477.136 7 113884380.88207
  23957997.118 6 125900122.79406
  20475546.314 7 107599721.88207
  20475546.036 7 107599720.88307
  20475546.283 7 107599721.88907
 19  9  8  5 12  1.0000000  0  9G26G31G32G20G21G16G23G14G29
  21795933.509 7 114538406.26407
  21063120.880 7 110687447.04207
  20475815.656 7 107601136.47607
  20475815.876 7 107601135.47007
  21671024.773 7 113882003.78507
  23957375.904 6 125896858.92406
  20475815.570 7 107601136.47707
  20475815.203 7 107601135.47807
  20475815.586 7 107601136.47207
 19  9  8  5 12  2.0000000  0  9G26G31G32G20G21G16G23G14G29
  21795452.521 7 114535878.89707
  21063326.223 7 110688525.87207
  20476085.022 7 107602551.43407
  20476085.003 7 107602550.43807
  21670572.562 7 113879627.12407
  23956755.082 6 125893595.14006
  20476085.088 7 107602551.43907
  20476084.511 7 107602550.44007
  20476084.952 7 107602551.42807
 19  9  8  5 12  3.0000000  0  9G26G31G32G20G21G16G23G14G29
  21794971.634 7 114533351.78307
  21063531.355 7 110689605.32807
  20476353.908 7 107603966.77507
  20476354.369 7 107603965.77407
  21670120.589 7 113877250.92607
  23956134.285 6 125890331.42306
  20476354.291 7 107603966.77407
  20476353.935 7 107603965.77507
  20476354.126 7 107603966.78007
 19  9  8  5 12  4.0000000  0  9G26G31G32G20G21G16G23G14G29
  21794490.931 7 114530824.91307
  21063736.996 7 110690685.38307
  20476623.533 7 107605382.45007
  20476623.970 7 107605381.46307
  21669668.485 7 113874875.14407
  23955512.980 6 125887067.74606
  20476623.813 7 107605382.45507
  20476623.313 7 107605381.45407
  20476623.615 7 107605382.45907
 19  9  8  5 12  5.0000000  0  9G26G31G32G20G21G16G23G14G29
  21794009.849 7 114528298.29007
  21063942.606 7 110691766.08107
  20476892.681 7 107606798.51607
  20476893.483 7 107606797.51507
  21669216.343 7 113872499.81707
  23954891.887 6 125883804.16306
  20476893.333 7 107606798.51207
  20476893.070 7 107606797.51607
  20476892.846 7 107606798.52607
 19  9  8  5 12  6.0000000  0  9G26G31G32G20G21G16G23G14G29
  21793528.921 7 114525771.91807
  21064148.488 7 110692847.36207
  20477162.615 7 107608214.92907
  20477162.702 7 107608213.92607
  21668764.309 7 113870124.93107
  23954270.709 7 125880540.63107
  20477162.710 7 107608214.93207
  20477162.550 7 107608213.93107
  20477162.431 7 107608214.93007
 19  9  8  5 12  7.0000000  0  9G26G31G32G20G21G16G23G14G29
  21793048.573 7 114523245.79107
  21064354.393 7 110693929.28007
  20477431.849 7 107609631.70607
  20477431.891 7 107609630.71807
  21668312.184 7 113867750.48307
  23953649.701 6 125877277.15906
  20477432.304 7 107609631.71207
  20477431.932 7 107609630.71707
  20477431.934 7 107609631.72107
 19  9  8  5 12  8.0000000  0  9G26G31G32G20G21G16G23G14G29
  21792568.232 7 114520719.87207
  21064560.317 7 110695011.75007
  20477701.741 7 107611048.81707
  20477701.490 7 107611047.80907
  21667860.633 7 113865376.44107
  23953028.877 6 125874013.71706
  20477701.974 7 107611048.81007
  20477701.499 7 107611047.82007
  20477701.720 7 107611048.81507
 19  9  8  5 12  9.0000000  0  9G26G31G32G20G21G16G23G14G29
  21792087.584 7 114518194.20607
  21064766.421 7 110696094.87707
  20477971.590 7 107612466.30607
  20477971.740 7 107612465.30207
  21667409.070 7 113863002.87307
  23952407.911 6 125870750.36106
  20477971.799 7 107612466.30507
  20477971.324 7 107612465.29807
  20477971.639 7 107612466.30107
 19  9  8  5 12 10.0000000  0  9G26G31G32G20G21G16G23G14G29
  21791607.014 7 114515668.81007
  21064972.635 7 110697178.60807
  20478241.439 7 107613884.14907
  20478241.775 7 107613883.15007
  21666957.423 7 113860629.72807
  23951786.812 6 125867487.06406
  20478241.675 7 107613884.15107
  20478241.113 7 107613883.14707
  20478241.468 7 107613884.14707
 19  9  8  5 12 11.0000000  0  9G26G31G32G20G21G16G23G14G29
  21791126.541 7 114513143.63807
  21065179.143 7 110698262.95407
  20478511.114 7 107615302.34707
  20478511.717 7 107615301.35407
  21666505.782 7 113858257.02507
  23951165.875 6 125864223.82806
  20478511.716 7 107615302.34707
  20478510.949 7 107615301.35607
  20478511.447 7 107615302.35107
 19  9  8  5 12 12.0000000  0  9G26G31G32G20G21G16G23G14G29
  21790646.215 7 114510618.73707
  21065385.933 7 110699347.93007
  20478781.215 7 107616720.94607
  20478781.714 7 107616719.94407
  21666054.573 7 113855884.79407
  23950544.809 7 125860960.68707
  20478781.567 7 107616720.93807
  20478781.198 7 107616719.94607
  20478781.036 7 107616720.94207
 19  9  8  5 12 13.0000000  0  9G26G31G32G20G21G16G23G14G29
  21790165.616 7 114508094.09307
  21065592.180 7 110700433.52207
  20479051.259 7 107618139.88907
  20479051.652 7 107618138.88707
  21665603.320 7 113853512.99107
  23949923.560 7 125857697.61007
  20479051.389 7 107618139.89607
  20479051.325 7 107618138.89307
  20479050.729 7 107618139.89907
 19  9  8  5 12 14.0000000  0  9G26G31G32G20G21G16G23G14G29
  21789685.017 7 114505569.61907
  21065798.901 7 110701519.68007
  20479321.233 7 107619559.15507
  20479321.528 7 107619558.14007
  21665151.945 7 113851141.58007
  23949302.505 6 125854434.52806
  20479321.365 7 107619559.14607
  20479321.263 7 107619558.15107
  20479320.811 7 107619559.14107
 19  9  8  5 12 15.0000000  0  9G26G31G32G20G21G16G23G14G29
  21789204.472 7 114503045.38007
  21066005.285 7 110702606.41007
  20479591.583 7 107620978.74007
  20479591.876 7 107620977.73707
  21664700.796 7 113848770.58507
  23948681.772 6 125851171.48706
  20479591.882 7 107620978.73607
  20479591.224 7 107620977.74107
  20479591.304 7 107620978.73907
 19  9  8  5 12 16.0000000  0  9G26G31G32G20G21G16G23G14G29
  21788724.495 7 114500521.39907
  21066212.462 7 110703693.79207
  20479861.647 7 107622398.71507
  20479861.705 7 107622397.70607
  21664249.390 7 113846400.05207
  23948060.793 6 125847908.53506
  20479862.091 7 107622398.71807
  20479861.393 7 107622397.71707
  20479861.610 7 107622398.71307
 19  9  8  5 12 17.0000000  0  9G26G31G32G20G21G16G23G14G29
  21788244.165 7 114497997.73607
  21066419.670 7 110704781.81907
  20480131.867 7 107623819.10407
  20480132.095 7 107623818.10707
  21663798.300 7 113844030.00307
  23947440.297 6 125844645.69906
  20480132.081 7 107623819.10407
  20480131.593 7 107623818.10807
  20480131.783 7 107623819.09907
 19  9  8  5 12 18.0000000  0  9G26G31G32G20G21G16G23G14G29
  21787764.259 7 114495474.32307
  21066626.574 7 110705870.50707
  20480402.224 7 107625239.88807
  20480402.662 7 107625238.88107
  21663347.341 7 113841660.43807
  23946819.442 6 125841382.96006
  20480402.625 7 107625239.88107
  20480402.070 7 107625238.88207
  20480402.350 7 107625239.88507
 19  9  8  5 12 19.0000000  0  9G26G31G32G20G21G16G23G14G29
  21787284.020 7 114492951.26407
  21066833.908 7 110706959.89007
  20480672.417 7 107626661.10907
  20480673.103 7 107626660.10207
  21662896.783 7 113839291.40307
  23946198.411 6 125838120.36706
  20480673.089 7 107626661.10707
  20480672.614 7 107626660.10807
  20480672.660 7 107626661.10807
 19  9  8  5 12 20.0000000  0  9G26G31G32G20G21G16G23G14G29
  21786804.173 7 114490428.87607
  21067041.608 7 110708050.32407
  20480943.351 7 107628083.13607
  20480943.482 7 107628082.13807
  21662446.052 7 113836923.25007
  23945577.876 6 125834858.27406
  20480943.654 7 107628083.13107
  20480943.145 7 107628082.13507
  20480943.198 7 107628083.13907
 19  9  8  5 12 21.0000000  0  9G26G31G32G20G21G16G23G14G29
  21786324.021 7 114487906.87007
  21067249.060 7 110709141.48707
  20481214.016 7 107629505.63707
  20481214.538 7 107629504.64207
  21661995.355 7 113834555.64707
  23944957.044 6 125831596.36406
  20481214.023 7 107629505.63907
  20481213.985 7 107629504.64407
  20481214.082 7 107629505.64407
 19  9  8  5 12 22.0000000  0  9G26G31G32G20G21G16G23G14G29
  21785844.140 7 114485384.73807
  21067456.773 7 110710232.90507
  20481484.632 7 107630928.13807
  20481485.016 7 107630927.14507
  21661544.920 7 113832188.12707
  23944336.342 6 125828334.16706
  20481484.751 7 107630928.14007
  20481484.607 7 107630927.13807
  20481484.926 7 107630928.14307
 19  9  8  5 12 23.0000000  0  9G26G31G32G20G21G16G23G14G29
  21785364.234 7 114482863.03207
  21067664.668 7 110711325.12407
  20481755.450 7 107632351.19907
  20481755.864 7 107632350.20207
  21661094.858 7 113829821.24207
  23943715.553 6 125825072.20606
  20481755.530 7 107632351.19207
  20481755.319 7 107632350.19607
  20481755.716 7 107632351.19307
 19  9  8  5 12 24.0000000  0  9G26G31G32G20G21G16G23G14G29
  21784884.235 7 114480341.50207
  21067872.444 7 110712417.88807
  20482026.378 7 107633774.54807
  20482026.551 7 107633773.54207
  21660644.253 7 113827454.72607
  23943094.749 6 125821810.25206
  20482026.406 7 107633774.54307
  20482026.063 7 107633773.54607
  20482026.694 7 107633774.53607
 19  9  8  5 12 25.0000000  0  9G26G31G32G20G21G16G23G14G29
  21784404.490 7 114477820.06507
  21068080.725 7 110713511.09307
  20482297.464 7 107635198.08107
  20482297.328 7 107635197.07407
  21660194.061 7 113825088.48507
  23942474.034 6 125818548.19206
  20482297.375 7 107635198.08007
  20482296.871 7 107635197.08207
  20482297.782 7 107635198.08207
 19  9  8  5 12 26.0000000  0  9G26G31G32G20G21G16G23G14G29
  21783924.613 7 114475298.57007
  21068288.931 7 110714604.60707
  20482568.332 7 107636621.66107
  20482568.105 7 107636620.66607
  21659743.925 7 113822722.37507
  23941853.169 6 125815285.86906
  20482567.904 7 107636621.66407
  20482567.708 7 107636620.67007
  20482568.282 7 107636621.66107
 19  9  8  5 12 27.0000000  0  9G26G31G32G20G21G16G23G14G29
  21783444.683 7 114472777.24407
  21068496.926 7 110715698.66807
  20482839.261 7 107638045.56107
  20482839.524 7 107638044.55407
  21659293.713 7 113820356.64807
  23941232.279 6 125812023.57906
  20482838.471 7 107638045.55207
  20482838.695 7 107638044.55207
  20482838.891 7 107638045.55107
 19  9  8  5 12 28.0000000  0  9G26G31G32G20G21G16G23G14G29
  21782964.737 7 114470256.20307
  21068704.955 7 110716793.36907
  20483110.259 7 107639469.82307
  20483110.227 7 107639468.82707
  21658843.758 7 113817991.38507
  23940611.468 6 125808761.36106
  20483109.670 7 107639469.83107
  20483109.695 7 107639468.82207
  20483109.975 7 107639469.83307
 19  9  8  5 12 29.0000000  0  9G26G31G32G20G21G16G23G14G29
  21782485.601 7 114467735.29807
  21068913.769 7 110717888.59607
  20483381.385 7 107640894.37107
  20483381.234 7 107640893.37507
  21658393.987 7 113815626.47007
  23939990.791 6 125805499.11506
  20483380.966 7 107640894.36107
  20483381.007 7 107640893.37607
  20483381.036 7 107640894.36707
 19  9  8  5 12 30.0000000  0  9G26G31G32G20G21G16G23G14G29
  21782005.948 7 114465214.74407
  21069122.125 7 110718984.51807
  20483652.488 7 107642319.36907
  20483652.505 7 107642318.37207
  21657943.965 7 113813262.09407
  23939370.253 6 125802237.04006
  20483652.016 7 107642319.36407
  20483651.996 7 107642318.36507
  20483652.159 7 107642319.36907
 19  9  8  5 12 31.0000000  0  9G26G31G32G20G21G16G23G14G29
  21781526.451 7 114462694.44007
  21069330.869 7 110720081.06607
  20483923.650 7 107643744.72507
  20483923.770 7 107643743.73107
  21657493.746 7 113810898.16207
  23938749.395 7 125798975.00507
  20483923.455 7 107643744.73107
  20483923.461 7 107643743.73207
  20483923.565 7 107643744.72707
 19  9  8  5 12 32.0000000  0  9G26G31G32G20G21G16G23G14G29
  21781046.762 7 114460174.30207
  21069539.636 7 110721178.12407
  20484194.767 7 107645170.35407
  20484195.388 7 107645169.36007
  21657043.614 7 113808534.59107
  23938128.530 6 125795712.97006
  20484194.862 7 107645170.36607
  20484194.864 7 107645169.36107
  20484194.994 7 107645170.36507
 19  9  8  5 12 33.0000000  0  9G26G31G32G20G21G16G23G14G29
  21780567.353 7 114457654.41607
  21069748.430 7 110722275.82907
  20484466.279 7 107646596.36507
  20484466.603 7 107646595.36207
  21656593.919 7 113806171.46307
  23937507.885 6 125792451.01006
  20484466.078 7 107646596.36107
  20484466.280 7 107646595.36507
  20484466.364 7 107646596.36707
 19  9  8  5 13  7.0000000  0  2G14G16
  15078437.315 7  79237723.29817
  18501098.329 7  97223926.84417
 19  9  8  5 13  8.0000000  0  6G20G21G23G14G26G16
  15078711.743 7  79239164.82917
  16225599.668 7  85266100.77117
  15078710.840 7  79239159.82117
  15078711.179 7  79239161.82607
  16348504.195 7  85911969.00317
  18500477.972 7  97220667.10207
 19  9  8  5 13  9.0000000  0  6G20G21G23G14G26G16
  15078985.554 7  79240603.67207
  16225153.074 7  85263753.53107
  15078984.905 7  79240598.67707
  15078985.234 7  79240600.68607
  16348026.330 7  85909457.96307
  18499857.758 7  97217407.39207
 19  9  8  5 13 10.0000000  0  6G20G21G23G14G26G16
  15079259.109 7  79242042.78707
  16224706.258 7  85261406.62007
  15079259.035 7  79242037.78107
  15079258.903 7  79242039.78407
  16347548.654 7  85906947.06207
  18499237.783 7  97214147.65107
 19  9  8  5 13 11.0000000  0  6G20G21G23G14G26G16
  20775584.737 7 109176434.96407
  21920325.112 7 115192084.81907
  20775584.363 7 109176429.96707
  20775584.290 7 109176431.97207
  22043136.819 7 115837464.19707
  24194685.843 7 127143929.97807
 19  9  8  5 13 12.0000000  0  6G20G21G23G14G26G16
  20775858.624 7 109177874.86707
  21919878.673 7 115189738.88907
  20775858.454 7 109177869.86507
  20775858.054 7 109177871.87007
  22042659.043 7 115834953.87207
  24194065.668 6 127140670.44706
 19  9  8  5 13 13.0000000  0  6G20G21G23G14G26G16
  20776132.860 7 109179315.15607
  21919432.131 7 115187393.42207
  20776132.294 7 109179310.14907
  20776131.971 7 109179312.14807
  22042181.366 7 115832443.83507
  24193445.283 7 127137411.01607
 19  9  8  5 13 14.0000000  0  9G29G20G21G23G31G32G14G26G16
  20776406.691 7 109180753.83017
  20776406.806 7 109180755.82507
  21918985.792 7 115185048.43707
  20776406.642 7 109180750.82607
  21359169.108 7 112243190.42717
  20776406.628 7 109180752.82417
  20776406.398 7 109180752.83107
  22041703.721 7 115829934.07907
  24192824.926 7 127134151.68207
 19  9  8  5 13 15.0000000  0  9G29G20G21G23G31G32G14G26G16
  20776681.087 7 109182194.84707
  20776681.064 7 109182196.85207
  21918539.836 7 115182703.88607
  20776680.921 7 109182191.84907
  21359382.910 7 112244313.75207
  20776680.819 7 109182193.84907
  20776680.648 7 109182193.84607
  22041226.279 7 115827424.56407
  24192204.707 6 127130892.39806
 19  9  8  5 13 16.0000000  0  9G29G20G21G23G31G32G14G26G16
  20776955.329 7 109183636.18307
  20776955.618 7 109183638.17707
  21918093.880 7 115180359.73207
  20776955.047 7 109183633.18007
  21359596.546 7 112245437.65207
  20776954.800 7 109183635.18007
  20776954.715 7 109183635.17907
  22040748.831 7 115824915.24407
  24191584.299 6 127127633.14206
 19  9  8  5 13 17.0000000  0  9G29G20G21G23G31G32G14G26G16
  20777229.694 7 109185077.89907
  20777229.891 7 109185079.88407
  21917647.827 7 115178016.04407
  20777229.687 7 109185074.88807
  21359810.665 7 112246562.16507
  20777229.612 7 109185076.89507
  20777229.124 7 109185076.89407
  22040271.444 7 115822406.20007
  24190964.157 6 127124373.95806
 19  9  8  5 13 18.0000000  0  9G29G20G21G23G31G32G14G26G16
  20777504.013 7 109186519.99307
  20777504.246 7 109186521.98307
  21917201.770 7 115175672.83307
  20777504.185 7 109186516.98407
  21360024.673 7 112247687.34007
  20777503.885 7 109186518.98107
  20777503.556 7 109186518.99407
  22039793.873 7 115819897.43407
  24190344.026 6 127121114.88006
 19  9  8  5 13 19.0000000  0  9G29G20G21G23G31G32G14G26G16
  20777778.540 7 109187962.42307
  20777778.598 7 109187964.41107
  21916756.053 7 115173330.04207
  20777778.437 7 109187959.41407
  21360238.615 7 112248813.07807
  20777778.214 7 109187961.41607
  20777777.906 7 109187961.41707
  22039316.314 7 115817388.89107
  24189723.683 7 127117855.84307
 19  9  8  5 13 20.0000000  0  9G29G20G21G23G31G32G14G26G16
  20778053.150 7 109189405.16807
  20778053.322 7 109189407.16307
  21916310.478 7 115170987.64807
  20778052.972 7 109189402.16507
  21360453.136 7 112249939.39707
  20778052.662 7 109189404.17107
  20778052.456 7 109189404.15807
  22038838.991 7 115814880.56707
  24189103.673 7 127114596.83407
 19  9  8  5 13 21.0000000  0  9G29G20G21G23G31G32G14G26G16
  20778327.681 7 109190848.32307
  20778327.836 7 109190850.31407
  21915864.821 7 115168645.74907
  20778327.360 7 109190845.32607
  21360667.268 7 112251066.37107
  20778327.187 7 109190847.31807
  20778327.390 7 109190847.32807
  22038361.733 7 115812372.53307
  24188483.537 6 127111337.94006
 19  9  8  5 13 22.0000000  0  9G29G20G21G23G31G32G14G26G16
  20778602.451 7 109192291.87307
  20778602.742 7 109192293.87007
  21915419.332 7 115166304.34607
  20778601.850 7 109192288.87907
  21360881.805 7 112252194.00507
  20778602.063 7 109192290.88407
  20778602.210 7 109192290.88307
  22037884.777 7 115809864.78907
  24187863.387 6 127108079.14806
 19  9  8  5 13 23.0000000  0  9G29G20G21G23G31G32G14G26G16
  20778876.947 7 109193735.77507
  20778877.515 7 109193737.77807
  21914973.703 7 115163963.37007
  20778876.718 7 109193732.77407
  21361096.849 7 112253322.23607
  20778876.965 7 109193734.76907
  20778877.172 7 109193734.76807
  22037407.754 7 115807357.27307
  24187243.292 6 127104820.40506
 19  9  8  5 13 24.0000000  0  9G29G20G21G23G31G32G14G26G16
  20779151.722 7 109195179.92307
  20779152.292 7 109195181.92407
  21914528.162 7 115161622.73607
  20779151.452 7 109195176.92407
  21361311.456 7 112254450.97407
  20779152.022 7 109195178.92007
  20779151.638 7 109195178.92407
  22036930.816 7 115804849.91707
  24186623.221 6 127101561.63306
 19  9  8  5 13 25.0000000  0  9G29G20G21G23G31G32G14G26G16
  20779426.712 7 109196624.44207
  20779427.205 7 109196626.44107
  21914082.566 7 115159282.54507
  20779426.383 7 109196621.43807
  21361526.355 7 112255580.32107
  20779426.721 7 109196623.43307
  20779426.265 7 109196623.44307
  22036453.915 7 115802342.81407
  24186003.337 6 127098302.93006
 19  9  8  5 13 26.0000000  0  9G29G20G21G23G31G32G14G26G16
  20779701.870 7 109198069.37107
  20779702.034 7 109198071.37307
  21913637.108 7 115156942.86807
  20779701.508 7 109198066.37407
  21361741.187 7 112256710.35107
  20779701.662 7 109198068.37607
  20779701.037 7 109198068.37807
  22035976.836 7 115799836.02807
  24185383.174 6 127095044.37006
 19  9  8  5 13 27.0000000  0  9G29G20G21G23G31G32G14G26G16
  20779976.818 7 109199514.78207
  20779977.348 7 109199516.77907
  21913192.166 7 115154603.75407
  20779976.410 7 109199511.77807
  21361956.616 7 112257841.09407
  20779976.508 7 109199513.78107
  20779976.066 7 109199513.78107
  22035499.593 7 115797329.60207
  24184762.848 6 127091785.97406
 19  9  8  5 13 28.0000000  0  9G29G20G21G23G31G32G14G26G16
  20780252.044 7 109200960.77007
  20780252.289 7 109200962.76707
  21912747.495 7 115152265.31707
  20780251.553 7 109200957.76507
  21362171.874 7 112258972.67607
  20780251.772 7 109200959.76907
  20780251.432 7 109200959.75307
  22035022.672 7 115794823.65507
  24184142.861 7 127088527.87807
 19  9  8  5 13 29.0000000  0  9G29G20G21G23G31G32G14G26G16
  20780527.277 7 109202407.25407
  20780527.652 7 109202409.25507
  21912302.604 7 115149927.46207
  20780526.859 7 109202404.25607
  21362387.302 7 112260105.02007
  20780527.393 7 109202406.26307
  20780526.853 7 109202406.25007
  22034545.693 7 115792318.09807
  24183522.846 6 127085269.99406
 19  9  8  5 13 30.0000000  0  9G29G20G21G23G31G32G14G26G16
  20780802.608 7 109203854.13707
  20780802.904 7 109203856.13207
  21911857.852 7 115147590.07707
  20780802.316 7 109203851.14707
  21362602.667 7 112261238.01007
  20780802.573 7 109203853.13607
  20780802.182 7 109203853.13707
  22034068.677 7 115789812.82907
  24182903.012 6 127082012.20906
 19  9  8  5 13 31.0000000  0  9G29G20G21G23G31G32G14G26G16
  20781078.119 7 109205301.05007
  20781078.364 7 109205303.04307
  21911413.164 7 115145252.81907
  20781077.851 7 109205298.05307
  21362818.563 7 112262371.26607
  20781077.969 7 109205300.03907
  20781077.391 7 109205300.04507
  22033591.962 7 115787307.47307
  24182283.254 7 127078754.15307
 19  9  8  5 13 32.0000000  0  9G29G20G21G23G31G32G14G26G16
  20781353.428 7 109206748.25207
  20781353.463 7 109206750.24807
  21910968.297 7 115142915.94407
  20781353.421 7 109206745.24307
  21363034.370 7 112263505.07307
  20781353.352 7 109206747.24707
  20781352.695 7 109206747.24907
  22033115.599 7 115784802.29907
  24181663.544 7 127075496.10907
 19  9  8  5 13 33.0000000  0  9G29G20G21G23G31G32G14G26G16
  20781628.604 7 109208196.05707
  20781628.986 7 109208198.06407
  21910523.550 7 115140579.77307
  20781628.837 7 109208193.06307
  21363250.296 7 112264639.75207
  20781628.937 7 109208195.05207
  20781628.039 7 109208195.06007
  22032638.848 7 115782297.64607
  24181043.307 7 127072238.38507
 19  9  8  5 13 34.0000000  0  9G29G20G21G23G31G32G14G26G16
  20781904.147 7 109209644.05107
  20781904.586 7 109209646.04907
  21910079.089 7 115138243.85807
  20781904.242 7 109209641.06407
  21363466.361 7 112265774.86407
  20781904.459 7 109209643.05207
  20781903.911 7 109209643.05807
  22032162.351 7 115779793.06707
  24180423.339 7 127068980.55507
 19  9  8  5 13 35.0000000  0  9G29G20G21G23G31G32G14G26G16
  20782179.665 7 109211092.31607
  20782179.820 7 109211094.31507
  21909634.709 7 115135908.31707
  20782180.039 7 109211089.32107
  21363682.292 7 112266910.49507
  20782179.948 7 109211091.31807
  20782179.408 7 109211091.31607
  22031685.643 7 115777288.64607
  24179803.137 7 127065722.70807
 19  9  8  5 13 36.0000000  0  9G29G20G21G23G31G32G14G26G16
  20782455.611 7 109212540.93407
  20782455.623 7 109212542.93807
  21909190.391 7 115133573.20807
  20782455.438 7 109212537.93607
  21363898.497 7 112268046.73107
  20782455.391 7 109212539.92807
  20782455.329 7 109212539.93007
  22031209.225 7 115774784.47607
  24179183.165 7 127062464.91607
 19  9  8  5 13 37.0000000  0  9G29G20G21G23G31G32G14G26G16
  20782731.223 7 109213989.87707
  20782731.701 7 109213991.87507
  21908746.011 7 115131238.51807
  20782731.105 7 109213986.87707
  21364114.924 7 112269183.54907
  20782731.315 7 109213988.87007
  20782731.110 7 109213988.88007
  22030732.458 7 115772280.52107
  24178563.189 7 127059207.16007
 19  9  8  5 13 38.0000000  0  9G29G20G21G23G31G32G14G26G16
  20783006.939 7 109215439.07707
  20783007.203 7 109215441.07507
  21908302.277 7 115128904.17007
  20783006.907 7 109215436.07407
  21364331.519 7 112270320.88207
  20783007.207 7 109215438.07907
  20783006.746 7 109215438.07407
  22030255.966 7 115769776.71407
  24177943.206 7 127055949.36907
 19  9  8  5 13 39.0000000  0  9G29G20G21G23G31G32G14G26G16
  20783283.022 7 109216888.56407
  20783283.024 7 109216890.56207
  21907858.141 7 115126570.20007
  20783282.558 7 109216885.56407
  21364547.954 7 112271458.73907
  20783283.073 7 109216887.56207
  20783282.556 7 109216887.56207
  22029779.775 7 115767273.08807
  24177323.315 7 127052691.58107
 19  9  8  5 13 40.0000000  0  9G29G20G21G23G31G32G14G26G16
  20783559.091 7 109218338.40807
  20783558.862 7 109218340.40607
  21907414.021 7 115124236.68207
  20783558.327 7 109218335.40407
  21364764.589 7 112272597.22707
  20783558.598 7 109218337.40807
  20783558.240 7 109218337.40207
  22029303.374 7 115764769.72907
  24176703.512 7 127049433.86407
 19  9  8  5 13 41.0000000  0  9G29G20G21G23G31G32G14G26G16
  20783834.946 7 109219788.60207
  20783834.661 7 109219790.60707
  21906969.968 7 115121903.61107
  20783834.412 7 109219785.61107
  21364981.436 7 112273736.32007
  20783834.556 7 109219787.60807
  20783834.471 7 109219787.61407
  22028827.302 7 115762266.61807
  24176083.583 7 127046176.21707
 19  9  8  5 13 42.0000000  0  9G29G20G21G23G31G32G14G26G16
  20784111.093 7 109221239.09707
  20784110.660 7 109221241.09907
  21906526.047 7 115119570.91707
  20784110.677 7 109221236.10807
  21365198.223 7 112274875.94507
  20784110.534 7 109221238.09907
  20784110.454 7 109221238.09907
  22028350.946 7 115759763.67707
  24175463.926 7 127042918.55807
 19  9  8  5 13 43.0000000  0  9G29G20G21G23G31G32G14G26G16
  20784386.894 7 109222689.92707
  20784386.448 7 109222691.92307
  21906082.134 7 115117238.65207
  20784386.644 7 109222686.92807
  21365415.031 7 112276016.17607
  20784386.543 7 109222688.92507
  20784386.464 7 109222688.93007
  22027874.543 7 115757260.98207
  24174844.035 7 127039660.96107
 19  9  8  5 13 44.0000000  0  9G29G20G21G23G31G32G14G26G16
  20784663.093 7 109224141.18507
  20784662.473 7 109224143.17207
  21905638.242 7 115114906.90807
  20784662.676 7 109224138.17907
  21365632.212 7 112277157.08207
  20784662.928 7 109224140.19007
  20784662.611 7 109224140.19107
  22027398.539 7 115754758.60007
  24174224.197 7 127036403.50107
 19  9  8  5 13 45.0000000  0  9G29G20G21G23G31G32G14G26G16
  20784939.342 7 109225592.73407
  20784938.873 7 109225594.74207
  21905194.353 7 115112575.54707
  20784938.846 7 109225589.73507
  21365849.359 7 112278298.53507
  20784939.215 7 109225591.74107
  20784939.112 7 109225591.73307
  22026922.429 7 115752256.42207
  24173604.127 7 127033146.04307
 19  9  8  5 13 46.0000000  0  9G29G20G21G23G31G32G14G26G16
  20785215.622 7 109227044.71407
  20785215.477 7 109227046.70607
  21904751.030 7 115110244.69907
  20785215.223 7 109227041.71207
  21366066.808 7 112279440.66007
  20785215.651 7 109227043.71107
  20785215.353 7 109227043.70807
  22026446.403 7 115749754.55207
  24172984.314 6 127029888.72406
 19  9  8  5 13 47.0000000  0  9G29G20G21G23G31G32G14G26G16
  20785491.979 7 109228497.02407
  20785491.693 7 109228499.03607
  21904307.658 7 115107914.27207
  20785491.728 7 109228494.03107
  21366284.118 7 112280583.38707
  20785492.109 7 109228496.02807
  20785491.899 7 109228496.03207
  22025970.134 7 115747252.91407
  24172364.461 6 127026631.45606
 19  9  8  5 13 48.0000000  0  9G29G20G21G23G31G32G14G26G16
  20785768.257 7 109229949.68307
  20785768.290 7 109229951.69107
  21903864.409 7 115105584.28907
  20785768.286 7 109229946.68707
  21366501.829 7 112281726.71507
  20785768.629 7 109229948.68907
  20785768.149 7 109229948.68007
  22025493.935 7 115744751.52007
  24171744.461 6 127023374.23106
 19  9  8  5 13 49.0000000  0  9G29G20G21G23G31G32G14G26G16
  20786044.732 7 109231402.71007
  20786044.984 7 109231404.70307
  21903421.284 7 115103254.76807
  20786044.789 7 109231399.70607
  21366719.618 7 112282870.65007
  20786045.037 7 109231401.70507
  20786044.720 7 109231401.70207
  22025017.796 7 115742250.39007
  24171124.686 6 127020117.09706
 19  9  8  5 13 50.0000000  0  9G29G20G21G23G31G32G14G26G16
  20786321.175 7 109232856.07507
  20786321.457 7 109232858.08007
  21902977.880 7 115100925.66507
  20786321.640 7 109232853.07907
  21366937.311 7 112284015.17707
  20786321.200 7 109232855.07607
  20786321.118 7 109232855.07607
  22024541.890 7 115739749.49407
  24170504.646 7 127016860.01407
 19  9  8  5 13 51.0000000  0  9G29G20G21G23G31G32G14G26G16
  20786597.934 7 109234309.77707
  20786597.951 7 109234311.77907
  21902534.851 7 115098597.00907
  20786598.265 7 109234306.77807
  21367155.231 7 112285160.31807
  20786597.959 7 109234308.77907
  20786597.791 7 109234308.78507
  22024066.064 7 115737248.82807
  24169884.915 7 127013602.98407
 19  9  8  5 13 52.0000000  0  9G29G20G21G23G31G32G14G26G16
  20786874.795 7 109235763.89007
  20786874.662 7 109235765.88007
  21902091.814 7 115096268.83607
  20786874.957 7 109235760.88807
  21367373.067 7 112286306.09807
  20786874.765 7 109235762.88807
  20786874.333 7 109235762.88607
  22023590.332 7 115734748.46707
  24169265.529 6 127010346.06106
 19  9  8  5 13 53.0000000  0  9G29G20G21G23G31G32G14G26G16
  20787151.524 7 109237218.35507
  20787151.502 7 109237220.35107
  21901648.894 7 115093941.11407
  20787151.692 7 109237215.35607
  21367591.544 7 112287452.49607
  20787151.514 7 109237217.36607
  20787151.228 7 109237217.36007
  22023114.736 7 115732248.35807
  24168645.791 6 127007089.22506
 19  9  8  5 13 54.0000000  0  9G29G20G21G23G31G32G14G26G16
  20787428.330 7 109238673.07007
  20787428.318 7 109238675.06707
  21901206.104 7 115091613.72807
  20787428.432 7 109238670.06707
  21367809.804 7 112288599.38907
  20787428.301 7 109238672.06607
  20787428.073 7 109238672.07207
  22022639.172 7 115729748.38907
  24168025.824 6 127003832.32606
 19  9  8  5 13 55.0000000  0  9G29G20G21G23G31G32G14G26G16
  20787705.361 7 109240128.15007
  20787705.521 7 109240130.15707
  21900763.169 7 115089286.81407
  20787705.263 7 109240125.15807
  21368028.148 7 112289746.91607
  20787705.400 7 109240127.15107
  20787705.003 7 109240127.15307
  22022163.410 7 115727248.69407
  24167405.984 6 127000575.52506
 19  9  8  5 13 56.0000000  0  9G29G20G21G23G31G32G14G26G16
  20787982.176 7 109241583.68107
  20787982.509 7 109241585.68507
  21900320.492 7 115086960.43507
  20787981.973 7 109241580.68107
  21368246.611 7 112290895.13107
  20787982.411 7 109241582.68507
  20787982.278 7 109241582.69107
  22021687.812 7 115724749.34307
  24166786.400 6 126997318.87406
 19  9  8  5 13 57.0000000  0  9G29G20G21G23G31G32G14G26G16
  20788259.385 7 109243039.50807
  20788259.497 7 109243041.50507
  21899877.555 7 115084634.43107
  20788258.806 7 109243036.50707
  21368465.288 7 112292043.89607
  20788259.122 7 109243038.50607
  20788258.941 7 109243038.50307
  22021212.198 7 115722250.17607
  24166166.755 6 126994062.22206
 19  9  8  5 13 58.0000000  0  9G29G20G21G23G31G32G14G26G16
  20788536.401 7 109244495.72607
  20788536.825 7 109244497.73207
  21899435.026 7 115082308.92007
  20788535.707 7 109244492.73007
  21368683.977 7 112293193.31507
  20788536.021 7 109244494.72807
  20788536.201 7 109244494.72407
  22020736.623 7 115719751.30407
  24165547.168 6 126990805.70006
 19  9  8  5 13 59.0000000  0  9G29G20G21G23G31G32G14G26G16
  20788813.781 7 109245952.32907
  20788813.831 7 109245954.32807
  21898992.670 7 115079983.87607
  20788813.166 7 109245949.33307
  21368902.642 7 112294343.37307
  20788813.379 7 109245951.32907
  20788813.045 7 109245951.33007
  22020261.039 7 115717252.70507
  24164927.395 6 126987549.25506
 19  9  8  5 14  0.0000000  0  9G29G20G21G23G31G32G14G26G16
  20789090.959 7 109247409.27407
  20789091.185 7 109247411.27107
  21898550.474 7 115077659.27507
  20789090.304 7 109247406.27707
  21369121.834 7 112295494.01807
  20789090.611 7 109247408.27107
  20789090.146 7 109247408.27507
  22019785.672 7 115714754.35607
  24164307.577 6 126984292.88506
 19  9  8  5 14  1.0000000  0  9G29G20G21G23G31G32G14G26G16
  20789368.155 7 109248866.53907
  20789368.455 7 109248868.52907
  21898108.325 7 115075335.08807
  20789367.646 7 109248863.53007
  21369340.972 7 112296645.22907
  20789367.768 7 109248865.53107
  20789367.505 7 109248865.52607
  22019310.333 7 115712256.20407
  24163687.588 6 126981036.51506
 19  9  8  5 14  2.0000000  0  9G29G20G21G23G31G32G14G26G16
  20789645.462 7 109250324.21807
  20789645.837 7 109250326.22907
  21897665.924 7 115073011.41107
  20789645.183 7 109250321.22207
  21369560.196 7 112297797.12607
  20789645.459 7 109250323.21807
  20789645.061 7 109250323.22807
  22018835.145 7 115709758.40107
  24163067.800 6 126977780.31306
 19  9  8  5 14  3.0000000  0  9G29G20G21G23G31G32G14G26G16
  20789922.761 7 109251782.27407
  20789923.329 7 109251784.27007
  21897224.033 7 115070688.18807
  20789922.859 7 109251779.27007
  21369779.609 7 112298949.65307
  20789922.949 7 109251781.27107
  20789922.817 7 109251781.27307
  22018359.908 7 115707260.83507
  24162448.425 6 126974524.17206
 19  9  8  5 14  4.0000000  0  9G29G20G21G23G31G32G14G26G16
  20790200.334 7 109253240.65607
  20790200.730 7 109253242.65707
  21896782.011 7 115068365.40107
  20790200.681 7 109253237.65307
  21369998.712 7 112300102.75007
  20790200.419 7 109253239.65407
  20790200.237 7 109253239.65007
  22017884.569 7 115704763.50407
  24161828.748 6 126971268.07506
 19  9  8  5 14  5.0000000  0  9G29G20G21G23G31G32G14G26G16
  20790478.013 7 109254699.28507
  20790478.207 7 109254701.29507
  21896339.832 7 115066042.94507
  20790478.494 7 109254696.28207
  21370218.361 7 112301256.35207
  20790478.242 7 109254698.29307
  20790477.797 7 109254698.29207
  22017409.623 7 115702266.31907
  24161209.184 6 126968011.94706
 19  9  8  5 14  6.0000000  0  9G29G20G21G23G31G32G14G26G16
  20790755.641 7 109256158.38307
  20790755.732 7 109256160.38607
  21895897.933 7 115063721.04507
  20790756.097 7 109256155.38707
  21370438.364 7 112302410.66607
  20790755.954 7 109256157.38207
  20790755.478 7 109256157.37807
  22016934.422 7 115699769.49807
  24160590.158 6 126964755.98706
 19  9  8  5 14  7.0000000  0  9G29G20G21G23G31G32G14G26G16
  20791033.284 7 109257617.93407
  20791033.643 7 109257619.94007
  21895456.340 7 115061399.70707
  20791033.985 7 109257614.94207
  21370658.276 7 112303565.71207
  20791033.279 7 109257616.94107
  20791033.063 7 109257616.94007
  22016459.137 7 115697273.03607
  24159970.450 6 126961500.21906
 19  9  8  5 14  8.0000000  0  9G29G20G21G23G31G32G14G26G16
  20791310.950 7 109259078.09107
  20791311.669 7 109259080.09407
  21895014.895 7 115059079.06107
  20791311.678 7 109259075.09407
  21370878.195 7 112304721.59907
  20791311.124 7 109259077.09607
  20791311.078 7 109259077.10207
  22015984.061 7 115694777.07107
  24159350.872 6 126958244.75706
 19  9  8  5 14  9.0000000  0  9G29G20G21G23G31G32G14G26G16
  20791589.018 7 109260538.49107
  20791589.697 7 109260540.48507
  21894573.147 7 115056758.73807
  20791589.614 7 109260535.48507
  21371097.883 7 112305877.96907
  20791589.146 7 109260537.48007
  20791589.144 7 109260537.47807
  22015509.267 7 115692281.23407
  24158731.299 6 126954989.22706
 19  9  8  5 14 10.0000000  0  9G29G20G21G23G31G32G14G26G16
  20791867.096 7 109261999.21607
  20791867.503 7 109262001.21507
  21894131.376 7 115054438.84207
  20791867.255 7 109261996.21007
  21371318.117 7 112307034.94707
  20791867.341 7 109261998.21307
  20791867.134 7 109261998.21207
  22015034.626 7 115689785.64107
  24158111.756 6 126951733.75906
 19  9  8  5 14 11.0000000  0  9G29G20G21G23G31G32G14G26G16
  20792144.961 7 109263460.30107
  20792145.495 7 109263462.31407
  21893690.222 7 115052119.41507
  20792145.172 7 109263457.31207
  21371538.334 7 112308192.53207
  20792145.467 7 109263459.30807
  20792144.715 7 109263459.31107
  22014559.648 7 115687290.31007
  24157492.154 6 126948478.39106
 19  9  8  5 14 12.0000000  0  9G29G20G21G23G31G32G14G26G16
  20792423.198 7 109264921.54107
  20792423.465 7 109264923.53407
  21893249.034 7 115049800.20407
  20792423.030 7 109264918.52407
  21371758.425 7 112309350.50707
  20792423.505 7 109264920.52407
  20792422.722 7 109264920.53207
  22014084.600 7 115684795.00607
  24156872.703 6 126945222.83606
 19  9  8  5 14 13.0000000  0  9G29G20G21G23G31G32G14G26G16
  20792701.183 7 109266383.06807
  20792701.792 7 109266385.06307
  21892807.751 7 115047481.39607
  20792701.133 7 109266380.06107
  21371978.962 7 112310509.04007
  20792701.455 7 109266382.05907
  20792700.895 7 109266382.05807
  22013609.862 7 115682299.90807
  24156253.123 6 126941967.32106
 19  9  8  5 14 14.0000000  0  9G29G20G21G23G31G32G14G26G16
  20792979.617 7 109267844.88907
  20792980.093 7 109267846.88207
  21892366.539 7 115045162.97807
  20792978.965 7 109267841.89307
  21372199.553 7 112311668.10607
  20792979.503 7 109267843.89207
  20792979.219 7 109267843.89007
  22013134.989 7 115679804.99107
  24155633.578 6 126938711.79806
 19  9  8  5 14 15.0000000  0  9G29G20G21G23G31G32G14G26G16
  20793257.921 7 109269307.05907
  20793258.163 7 109269309.05507
  21891925.415 7 115042844.99107
  20793257.290 7 109269304.05907
  21372420.320 7 112312827.78907
  20793257.669 7 109269306.05707
  20793257.625 7 109269306.05907
  22012660.264 7 115677310.33507
  24155014.096 6 126935456.35506
 19  9  8  5 14 16.0000000  0  9G29G20G21G23G31G32G14G26G16
  20793536.038 7 109270769.64407
  20793536.342 7 109270771.63207
  21891484.502 7 115040527.50407
  20793536.045 7 109270766.63707
  21372641.102 7 112313988.12407
  20793536.392 7 109270768.63807
  20793536.031 7 109270768.64207
  22012185.583 7 115674815.96307
  24154394.514 6 126932201.00906
 19  9  8  5 14 17.0000000  0  9G29G20G21G23G31G32G14G26G16
  20793814.464 7 109272232.54207
  20793814.592 7 109272234.53907
  21891043.820 7 115038210.43907
  20793814.442 7 109272229.53907
  21372862.183 7 112315149.04407
  20793814.627 7 109272231.53307
  20793814.284 7 109272231.53907
  22011711.308 7 115672321.83707
  24153775.215 6 126928945.72206
 19  9  8  5 14 18.0000000  0  9G29G20G21G23G31G32G14G26G16
  20794092.877 7 109273695.69807
  20794093.274 7 109273697.69407
  21890603.081 7 115035893.72807
  20794092.845 7 109273692.69007
  21373082.995 7 112316310.47107
  20794093.079 7 109273694.68707
  20794092.717 7 109273694.69607
  22011236.794 7 115669827.85407
  24153155.805 6 126925690.39706
 19  9  8  5 14 19.0000000  0  9G29G20G21G23G31G32G14G26G16
  20794371.358 7 109275159.26207
  20794371.557 7 109275161.25807
  21890162.317 7 115033577.50907
  20794371.527 7 109275156.24807
  21373304.261 7 112317472.55207
  20794371.633 7 109275158.25607
  20794371.242 7 109275158.25707
  22010762.140 7 115667334.17507
  24152536.334 6 126922435.19706
 19  9  8  5 14 20.0000000  0  9G29G20G21G23G31G32G14G26G16
  20794649.925 7 109276623.20607
  20794650.298 7 109276625.21007
  21889721.629 7 115031261.78107
  20794650.134 7 109276620.21007
  21373525.281 7 112318635.28907
  20794650.118 7 109276622.20607
  20794649.696 7 109276622.21307
  22010287.513 7 115664840.78207
  24151916.853 6 126919180.10306
 19  9  8  5 14 21.0000000  0  9G29G20G21G23G31G32G14G26G16
  20794928.568 7 109278087.50307
  20794928.894 7 109278089.50607
  21889280.726 7 115028946.49107
  20794928.433 7 109278084.50307
  21373746.847 7 112319798.62007
  20794928.646 7 109278086.50207
  20794928.456 7 109278086.50607
  22009813.151 7 115662347.64307
  24151297.488 6 126915925.05306
 19  9  8  5 14 22.0000000  0  9G29G20G21G23G31G32G14G26G16
  20795207.019 7 109279552.20307
  20795207.579 7 109279554.20907
  21888840.135 7 115026631.69507
  20795207.073 7 109279549.19807
  21373968.294 7 112320962.60107
  20795207.376 7 109279551.20607
  20795207.134 7 109279551.21007
  22009338.811 7 115659854.79707
  24150678.218 6 126912670.13306
 19  9  8  5 14 23.0000000  0  9G29G20G21G23G31G32G14G26G16
  20795485.724 7 109281017.27007
  20795486.358 7 109281019.26907
  21888399.452 7 115024317.35907
  20795485.920 7 109281014.27707
  21374189.735 7 112322127.20707
  20795486.271 7 109281016.26307
  20795485.882 7 109281016.27307
  22008864.492 7 115657362.21307
  24150058.859 6 126909415.29406
 19  9  8  5 14 24.0000000  0  9G29G20G21G23G31G32G14G26G16
  20795764.618 7 109282482.62207
  20795765.416 7 109282484.61607
  21887959.306 7 115022003.40007
  20795764.845 7 109282479.62107
  21374411.441 7 112323292.33607
  20795765.061 7 109282481.61907
  20795764.828 7 109282481.62407
  22008390.410 7 115654869.82807
  24149439.756 6 126906160.44406
 19  9  8  5 14 25.0000000  0  9G29G20G21G23G31G32G14G26G16
  20796043.497 7 109283948.37907
  20796044.309 7 109283950.38107
  21887519.086 7 115019689.95607
  20796043.855 7 109283945.37807
  21374633.362 7 112324458.14407
  20796044.013 7 109283947.37307
  20796043.702 7 109283947.37207
  22007916.014 7 115652377.74907
  24148820.290 6 126902905.73006
 19  9  8  5 14 26.0000000  0  9G29G20G21G23G31G32G14G26G16
  20796322.839 7 109285414.51907
  20796323.190 7 109285416.52907
  21887078.991 7 115017376.97307
  20796322.662 7 109285411.51907
  21374855.428 7 112325624.58107
  20796322.810 7 109285413.52007
  20796322.694 7 109285413.51307
  22007441.544 7 115649885.94007
  24148200.936 6 126899651.11306
 19  9  8  5 14 27.0000000  0  9G29G20G21G23G31G32G14G26G16
  20796601.809 7 109286881.07007
  20796602.290 7 109286883.06107
  21886638.906 7 115015064.50107
  20796601.623 7 109286878.06007
  21375077.640 7 112326791.68207
  20796601.906 7 109286880.06407
  20796601.856 7 109286880.06007
  22006967.501 7 115647394.43507
  24147581.414 6 126896396.61106
 19  9  8  5 14 28.0000000  0  9G29G20G21G23G31G32G14G26G16
  20796881.182 7 109288348.08207
  20796881.498 7 109288350.08707
  21886199.070 7 115012752.59807
  20796880.869 7 109288345.07507
  21375300.101 7 112327959.51507
  20796881.188 7 109288347.07907
  20796881.021 7 109288347.07707
  22006493.451 7 115644903.30507
  24146962.004 6 126893142.29506
 19  9  8  5 14 29.0000000  0  9G29G20G21G23G31G32G14G26G16
  20797160.497 7 109289815.40207
  20797160.579 7 109289817.39707
  21885759.087 7 115010441.08407
  20797160.350 7 109289812.39807
  21375522.311 7 112329127.88007
  20797160.351 7 109289814.39507
  20797159.975 7 109289814.39507
  22006019.574 7 115642412.37807
  24146342.568 6 126889888.00106
 19  9  8  5 14 30.0000000  0  9G29G20G21G23G31G32G14G26G16
  20797439.654 7 109291282.91707
  20797439.621 7 109291284.92007
  21885319.315 7 115008129.86907
  20797439.322 7 109291279.91507
  21375744.828 7 112330296.72207
  20797439.570 7 109291281.92207
  20797439.287 7 109291281.92407
  22005545.520 7 115639921.56707
  24145723.120 6 126886633.61306
 19  9  8  5 14 31.0000000  0  9G29G20G21G23G31G32G14G26G16
  20797718.918 7 109292750.78207
  20797719.038 7 109292752.77407
  21884879.863 7 115005819.09207
  20797719.275 7 109292747.77807
  21375967.242 7 112331466.14707
  20797719.037 7 109292749.78107
  20797718.663 7 109292749.78307
  22005071.623 7 115637430.98207
  24145103.871 6 126883379.29406
 19  9  8  5 14 32.0000000  0  9G29G20G21G23G31G32G14G26G16
  20797998.330 7 109294218.96307
  20797998.223 7 109294220.95707
  21884440.105 7 115003508.72307
  20797998.235 7 109294215.95807
  21376189.694 7 112332636.14607
  20797998.492 7 109294217.95507
  20797998.233 7 109294217.94907
  22004597.791 7 115634940.60407
  24144484.658 6 126880125.01106
 19  9  8  5 14 33.0000000  0  9G29G20G21G23G31G32G14G26G16
  20798277.685 7 109295687.51407
  20798277.937 7 109295689.51207
  21884000.590 7 115001198.83307
  20798277.646 7 109295684.51407
  21376412.596 7 112333806.77807
  20798278.221 7 109295686.51907
  20798277.598 7 109295686.51707
  22004123.832 7 115632450.52507
  24143865.478 6 126876870.81406
 19  9  8  5 14 34.0000000  0  9G29G20G21G23G31G32G14G26G16
  20798557.317 7 109297156.40307
  20798557.659 7 109297158.40407
  21883561.095 7 114998889.37607
  20798557.051 7 109297153.40507
  21376635.593 7 112334978.00907
  20798557.848 7 109297155.40107
  20798556.819 7 109297155.41507
  22003650.173 7 115629960.68207
  24143246.485 6 126873616.66906
 19  9  8  5 14 35.0000000  0  9G29G20G21G23G31G32G14G26G16
  20798837.051 7 109298625.67507
  20798837.154 7 109298627.67507
  21883121.681 7 114996580.38607
  20798836.753 7 109298622.66707
  21376858.515 7 112336149.85507
  20798837.350 7 109298624.67607
  20798836.393 7 109298624.66707
  22003176.585 7 115627471.09807
  24142627.417 6 126870362.61706
 19  9  8  5 14 36.0000000  0  9G29G20G21G23G31G32G14G26G16
  20799116.737 7 109300095.27807
  20799116.948 7 109300097.28107
  21882682.429 7 114994271.83907
  20799116.265 7 109300092.28407
  21377081.523 7 112337322.30307
  20799116.621 7 109300094.28607
  20799116.009 7 109300094.28807
  22002702.759 7 115624981.76707
  24142008.501 6 126867108.62706
 19  9  8  5 14 37.0000000  0  9G29G20G21G23G31G32G14G26G16
  20799396.116 7 109301565.23807
  20799396.697 7 109301567.23907
  21882243.367 7 114991963.72707
  20799395.962 7 109301562.24307
  21377304.826 7 112338495.34707
  20799396.413 7 109301564.23407
  20799395.930 7 109301564.24507
  22002229.012 7 115622492.68307
  24141389.182 6 126863854.68706
 19  9  8  5 14 38.0000000  0  9G29G20G21G23G31G32G14G26G16
  20799675.869 7 109303035.57807
  20799676.495 7 109303037.57407
  21881804.197 7 114989656.10107
  20799675.720 7 109303032.57507
  21377528.136 7 112339669.02907
  20799676.102 7 109303034.58507
  20799675.606 7 109303034.57907
  22001755.463 7 115620003.89807
  24140769.952 6 126860600.86806
 19  9  8  5 14 39.0000000  0  9G29G20G21G23G31G32G14G26G16
  20799956.018 7 109304506.26507
  20799956.236 7 109304508.26607
  21881364.943 7 114987348.91607
  20799955.941 7 109304503.26907
  21377751.550 7 112340843.31507
  20799955.804 7 109304505.26907
  20799955.281 7 109304505.26907
  22001281.836 7 115617515.33807
  24140150.617 6 126857347.10006
 19  9  8  5 14 40.0000000  0  9G29G20G21G23G31G32G14G26G16
  20800235.545 7 109305977.30107
  20800236.200 7 109305979.29507
  21880925.765 7 114985042.16607
  20800235.997 7 109305974.30107
  21377975.274 7 112342018.20407
  20800236.016 7 109305976.29407
  20800235.261 7 109305976.30107
  22000808.379 7 115615027.03807
  24139531.334 6 126854093.39006
 19  9  8  5 14 41.0000000  0  9G29G20G21G23G31G32G14G26G16
  20800515.641 7 109307448.67307
  20800516.159 7 109307450.67107
  21880486.953 7 114982735.87307
  20800515.808 7 109307445.67107
  21378198.811 7 112343193.69507
  20800515.846 7 109307447.67907
  20800515.370 7 109307447.67607
  22000334.595 7 115612538.97807
  24138912.058 6 126850839.75006
 19  9  8  5 14 42.0000000  0  9G29G20G21G23G31G32G14G26G16
  20800795.882 7 109308920.37507
  20800795.977 7 109308922.36607
  21880048.398 7 114980429.98607
  20800795.821 7 109308917.36507
  21378422.561 7 112344369.75807
  20800795.940 7 109308919.36907
  20800795.627 7 109308919.36707
  21999861.438 7 115610051.14407
  24138292.967 6 126847586.14106
 19  9  8  5 14 43.0000000  0  9G29G20G21G23G31G32G14G26G16
  20801076.153 7 109310392.43907
  20801076.059 7 109310394.43807
  21879609.903 7 114978124.56307
  20801076.111 7 109310389.44307
  21378646.356 7 112345546.43407
  20801075.983 7 109310391.43807
  20801075.845 7 109310391.43107
  21999388.123 7 115607563.58007
  24137674.107 6 126844332.62006
 19  9  8  5 14 44.0000000  0  9G29G20G21G23G31G32G14G26G16
  20801356.486 7 109311864.85007
  20801356.278 7 109311866.84607
  21879171.388 7 114975819.58607
  20801356.085 7 109311861.84707
  21378870.416 7 112346723.70507
  20801356.149 7 109311863.85907
  20801355.739 7 109311863.84707
  21998914.677 7 115605076.26007
  24137055.102 6 126841079.15706
 19  9  8  5 14 45.0000000  0  9G29G20G21G23G31G32G14G26G16
  20801636.725 7 109313337.62407
  20801636.484 7 109313339.63007
  21878732.796 7 114973515.07607
  20801636.287 7 109313334.63307
  21379094.478 7 112347901.62407
  20801636.426 7 109313336.62907
  20801636.011 7 109313336.62707
  21998441.469 7 115602589.22207
  24136436.117 6 126837825.79106
 19  9  8  5 14 46.0000000  0  9G29G20G21G23G31G32G14G26G16
  20801916.964 7 109314810.80107
  20801916.789 7 109314812.79407
  21878294.254 7 114971211.05807
  20801916.585 7 109314807.80607
  21379318.832 7 112349080.16807
  20801916.733 7 109314809.81507
  20801916.220 7 109314809.81407
  21997968.544 7 115600102.46007
  24135816.906 6 126834572.53306
 19  9  8  5 14 47.0000000  0  9G29G20G21G23G31G32G14G26G16
  20802197.477 7 109316284.34907
  20802197.492 7 109316286.34707
  21877855.513 7 114968907.49607
  20802197.171 7 109316281.34607
  21379543.366 7 112350259.35207
  20802197.335 7 109316283.34207
  20802196.854 7 109316283.35007
  21997495.511 7 115597615.98207
  24135197.525 6 126831319.35706
 19  9  8  5 14 48.0000000  0  9G29G20G21G23G31G32G14G26G16
  20802477.862 7 109317758.15607
  20802477.942 7 109317760.15807
  21877417.207 7 114966604.31407
  20802477.805 7 109317755.15207
  21379767.834 7 112351439.04707
  20802477.699 7 109317757.15607
  20802477.328 7 109317757.15807
  21997022.601 7 115595129.66907
  24134578.695 6 126828066.16206
 19  9  8  5 14 49.0000000  0  9G29G20G21G23G31G32G14G26G16
  20802758.005 7 109319232.31607
  20802758.660 7 109319234.31307
  21876978.890 7 114964301.58007
  20802758.320 7 109319229.31907
  21379992.408 7 112352619.34907
  20802758.040 7 109319231.32207
  20802757.910 7 109319231.32507
  21996549.297 7 115592643.61707
  24133959.697 6 126824813.04606
 19  9  8  5 14 50.0000000  0  9G29G20G21G23G31G32G14G26G16
  20803038.720 7 109320706.83307
  20803039.137 7 109320708.83407
  21876540.903 7 114961999.28807
  20803038.963 7 109320703.83907
  21380217.059 7 112353800.25407
  20803038.512 7 109320705.83807
  20803038.632 7 109320705.83307
  21996076.065 7 115590157.81107
  24133340.690 6 126821559.99306
 19  9  8  5 14 51.0000000  0  9G29G20G21G23G31G32G14G26G16
  20803319.463 7 109322181.62307
  20803319.575 7 109322183.61907
  21876102.969 7 114959697.35907
  20803319.586 7 109322178.61907
  21380442.188 7 112354981.69107
  20803319.145 7 109322180.61907
  20803319.189 7 109322180.62307
  21995603.201 7 115587672.17607
  24132721.892 6 126818306.93706
 19  9  8  5 14 52.0000000  0  9G29G20G21G23G31G32G14G26G16
  20803600.136 7 109323656.81207
  20803600.393 7 109323658.81607
  21875664.893 7 114957395.95107
  20803600.097 7 109323653.81707
  21380667.000 7 112356163.78107
  20803600.073 7 109323655.81507
  20803600.005 7 109323655.81207
  21995130.365 7 115585186.86207
  24132102.644 6 126815053.98806
 19  9  8  5 14 53.0000000  0  9G29G20G21G23G31G32G14G26G16
  20803880.816 7 109325132.42607
  20803881.060 7 109325134.43307
  21875226.737 7 114955095.04607
  20803881.041 7 109325129.43207
  21380892.025 7 112357346.55407
  20803881.048 7 109325131.43307
  20803880.970 7 109325131.42607
  21994657.683 7 115582701.87707
  24131483.135 6 126811801.20706
 19  9  8  5 14 54.0000000  0  9G29G20G21G23G31G32G14G26G16
  20804161.887 7 109326608.31507
  20804161.830 7 109326610.31707
  21874789.346 7 114952794.53507
  20804161.507 7 109326605.32307
  21381117.178 7 112358529.85307
  20804161.935 7 109326607.32107
  20804161.535 7 109326607.31907
  21994184.752 7 115580217.06107
  24130864.055 6 126808548.39306
 19  9  8  5 14 55.0000000  0  9G29G20G21G23G31G32G14G26G16
  20804442.812 7 109328084.53707
  20804442.787 7 109328086.54307
  21874351.888 7 114950494.43407
  20804442.450 7 109328081.54407
  21381342.456 7 112359713.73807
  20804443.005 7 109328083.53907
  20804442.222 7 109328083.55007
  21993711.665 7 115577732.47907
  24130245.391 6 126805295.64806
 19  9  8  5 14 56.0000000  0  9G29G20G21G23G31G32G14G26G16
  20804723.790 7 109329561.16207
  20804723.941 7 109329563.15807
  21873914.214 7 114948194.84907
  20804723.435 7 109329558.16707
  21381567.888 7 112360898.27307
  20804723.940 7 109329560.15907
  20804722.913 7 109329560.16107
  21993238.659 7 115575248.20707
  24129626.451 6 126802043.01506
 19  9  8  5 14 57.0000000  0  9G29G20G21G23G31G32G14G26G16
  20805004.575 7 109331038.15607
  20805004.823 7 109331040.15307
  21873476.596 7 114945895.71307
  20805004.489 7 109331035.15107
  21381793.333 7 112362083.44507
  20805005.388 7 109331037.14907
  20805004.139 7 109331037.14807
  21992766.063 7 115572764.19407
  24129007.736 6 126798790.45706
 19  9  8  5 14 58.0000000  0  9G29G20G21G23G31G32G14G26G16
  20805285.756 7 109332515.46807
  20805286.343 7 109332517.46007
  21873039.028 7 114943597.01207
  20805285.721 7 109332512.46707
  21382018.809 7 112363269.18407
  20805286.098 7 109332514.46607
  20805285.537 7 109332514.46907
  21992293.294 7 115570280.42507
  24128388.909 6 126795537.96206
 19  9  8  5 14 59.0000000  0  9G29G20G21G23G31G32G14G26G16
  20805567.115 7 109333993.10507
  20805567.687 7 109333995.10307
  21872601.467 7 114941298.71607
  20805566.925 7 109333990.09607
  21382244.485 7 112364455.49707
  20805567.033 7 109333992.09607
  20805566.642 7 109333992.10207
  21991820.384 7 115567796.85907
  24127769.859 6 126792285.48706
 19  9  8  5 15  0.0000000  0  9G29G20G21G23G31G32G14G26G16
  20805848.442 7 109335471.12007
  20805848.932 7 109335473.11207
  21872164.329 7 114939000.90907
  20805848.412 7 109335468.11607
  21382470.462 7 112365642.45007
  20805848.380 7 109335470.12107
  20805848.024 7 109335470.12107
  21991347.962 7 115565313.60207
  24127151.142 6 126789033.12506
 19  9  8  5 15  1.0000000  0  9G29G20G21G23G31G32G14G26G16
  20806129.858 7 109336949.48307
  20806130.161 7 109336951.48607
  21871727.306 7 114936703.54907
  20806129.916 7 109336946.47707
  21382696.510 7 112366830.00407
  20806129.687 7 109336948.48207
  20806129.475 7 109336948.48107
  21990875.626 7 115562830.58407
  24126532.432 6 126785780.83006
 19  9  8  5 15  2.0000000  0  9G29G20G21G23G31G32G14G26G16
  20806410.981 7 109338428.20407
  20806411.496 7 109338430.20607
  21871290.488 7 114934406.64407
  20806411.285 7 109338425.19607
  21382922.476 7 112368018.15707
  20806411.469 7 109338427.19407
  20806410.864 7 109338427.21007
  21990403.330 7 115560347.81707
  24125913.491 6 126782528.60706
 19  9  8  5 15  3.0000000  0  9G29G20G21G23G31G32G14G26G16
  20806692.569 7 109339907.25207
  20806693.024 7 109339909.24807
  21870853.310 7 114932110.17307
  20806692.608 7 109339904.24207
  21383148.800 7 112369206.90407
  20806692.469 7 109339906.24507
  20806692.337 7 109339906.24607
  21989930.980 7 115557865.29107
  24125294.544 6 126779276.42506
 19  9  8  5 15  4.0000000  0  9G29G20G21G23G31G32G14G26G16
  20806973.985 7 109341386.65307
  20806974.462 7 109341388.65407
  21870416.453 7 114929814.14107
  20806973.877 7 109341383.65007
  21383375.275 7 112370396.24907
  20806974.102 7 109341385.64707
  20806974.155 7 109341385.64907
  21989458.501 7 115555383.02107
  24124675.764 6 126776024.31206
 19  9  8  5 15  5.0000000  0  9G29G20G21G23G31G32G14G26G16
  20807255.450 7 109342866.44407
  20807256.060 7 109342868.44507
  21869979.518 7 114927518.61307
  20807255.374 7 109342863.43907
  21383601.837 7 112371586.25007
  20807255.628 7 109342865.44307
  20807255.625 7 109342865.44707
  21988985.843 7 115552901.05807
  24124056.776 6 126772772.32506
 19  9  8  5 15  6.0000000  0  9G29G20G21G23G31G32G14G26G16
  20807537.217 7 109344346.54407
  20807537.471 6 109344348.54606
  21869542.587 7 114925223.48107
  20807537.169 6 109344343.54106
  21383828.291 7 112372776.81407
  20807537.216 6 109344345.54206
  20807537.235 7 109344345.54607
  21988513.811 7 115550419.29907
  24123437.781 6 126769520.36406
 19  9  8  5 15  7.0000000  0  9G29G20G21G23G31G32G14G26G16
  20807818.913 7 109345827.01407
  20807818.983 7 109345829.01107
  21869106.060 7 114922928.81807
  20807819.106 7 109345824.01707
  21384054.870 7 112373968.00007
  20807818.906 6 109345826.01006
  20807819.268 7 109345826.01107
  21988041.574 7 115547937.81207
  24122819.321 6 126766268.48406
 19  9  8  5 15  8.0000000  0  9G29G20G21G23G31G32G14G26G16
  20808100.673 7 109347307.80207
  20808100.635 6 109347309.80506
  21868669.585 6 114920634.58006
  20808101.121 7 109347304.80007
  21384281.538 7 112375159.74907
  20808100.643 7 109347306.80407
  20808100.592 6 109347306.79906
  21987569.243 7 115545456.54607
  24122200.327 6 126763016.63106
 19  9  8  5 15  9.0000000  0  9G29G20G21G23G31G32G14G26G16
  20808382.369 6 109348788.87106
  20808382.368 6 109348790.86706
  21868233.023 6 114918340.72106
  20808382.934 6 109348785.86606
  21384508.454 6 112376352.04906
  20808382.566 6 109348787.86706
  20808382.177 6 109348787.87506
  21987097.418 6 115542975.46406
  24121581.446 6 126759764.79006
 19  9  8  5 15 10.0000000  0  9G29G20G21G23G31G32G14G26G16
  20808664.375 6 109350270.31506
  20808664.418 6 109350272.32006
  21867796.795 6 114916047.32906
  20808664.771 6 109350267.31706
  21384735.601 6 112377544.96606
  20808664.588 6 109350269.30906
  20808664.213 6 109350269.31406
  21986625.481 6 115540494.67106
  24120962.698 6 126756513.04906
 19  9  8  5 15 11.0000000  0  9G29G20G21G23G31G32G14G26G16
  20808946.515 6 109351752.18206
  20808946.564 6 109351754.18206
  21867360.569 6 114913754.46306
  20808946.854 6 109351749.17506
  21384962.696 6 112378738.55106
  20808946.616 6 109351751.17606
  20808946.053 6 109351751.17206
  21986153.452 6 115538014.18106
  24120343.733 6 126753261.43406
 19  9  8  5 15 12.0000000  0  9G29G20G21G23G31G32G14G26G16
  20809228.982 6 109353234.38106
  20809228.813 6 109353236.38206
  21866924.248 6 114911462.03506
  20809228.882 6 109353231.37806
  21385189.933 6 112379932.74606
  20809228.491 6 109353233.38306
  20809228.171 6 109353233.38006
  21985681.456 6 115535533.96506
  24119724.886 6 126750009.89706
 19  9  8  5 15 13.0000000  0  9G29G20G21G23G31G32G14G26G16
  20809511.228 6 109354716.92806
  20809511.176 6 109354718.93906
  21866487.955 6 114909170.06706
  20809510.995 6 109354713.93906
  21385417.428 6 112381127.53106
  20809510.441 6 109354715.93506
  20809510.215 6 109354715.94206
  21985209.627 6 115533053.99206
  24119106.172 6 126746758.41906
 19  9  8  5 15 14.0000000  0  9G29G20G21G23G31G32G14G26G16
  20809793.022 6 109356199.84606
  20809793.306 7 109356201.84807
  21866052.015 7 114906878.54607
  20809793.001 7 109356196.85207
  21385644.776 7 112382322.94307
  20809792.791 6 109356198.84806
  20809792.392 7 109356198.84507
  21984737.419 6 115530574.27506
  24118487.473 6 126743507.01006
 19  9  8  5 15 15.0000000  0  9G29G20G21G23G31G32G14G26G16
  20810075.300 6 109357683.10606
  20810075.293 6 109357685.10506
  21865615.874 6 114904587.48506
  20810075.405 6 109357680.11506
  21385872.220 6 112383518.95906
  20810075.196 6 109357682.11406
  20810074.880 7 109357682.11207
  21984265.732 7 115528094.82507
  24117868.716 6 126740255.68206
 19  9  8  5 15 16.0000000  0  9G29G20G21G23G31G32G14G26G16
  20810357.571 7 109359166.74007
  20810357.588 7 109359168.74307
  21865180.037 6 114902296.88906
  20810357.547 6 109359163.74106
  21386100.030 6 112384715.58106
  20810357.491 6 109359165.73506
  20810357.278 7 109359165.74007
  21983793.963 6 115525615.64006
  24117250.031 6 126737004.44806
 19  9  8  5 15 17.0000000  0  9G29G20G21G23G31G32G14G26G16
  20810639.930 6 109360650.72106
  20810640.009 7 109360652.72007
  21864744.383 6 114900006.73806
  20810639.706 6 109360647.71106
  21386328.160 6 112385912.82706
  20810639.812 6 109360649.72106
  20810639.464 7 109360649.71707
  21983322.191 7 115523136.71807
  24116631.473 6 126733753.27406
 19  9  8  5 15 18.0000000  0  9G29G20G21G23G31G32G14G26G16
  20810922.525 6 109362135.06506
  20810922.208 7 109362137.06707
  21864308.361 6 114897717.05406
  20810922.137 7 109362132.06807
  21386556.018 7 112387110.67707
  20810922.301 7 109362134.06707
  20810922.136 7 109362134.05907
  21982850.558 7 115520658.06307
  24116012.891 6 126730502.19406
 19  9  8  5 15 19.0000000  0  9G29G20G21G23G31G32G14G26G16
  20811204.781 7 109363619.68907
  20811204.943 7 109363621.69307
  21863872.789 6 114895427.75706
  20811204.797 7 109363616.69007
  21386784.238 7 112388309.07007
  20811204.752 6 109363618.68706
  20811204.854 7 109363618.69707
  21982378.983 7 115518179.59907
  24115394.281 6 126727251.11006
