     3.04           OBSERVATION DATA    M: Mixed            RINEX VERSION / TYPE
RTKCONV demo5 b34i                      20250404 083045 UTC PGM / RUN BY / DATE 
format: u-blox UBX                                          COMMENT             
log: D:\20242\demo5_b34i\data\chung\svd2.ubx                COMMENT             
                                                            MARKER NAME         
                                                            MARKER NUMBER       
                                                            MARKER TYPE         
                                                            OBSERVER / AGENCY   
                                                            REC # / TYPE / VERS 
                                                            ANT # / TYPE        
 -1626736.5463  5730523.4540  2271689.9887                  APPROX POSITION XYZ 
        0.0000        0.0000        0.0000                  ANTENNA: DELTA H/E/N
G    8 C1C L1C D1C S1C C2X L2X D2X S2X                      SYS / # / OBS TYPES 
  2025    04    04    08    14   43.9990000     GPS         TIME OF FIRST OBS   
  2025    04    04    08    30   23.0000000     GPS         TIME OF LAST OBS    
G L1C                                                       SYS / PHASE SHIFT   
G L2X  0.00000                                              SYS / PHASE SHIFT   
  0                                                         GLONASS SLOT / FRQ #
 C1C    0.000 C1P    0.000 C2C    0.000 C2P    0.000        GLONASS COD/PHS/BIS 
                                                            END OF HEADER       
> 2025 04 04 08 14 43.9990000  0 10                     
G06  21763021.185   114365445.2151      -2479.676          43.000    21763024.383    89115942.2931      -1932.308          38.000  
G11  21525331.927   113116380.2761      -1342.625          45.000    21525331.320    88142633.5381      -1046.421          38.000  
G12  22297627.050   117174821.3031        676.563          40.000    22297630.027    91305060.5181        526.683          39.000  
G17  22309526.565   117237351.2891      -2641.110          42.000    22309531.738    91353802.6701      -2057.846          33.000  
G19  20495274.113   107703394.1321      -1693.964          44.000                                                                  
G20  20395790.332   107180606.1531       -258.386          45.000                                                                  
G05  22887049.817   120272261.9841       1847.882          44.000    22887055.146    93718659.5931       1440.076          40.000  
G09  23249726.821   122178124.3751      -1416.889          33.000    23249738.857    95203793.6531      -1103.670          34.000  
G14  23942682.251   125819662.5591      -4972.785          36.000    23942686.037    98041304.9761      -3874.687          37.000  
G22  22354735.465   117474911.2061      -4327.507          43.000                                                                  
> 2025 04 04 08 14 44.9990000  0 10                     
G06  21763493.219   114367925.451       -2478.385          42.000    21763496.393    89117874.944       -1931.426          38.000  
G11  21525587.543   113117723.499       -1341.569          45.000    21525586.975    88143680.180       -1045.053          38.000  
G12  22297498.409   117174145.769         677.150          39.000    22297501.489    91304534.122         527.410          40.000  
G17  22310029.296   117239993.202       -2640.284          42.000    22310034.584    91355861.341       -2057.745          34.000  
G19  20495596.597   107705088.758       -1693.109          44.000                                                                  
G20  20395839.650   107180865.412        -257.947          45.000                                                                  
G05  22886698.452   120270414.689        1848.781          44.000    22886703.598    93717220.138        1440.926          40.000  
G09  23249996.686   122179542.143       -1416.446          34.000    23250008.545    95204898.404       -1103.478          34.000  
G14  23943628.579   125824635.525       -4970.861          35.000    23943632.423    98045179.996       -3873.670          38.000  
G22  22355559.076   117479239.386       -4326.338          43.000                                                                  
> 2025 04 04 08 14 45.9990000  0 10                     
G06  21763965.057   114370404.830       -2479.766          43.000    21763968.109    89119806.897       -1932.296          37.000  
G11  21525843.012   113119065.944       -1342.585          44.000    21525842.536    88144726.244       -1046.071          38.000  
G12  22297369.743   117173469.948         675.424          39.000    22297372.928    91304007.492         526.235          40.000  
G17  22310531.908   117242634.552       -2641.607          41.000    22310537.288    91357919.527       -2058.237          34.000  
G19  20495919.075   107706782.905       -1694.641          44.000                                                                  
G20  20395889.019   107181124.327        -259.546          45.000                                                                  
G05  22886346.793   120268566.833        1847.472          44.000    22886351.986    93715780.261        1439.753          40.000  
G09  23250266.869   122180959.562       -1417.802          35.000    23250278.226    95206002.876       -1104.947          34.000  
G14  23944574.967   125829607.585       -4972.392          34.000    23944578.686    98049054.369       -3874.854          38.000  
G22  22356382.641   117483566.977       -4328.064          43.000                                                                  
> 2025 04 04 08 14 46.9990000  0 10                     
G06  21764436.902   114372884.914       -2481.025          43.000    21764440.052    89121739.429       -1933.176          37.000  
G11  21526098.644   113120409.225       -1344.041          44.000    21526098.210    88145772.978       -1047.504          38.000  
G12  22297241.350   117172795.376         673.257          38.000    22297244.662    91303481.851         524.568          40.000  
G17  22311034.750   117245276.961       -2643.226          41.000    22311040.011    91359978.517       -2059.712          34.000  
G19  20496241.706   107708478.158       -1696.277          44.000                                                                  
G20  20395938.597   107181384.482        -261.230          45.000                                                                  
G05  22885995.410   120266720.013        1845.923          44.000    22886000.544    93714341.191        1438.269          40.000  
G09  23250536.771   122182378.183       -1419.287          35.000    23250547.952    95207108.300       -1106.047          34.000  
G14  23945521.445   125834580.369       -4973.427          34.000    23945525.012    98052929.245       -3875.705          38.000  
G22  22357206.401   117487895.518       -4329.514          43.000                                                                  
> 2025 04 04 08 14 47.9990000  0 10                     
G06  21764908.972   114375365.456       -2480.718          43.000    21764911.952    89123672.313       -1932.831          37.000  
G11  21526354.339   113121753.091       -1343.986          44.000    21526353.904    88146820.136       -1047.447          39.000  
G12  22297113.049   117172121.819         672.871          38.000    22297116.479    91302956.994         524.304          40.000  
G17  22311537.687   117247920.160       -2643.411          41.000    22311542.935    91362038.155       -2059.761          34.000  
G19  20496564.486   107710174.284       -1696.613          44.000                                                                  
G20  20395988.318   107181645.636        -261.755          45.000                                                                  
G05  22885644.108   120264873.963        1845.877          44.000    22885649.332    93712902.717        1438.175          40.000  
G09  23250806.844   122183797.781       -1420.250          34.000    23250818.102    95208214.547       -1106.680          34.000  
G14  23946467.959   125839553.585       -4973.601          34.000    23946471.441    98056804.490       -3875.602          38.000  
G22  22358030.203   117492224.749       -4329.642          43.000                                                                  
> 2025 04 04 08 14 48.9990000  0 10                     
G06  21765381.185   114377846.499       -2481.187          43.000    21765384.085    89125605.598       -1933.568          37.000  
G11  21526610.219   113123097.551       -1344.780          44.000    21526609.776    88147867.759       -1047.889          39.000  
G12  22296985.078   117171449.291         671.858          38.000    22296988.565    91302432.957         523.411          40.000  
G17  22312040.813   117250564.198       -2644.345          41.000    22312046.057    91364098.425       -2060.489          34.000  
G19  20496887.408   107711871.283       -1697.467          44.000                                                                  
G20  20396038.175   107181907.786        -262.561          45.000                                                                  
G05  22885293.007   120263028.724        1844.763          44.000    22885298.223    93711464.876        1437.427          40.000  
G09  23251077.224   122185218.440       -1421.132          34.000    23251088.629    95209321.514       -1107.171          35.000  
G14  23947414.552   125844527.314       -4973.804          33.000    23947417.966    98060680.111       -3875.674          38.000  
G22  22358854.182   117496554.722       -4330.262          44.000                                                                  
> 2025 04 04 08 14 49.9990000  0 10                     
G06  21765853.333   114380327.853       -2481.580          43.000    21765856.333    89127539.093       -1933.219          37.000  
G11  21526866.167   113124442.447       -1345.273          44.000    21526865.796    88148915.702       -1047.903          39.000  
G12  22296857.227   117170777.666         670.770          38.000    22296860.740    91301909.608         522.712          40.000  
G17  22312544.113   117253208.878       -2645.098          42.000    22312549.342    91366159.225       -2061.396          33.000  
G19  20497210.473   107713569.020       -1698.273          44.000                                                                  
G20  20396088.230   107182170.800        -263.599          45.000                                                                  
G05  22884941.927   120261184.129        1844.172          44.000    22884947.180    93710027.523        1436.829          40.000  
G09  23251347.703   122186639.880       -1421.621          34.000    23251359.070    95210429.175       -1108.382          35.000  
G14  23948361.237   125849501.353       -4974.598          33.000    23948364.572    98064555.985       -3876.330          38.000  
G22  22359678.233   117500885.255       -4330.954          44.000                                                                  
> 2025 04 04 08 14 50.9990000  0 10                     
G06  21766325.581   114382809.779       -2482.290          43.000    21766328.638    89129473.066       -1934.295          37.000  
G11  21527122.183   113125787.988       -1345.911          44.000    21527121.965    88149964.213       -1048.971          39.000  
G12  22296729.570   117170107.101         670.199          38.000    22296733.107    91301387.095         522.227          40.000  
G17  22313047.632   117255854.436       -2646.007          42.000    22313052.817    91368220.691       -2061.827          33.000  
G19  20497533.716   107715267.691       -1699.347          44.000                                                                  
G20  20396138.593   107182434.886        -264.734          45.000                                                                  
G05  22884591.132   120259340.386        1843.151          44.000    22884596.364    93708590.852        1436.008          40.000  
G09  23251618.207   122188062.424       -1423.148          34.000    23251629.754    95211537.620       -1108.544          35.000  
G14  23949307.889   125854475.877       -4974.732          32.000    23949311.247    98068432.281       -3876.668          38.000  
G22  22360502.481   117505216.582       -4331.884          44.000                                                                  
> 2025 04 04 08 14 51.9990000  0 10                     
G06  21766798.116   114385292.248       -2482.795          43.000    21766800.997    89131407.472       -1935.205          37.000  
G11  21527378.317   113127134.209       -1346.510          44.000    21527378.223    88151013.202       -1049.319          38.000  
G12  22296602.222   117169437.758         668.466          38.000    22296605.774    91300865.493         521.135          40.000  
G17  22313551.237   117258500.905       -2647.098          42.000    22313556.399    91370282.829       -2062.235          33.000  
G19  20497857.162   107716967.322       -1700.122          44.000                                                                  
G20  20396189.148   107182700.060        -265.918          45.000                                                                  
G05  22884240.441   120257497.502        1842.197          44.000    22884245.704    93707154.834        1435.441          40.000  
G09  23251889.176   122189486.025       -1424.328          34.000    23251900.562    95212646.912       -1109.707          35.000  
G14  23950254.657   125859451.031       -4975.533          32.000    23950258.009    98072308.981       -3877.372          38.000  
G22  22361326.827   117509548.706       -4332.511          44.000                                                                  
> 2025 04 04 08 14 52.9990000  0 10                     
G06  21767270.589   114387775.164       -2483.116          42.000    21767273.420    89133342.228       -1935.068          37.000  
G11  21527634.553   113128480.993       -1347.278          44.000    21527634.501    88152062.629       -1049.488          38.000  
G12  22296475.081   117168769.334         667.216          38.000    22296478.465    91300344.651         520.157          39.000  
G17  22314055.009   117261148.139       -2647.758          41.000    22314060.214    91372345.614       -2062.947          32.000  
G19  20498180.870   107718667.802       -1700.928          44.000                                                                  
G20  20396239.751   107182966.225        -266.858          45.000                                                                  
G05  22883889.935   120255655.355        1841.889          44.000    22883895.171    93705719.413        1434.957          40.000  
G09  23252159.889   122190910.636       -1425.062          35.000    23252171.577    95213756.972       -1110.301          35.000  
G14  23951201.490   125864426.598       -4976.184          32.000    23951204.882    98076186.013       -3876.980          38.000  
G22  22362151.279   117513881.523       -4333.153          44.000                                                                  
> 2025 04 04 08 14 53.9990000  0 10                     
G06  21767743.284   114390258.467       -2483.396          42.000    21767745.879    89135277.261       -1935.181          37.000  
G11  21527890.985   113129828.249       -1347.490          44.000    21527890.902    88153112.442       -1049.642          38.000  
G12  22296348.066   117168101.780         667.227          38.000    22296351.458    91299824.489         520.068          39.000  
G17  22314558.846   117263796.099       -2648.311          41.000    22314564.130    91374408.971       -2063.908          31.000  
G19  20498504.720   107720369.057       -1701.532          44.000                                                                  
G20  20396290.590   107183233.268        -267.395          45.000                                                                  
G05  22883539.643   120253813.930        1841.114          44.000    22883544.799    93704284.514        1434.743          40.000  
G09  23252431.098   122192336.097       -1425.673          35.000    23252442.783    95214867.735       -1110.856          35.000  
G14  23952148.479   125869402.457       -4975.524          31.000    23952151.836    98080063.381       -3877.300          38.000  
G22  22362975.943   117518214.980       -4333.600          44.000                                                                  
> 2025 04 04 08 14 54.9990000  0 11                     
G06  21768216.003   114392742.232       -2483.844          42.000    21768218.519    89137212.638       -1935.710          37.000  
G11  21528147.617   113131176.030       -1347.813          45.000    21528147.456    88154162.675       -1050.215          39.000  
G12  22296221.347   117167435.250         666.006          39.000    22296224.519    91299305.083         519.148          40.000  
G17  22315062.984   117266444.917       -2649.207          40.000    22315068.183    91376473.011       -2064.470          32.000  
G19  20498828.772   107722071.198       -1702.533          44.000                                                                  
G20  20396341.496   107183501.273        -268.536          45.000                                                                  
G05  22883189.355   120251973.220        1840.380          44.000    22883194.604    93702850.197        1433.839          40.000  
G09  23252702.348   122193762.612       -1426.535          34.000    23252714.313    95215979.290       -1112.265          35.000  
G14  23953095.185   125874378.914       -4976.261          28.000    23953098.863    98083941.050       -3877.634          39.000  
G04  25248547.081                       -2318.275          26.000                                                                  
G22  22363800.644   117522549.106       -4334.298          42.000                                                                  
> 2025 04 04 08 14 55.9990000  0 10                     
G06  21768688.817   114395226.640       -2484.652          42.000    21768691.221    89139148.522       -1935.969          39.000  
G11  21528404.279   113132524.607       -1348.975          44.000    21528404.079    88155213.524       -1051.022          40.000  
G12  22296094.807   117166769.941         664.688          40.000    22296097.826    91298786.728         517.556          39.000  
G17  22315567.354   117269094.637       -2650.228          40.000    22315572.415    91378537.693       -2065.291          34.000  
G19  20499152.952   107723774.354       -1703.619          44.000                                                                  
G20  20396392.794   107183770.489        -269.910          45.000                                                                  
G05  22882839.218   120250133.494        1839.357          44.000    22882844.542    93701416.655        1433.281          39.000  
G09  23252973.937   122195190.207       -1428.328          34.000    23252986.001    95217091.629       -1112.953          35.000  
G14  23954044.347                       -4975.453          26.000    23954046.181    98087819.192       -3878.174          39.000  
G22  22364625.436   117526884.143       -4335.279          43.000                                                                  
> 2025 04 04 08 14 56.9990000  0 10                     
G06  21769161.833   114397712.200       -2482.223          42.000    21769164.038    89141085.324       -1934.428          39.000  
G11  21528661.236   113133874.452       -1346.643          45.000    21528660.956    88156265.357       -1049.438          38.000  
G12  22295968.444   117166106.370         666.486          41.000    22295971.476    91298269.651         519.106          40.000  
G17  22316071.900   117271745.865       -2648.322          41.000    22316076.882    91380603.554       -2063.311          35.000  
G19  20499477.422   107725479.055       -1701.550          44.000                                                                  
G20  20396444.299   107184041.368        -267.816          46.000                                                                  
G05  22882489.302   120248295.240        1841.459          44.000    22882494.763    93699984.272        1435.010          39.000  
G09  23253245.604   122196619.467       -1426.644          35.000    23253257.988    95218205.340       -1111.352          36.000  
G14  23954992.431                       -4977.361          25.000    23954993.570    98091698.246       -3876.196          39.000  
G22  22365450.567   117531220.567       -4333.082          43.000                                                                  
> 2025 04 04 08 14 57.9990000  0 10                     
G06  21769634.788   114400197.093       -2486.383          42.000    21769636.767    89143021.595       -1937.531          38.000  
G11  21528918.031   113135223.731       -1350.832          45.000    21528917.683    88157316.735       -1052.590          38.000  
G12  22295842.164   117165442.672         662.231          40.000    22295845.257    91297752.482         515.843          39.000  
G17  22316576.469   117274396.708       -2652.543          40.000    22316581.417    91382669.183       -2066.990          36.000  
G19  20499801.819   107727183.466       -1705.676          44.000                                                                  
G20  20396495.760   107184312.086        -271.973          46.000                                                                  
G05  22882139.378   120246456.623        1837.013          44.000    22882144.936    93698551.606        1431.516          39.000  
G09  23253517.466   122198048.561       -1430.724          36.000    23253529.805    95219318.944       -1114.858          36.000  
G14  23955941.520                       -4981.014          25.000    23955940.989    98095576.816       -3879.761          39.000  
G22  22366275.723   117535556.564       -4337.368          42.000                                                                  
> 2025 04 04 08 14 58.9990000  0 10                     
G06  21770107.631   114402681.793       -2485.205          41.000    21770109.551    89144957.749       -1936.936          38.000  
G11  21529174.793   113136572.965       -1350.057          44.000    21529174.374    88158368.094       -1051.910          39.000  
G12  22295715.987   117164779.388         661.953          40.000    22295719.087    91297235.624         515.863          40.000  
G17  22317081.047   117277047.772       -2652.194          39.000    22317086.003    91384734.924       -2066.650          36.000  
G19  20500126.261   107728888.162       -1705.847          42.000                                                                  
G20  20396547.283   107184583.210        -272.205          46.000                                                                  
G05  22881789.550   120244618.165        1837.316          44.000    22881795.161    93697119.061        1431.472          40.000  
G09  23253789.372   122199478.101       -1430.536          36.000    23253801.804    95220432.848       -1114.734          37.000  
G22  22367100.817   117539892.669       -4337.144          42.000                                                                  
G14                                                                  23956888.228    98099455.221       -3879.178          40.000  
> 2025 04 04 08 14 59.9990000  0 10                     
G06  21770580.617   114405167.495       -2485.617          41.000    21770582.526    89146894.658       -1936.975          38.000  
G11  21529431.810   113137923.283       -1350.272          44.000    21529431.403    88159420.280       -1052.178          38.000  
G12  22295590.104   117164117.650         661.792          41.000    22295593.241    91296719.974         515.672          40.000  
G17  22317585.703   117279700.115       -2652.070          39.000    22317590.758    91386801.667       -2066.567          36.000  
G19  20500450.951   107730594.226       -1705.957          44.000                                                                  
G20  20396599.094   107184855.812        -272.626          46.000                                                                  
G05  22881439.886   120242780.987        1837.321          44.000    22881445.529    93695687.492        1431.419          40.000  
G09  23254061.536   122200908.957       -1430.779          36.000    23254074.027    95221547.778       -1115.687          37.000  
G14  23957843.241                       -4977.517          25.000    23957835.590    98103334.367       -3878.568          41.000  
G22  22367926.126   117544229.971       -4337.224          42.000                                                                  
> 2025 04 04 08 15 00.9990000  0 10                     
G06  21771053.696   114407653.479       -2486.417          41.000    21771055.485    89148831.775       -1937.383          38.000  
G11  21529688.834   113139273.974       -1351.154          44.000    21529688.518    88160472.792       -1053.340          39.000  
G12  22295464.432   117163456.724         659.991          41.000    22295467.425    91296204.987         514.322          40.000  
G17  22318090.596   117282353.099       -2653.524          42.000    22318095.674    91388868.882       -2068.080          36.000  
G19  20500775.642   107732300.947       -1707.214          44.000                                                                  
G20  20396651.143   107185129.232        -273.987          45.000                                                                  
G05  22881090.312   120240944.409        1836.108          44.000    22881096.009    93694256.388        1431.353          40.000  
G09  23254333.662   122202340.756       -1432.506          39.000    23254346.396    95222663.467       -1115.923          39.000  
G14  23958791.942                       -4977.211          25.000    23958783.018    98107213.716       -3880.185          42.000  
G22  22368751.517   117548567.809       -4338.367          41.000                                                                  
> 2025 04 04 08 15 01.9990000  0 10                     
G06  21771526.857   114410140.054       -2486.654          41.000    21771528.565    89150769.362       -1937.698          38.000  
G11  21529945.995   113140625.392       -1351.699          44.000    21529945.720    88161525.825       -1053.430          39.000  
G12  22295338.777   117162796.947         659.106          41.000    22295341.785    91295690.878         513.885          40.000  
G17  22318595.553   117285006.950       -2654.249          40.000    22318600.763    91390936.881       -2068.282          38.000  
G19  20501100.678   107734008.689       -1708.130          44.000                                                                  
G20  20396703.438   107185403.788        -274.768          45.000                                                                  
G05  22880740.977   120239108.760        1835.332          43.000    22880746.767    93692826.014        1430.182          40.000  
G09  23254606.295   122203773.681       -1433.118          38.000    23254619.169    95223780.008       -1116.789          39.000  
G14  23959736.542                       -4979.595          24.000    23959730.605    98111093.531       -3879.891          41.000  
G22  22369577.069   117552906.476       -4338.834          41.000                                                                  
> 2025 04 04 08 15 02.9990000  0 10                     
G06  21772000.173   114412627.162       -2487.878          41.000    21772001.805    89152707.393       -1938.787          38.000  
G11  21530203.352   113141977.442       -1352.954          44.000    21530202.898    88162579.322       -1053.624          39.000  
G12  22295213.568   117162138.248         657.839          41.000    22295216.389    91295177.588         512.648          40.000  
G17  22319100.760   117287661.707       -2655.441          40.000    22319105.935    91393005.508       -2069.478          38.000  
G19  20501425.895   107735717.330       -1709.338          44.000                                                                  
G20  20396755.878   107185679.383        -276.343          45.000                                                                  
G05  22880391.813   120237273.927        1833.824          43.000    22880397.468    93691396.278        1429.061          39.000  
G09  23254879.051   122205207.601       -1434.797          38.000    23254892.045    95224897.364       -1118.353          39.000  
G14  23960684.209   125914244.9813      -4980.174          31.000    23960678.153    98114973.715       -3880.243          37.000  
G22  22370402.670   117557245.919       -4340.271          42.000                                                                  
> 2025 04 04 08 15 03.9990000  0 10                     
G06  21772473.704   114415115.491       -2488.819          41.000    21772475.288    89154646.340       -1939.385          38.000  
G11  21530460.868   113143330.804       -1353.833          44.000    21530460.549    88163633.927       -1054.929          39.000  
G12  22295088.600   117161481.345         656.029          40.000    22295091.349    91294665.708         511.384          39.000  
G17  22319606.262   117290318.049       -2657.563          39.000    22319611.432    91395075.368       -2070.517          38.000  
G19  20501751.355   107737427.639       -1711.121          44.000                                                                  
G20  20396808.674   107185956.746        -278.363          45.000                                                                  
G05  22880042.803   120235440.650        1832.535          43.000    22880048.574    93689967.785        1427.682          40.000  
G09  23255152.107   122206643.276       -1436.333          38.000    23255165.197    95226016.047       -1119.235          39.000  
G14  23961628.701   125919207.7163      -4979.228          27.000    23961626.009    98118854.960       -3881.827          39.000  
G22  22371228.641   117561586.855       -4341.835          42.000                                                                  
> 2025 04 04 08 15 04.9990000  0 10                     
G06  21772947.479   114417604.974       -2489.882          41.000    21772948.952    89156586.195       -1940.131          38.000  
G11  21530718.818   113144685.456       -1355.190          44.000    21530718.264    88164689.508       -1056.088          39.000  
G12  22294963.877   117160826.122         654.801          40.000    22294966.674    91294155.166         509.986          39.000  
G17  22320111.957   117292975.813       -2658.434          40.000    22320117.264    91397146.370       -2071.478          38.000  
G19  20502077.050   107739139.465       -1712.372          44.000                                                                  
G20  20396861.773   107186235.760        -279.602          46.000                                                                  
G05  22879694.134   120233608.845        1830.994          43.000    22879700.057    93688540.362        1427.095          40.000  
G09  23255425.399   122208080.626       -1438.007          38.000    23255438.618    95227136.068       -1120.744          38.000  
G14  23962576.154   125924186.9283      -4982.338          29.000    23962574.123    98122737.005       -3882.370          39.000  
G22  22372055.051   117565929.121       -4342.658          42.000                                                                  
> 2025 04 04 08 15 05.9990000  0 10                     
G06  21773421.498   114420096.478       -2493.698          41.000    21773423.138    89158527.636       -1943.563          38.000  
G11  21530976.979   113146042.223       -1359.214          44.000    21530976.536    88165746.718       -1058.993          39.000  
G12  22294839.712   117160173.510         650.054          40.000    22294842.476    91293646.632         506.250          39.000  
G17  22320618.213   117295635.963       -2662.926          39.000    22320623.469    91399219.198       -2074.510          38.000  
G19  20502403.257   107740853.722       -1716.742          44.000                                                                  
G20  20396915.226   107186517.345        -284.076          46.000                                                                  
G05  22879345.873   120231779.335        1827.194          43.000    22879351.866    93687114.798        1423.828          39.000  
G09  23255699.348   122209520.492       -1442.451          38.000    23255712.726    95228258.048       -1123.797          39.000  
G14  23963524.840   125929172.9672      -4986.275          33.000    23963522.704    98126620.625       -3885.360          42.000  
G22  22372881.796   117570273.682       -4346.860          41.000                                                                  
> 2025 04 04 08 15 06.9990000  0 10                     
G06  21773895.458   114422587.027       -2490.854          41.000    21773897.027    89160468.320       -1941.353          38.000  
G11  21531234.995   113147398.129       -1356.336          44.000    21531234.586    88166803.260       -1056.614          39.000  
G12  22294715.461   117159520.454         652.371          41.000    22294718.203    91293137.762         508.335          39.000  
G17  22321124.231   117298295.474       -2659.859          39.000    22321129.540    91401291.550       -2072.771          38.000  
G19  20502729.282   107742567.421       -1714.465          44.000                                                                  
G20  20396968.593   107186798.494        -282.275          45.000                                                                  
G05  22878997.503   120229949.200        1829.594          43.000    22879003.584    93685688.727        1425.396          39.000  
G09  23255973.299   122210959.934       -1440.317          38.000    23255986.590    95229379.679       -1122.005          39.000  
G14  23964472.014   125934149.9042      -4983.074          33.000    23964471.005    98130503.472       -3882.854          41.000  
G22  22373708.432   117574617.512       -4344.024          41.000                                                                  
> 2025 04 04 08 15 07.9990000  0 10                     
G06  21774369.571   114425078.009       -2493.489          41.000    21774370.979    89162409.349       -1943.475          38.000  
G11  21531493.144   113148754.607       -1359.088          44.000    21531492.800    88167860.249       -1058.760          39.000  
G12  22294591.428   117158868.416         649.438          41.000    22294594.145    91292629.668         506.104          39.000  
G17  22321630.549   117300955.776       -2663.186          39.000    22321635.912    91403364.521       -2075.397          38.000  
G19  20503055.590   107744281.950       -1717.102          44.000                                                                  
G20  20397022.227   107187080.597        -284.692          45.000                                                                  
G05  22878649.329   120228119.825        1826.882          43.000    22878655.416    93684263.237        1423.159          39.000  
G09  23256247.348   122212400.323       -1442.921          38.000    23256260.701    95230502.057       -1124.383          39.000  
G14  23965419.974   125939133.3592      -4985.232          34.000    23965419.400    98134386.705       -3885.458          41.000  
G22  22374535.169   117578962.060       -4347.237          41.000                                                                  
> 2025 04 04 08 15 08.9990000  0 11                     
G06  21774843.600   114427568.902       -2487.922          41.000    21774844.902    89164350.289       -1938.876          38.000  
G11  21531751.320   113150111.123       -1353.933          44.000    21531751.042    88168917.293       -1055.075          39.000  
G12  22294467.399   117158216.862         654.282          40.000    22294470.139    91292121.975         509.766          39.000  
G17  22322136.879   117303616.308       -2657.844          39.000    22322142.237    91405437.674       -2070.899          38.000  
G19  20503381.945   107745996.811       -1712.146          44.000                                                                  
G20  20397075.946   107187363.166        -279.517          46.000                                                                  
G05  22878301.292   120226290.686        1831.931          43.000    22878307.291    93682837.922        1427.724          39.000  
G09  23256521.467   122213841.167       -1437.987          38.000    23256534.889    95231624.786       -1120.668          38.000  
G14  23966367.226   125944116.7592      -4980.721          34.000    23966367.749    98138269.826       -3880.977          41.000  
G22  22375362.004   117583306.745       -4341.678          41.000                                                                  
G13  25414704.410                        1042.547          20.000                                                                  
> 2025 04 04 08 15 09.9990000  0 11                     
G06  21775317.537   114430059.339       -2490.921          41.000    21775318.782    89166290.880       -1941.292          38.000  
G11  21532009.332   113151467.241       -1356.730          44.000    21532009.135    88169974.028       -1057.355          39.000  
G12  22294343.422   117157565.363         650.945          40.000    22294346.197    91291614.311         507.113          40.000  
G17  22322643.085   117306276.700       -2660.805          39.000    22322648.469    91407510.698       -2073.679          38.000  
G19  20503708.240   107747711.583       -1715.405          44.000                                                                  
G20  20397129.700   107187645.780        -283.350          45.000                                                                  
G05  22877953.054   120224461.350        1828.670          43.000    22877959.097    93681412.481        1424.823          39.000  
G09  23256795.701   122215282.063       -1441.629          39.000    23256809.085    95232747.576       -1123.539          39.000  
G14  23967315.373   125949099.6092      -4983.594          34.000    23967316.042    98142152.568       -3883.040          40.000  
G22  22376188.864   117587651.212       -4345.379          41.000                                                                  
G13  25414518.879                        1042.547          21.000                                                                  
> 2025 04 04 08 15 10.9990000  0 11                     
G06  21775791.578   114432550.806       -2492.181          41.000    21775792.904    89168232.260       -1941.746          38.000  
G11  21532267.593   113152824.496       -1357.696          44.000    21532267.365    88171031.627       -1057.783          39.000  
G12  22294219.746   117156915.473         649.292          40.000    22294222.525    91291107.886         505.882          40.000  
G17  22323149.657   117308938.498       -2662.235          39.000    22323154.967    91409584.799       -2074.391          37.000  
G19  20504034.826   107749427.795       -1716.791          44.000                                                                  
G20  20397183.683   107187929.947        -284.900          46.000                                                                  
G05  22877605.227   120222633.382        1827.241          43.000    22877611.259    93679988.097        1423.755          39.000  
G09  23257070.125   122216724.472       -1443.441          38.000    23257083.502    95233871.516       -1124.691          38.000  
G14  23968263.684   125954083.4342      -4984.000          36.000    23968264.434    98146036.083       -3884.193          40.000  
G22  22377015.948   117591996.929       -4346.424          41.000                                                                  
G13  25414316.348                        1042.547          21.000                                                                  
> 2025 04 04 08 15 11.9990000  0 11                     
G06  21776265.854   114435043.498       -2493.038          41.000    21776267.310    89170174.636       -1942.849          38.000  
G11  21532526.209   113154183.128       -1359.124          44.000    21532525.871    88172090.286       -1058.876          39.000  
G12  22294096.478   117156267.396         647.502          41.000    22294099.274    91290602.882         504.813          40.000  
G17  22323656.493   117311601.819       -2664.088          39.000    22323661.876    91411660.144       -2075.757          38.000  
G19  20504361.734   107751145.653       -1718.567          44.000                                                                  
G20  20397238.246   107188215.895        -286.658          46.000                                                                  
G05  22877257.619   120220806.958        1825.807          43.000    22877263.648    93678564.907        1422.954          39.000  
G09  23257344.847   122218168.643       -1444.920          38.000    23257358.307    95234996.873       -1126.536          38.000  
G14  23969212.048   125959068.5992      -4985.492          34.000    23969213.165    98149920.633       -3885.135          39.000  
G22  22377843.164   117596344.134       -4347.665          42.000                                                                  
G13  25414123.456                        1042.547          22.000                                                                  
> 2025 04 04 08 15 12.9990000  0 10                     
G06  21776740.385   114437536.999       -2493.854          41.000    21776741.858    89172117.616       -1943.278          38.000  
G11  21532784.901   113155542.674       -1360.066          44.000    21532784.600    88173149.671       -1059.587          39.000  
G12  22293973.393   117155620.674         646.172          41.000    22293976.158    91290098.931         503.806          40.000  
G17  22324163.609   117314266.293       -2664.990          39.000    22324168.881    91413736.352       -2076.614          38.000  
G19  20504688.856   107752864.711       -1719.580          44.000                                                                  
G20  20397292.871   107188503.173        -287.872          46.000                                                                  
G05  22876910.282   120218981.670        1824.729          43.000    22876916.203    93677142.611        1421.735          39.000  
G09  23257619.763   122219614.173       -1446.118          38.000    23257633.480    95236123.258       -1127.240          38.000  
G14  23970160.559   125964053.9271      -4985.869          36.000    23970161.994    98153805.695       -3885.582          39.000  
G22  22378670.600   117600692.418       -4348.720          42.000                                                                  
> 2025 04 04 08 15 13.9990000  0 10                     
G06  21777215.052   114440031.161       -2494.572          41.000    21777216.527    89174061.124       -1943.810          39.000  
G11  21533043.675   113156902.949       -1360.607          44.000    21533043.532    88174209.634       -1060.135          39.000  
G12  22293850.523   117154975.130         644.836          40.000    22293853.354    91289595.912         502.571          40.000  
G17  22324670.912   117316931.781       -2666.092          39.000    22324676.024    91415813.343       -2077.346          38.000  
G19  20505016.208   107754584.832       -1720.923          44.000                                                                  
G20  20397347.810   107188791.633        -288.953          46.000                                                                  
G05  22876563.153   120217157.334        1823.873          43.000    22876569.052    93675721.044        1421.068          39.000  
G09  23257895.059   122221060.837       -1447.146          38.000    23257908.602    95237250.531       -1127.824          38.000  
G14  23971109.037   125969040.601       -4987.072          39.000    23971110.873    98157691.338       -3885.909          42.000  
G22  22379498.286   117605041.570       -4350.039          42.000                                                                  
> 2025 04 04 08 15 14.9990000  0 10                     
G06  21777689.890   114442525.914       -2495.333          41.000    21777691.271    89176005.049       -1944.044          39.000  
G11  21533302.552   113158263.933       -1361.406          44.000    21533302.569    88175270.155       -1060.915          39.000  
G12  22293727.858   117154330.756         643.318          40.000    22293730.690    91289093.800         501.543          40.000  
G17  22325178.340   117319598.136       -2666.820          39.000    22325183.460    91417891.051       -2078.243          38.000  
G19  20505343.696   107756305.923       -1721.887          44.000                                                                  
G20  20397402.833   107189081.213        -290.466          46.000                                                                  
G05  22876216.151   120215333.879        1822.880          43.000    22876222.029    93674300.190        1420.306          39.000  
G09  23258170.639   122222508.617       -1448.298          38.000    23258184.135    95238378.645       -1128.461          38.000  
G14  23972057.768   125974027.666       -4987.817          37.000    23972059.840    98161577.375       -3886.572          41.000  
G22  22380326.033   117609391.550       -4350.688          42.000                                                                  
> 2025 04 04 08 15 15.9990000  0 10                     
G06  21778164.801   114445021.436       -2495.958          41.000    21778166.295    89177949.630       -1944.396          39.000  
G11  21533561.731   113159625.827       -1362.048          44.000    21533561.786    88176331.358       -1061.547          39.000  
G12  22293605.393   117153687.692         642.399          41.000    22293608.326    91288592.744         500.442          40.000  
G17  22325685.951   117322265.653       -2668.137          39.000    22325691.190    91419969.628       -2078.739          38.000  
G19  20505671.362   107758028.207       -1722.833          44.000                                                                  
G20  20397458.174   107189372.089        -291.425          46.000                                                                  
G05  22875869.386   120213511.555        1821.895          44.000    22875875.289    93672880.184        1419.664          39.000  
G09  23258446.472   122223957.715       -1449.732          38.000    23258459.841    95239507.824       -1129.533          38.000  
G14  23973006.565   125979015.560       -4988.374          37.000    23973009.097    98165464.037       -3886.658          40.000  
G22  22381154.064   117613742.560       -4351.466          42.000                                                                  
> 2025 04 04 08 15 16.9990000  0 10                     
G06  21778639.874   114447517.503       -2495.908          41.000    21778641.184    89179894.623       -1945.123          38.000  
G11  21533821.047   113160988.367       -1362.662          44.000    21533820.910    88177393.061       -1061.487          39.000  
G12  22293483.291   117153045.760         641.390          41.000    22293486.082    91288092.539         499.766          40.000  
G17  22326193.734   117324934.034       -2668.439          39.000    22326198.999    91422048.877       -2079.619          38.000  
G19  20505999.255   107759751.423       -1723.370          44.000                                                                  
G20  20397513.823   107189664.044        -292.249          46.000                                                                  
G05  22875522.893   120211690.092        1821.226          43.000    22875528.686    93671460.860        1419.379          39.000  
G09  23258722.383   122225407.862       -1450.521          38.000    23258735.755    95240637.816       -1130.319          38.000  
G14  23973955.659   125984004.013       -4989.405          34.000    23973958.477    98169351.169       -3887.242          39.000  
G22  22381982.117   117618094.339       -4351.682          41.000                                                                  
> 2025 04 04 08 15 17.9990000  0 10                     
G06  21779114.917   114450013.876       -2496.644          42.000    21779116.239    89181839.829       -1945.051          39.000  
G11  21534080.299   113162351.301       -1363.216          44.000    21534080.262    88178455.111       -1062.600          38.000  
G12  22293361.320   117152404.661         640.756          41.000    22293364.034    91287592.968         499.075          40.000  
G17  22326701.483   117327603.052       -2669.438          38.000    22326706.908    91424128.618       -2080.131          38.000  
G19  20506327.250   107761475.338       -1724.328          44.000                                                                  
G20  20397569.432   107189956.815        -293.317          46.000                                                                  
G05  22875176.345   120209869.235        1820.328          44.000    22875182.195    93670042.037        1418.583          39.000  
G09  23258998.340   122226858.803       -1451.201          38.000    23259011.843    95241768.436       -1131.037          39.000  
G14  23974904.502   125988992.709       -4989.262          38.000    23974907.812    98173238.441       -3887.658          42.000  
G22  22382810.342   117622446.656       -4352.479          41.000                                                                  
> 2025 04 04 08 15 18.9990000  0 10                     
G06  21779590.078   114452510.843       -2497.511          42.000    21779591.488    89183785.529       -1946.259          38.000  
G11  21534339.763   113163714.924       -1363.949          44.000    21534339.715    88179517.658       -1062.776          39.000  
G12  22293239.507   117151764.704         639.205          41.000    22293242.253    91287094.290         498.235          40.000  
G17  22327209.587   117330272.965       -2670.318          38.000    22327214.932    91426209.074       -2080.829          38.000  
G19  20506655.463   107763200.232       -1725.397          44.000                                                                  
G20  20397625.375   107190250.696        -294.489          46.000                                                                  
G05  22874830.015   120208049.290        1819.385          43.000    22874835.872    93668623.903        1417.982          39.000  
G09  23259274.723   122228310.884       -1452.427          39.000    23259288.226    95242899.920       -1131.810          38.000  
G14  23975853.537   125993981.932       -4989.150          36.000    23975857.217    98177126.205       -3888.317          40.000  
G22  22383638.672   117626799.822       -4353.779          41.000                                                                  
> 2025 04 04 08 15 19.9990000  0 10                     
G06  21780065.431   114455008.262       -2497.635          42.000    21780066.666    89185731.555       -1946.358          38.000  
G11  21534599.334   113165079.124       -1364.271          44.000    21534599.188    88180580.684       -1063.196          39.000  
G12  22293117.896   117151125.790         638.273          41.000    22293120.642    91286596.414         497.750          40.000  
G17  22327717.744   117332943.695       -2670.930          38.000    22327723.144    91428290.170       -2081.668          38.000  
G19  20506983.935   107764926.022       -1726.440          44.000                                                                  
G20  20397681.454   107190545.584        -295.428          45.000                                                                  
G05  22874483.835   120206230.155        1818.758          43.000    22874489.693    93667206.406        1417.251          39.000  
G09  23259551.390   122229763.948       -1453.518          39.000    23259564.644    95244032.158       -1132.237          38.000  
G14  23976802.803   125998971.663       -4989.913          36.000    23976806.735    98181014.296       -3888.181          40.000  
G22  22384467.226   117631153.698       -4354.315          41.000                                                                  
> 2025 04 04 08 15 20.9990000  0 10                     
G06  21780540.877   114457506.398       -2498.810          42.000    21780542.062    89187678.167       -1946.845          39.000  
G11  21534859.026   113166444.172       -1365.798          44.000    21534858.948    88181644.340       -1064.137          39.000  
G12  22292996.592   117150488.144         636.483          41.000    22292999.373    91286099.546         496.142          40.000  
G17  22328226.129   117335615.498       -2672.841          38.000    22328231.615    91430372.072       -2082.723          38.000  
G19  20507312.599   107766652.915       -1727.667          44.000                                                                  
G20  20397737.820   107190841.717        -296.985          46.000                                                                  
G05  22874137.874   120204412.048        1817.242          43.000    22874143.716    93665789.713        1415.856          39.000  
G09  23259828.096   122231218.245       -1455.098          39.000    23259841.490    95245165.402       -1133.913          39.000  
G14  23977752.414   126003962.127       -4990.767          37.000    23977756.376    98184902.941       -3888.951          41.000  
G22  22385295.899   117635508.509       -4355.517          41.000                                                                  
> 2025 04 04 08 15 21.9990000  0 10                     
G06  21781016.445   114460005.373       -2499.286          42.000    21781017.706    89189625.409       -1947.745          39.000  
G11  21535118.892   113167810.143       -1366.316          44.000    21535118.883    88182708.740       -1064.626          39.000  
G12  22292875.547   117149851.849         635.790          41.000    22292878.297    91285603.742         495.413          40.000  
G17  22328734.744   117338288.403       -2673.268          39.000    22328740.214    91432454.871       -2083.099          38.000  
G19  20507641.413   107768381.009       -1728.387          44.000                                                                  
G20  20397794.376   107191139.185        -297.827          45.000                                                                  
G05  22873792.058   120202595.048        1816.645          43.000    22873797.952    93664373.874        1415.609          39.000  
G09  23260105.015   122232673.876       -1455.934          39.000    23260118.445    95246299.653       -1134.707          38.000  
G14  23978701.882   126008953.380       -4991.418          37.000    23978706.256    98188792.206       -3889.439          41.000  
G22  22386124.704   117639864.390       -4356.175          41.000                                                                  
> 2025 04 04 08 15 22.9990000  0 11                     
G06  21781492.185   114462504.963       -2500.301          42.000    21781493.458    89191573.125       -1948.146          39.000  
G11  21535378.875   113169176.852       -1367.643          44.000    21535379.096    88183773.727       -1065.949          39.000  
G12  22292754.719   117149216.762         634.269          41.000    22292757.407    91285108.878         494.045          40.000  
G17  22329243.535   117340962.327       -2674.808          38.000    22329249.143    91434538.403       -2083.928          38.000  
G19  20507970.415   107770110.178       -1729.962          44.000                                                                  
G20  20397851.127   107191437.838        -299.628          45.000                                                                  
G05  22873446.538   120200779.031        1815.302          43.000    22873452.433    93662958.816        1414.407          39.000  
G09  23260382.223   122234130.648       -1457.573          39.000    23260395.683    95247434.790       -1135.808          38.000  
G14  23979651.560   126013945.195       -4992.731          38.000    23979656.251    98192681.972       -3890.365          40.000  
G04  25263203.651                       -2324.766          25.000                                                                  
G22  22386953.801   117644221.144       -4357.517          41.000                                                                  
> 2025 04 04 08 15 23.9990000  0 10                     
G06  21781968.088   114465005.678       -2501.637          42.000    21781969.425    89193521.761       -1949.080          39.000  
G11  21535639.066   113170544.774       -1368.795          44.000    21535639.372    88184839.633       -1066.495          38.000  
G12  22292634.133   117148583.349         632.278          41.000    22292636.883    91284615.298         492.659          40.000  
G17  22329752.502   117343637.652       -2676.440          39.000    22329758.248    91436623.117       -2085.492          39.000  
G19  20508299.779   107771840.835       -1731.628          44.000                                                                  
G20  20397908.267   107191738.112        -301.147          45.000                                                                  
G05  22873101.183   120198964.419        1813.809          43.000    22873107.150    93661544.797        1413.745          39.000  
G09  23260659.698   122235589.083       -1459.511          39.000    23260673.184    95248571.237       -1137.655          38.000  
G14  23980601.503   126018938.182       -4993.824          39.000    23980606.456    98196572.556       -3891.044          40.000  
G22  22387783.136   117648579.276       -4359.087          41.000                                                                  
> 2025 04 04 08 15 24.9990000  0 10                     
G06  21782444.235   114467507.747       -2502.514          41.000    21782445.605    89195471.410       -1949.835          39.000  
G11  21535899.562   113171914.174       -1370.002          44.000    21535899.988    88185906.700       -1067.593          39.000  
G12  22292513.940   117147951.875         630.734          41.000    22292516.701    91284123.240         491.326          40.000  
G17  22330261.904   117346314.728       -2677.682          39.000    22330267.675    91438709.129       -2086.528          39.000  
G19  20508629.503   107773573.261       -1733.246          44.000                                                                  
G20  20397965.778   107192040.293        -302.924          45.000                                                                  
G05  22872756.065   120197151.485        1812.409          43.000    22872762.211    93660132.139        1412.443          39.000  
G09  23260937.564   122237049.375       -1460.851          39.000    23260951.000    95249709.148       -1138.710          38.000  
G14  23981551.827   126023932.527       -4995.140          39.000    23981556.843    98200464.270       -3892.134          41.000  
G22  22388612.748   117652938.995       -4360.250          41.000                                                                  
> 2025 04 04 08 15 25.9990000  0 10                     
G06  21782920.447   114470010.865       -2503.525          41.000    21782922.064    89197421.907       -1950.906          39.000  
G11  21536160.380   113173284.743       -1371.094          44.000    21536160.782    88186974.650       -1068.206          39.000  
G12  22292394.013   117147321.948         629.386          41.000    22292396.850    91283632.408         490.149          40.000  
G17  22330771.588   117348993.164       -2678.809          38.000    22330777.269    91440796.201       -2087.781          38.000  
G19  20508959.390   107775307.146       -1734.521          44.000                                                                  
G20  20398023.581   107192344.031        -304.272          45.000                                                                  
G05  22872411.309   120195339.913        1811.058          43.000    22872417.420    93658720.546        1411.005          39.000  
G09  23261215.835   122238511.218       -1462.286          39.000    23261229.171    95250848.223       -1139.214          38.000  
G14  23982502.232   126028927.851       -4995.771          39.000    23982507.400    98204356.743       -3892.861          41.000  
G22  22389442.695   117657299.992       -4361.158          41.000                                                                  
> 2025 04 04 08 15 26.9990000  0 10                     
G06  21783396.980   114472515.056       -2504.781          41.000    21783398.635    89199373.219       -1951.697          39.000  
G11  21536421.384   113174656.475       -1372.243          44.000    21536421.880    88188043.551       -1069.264          38.000  
G12  22292274.502   117146693.684         627.765          41.000    22292277.287    91283142.842         489.015          40.000  
G17  22331281.514   117351672.994       -2680.703          38.000    22331287.239    91442884.394       -2088.726          38.000  
G19  20509289.534   107777042.490       -1736.224          44.000                                                                  
G20  20398081.622   107192649.372        -306.061          45.000                                                                  
G05  22872066.774   120193529.713        1809.517          43.000    22872072.866    93657310.001        1410.257          39.000  
G09  23261494.273   122239974.677       -1464.075          39.000    23261507.766    95251988.583       -1140.912          38.000  
G14  23983452.902   126033924.247       -4996.724          39.000    23983458.248    98208250.035       -3893.503          41.000  
G22  22390272.792   117661662.329       -4363.392          41.000                                                                  
> 2025 04 04 08 15 27.9990000  0 10                     
G06  21783873.709   114475020.211       -2505.641          41.000    21783875.314    89201325.266       -1951.932          39.000  
G11  21536682.610   113176029.285       -1373.306          44.000    21536683.109    88189113.305       -1070.407          38.000  
G12  22292155.216   117146066.955         626.025          41.000    22292158.039    91282654.473         487.848          40.000  
G17  22331791.698   117354354.123       -2681.442          39.000    22331797.349    91444973.572       -2089.337          38.000  
G19  20509619.881   107778779.206       -1737.457          44.000                                                                  
G20  20398140.083   107192956.206        -307.483          45.000                                                                  
G05  22871722.522   120191720.813        1808.471          43.000    22871728.572    93655900.475        1409.098          39.000  
G09  23261772.984   122241439.598       -1465.481          39.000    23261786.493    95253130.098       -1142.216          38.000  
G14  23984403.802   126038921.624       -4997.588          39.000    23984409.242    98212144.069       -3894.329          41.000  
G22  22391103.213   117666025.848       -4363.935          41.000                                                                  
> 2025 04 04 08 15 28.9990000  0 10                     
G06  21784350.515   114477526.254       -2506.486          41.000    21784352.253    89203278.026       -1952.852          39.000  
G11  21536944.060   113177403.099       -1374.399          44.000    21536944.505    88190183.775       -1071.002          38.000  
G12  22292036.254   117145441.669         624.506          41.000    22292039.112    91282167.218         486.708          40.000  
G17  22332302.065   117357036.488       -2683.165          38.000    22332307.814    91447063.720       -2090.375          38.000  
G19  20509950.606   107780517.224       -1738.654          44.000                                                                  
G20  20398198.772   107193264.464        -308.923          45.000                                                                  
G05  22871378.472   120189913.117        1807.071          43.000    22871384.575    93654491.881        1408.127          39.000  
G09  23262052.143   122242905.948       -1466.816          39.000    23262065.524    95254272.720       -1143.084          38.000  
G14  23985354.910   126043919.836       -4998.833          40.000    23985360.427    98216038.811       -3895.358          41.000  
G22  22391933.821   117670390.511       -4365.255          41.000                                                                  
> 2025 04 04 08 15 29.9990000  0 10                     
G06  21784827.493   114480033.020       -2506.898          41.000    21784829.271    89205231.372       -1953.823          39.000  
G11  21537205.662   113178777.716       -1374.920          44.000    21537206.135    88191254.904       -1071.345          38.000  
G12  22291917.496   117144817.629         623.437          41.000    22291920.429    91281680.977         485.309          40.000  
G17  22332812.555   117359719.895       -2683.917          39.000    22332818.418    91449154.676       -2091.225          38.000  
G19  20510281.635   107782256.341       -1739.715          44.000                                                                  
G20  20398257.669   107193573.950        -310.028          45.000                                                                  
G05  22871034.695   120188106.422        1806.349          43.000    22871040.814    93653084.076        1407.332          39.000  
G09  23262331.239   122244373.536       -1468.245          39.000    23262344.700    95255416.303       -1144.241          38.000  
G14  23986306.073   126048918.777       -4999.299          40.000    23986311.766    98219934.051       -3895.199          40.000  
G22  22392764.623   117674756.121       -4365.901          41.000                                                                  
> 2025 04 04 08 15 30.9990000  0 10                     
G06  21785304.769   114482540.746       -2508.294          41.000    21785306.500    89207185.439       -1954.527          39.000  
G11  21537467.498   113180153.433       -1376.308          44.000    21537467.943    88192326.862       -1072.293          38.000  
G12  22291799.125   117144195.131         621.554          41.000    22291802.013    91281195.900         484.229          40.000  
G17  22333323.386   117362404.594       -2685.689          39.000    22333329.355    91451246.644       -2092.430          38.000  
G19  20510612.754   107783996.838       -1741.351          44.000                                                                  
G20  20398316.807   107193884.947        -311.945          45.000                                                                  
G05  22870691.135   120186301.045        1804.405          43.000    22870697.203    93651677.280        1406.041          39.000  
G09  23262610.729   122245842.615       -1469.842          39.000    23262624.217    95256561.022       -1145.733          38.000  
G14  23987257.467   126053918.685       -5000.813          40.000    23987263.256    98223830.108       -3896.868          40.000  
G22  22393595.696   117679122.956       -4367.562          41.000                                                                  
> 2025 04 04 08 15 31.9990000  0 10                     
G06  21785782.230   114485049.845       -2509.886          41.000    21785783.988    89209140.581       -1955.916          39.000  
G11  21537729.568   113181530.605       -1377.930          44.000    21537729.942    88193400.009       -1073.478          37.000  
G12  22291681.073   117143574.532         619.650          41.000    22291683.928    91280712.308         482.999          40.000  
G17  22333834.539   117365090.982       -2687.131          39.000    22333840.525    91453339.922       -2093.606          39.000  
G19  20510944.306   107785739.095       -1743.231          44.000                                                                  
G20  20398376.297   107194197.817        -313.739          45.000                                                                  
G05  22870347.879   120184497.319        1802.764          43.000    22870353.944    93650271.799        1404.832          39.000  
G09  23262890.613   122247313.559       -1471.864          39.000    23262904.081    95257707.203       -1147.036          38.000  
G14  23988209.111   126058919.917       -5002.173          40.000    23988214.902    98227727.164       -3898.011          40.000  
G22  22394427.076   117683491.375       -4369.436          41.000                                                                  
> 2025 04 04 08 15 32.9990000  0 10                     
G06  21786259.868   114487560.137       -2510.844          41.000    21786261.782    89211096.645       -1956.741          39.000  
G11  21537992.003   113182909.085       -1379.255          44.000    21537992.217    88194474.146       -1074.672          38.000  
G12  22291563.376   117142955.692         618.119          41.000    22291566.201    91280230.115         481.431          40.000  
G17  22334345.941   117367778.888       -2688.472          39.000    22334351.948    91455434.413       -2094.935          38.000  
G19  20511276.158   107787482.940       -1744.702          44.000                                                                  
G20  20398436.166   107194512.425        -315.302          45.000                                                                  
G05  22870004.903   120182695.110        1801.380          43.000    22870010.994    93648867.471        1403.732          39.000  
G09  23263170.748   122248786.219       -1473.216          39.000    23263184.218    95258854.746       -1148.386          38.000  
G14  23989160.994   126063922.310       -5003.159          40.000    23989166.894    98231625.128       -3898.318          41.000  
G22  22395258.615   117687861.237       -4370.563          41.000                                                                  
> 2025 04 04 08 15 33.9990000  0 10                     
G06  21786737.749   114490071.591       -2512.246          41.000    21786739.684    89213053.633       -1957.751          39.000  
G11  21538254.500   113184288.832       -1380.411          44.000    21538254.669    88195549.279       -1075.482          38.000  
G12  22291446.036   117142338.596         616.133          41.000    22291448.787    91279749.263         479.725          40.000  
G17  22334857.687   117370468.376       -2690.428          39.000    22334863.713    91457530.107       -2096.395          38.000  
G19  20511608.304   107789228.375       -1746.320          44.000                                                                  
G20  20398496.393   107194828.721        -317.114          45.000                                                                  
G05  22869662.280   120180894.393        1799.883          43.000    22869668.396    93647464.320        1402.690          39.000  
G09  23263451.216   122250260.565       -1475.328          38.000    23263464.750    95260003.589       -1149.472          39.000  
G14  23990113.064   126068925.888       -5004.424          40.000    23990118.975    98235524.011       -3899.232          41.000  
G22  22396090.412   117692232.495       -4371.926          41.000                                                                  
> 2025 04 04 08 15 34.9990000  0 10                     
G06  21787215.820   114492583.994       -2513.171          41.000    21787217.776    89215011.335       -1958.280          39.000  
G11  21538517.141   113185669.644       -1381.344          44.000    21538517.425    88196625.247       -1076.495          38.000  
G12  22291328.997   117141722.997         614.701          41.000    22291331.713    91279269.550         479.190          40.000  
G17  22335369.694   117373159.060       -2691.505          39.000    22335375.723    91459626.762       -2097.175          38.000  
G19  20511940.692   107790975.143       -1747.437          44.000                                                                  
G20  20398556.855   107195146.496        -318.433          45.000                                                                  
G05  22869319.901   120179094.939        1798.760          43.000    22869325.969    93646062.140        1401.711          39.000  
G09  23263731.924   122251736.410       -1476.860          38.000    23263745.539    95261153.579       -1150.732          38.000  
G14  23991065.384   126073930.380       -5004.709          39.000    23991071.349    98239423.619       -3899.647          40.000  
G22  22396922.444   117696604.957       -4372.952          41.000                                                                  
> 2025 04 04 08 15 35.9990000  0 10                     
G06  21787694.109   114495097.422       -2513.833          41.000    21787696.263    89216969.860       -1958.934          39.000  
G11  21538780.095   113187051.613       -1382.502          44.000    21538780.434    88197702.080       -1077.115          38.000  
G12  22291212.222   117141108.996         613.261          41.000    22291214.910    91278791.094         478.165          39.000  
G17  22335881.949   117375851.154       -2692.894          39.000    22335888.026    91461724.459       -2097.880          38.000  
G19  20512273.335   107792723.364       -1748.950          44.000                                                                  
G20  20398617.669   107195465.843        -320.123          45.000                                                                  
G05  22868977.665   120177296.844        1797.356          43.000    22868983.743    93644661.040        1400.830          39.000  
G09  23264013.017   122253213.755       -1477.898          39.000    23264026.695    95262304.790       -1151.629          38.000  
G14  23992017.894   126078935.923       -5006.056          40.000    23992024.010    98243324.038       -3900.823          41.000  
G22  22397754.762   117700978.704       -4374.638          41.000                                                                  
> 2025 04 04 08 15 36.9990000  0 10                     
G06  21788172.536   114497611.748       -2514.903          41.000    21788174.792    89218929.054       -1959.400          39.000  
G11  21539043.197   113188434.548       -1383.597          44.000    21539043.485    88198779.707       -1078.287          38.000  
G12  22291095.679   117140496.393         612.356          41.000    22291098.295    91278313.781         476.722          39.000  
G17  22336394.431   117378544.433       -2693.834          39.000    22336400.551    91463823.130       -2098.955          38.000  
G19  20512606.279   107794472.833       -1749.915          44.000                                                                  
G20  20398678.663   107195786.557        -321.118          45.000                                                                  
G05  22868635.671   120175499.920        1796.429          43.000    22868641.741    93643260.846        1399.934          39.000  
G09  23264294.344   122254692.521       -1479.587          39.000    23264308.102    95263457.070       -1152.865          39.000  
G14  23992970.570   126083942.287       -5006.653          40.000    23992976.735    98247225.121       -3901.515          41.000  
G22  22398587.182   117705353.547       -4375.836          41.000                                                                  
> 2025 04 04 08 15 37.9990000  0 10                     
G06  21788651.123   114500126.825       -2515.686          41.000    21788653.447    89220888.862       -1960.635          39.000  
G11  21539306.548   113189818.346       -1384.691          44.000    21539306.864    88199857.989       -1078.858          38.000  
G12  22290979.411   117139885.188         610.088          41.000    22290982.026    91277837.500         475.310          39.000  
G17  22336907.193   117381238.830       -2695.624          39.000    22336913.300    91465922.660       -2100.324          38.000  
G19  20512939.556   107796223.497       -1751.709          44.000                                                                  
G20  20398740.058   107196108.602        -323.096          45.000                                                                  
G05  22868293.870   120173704.101        1794.929          43.000    22868299.997    93641861.503        1398.805          39.000  
G09  23264576.061   122256172.576       -1481.304          39.000    23264589.759    95264610.353       -1154.006          39.000  
G14  23993923.269   126088949.422       -5007.650          40.000    23993929.485    98251126.782       -3902.414          40.000  
G22  22399419.877   117709729.383       -4376.823          42.000                                                                  
> 2025 04 04 08 15 38.9990000  0 10                     
G06  21789129.999   114502643.050       -2516.405          41.000    21789132.309    89222849.566       -1961.214          40.000  
G11  21539570.078   113191203.442       -1385.700          44.000    21539570.328    88200937.267       -1079.755          38.000  
G12  22290863.440   117139275.656         608.889          41.000    22290866.070    91277362.545         474.437          39.000  
G17  22337420.204   117383934.719       -2696.721          39.000    22337426.321    91468023.338       -2101.362          38.000  
G19  20513273.047   107797975.726       -1752.893          44.000                                                                  
G20  20398801.670   107196432.335        -324.463          45.000                                                                  
G05  22867952.416   120171909.753        1793.728          43.000    22867958.532    93640463.322        1397.537          38.000  
G09  23264858.019   122257654.307       -1482.461          39.000    23264871.726    95265764.963       -1155.092          39.000  
G14  23994876.252   126093957.738       -5008.955          40.000    23994882.536    98255029.344       -3902.963          40.000  
G22  22400252.813   117714106.642       -4377.989          41.000                                                                  
> 2025 04 04 08 15 39.9990000  0 10                     
G06  21789608.989   114505160.249       -2518.002          42.000    21789611.357    89224811.009       -1962.178          39.000  
G11  21539833.935   113192589.572       -1386.866          44.000    21539834.113    88202017.387       -1081.103          38.000  
G12  22290747.808   117138667.642         606.724          41.000    22290750.359    91276888.762         472.815          39.000  
G17  22337933.449   117386631.889       -2698.065          39.000    22337939.616    91470125.027       -2102.373          38.000  
G19  20513606.792   107799729.293       -1754.413          44.000                                                                  
G20  20398863.616   107196757.520        -326.080          45.000                                                                  
G05  22867611.193   120170116.650        1792.140          43.000    22867617.279    93639066.109        1396.027          38.000  
G09  23265140.167   122259137.475       -1483.923          38.000    23265153.993    95266920.722       -1156.773          38.000  
G14  23995829.493   126098966.972       -5010.323          40.000    23995835.803    98258932.635       -3903.845          40.000  
G22  22401086.024   117718485.084       -4379.395          41.000                                                                  
> 2025 04 04 08 15 40.9990000  0 11                     
G06  21790088.131   114507678.042       -2518.275          41.000    21790090.610    89226772.925       -1962.495          39.000  
G11  21540097.802   113193976.439       -1387.392          44.000    21540098.078    88203098.049       -1081.016          38.000  
G12  22290632.292   117138060.787         606.302          41.000    22290634.860    91276415.890         472.389          39.000  
G17  22338446.924   117389330.005       -2698.821          39.000    22338453.008    91472227.455       -2102.896          38.000  
G19  20513940.579   107801483.881       -1755.090          44.000                                                                  
G20  20398925.879   107197083.868        -326.904          46.000                                                                  
G05  22867270.149   120168324.476        1791.761          43.000    22867276.292    93637669.591        1396.368          39.000  
G09  23265422.532   122260621.832       -1485.132          38.000    23265436.506    95268077.351       -1157.278          38.000  
G14  23996782.757   126103976.778       -5010.315          40.000    23996789.157    98262836.382       -3904.091          40.000  
G22  22401919.268   117722864.368       -4379.542          41.000                                                                  
G13  25408417.412   133522133.8863       1025.309          27.000                                                                  
> 2025 04 04 08 15 41.9990000  0 11                     
G06  21790567.363   114510196.087       -2518.259          41.000    21790569.888    89228735.038       -1962.402          39.000  
G11  21540361.714   113195363.637       -1387.375          44.000    21540361.969    88204178.970       -1080.804          38.000  
G12  22290517.046   117137454.731         605.555          41.000    22290519.570    91275943.636         471.853          39.000  
G17  22338960.539   117392028.690       -2699.106          39.000    22338966.576    91474330.315       -2102.944          38.000  
G19  20514274.575   107803239.099       -1755.505          44.000                                                                  
G20  20398988.138   107197410.967        -327.484          46.000                                                                  
G05  22866929.130   120166532.863        1791.290          42.000    22866935.461    93636273.532        1396.223          39.000  
G09  23265705.071   122262106.942       -1485.806          38.000    23265719.108    95269234.555       -1157.771          38.000  
G14  23997736.215   126108986.822       -5010.252          40.000    23997742.552    98266740.305       -3903.877          39.000  
G22  22402752.670   117727244.150       -4380.319          41.000                                                                  
G13  25408221.958   133521108.2422       1025.965          27.000                                                                  
> 2025 04 04 08 15 42.9990000  0 11                     
G06  21791046.671   114512714.702       -2519.301          42.000    21791049.199    89230697.583       -1963.383          40.000  
G11  21540625.865   113196751.536       -1388.674          44.000    21540626.075    88205260.450       -1081.720          38.000  
G12  22290401.942   117136849.837         603.863          41.000    22290404.475    91275472.280         470.640          39.000  
G17  22339474.302   117394728.288       -2700.380          39.000    22339480.191    91476433.900       -2104.071          38.000  
G19  20514608.841   107804995.310       -1757.245          44.000                                                                  
G20  20399050.727   107197739.169        -329.163          46.000                                                                  
G05  22866588.362   120164742.158        1789.935          43.000    22866594.746    93634878.220        1394.746          38.000  
G09  23265987.797   122263593.126       -1487.144          39.000    23266001.903    95270392.588       -1158.522          39.000  
G14  23998689.646   126113997.417       -5010.994          40.000    23998696.098    98270644.676       -3904.881          39.000  
G22  22403586.317   117731624.723       -4381.037          41.000                                                                  
G13  25408024.498   133520082.8202       1025.348          27.000                                                                  
> 2025 04 04 08 15 43.9990000  0 11                     
G06  21791526.126   114515234.395       -2520.315          42.000    21791528.613    89232660.994       -1964.222          39.000  
G11  21540890.198   113198140.615       -1389.644          44.000    21540890.432    88206342.892       -1083.479          38.000  
G12  22290287.263   117136246.558         602.346          41.000    22290289.667    91275002.197         469.291          39.000  
G17  22339988.413   117397429.351       -2701.886          40.000    22339994.187    91478538.609       -2105.363          38.000  
G19  20514943.307   107806753.017       -1758.490          44.000                                                                  
G20  20399113.534   107198068.987        -330.585          46.000                                                                  
G05  22866247.935   120162952.851        1788.600          43.000    22866254.197    93633483.949        1393.947          39.000  
G09  23266270.890   122265080.917       -1488.812          38.000    23266285.153    95271551.951       -1159.952          38.000  
G14  23999643.271   126119009.106       -5012.079          41.000    23999649.785    98274549.876       -3905.364          40.000  
G22  22404420.236   117736006.652       -4382.781          41.000                                                                  
G13  25407830.687   133519057.7261       1024.431          27.000                                                                  
> 2025 04 04 08 15 44.9990000  0 11                     
G06  21792005.780   114517754.846       -2520.482          42.000    21792008.239    89234624.970       -1964.035          40.000  
G11  21541154.696   113199530.564       -1390.042          44.000    21541154.988    88207425.935       -1083.041          38.000  
G12  22290172.723   117135644.593         601.565          41.000    22290175.039    91274533.150         468.582          39.000  
G17  22340502.579   117400131.465       -2702.525          40.000    22340508.461    91480644.132       -2105.658          38.000  
G19  20515277.985   107808511.864       -1759.198          44.000                                                                  
G20  20399176.610   107198400.090        -331.244          46.000                                                                  
G05  22865907.556   120161164.617        1788.079          43.000    22865913.887    93632090.539        1392.745          39.000  
G09  23266554.224   122266569.998       -1489.790          39.000    23266568.593    95272712.264       -1160.690          38.000  
G14  24000597.102   126124021.512       -5012.322          41.000    24000603.644    98278455.649       -3905.657          40.000  
G22  22405254.334   117740389.569       -4383.346          41.000                                                                  
G13  25407638.570   133518033.486        1024.316          28.000                                                                  
> 2025 04 04 08 15 45.9990000  0 11                     
G06  21792485.309   114520275.459       -2520.393          42.000    21792487.923    89236589.061       -1963.775          40.000  
G11  21541419.211   113200920.785       -1390.189          44.000    21541419.552    88208509.222       -1083.533          39.000  
G12  22290058.275   117135043.347         600.918          42.000    22290060.641    91274064.624         468.452          39.000  
G17  22341016.861   117402834.029       -2702.615          40.000    22341022.756    91482750.047       -2105.969          39.000  
G19  20515612.794   107810271.272       -1759.711          44.000                                                                  
G20  20399239.780   107198731.871        -331.891          46.000                                                                  
G05  22865567.457   120159376.849        1787.778          43.000    22865573.655    93630697.464        1392.809          38.000  
G09  23266837.694   122268059.723       -1490.096          38.000    23266852.070    95273873.087       -1160.832          38.000  
G14  24001550.992   126129034.080       -5012.556          41.000    24001557.501    98282361.558       -3906.038          40.000  
G22  22406088.482   117744772.859       -4383.292          41.000                                                                  
G13  25407442.534   133517009.018        1024.332          28.000                                                                  
> 2025 04 04 08 15 46.9990000  0 11                     
G06  21792965.003   114522796.205       -2521.231          42.000    21792967.565    89238553.282       -1964.715          40.000  
G11  21541683.861   113202311.239       -1391.010          44.000    21541684.024    88209592.673       -1083.692          38.000  
G12  22289944.029   117134442.780         600.110          42.000    22289946.308    91273596.672         467.089          39.000  
G17  22341531.244   117405537.096       -2703.516          40.000    22341537.053    91484856.322       -2106.226          38.000  
G19  20515947.693   107812031.203       -1760.266          44.000                                                                  
G20  20399302.988   107199064.314        -333.148          46.000                                                                  
G05  22865227.427   120157589.523        1786.688          43.000    22865233.462    93629304.748        1392.014          38.000  
G09  23267121.362   122269550.118       -1490.519          38.000    23267135.698    95275034.448       -1161.781          38.000  
G14  24002504.833   126134046.764       -5013.272          41.000    24002511.411    98286267.542       -3906.525          39.000  
G22  22406922.649   117749156.523       -4383.787          41.000                                                                  
G13  25407248.136   133515984.342        1024.655          27.000                                                                  
> 2025 04 04 08 15 47.9990000  0 11                     
G06  21793444.785   114525317.500       -2520.715          41.000    21793447.489    89240517.944       -1964.601          40.000  
G11  21541948.689   113203702.342       -1390.488          44.000    21541948.669    88210676.672       -1083.720          38.000  
G12  22289829.926   117133843.367         599.360          41.000    22289832.217    91273129.567         467.598          39.000  
G17  22342045.789   117408241.064       -2703.582          40.000    22342051.602    91486963.342       -2106.915          38.000  
G19  20516282.885   107813792.122       -1760.559          44.000                                                                  
G20  20399366.372   107199397.843        -333.197          46.000                                                                  
G05  22864887.397   120155803.081        1786.735          43.000    22864893.420    93627912.703        1392.557          38.000  
G09  23267405.177   122271041.604       -1491.175          38.000    23267419.534    95276196.648       -1161.990          38.000  
G14  24003458.958   126139059.992       -5012.710          41.000    24003465.526    98290173.951       -3906.219          39.000  
G22  22407757.103   117753541.011       -4384.077          41.000                                                                  
G13  25407053.425   133514959.900        1024.048          26.000                                                                  
> 2025 04 04 08 15 48.9990000  0 11                     
G06  21793924.756   114527838.956       -2522.258          41.000    21793927.402    89242482.693       -1965.022          40.000  
G11  21542213.486   113205093.702       -1391.915          44.000    21542213.363    88211760.867       -1084.510          38.000  
G12  22289715.974   117133244.616         597.955          41.000    22289718.268    91272663.030         465.530          39.000  
G17  22342560.545   117410945.485       -2704.852          40.000    22342566.175    91489070.684       -2108.096          39.000  
G19  20516618.029   107815553.553       -1762.231          44.000                                                                  
G20  20399429.993   107199732.035        -334.857          46.000                                                                  
G05  22864547.554   120154017.076        1785.442          43.000    22864553.445    93626521.019        1391.307          39.000  
G09  23267689.031   122272533.728       -1492.472          38.000    23267703.427    95277359.368       -1163.225          38.000  
G14  24004412.959   126144073.342       -5014.012          40.000    24004419.454    98294080.441       -3906.880          37.000  
G22  22408591.534   117757925.860       -4385.690          41.000                                                                  
G13  25406856.884   133513935.163        1024.249          26.000                                                                  
> 2025 04 04 08 15 49.9990000  0 11                     
G06  21794404.740   114530360.843       -2521.982          42.000    21794407.316    89244447.809       -1965.349          40.000  
G11  21542478.281   113206485.640       -1391.978          44.000    21542478.177    88212845.487       -1084.677          38.000  
G12  22289602.132   117132646.895         597.278          41.000    22289604.457    91272197.259         465.519          39.000  
G17  22343075.372   117413650.694       -2705.441          41.000    22343081.009    91491178.635       -2108.507          39.000  
G19  20516953.394   107817315.858       -1762.616          44.000                                                                  
G20  20399493.849   107200067.220        -335.510          46.000                                                                  
G05  22864207.823   120152231.860        1784.938          43.000    22864213.655    93625129.950        1390.651          39.000  
G09  23267973.118   122274026.864       -1493.118          35.000    23267987.489    95278522.831       -1163.721          38.000  
G14  24005366.993   126149087.113       -5013.766          40.000    24005373.479    98297987.289       -3906.958          38.000  
G22  22409426.095   117762311.391       -4385.697          41.000                                                                  
G13  25406662.446   133512910.543        1025.341          26.000                                                                  
> 2025 04 04 08 15 50.9990000  0 11                     
G06  21794884.623   114532882.798       -2522.116          42.000    21794887.141    89246412.936       -1965.162          40.000  
G11  21542743.158   113207877.729       -1392.212          44.000    21542743.078    88213930.224       -1085.369          38.000  
G12  22289488.498   117132049.778         596.678          42.000    22289490.841    91271731.965         464.891          40.000  
G17  22343590.336   117416356.294       -2705.991          40.000    22343595.904    91493286.890       -2108.683          38.000  
G19  20517288.892   107819078.613       -1762.964          44.000                                                                  
G20  20399557.629   107200402.974        -336.121          46.000                                                                  
G05  22863868.169   120150446.998        1784.645          43.000    22863874.085    93623739.135        1390.802          38.000  
G09  23268257.399   122275520.551       -1494.336          35.000    23268271.688    95279686.710       -1164.138          39.000  
G14  24006321.008   126154100.929       -5014.219          40.000    24006327.579    98301894.172       -3907.148          38.000  
G22  22410260.744   117766697.230       -4385.915          41.000                                                                  
G13  25406465.962   133511885.680        1025.238          25.000                                                                  
> 2025 04 04 08 15 51.9990000  0 11                     
G06  21795364.591   114535405.018       -2522.529          42.000    21795367.105    89248378.309       -1965.599          40.000  
G11  21543008.194   113209270.202       -1392.424          44.000    21543008.022    88215015.245       -1085.090          38.000  
G12  22289374.976   117131453.487         595.912          41.000    22289377.413    91271267.334         464.426          40.000  
G17  22344105.253   117419062.510       -2706.644          40.000    22344110.938    91495395.627       -2109.069          38.000  
G19  20517624.413   107820842.059       -1763.727          44.000                                                                  
G20  20399621.728   107200739.530        -336.835          46.000                                                                  
G05  22863528.652   120148662.765        1783.833          43.000    22863534.539    93622348.800        1390.647          38.000  
G09  23268541.764   122277015.006       -1494.914          35.000    23268556.171    95280851.273       -1165.462          38.000  
G14  24007275.216   126159114.975       -5013.939          40.000    24007281.626    98305801.237       -3907.439          38.000  
G22  22411095.588   117771083.579       -4386.326          41.000                                                                  
G13  25406271.468   133510860.806        1024.272          25.000                                                                  
> 2025 04 04 08 15 52.9990000  0 11                     
G06  21795844.555   114537927.117       -2521.727          41.000    21795847.169    89250343.593       -1965.262          40.000  
G11  21543273.135   113210662.663       -1392.263          44.000    21543272.834    88216100.270       -1084.939          38.000  
G12  22289261.615   117130857.661         595.662          41.000    22289264.018    91270803.038         464.594          40.000  
G17  22344620.354   117421768.944       -2706.426          40.000    22344625.925    91497504.533       -2108.550          39.000  
G19  20517960.072   107822605.781       -1763.672          44.000                                                                  
G20  20399685.869   107201076.497        -336.658          46.000                                                                  
G05  22863189.157   120146878.679        1784.522          43.000    22863195.042    93620958.668        1390.435          38.000  
G09  23268826.179   122278509.882       -1494.709          35.000    23268840.757    95282016.080       -1164.619          38.000  
G14  24008229.225   126164128.955       -5013.513          41.000    24008235.638    98309708.177       -3906.146          37.000  
G22  22411930.380   117775470.051       -4386.131          41.000                                                                  
G13  25406076.107   133509835.295        1026.156          25.000                                                                  
> 2025 04 04 08 15 53.9990000  0 11                     
G06  21796324.344   114540448.703       -2521.510          41.000    21796327.046    89252308.415       -1964.087          40.000  
G11  21543537.995   113212054.699       -1392.052          44.000    21543537.643    88217184.989       -1084.469          36.000  
G12  22289148.224   117130261.853         595.305          42.000    22289150.684    91270338.779         464.111          39.000  
G17  22345135.347   117424475.182       -2706.718          40.000    22345140.911    91499613.294       -2108.823          38.000  
G19  20518295.690   107824369.383       -1763.818          44.000                                                                  
G20  20399749.970   107201413.473        -337.366          46.000                                                                  
G05  22862849.652   120145094.450        1783.737          43.000    22862855.475    93619568.342        1390.034          39.000  
G09  23269110.665   122280004.788       -1494.822          36.000    23269125.234    95283180.923       -1165.122          38.000  
G14  24009183.374   126169142.369       -5013.611          41.000    24009189.689    98313614.757       -3906.857          38.000  
G22  22412765.067   117779856.232       -4386.295          41.000                                                                  
G13  25405879.742   133508809.038        1025.910          25.000                                                                  
> 2025 04 04 08 15 54.9990000  0 11                     
G06  21796804.118   114542969.982       -2521.487          41.000    21796806.850    89254273.081       -1964.906          40.000  
G11  21543802.844   113213446.581       -1392.260          44.000    21543802.535    88218269.574       -1084.586          38.000  
G12  22289034.950   117129666.317         595.104          42.000    22289037.417    91269874.725         463.774          40.000  
G17  22345650.284   117427181.453       -2706.711          39.000    22345655.983    91501722.088       -2109.210          37.000  
G19  20518631.187   107826133.101       -1763.898          44.000                                                                  
G20  20399814.088   107201750.686        -337.573          46.000                                                                  
G05  22862510.084   120143310.189        1784.031          43.000    22862516.000    93618178.017        1390.241          39.000  
G09  23269395.204   122281499.895       -1495.333          35.000    23269409.778    95284345.995       -1165.475          36.000  
G14  24010137.327   126174155.472       -5013.241          41.000    24010143.667    98317521.031       -3906.738          35.000  
G22  22413599.821   117784242.356       -4386.352          41.000                                                                  
G13  25405684.860   133507782.042        1027.338          25.000                                                                  
> 2025 04 04 08 15 55.9990000  0 11                     
G06  21797283.882   114545490.975       -2520.837          41.000    21797286.528    89256237.477       -1964.470          40.000  
G11  21544067.680   113214838.258       -1391.678          44.000    21544067.313    88219353.984       -1084.215          38.000  
G12  22288921.703   117129071.041         594.886          42.000    22288924.165    91269410.858         463.783          40.000  
G17  22346165.349   117429887.791       -2706.389          41.000    22346170.980    91503830.860       -2108.569          37.000  
G19  20518966.728   107827896.922       -1763.898          44.000                                                                  
G20  20399878.289   107202088.108        -337.396          46.000                                                                  
G05  22862170.557   120141525.959        1784.086          43.000    22862176.421    93616787.717        1390.393          39.000  
G09  23269679.771   122282995.216       -1495.318          34.000    23269694.508    95285511.194       -1165.138          37.000  
G14  24011091.180   126179168.251       -5012.533          40.000    24011097.436    98321427.110       -3905.769          37.000  
G22  22414434.543   117788628.406       -4385.936          41.000                                                                  
G13  25405489.684   133506754.465        1028.040          24.000                                                                  
> 2025 04 04 08 15 56.9990000  0 11                     
G06  21797763.475   114548011.711       -2520.680          41.000    21797766.155    89258201.674       -1964.306          40.000  
G11  21544332.495   113216229.757       -1391.480          44.000    21544332.143    88220438.291       -1084.007          38.000  
G12  22288808.493   117128476.046         595.027          42.000    22288810.997    91268947.242         463.166          40.000  
G17  22346680.440   117432594.186       -2706.459          41.000    22346685.948    91505939.749       -2108.885          37.000  
G19  20519302.331   107829660.871       -1763.843          44.000                                                                  
G20  20399942.515   107202425.829        -337.817          46.000                                                                  
G05  22861830.997   120139741.778        1784.080          43.000    22861837.005    93615397.460        1390.121          39.000  
G09  23269964.421   122284490.789       -1495.384          34.000    23269979.118    95286676.592       -1165.270          37.000  
G14  24012045.119   126184180.752       -5012.395          39.000    24012051.299    98325332.959       -3905.893          37.000  
G22  22415269.268   117793014.463       -4386.079          41.000                                                                  
G13  25405296.322   133505726.296        1028.519          23.000                                                                  
> 2025 04 04 08 15 57.9990000  0 11                     
G06  21798243.155   114550532.158       -2520.280          42.000    21798245.834    89260165.669       -1963.425          39.000  
G11  21544597.250   113217621.099       -1391.118          44.000    21544596.910    88221522.471       -1083.608          38.000  
G12  22288695.321   117127881.368         594.529          42.000    22288697.842    91268483.836         463.533          40.000  
G17  22347195.416   117435300.644       -2706.619          41.000    22347201.008    91508048.696       -2109.021          36.000  
G19  20519638.099   107831424.974       -1764.044          44.000                                                                  
G20  20400006.847   107202763.799        -337.921          46.000                                                                  
G05  22861491.369   120137957.663        1784.137          43.000    22861497.577    93614007.225        1390.216          39.000  
G09  23270249.060   122285986.653       -1495.990          34.000    23270263.939    95287842.203       -1165.710          37.000  
G14  24012998.793   126189192.992       -5012.097          39.000    24013005.057    98329238.588       -3905.547          37.000  
G22  22416103.963   117797400.485       -4386.016          41.000                                                                  
G13  25405100.378   133504697.482        1028.408          23.000                                                                  
> 2025 04 04 08 15 58.9990000  0 11                     
G06  21798722.887   114553052.755       -2520.568          42.000    21798725.465    89262129.781       -1964.194          39.000  
G11  21544862.028   113219012.714       -1391.559          44.000    21544861.671    88222606.846       -1084.615          38.000  
G12  22288582.266   117127287.379         593.366          43.000    22288584.803    91268020.989         462.400          40.000  
G17  22347710.533   117438007.584       -2707.118          41.000    22347716.089    91510157.989       -2109.841          36.000  
G19  20519973.892   107833189.612       -1764.862          44.000                                                                  
G20  20400071.411   107203102.439        -339.203          46.000                                                                  
G05  22861151.884   120136173.995        1783.340          44.000    22861158.243    93612617.367        1389.430          39.000  
G09  23270533.841   122287483.150       -1496.649          34.000    23270548.778    95289008.306       -1166.044          37.000  
G14  24013952.675   126194205.359       -5012.618          39.000    24013958.896    98333144.334       -3906.437          36.000  
G22  22416938.589   117801786.868       -4386.467          41.000                                                                  
G13  25404902.895                        1021.514          21.000                                                                  
> 2025 04 04 08 15 59.9990000  0 11                     
G06  21799202.620   114555573.770       -2520.995          42.000    21799205.278    89264094.196       -1964.785          39.000  
G11  21545126.976   113220404.844       -1392.150          44.000    21545126.520    88223691.603       -1084.938          38.000  
G12  22288469.478   117126694.360         592.467          43.000    22288471.927    91267558.892         461.700          40.000  
G17  22348225.803   117440715.280       -2708.027          41.000    22348231.368    91512267.875       -2110.274          36.000  
G19  20520309.903   107834955.073       -1765.851          44.000                                                                  
G20  20400136.054   107203442.015        -339.984          46.000                                                                  
G05  22860812.505   120134391.077        1782.510          44.000    22860819.020    93611228.091        1388.852          39.000  
G09  23270818.913   122288980.602       -1497.946          35.000    23270833.757    95290175.145       -1167.030          37.000  
G14  24014906.555   126199218.112       -5013.141          38.000    24014912.786    98337050.379       -3906.431          36.000  
G22  22417773.369   117806173.929       -4387.355          41.000                                                                  
G13  25404705.692                        1021.398          20.000                                                                  
> 2025 04 04 08 16 00.9990000  0 11                     
G06  21799682.528   114558095.445       -2521.948          42.000    21799685.170    89266059.127       -1965.194          39.000  
G11  21545391.958   113221797.734       -1393.176          44.000    21545391.516    88224776.960       -1085.588          38.000  
G12  22288356.927   117126102.551         591.290          42.000    22288359.329    91267097.746         460.788          40.000  
G17  22348741.308   117443423.949       -2709.107          41.000    22348746.858    91514378.515       -2110.710          36.000  
G19  20520645.895   107836721.558       -1766.681          44.000                                                                  
G20  20400200.910   107203782.755        -341.113          46.000                                                                  
G05  22860473.307   120132609.095        1781.632          44.000    22860479.946    93609839.517        1388.273          39.000  
G09  23271104.158   122290479.208       -1498.740          35.000    23271119.075    95291342.871       -1167.351          37.000  
G14  24015860.597   126204231.477       -5013.424          38.000    24015866.760    98340956.891       -3906.654          36.000  
G22  22418608.359   117810561.836       -4387.991          41.000                                                                  
G13  25404513.921                        1028.722          18.000                                                                  
> 2025 04 04 08 16 01.9990000  0 11                     
G06  21800162.424   114560617.096       -2521.465          42.000    21800165.069    89268024.036       -1964.352          39.000  
G11  21545657.035   113223190.713       -1392.833          44.000    21545656.637    88225862.395       -1085.141          37.000  
G12  22288244.386   117125511.299         591.058          43.000    22288246.805    91266637.029         460.560          40.000  
G17  22349256.810   117446132.944       -2708.986          40.000    22349262.407    91516489.424       -2111.000          36.000  
G19  20520982.013   107838488.476       -1767.023          44.000                                                                  
G20  20400265.869   107204124.046        -341.431          46.000                                                                  
G05  22860134.312   120130827.458        1781.579          44.000    22860140.828    93608451.218        1388.541          39.000  
G09  23271389.512   122291978.333       -1499.417          35.000    23271404.452    95292511.040       -1168.010          37.000  
G14  24016814.611   126209244.854       -5012.903          38.000    24016820.739    98344863.390       -3906.263          36.000  
G22  22419443.400   117814950.010       -4388.015          41.000                                                                  
G13  25404317.845                        1024.518          16.000                                                                  
> 2025 04 04 08 16 02.9990000  0 11                     
G06  21800642.229   114563138.528       -2521.279          42.000    21800644.913    89269988.792       -1964.469          39.000  
G11  21545922.077   113224583.586       -1392.662          43.000    21545921.644    88226947.756       -1084.952          38.000  
G12  22288131.964   117124920.373         591.134          43.000    22288134.303    91266176.564         460.610          40.000  
G17  22349772.317   117448842.045       -2708.792          40.000    22349777.887    91518600.400       -2110.587          36.000  
G19  20521318.253   107840255.551       -1766.736          44.000                                                                  
G20  20400330.876   107204465.610        -341.339          46.000                                                                  
G05  22859795.320   120129045.894        1781.782          44.000    22859801.737    93607062.994        1388.741          39.000  
G09  23271674.841   122293477.765       -1499.792          35.000    23271689.806    95293679.417       -1168.084          36.000  
G14  24017768.633   126214257.970       -5012.729          38.000    24017774.738    98348769.735       -3905.992          35.000  
G22  22420278.419   117819338.188       -4387.516          41.000                                                                  
G13  25404123.370                        1012.884          14.000                                                                  
> 2025 04 04 08 16 03.9990000  0 11                     
G06  21801122.080   114565659.593       -2521.612          42.000    21801124.781    89271953.249       -1964.704          39.000  
G11  21546187.149   113225976.174       -1392.994          43.000    21546186.551    88228032.886       -1085.333          37.000  
G12  22288019.558   117124329.650         590.107          43.000    22288021.769    91265716.250         459.915          40.000  
G17  22350287.853   117451551.136       -2709.408          41.000    22350293.505    91520711.383       -2111.674          36.000  
G19  20521654.556   107842022.684       -1767.737          44.000                                                                  
G20  20400395.861   107204807.349        -342.358          46.000                                                                  
G05  22859456.404   120127264.301        1781.209          44.000    22859462.706    93605674.755        1388.049          39.000  
G09  23271960.148   122294977.290       -1499.699          35.000    23271975.287    95294847.914       -1168.800          36.000  
G14  24018722.523   126219270.718       -5013.150          37.000    24018728.500    98352675.742       -3905.714          35.000  
G22  22421113.369   117823726.249       -4388.275          41.000                                                                  
G13  25403927.798                        1026.118          13.000                                                                  
> 2025 04 04 08 16 04.9990000  0 11                     
G06  21801601.766   114568180.816       -2521.393          42.000    21801604.530    89273917.856       -1964.597          39.000  
G11  21546452.269   113227369.069       -1392.969          43.000    21546451.522    88229118.246       -1085.311          37.000  
G12  22287907.309   117123739.659         589.551          43.000    22287909.533    91265256.531         459.465          40.000  
G17  22350803.411   117454260.731       -2709.844          41.000    22350809.124    91522822.727       -2111.279          36.000  
G19  20521990.976   107843790.380       -1767.896          44.000                                                                  
G20  20400461.054   107205149.784        -342.688          46.000                                                                  
G05  22859117.404   120125483.218        1780.628          44.000    22859123.736    93604286.885        1387.915          39.000  
G09  23272245.726   122296477.566       -1500.313          35.000    23272260.853    95296016.979       -1169.389          36.000  
G14  24019676.532   126224283.628       -5013.232          37.000    24019682.382    98356581.899       -3905.755          35.000  
G22  22421948.458   117828114.713       -4388.588          41.000                                                                  
G13  25403732.258                        1024.887          14.000                                                                  
> 2025 04 04 08 16 05.9990000  0 11                     
G06  21802081.603   114570702.381       -2521.803          42.000    21802084.398    89275882.705       -1965.057          40.000  
G11  21546717.447   113228762.394       -1393.642          44.000    21546716.716    88230203.967       -1086.168          37.000  
G12  22287795.230   117123150.550         588.593          43.000    22287797.370    91264797.486         458.655          40.000  
G17  22351319.123   117456970.951       -2710.385          41.000    22351324.860    91524934.621       -2112.465          36.000  
G19  20522327.360   107845558.803       -1768.640          44.000                                                                  
G20  20400526.476   107205493.086        -343.671          46.000                                                                  
G05  22858778.706   120123702.747        1780.026          44.000    22858784.879    93602899.527        1386.962          39.000  
G09  23272531.405   122297978.691       -1501.159          35.000    23272546.555    95297186.676       -1170.303          36.000  
G14  24020630.544   126229296.822       -5013.789          36.000    24020636.318    98360488.314       -3906.449          34.000  
G22  22422783.719   117832503.748       -4389.276          41.000                                                                  
G13  25403533.382                        1023.137          15.000                                                                  
> 2025 04 04 08 16 06.9990000  0 11                     
G06  21802561.532   114573224.438       -2522.468          42.000    21802564.431    89277847.951       -1965.524          39.000  
G11  21546982.689   113230156.328       -1394.568          44.000    21546981.887    88231290.158       -1086.624          37.000  
G12  22287683.449   117122562.518         587.430          43.000    22287685.465    91264339.272         457.695          40.000  
G17  22351835.072   117459682.041       -2711.716          41.000    22351840.793    91527047.157       -2113.104          36.000  
G19  20522664.009   107847328.134       -1769.733          44.000                                                                  
G20  20400592.094   107205837.416        -344.946          46.000                                                                  
G05  22858440.095   120121923.106        1779.306          44.000    22858446.183    93601512.796        1386.043          39.000  
G09  23272817.260   122299480.809       -1502.204          35.000    23272832.443    95298357.147       -1170.857          36.000  
G14  24021584.615   126234310.502       -5014.185          36.000    24021590.216    98364395.073       -3907.341          34.000  
G22  22423619.036   117836893.510       -4390.059          41.000                                                                  
G13  25403336.862                        1034.683          15.000                                                                  
> 2025 04 04 08 16 07.9990000  0 11                     
G06  21803041.676   114575747.158       -2523.243          41.000    21803044.498    89279813.697       -1966.132          39.000  
G11  21547248.017   113231551.007       -1395.396          44.000    21547247.320    88232376.921       -1087.213          37.000  
G12  22287571.793   117121975.684         585.846          43.000    22287573.792    91263882.003         456.697          40.000  
G17  22352351.194   117462394.102       -2712.751          41.000    22352356.921    91529160.441       -2113.916          36.000  
G19  20523000.920   107849098.527       -1771.167          44.000                                                                  
G20  20400657.818   107206182.915        -346.320          46.000                                                                  
G05  22858101.619   120120144.444        1778.027          44.000    22858107.726    93600126.828        1385.399          39.000  
G09  23273103.342   122300984.125       -1504.170          35.000    23273118.469    95299528.596       -1172.441          36.000  
G14  24022538.746   126239324.825       -5015.012          36.000    24022544.303    98368302.323       -3907.260          34.000  
G22  22424454.490   117841284.203       -4391.695          40.000                                                                  
G13  25403140.754                        1030.900          16.000                                                                  
> 2025 04 04 08 16 08.9990000  0 11                     
G06  21803521.892   114578270.810       -2524.212          41.000    21803524.685    89281780.159       -1966.670          39.000  
G11  21547513.485   113232946.723       -1396.159          43.000    21547512.849    88233464.508       -1087.911          37.000  
G12  22287460.314   117121390.337         584.631          43.000    22287462.267    91263425.887         455.759          40.000  
G17  22352867.494   117465107.424       -2713.835          41.000    22352873.211    91531274.716       -2114.907          37.000  
G19  20523337.999   107850870.244       -1772.150          44.000                                                                  
G20  20400723.775   107206529.873        -347.620          46.000                                                                  
G05  22857763.432   120118367.019        1776.856          44.000    22857769.430    93598741.816        1384.590          39.000  
G09  23273389.746   122302488.884       -1505.379          35.000    23273404.872    95300701.115       -1172.918          37.000  
G14  24023493.086   126244340.044       -5015.374          36.000    24023498.650    98372210.319       -3908.427          34.000  
G22  22425290.212   117845676.006       -4392.527          40.000                                                                  
G13  25402946.463                        1034.198          17.000                                                                  
> 2025 04 04 08 16 09.9990000  0 11                     
G06  21804002.203   114580794.784       -2523.613          41.000    21804004.906    89283746.894       -1966.145          39.000  
G11  21547779.131   113234342.927       -1396.133          43.000    21547778.621    88234552.425       -1087.632          37.000  
G12  22287349.114   117120805.903         584.438          43.000    22287351.107    91262970.484         455.564          40.000  
G17  22353383.979   117467821.428       -2713.565          41.000    22353389.730    91533389.556       -2115.026          36.000  
G19  20523675.273   107852642.722       -1772.424          44.000                                                                  
G20  20400789.958   107206877.702        -347.742          46.000                                                                  
G05  22857425.329   120116590.267        1776.929          44.000    22857431.298    93597357.342        1384.733          39.000  
G09  23273676.341   122303994.521       -1505.703          35.000    23273691.389    95301874.332       -1173.094          37.000  
G14  24024447.492   126249355.611       -5015.451          36.000    24024452.919    98376118.526       -3907.902          33.000  
G22  22426125.994   117850068.401       -4392.280          41.000                                                                  
G13  25402751.151                        1022.517          17.000                                                                  
> 2025 04 04 08 16 10.9990000  0 11                     
G06  21804482.490   114583318.768       -2524.240          41.000    21804485.145    89285713.627       -1966.531          39.000  
G11  21548044.824   113235739.184       -1396.628          43.000    21548044.362    88235640.445       -1087.936          37.000  
G12  22287237.957   117120222.035         583.165          43.000    22287239.943    91262515.526         454.393          40.000  
G17  22353900.469   117470535.784       -2714.632          41.000    22353906.234    91535504.619       -2115.585          36.000  
G19  20524012.704   107854415.600       -1773.352          44.000                                                                  
G20  20400856.257   107207226.070        -348.883          46.000                                                                  
G05  22857087.385   120114813.833        1775.682          44.000    22857093.283    93595973.109        1383.560          38.000  
G09  23273962.947   122305500.652       -1506.795          35.000    23273978.016    95303047.970       -1174.184          37.000  
G14  24025401.897   126254371.176       -5016.517          35.000    24025407.382    98380026.790       -3908.936          33.000  
G22  22426961.893   117854461.034       -4393.032          40.000                                                                  
G13  25402557.036                        1021.918          16.000                                                                  
> 2025 04 04 08 16 11.9990000  0 11                     
G06  21804962.882   114585843.099       -2524.185          41.000    21804965.492    89287680.669       -1967.151          39.000  
G11  21548310.621   113237135.930       -1396.601          44.000    21548310.115    88236728.797       -1087.720          37.000  
G12  22287127.018   117119639.056         583.100          43.000    22287129.055    91262061.255         454.234          40.000  
G17  22354417.173   117473250.832       -2715.141          41.000    22354423.013    91537620.200       -2115.159          36.000  
G19  20524350.212   107856189.220       -1773.535          44.000                                                                  
G20  20400922.727   107207575.300        -349.005          46.000                                                                  
G05  22856749.525   120113038.036        1775.939          43.000    22856755.302    93594589.392        1383.629          39.000  
G09  23274249.748   122307007.657       -1506.987          36.000    23274264.780    95304222.257       -1174.282          37.000  
G14  24026356.381   126259387.016       -5015.889          36.000    24026361.742    98383935.273       -3908.245          32.000  
G22  22427797.904   117858854.256       -4392.981          40.000                                                                  
G13  25402361.625                        1030.937          15.000                                                                  
> 2025 04 04 08 16 12.9990000  0 11                     
G06  21805443.094   114588367.132       -2524.008          41.000    21805445.780    89289647.418       -1966.843          39.000  
G11  21548576.405   113238532.477       -1396.426          43.000    21548575.840    88237817.012       -1088.049          37.000  
G12  22287016.071   117119056.363         582.284          43.000    22287018.181    91261607.191         453.711          40.000  
G17  22354933.820   117475965.878       -2715.135          41.000    22354939.681    91539735.852       -2115.807          36.000  
G19  20524687.780   107857962.957       -1773.962          44.000                                                                  
G20  20400989.312   107207924.785        -349.811          46.000                                                                  
G05  22856411.676   120111262.318        1775.645          43.000    22856417.371    93593205.684        1383.741          39.000  
G09  23274536.628   122308514.945       -1507.777          36.000    23274551.663    95305396.737       -1174.601          37.000  
G14  24027310.815   126264402.589       -5014.818          35.000    24027316.102    98387843.525       -3908.284          32.000  
G22  22428634.039   117863247.441       -4393.141          41.000                                                                  
G13  25402164.998                        1029.751          14.000                                                                  
> 2025 04 04 08 16 13.9990000  0 11                     
G06  21805923.471   114590891.885       -2525.631          41.000    21805926.191    89291614.743       -1967.729          39.000  
G11  21548842.259   113239929.841       -1398.139          44.000    21548841.736    88238905.881       -1089.123          36.000  
G12  22286905.560   117118474.923         580.361          44.000    22286907.584    91261154.126         452.389          40.000  
G17  22355450.659   117478682.004       -2717.254          41.000    22355456.633    91541852.317       -2117.186          36.000  
G19  20525025.506   107859737.806       -1775.800          45.000                                                                  
G20  20401056.040   107208275.477        -351.569          46.000                                                                  
G05  22856073.994   120109487.573        1773.835          43.000    22856079.685    93591822.820        1382.287          39.000  
G09  23274823.608   122310023.414       -1509.692          35.000    23274838.694    95306572.168       -1176.398          37.000  
G14  24028265.428   126269418.843       -5017.755          35.000    24028270.552    98391752.285       -3909.901          32.000  
G22  22429470.228   117867641.565       -4394.791          41.000                                                                  
G13  25401968.497                        1025.813          13.000                                                                  
> 2025 04 04 08 16 14.9990000  0 11                     
G06  21806404.064   114593417.393       -2525.562          41.000    21806406.764    89293582.679       -1967.705          39.000  
G11  21549108.404   113241328.086       -1398.356          43.000    21549107.811    88239995.449       -1089.513          36.000  
G12  22286795.179   117117894.815         579.828          44.000    22286797.164    91260702.101         451.729          40.000  
G17  22355967.739   117481399.223       -2717.325          40.000    22355973.717    91543969.615       -2117.723          36.000  
G19  20525363.533   107861513.832       -1776.233          45.000                                                                  
G20  20401123.108   107208627.492        -352.240          46.000                                                                  
G05  22855736.499   120107713.955        1773.488          44.000    22855742.214    93590440.763        1382.031          38.000  
G09  23275110.883   122311533.166       -1510.029          36.000    23275126.062    95307748.624       -1176.906          37.000  
G14  24029219.993   126274435.856       -5016.625          32.000    24029225.243    98395661.575       -3907.994          32.000  
G22  22430306.631   117872036.690       -4395.052          41.000                                                                  
G13  25401770.550                        1035.046          17.000                                                                  
> 2025 04 04 08 16 15.9990000  0 11                     
G06  21806884.542   114595942.547       -2525.086          41.000    21806887.324    89295550.348       -1967.860          40.000  
G11  21549374.469   113242726.076       -1397.846          44.000    21549373.832    88241084.807       -1089.359          37.000  
G12  22286684.848   117117314.925         579.662          44.000    22286686.885    91260250.240         451.591          40.000  
G17  22356484.768   117484116.416       -2717.084          40.000    22356490.825    91546086.906       -2117.526          36.000  
G19  20525701.388   107863289.910       -1776.276          45.000                                                                  
G20  20401190.123   107208979.675        -352.686          46.000                                                                  
G05  22855398.939   120105940.299        1773.530          44.000    22855404.622    93589058.692        1382.221          38.000  
G09  23275398.371   122313043.080       -1509.859          35.000    23275413.420    95308925.181       -1176.703          37.000  
G14  24030174.677   126279452.526       -5016.608          33.000    24030179.945    98399570.702       -3908.840          32.000  
G22  22431143.098   117876431.692       -4395.130          41.000                                                                  
G13  25401572.582                        1036.070          19.000                                                                  
> 2025 04 04 08 16 16.9990000  0 11                     
G06  21807365.040   114598467.967       -2525.719          40.000    21807367.895    89297518.200       -1968.132          40.000  
G11  21549640.708   113244124.438       -1398.747          44.000    21549639.893    88242174.444       -1090.558          37.000  
G12  22286574.666   117116735.860         578.147          43.000    22286576.752    91259799.014         450.673          40.000  
G17  22357001.995   117486834.248       -2718.599          40.000    22357008.145    91548204.658       -2118.045          36.000  
G19  20526039.571   107865066.660       -1777.472          44.000                                                                  
G20  20401257.302   107209332.646        -353.717          46.000                                                                  
G05  22855061.597   120104167.237        1772.377          44.000    22855067.268    93587677.093        1381.024          38.000  
G09  23275685.931   122314553.806       -1511.158          36.000    23275700.918    95310102.359       -1177.885          37.000  
G14  24031129.183   126284469.384       -5016.799          32.000    24031134.600    98403479.988       -3909.887          33.000  
G22  22431979.644   117880827.219       -4396.458          41.000                                                                  
G13  25401374.763                        1032.295          20.000                                                                  
> 2025 04 04 08 16 17.9990000  0 11                     
G06  21807845.566   114600993.945       -2525.998          40.000    21807848.603    89299486.504       -1968.467          39.000  
G11  21549906.844   113245523.480       -1399.222          44.000    21549906.098    88243264.602       -1090.528          37.000  
G12  22286464.698   117116157.883         577.747          43.000    22286466.777    91259348.657         450.012          40.000  
G17  22357519.399   117489552.937       -2718.946          40.000    22357525.533    91550323.135       -2118.457          36.000  
G19  20526377.856   107866844.355       -1777.917          45.000                                                                  
G20  20401324.735   107209686.684        -354.120          46.000                                                                  
G05  22854724.341   120102395.027        1772.044          44.000    22854730.064    93586296.153        1380.918          38.000  
G09  23275973.668   122316065.579       -1511.948          36.000    23275988.543    95311280.372       -1178.385          37.000  
G14  24032083.765   126289486.864       -5017.312          32.000    24032089.453    98407389.660       -3909.773          33.000  
G22  22432816.256   117885223.487       -4396.474          41.000                                                                  
G13  25401176.847                        1031.860          21.000                                                                  
> 2025 04 04 08 16 18.9990000  0 11                     
G06  21808326.188   114603520.219       -2526.581          40.000    21808329.322    89301455.044       -1969.078          39.000  
G11  21550173.146   113246922.914       -1399.734          43.000    21550172.337    88244355.023       -1090.469          37.000  
G12  22286354.925   117115580.814         576.422          43.000    22286356.923    91258898.980         449.047          40.000  
G17  22358036.826   117492272.268       -2719.799          40.000    22358043.118    91552442.098       -2118.969          36.000  
G19  20526716.343   107868622.762       -1778.937          45.000                                                                  
G20  20401392.218   107210041.571        -355.481          46.000                                                                  
G05  22854387.289   120100623.447        1771.130          43.000    22854392.916    93584915.723        1379.864          37.000  
G09  23276261.569   122317578.224       -1513.467          36.000    23276276.385    95312459.043       -1178.761          36.000  
G14  24033038.687   126294504.525       -5017.769          32.000    24033044.265    98411299.551       -3910.193          33.000  
G22  22433652.912   117889620.303       -4397.350          41.000                                                                  
G13  25400979.447                        1031.871          20.000                                                                  
> 2025 04 04 08 16 19.9990000  0 11                     
G06  21808807.015   114606047.262       -2526.983          40.000    21808810.309    89303424.170       -1969.089          40.000  
G11  21550439.596   113248323.227       -1400.305          44.000    21550438.822    88245446.208       -1091.085          36.000  
G12  22286245.418   117115005.063         575.301          43.000    22286247.408    91258450.357         447.791          40.000  
G17  22358554.615   117494992.725       -2720.917          40.000    22358560.822    91554561.924       -2120.338          36.000  
G19  20527055.101   107870402.358       -1779.889          45.000                                                                  
G20  20401459.999   107210397.751        -356.470          46.000                                                                  
G05  22854050.340   120098852.972        1770.157          43.000    22854055.953    93583536.124        1379.474          37.000  
G09  23276549.635   122319092.128       -1514.243          35.000    23276564.522    95313638.743       -1180.149          37.000  
G14  24033993.696   126299523.018       -5018.083          31.000    24033999.212    98415210.028       -3910.521          32.000  
G22  22434489.833   117894018.158       -4398.232          41.000                                                                  
G13  25400782.665                        1029.339          20.000                                                                  
> 2025 04 04 08 16 20.9990000  0 11                     
G06  21809287.638   114608573.547       -2526.108          40.000    21809291.063    89305392.687       -1968.240          40.000  
G11  21550706.006   113249722.902       -1399.787          44.000    21550705.034    88246536.789       -1090.669          36.000  
G12  22286135.857   117114429.099         575.724          43.000    22286137.774    91258001.561         448.772          40.000  
G17  22359072.245   117497712.726       -2719.789          39.000    22359078.445    91556681.417       -2119.471          36.000  
G19  20527393.596   107872181.570       -1779.065          45.000                                                                  
G20  20401527.688   107210753.700        -355.902          46.000                                                                  
G05  22853713.350   120097082.043        1770.893          43.000    22853719.029    93582156.212        1379.761          37.000  
G09  23276837.723   122320605.773       -1513.284          35.000    23276852.556    95314818.189       -1179.422          36.000  
G14  24034948.429   126304540.752       -5018.325          31.000    24034953.987    98419119.892       -3909.192          33.000  
G22  22435326.661   117898415.469       -4397.404          41.000                                                                  
G13  25400584.696                        1029.545          19.000                                                                  
> 2025 04 04 08 16 21.9990000  0 11                     
G06  21809768.196   114611099.162       -2525.591          39.000    21809771.608    89307360.668       -1967.735          40.000  
G11  21550972.267   113251122.042       -1399.350          44.000    21550971.383    88247627.064       -1090.302          38.000  
G12  22286026.324   117113853.076         575.729          43.000    22286028.215    91257552.673         448.674          40.000  
G17  22359589.811   117500432.448       -2720.094          40.000    22359595.961    91558800.619       -2119.309          36.000  
G19  20527732.137   107873960.596       -1779.449          45.000                                                                  
G20  20401595.285   107211109.548        -356.305          46.000                                                                  
G05  22853376.235   120095310.779        1770.939          43.000    22853381.898    93580776.012        1379.733          37.000  
G09  23277125.892   122322119.306       -1514.074          38.000    23277140.484    95315997.529       -1180.100          38.000  
G14  24035902.796   126309557.789       -5018.470          30.000    24035908.686    98423029.341       -3909.471          35.000  
G22  22436163.357   117902812.353       -4397.082          41.000                                                                  
G13  25400387.248                        1032.920          19.000                                                                  
> 2025 04 04 08 16 22.9990000  0 11                     
G06  21810248.697   114613624.492       -2525.784          39.000    21810252.141    89309328.470       -1968.077          40.000  
G11  21551238.424   113252520.901       -1399.013          44.000    21551237.573    88248717.117       -1090.399          38.000  
G12  22285916.680   117113277.250         575.536          43.000    22285918.529    91257104.012         448.198          40.000  
G17  22360107.282   117503152.117       -2719.628          38.000    22360113.417    91560919.888       -2119.165          38.000  
G19  20528070.700   107875739.651       -1779.327          45.000                                                                  
G20  20401663.102   107211465.554        -356.390          46.000                                                                  
G05  22853039.233   120093539.504        1770.913          43.000    22853044.846    93579395.750        1380.192          37.000  
G09  23277414.018   122323633.058       -1514.544          37.000    23277428.388    95317177.044       -1179.597          38.000  
G14  24036857.266   126314574.443       -5017.273          32.000    24036863.357    98426938.426       -3909.703          36.000  
G22  22437000.050   117907209.170       -4397.378          42.000                                                                  
G13  25400189.003                        1037.748          19.000                                                                  
> 2025 04 04 08 16 23.9990000  0 11                     
G06  21810729.274   114616149.817       -2525.586          39.000    21810732.804    89311296.297       -1968.060          40.000  
G11  21551504.618   113253919.967       -1399.268          44.000    21551503.875    88249807.298       -1091.240          38.000  
G12  22285807.103   117112702.050         574.676          43.000    22285809.013    91256655.792         447.488          39.000  
G17  22360624.946   117505872.213       -2720.441          38.000    22360630.998    91563039.428       -2119.834          39.000  
G19  20528409.332   107877519.175       -1779.993          45.000                                                                  
G20  20401730.932   107211822.149        -356.915          46.000                                                                  
G05  22852702.325   120091768.578        1770.759          43.000    22852707.859    93578015.825        1380.050          37.000  
G09  23277702.137   122325147.347       -1514.855          37.000    23277716.432    95318357.021       -1180.265          38.000  
G14  24037811.874   126319591.037       -5016.348          32.000    24037817.994    98430847.483       -3908.998          36.000  
G22  22437836.705   117911606.245       -4397.833          41.000                                                                  
G13  25399993.205                        1027.052          20.000                                                                  
> 2025 04 04 08 16 24.9990000  0 11                     
G06  21811209.711   114618674.994       -2525.142          39.000    21811213.324    89313263.937       -1967.596          40.000  
G11  21551770.751   113255318.911       -1398.457          44.000    21551770.073    88250897.380       -1089.992          38.000  
G12  22285697.755   117112127.212         574.745          43.000    22285699.676    91256207.833         448.077          39.000  
G17  22361142.602   117508592.455       -2720.373          39.000    22361148.665    91565159.086       -2119.718          39.000  
G19  20528748.062   107879298.900       -1779.828          45.000                                                                  
G20  20401798.824   107212179.087        -356.946          46.000                                                                  
G05  22852365.375   120089997.803        1770.924          43.000    22852370.929    93576636.004        1379.631          37.000  
G09  23277990.310   122326661.971       -1514.432          37.000    23278004.521    95319537.279       -1180.140          37.000  
G14  24038766.130   126324607.558       -5016.060          30.000    24038772.657    98434756.448       -3909.050          36.000  
G22  22438673.431   117916003.355       -4397.108          41.000                                                                  
G13  25399796.297                        1032.137          20.000                                                                  
> 2025 04 04 08 16 25.9990000  0 11                     
G06  21811690.049   114621199.658       -2524.532          39.000    21811693.625    89315231.204       -1967.446          40.000  
G11  21552036.974   113256717.539       -1398.804          44.000    21552036.200    88251987.179       -1089.825          37.000  
G12  22285588.395   117111552.479         574.421          43.000    22285590.381    91255759.985         448.063          40.000  
G17  22361660.314   117511312.557       -2720.518          38.000    22361666.385    91567278.640       -2119.723          39.000  
G19  20529086.679   107881078.563       -1779.669          45.000                                                                  
G20  20401866.853   107212536.084        -357.318          46.000                                                                  
G05  22852028.339   120088226.879        1770.862          43.000    22852033.839    93575256.070        1380.016          37.000  
G09  23278278.473   122328176.648       -1514.890          37.000    23278292.506    95320717.538       -1180.404          37.000  
G14  24039720.308   126329623.716       -5016.421          28.000    24039727.218    98438665.047       -3908.341          36.000  
G22  22439510.142   117920400.242       -4397.037          41.000                                                                  
G13  25399600.697                        1031.801          19.000                                                                  
> 2025 04 04 08 16 26.9990000  0 11                     
G06  21812170.691   114623725.438       -2531.584          40.000    21812174.368    89317199.329       -1972.811          40.000  
G11  21552303.286   113258117.319       -1405.714          44.000    21552302.633    88253077.939       -1095.891          38.000  
G12  22285479.338   117110979.368         566.891          43.000    22285481.344    91255313.430         441.639          40.000  
G17  22362178.190   117514034.071       -2727.862          38.000    22362184.380    91569399.299       -2125.701          39.000  
G19  20529425.656   107882859.700       -1786.877          45.000                                                                  
G20  20401935.090   107212894.662        -364.606          46.000                                                                  
G05  22851691.573   120086457.339        1763.771          43.000    22851696.983    93573877.217        1374.380          37.000  
G09  23278566.968   122329692.944       -1521.889          37.000    23278581.024    95321899.078       -1186.289          37.000  
G14  24040674.572                       -5022.185          27.000    24040681.923    98442574.464       -3914.281          35.000  
G22  22440347.154   117924798.454       -4404.250          41.000                                                                  
G13  25399401.850                        1029.513          20.000                                                                  
> 2025 04 04 08 16 27.9990000  0 11                     
G06  21812650.833   114626248.917       -2523.512          39.000    21812654.503    89319165.677       -1966.317          40.000  
G11  21552569.225   113259514.899       -1397.487          44.000    21552568.557    88254166.930       -1088.558          37.000  
G12  22285369.950   117110404.531         574.565          43.000    22285371.945    91254865.483         447.883          40.000  
G17  22362695.585   117516753.609       -2719.532          38.000    22362701.799    91571518.423       -2118.986          39.000  
G19  20529764.308   107884638.977       -1779.413          45.000                                                                  
G20  20402002.923   107213251.504        -356.769          46.000                                                                  
G05  22851354.344   120084685.848        1771.303          43.000    22851359.839    93572496.819        1380.672          37.000  
G09  23278855.008   122331207.450       -1514.519          37.000    23278869.087    95323079.215       -1180.397          37.000  
G14  24041625.162                       -5013.284          26.000    24041636.181    98446482.050       -3907.966          34.000  
G22  22441183.701   117929194.604       -4396.019          41.000                                                                  
G13  25399203.107                        1031.220          19.000                                                                  
> 2025 04 04 08 16 28.9990000  0 11                     
G06  21813130.912   114628772.262       -2523.400          40.000    21813134.605    89321131.933       -1966.470          40.000  
G11  21552835.149   113260912.495       -1397.511          44.000    21552834.633    88255255.963       -1088.975          38.000  
G12  22285260.710   117109830.140         573.953          43.000    22285262.637    91254417.917         447.281          39.000  
G17  22363213.162   117519473.391       -2720.059          38.000    22363219.393    91573637.700       -2119.243          39.000  
G19  20530102.898   107886418.517       -1779.742          45.000                                                                  
G20  20402070.871   107213608.745        -357.574          46.000                                                                  
G05  22851017.251   120082914.541        1771.259          43.000    22851022.744    93571116.615        1380.202          37.000  
G09  23279143.404   122332722.368       -1514.761          37.000    23279157.161    95324259.657       -1180.852          37.000  
G14  24042578.007                       -5014.351          25.000    24042590.362    98450389.533       -3907.603          35.000  
G22  22442020.250   117933590.866       -4396.204          41.000                                                                  
G13  25399003.345                        1036.997          19.000                                                                  
> 2025 04 04 08 16 29.9990000  0 11                     
G06  21813610.996   114631295.717       -2523.489          40.000    21813614.807    89323098.238       -1966.071          40.000  
G11  21553101.178   113262310.312       -1397.772          44.000    21553100.661    88256345.166       -1088.839          37.000  
G12  22285151.422   117109256.415         573.973          43.000    22285153.401    91253970.871         446.846          39.000  
G17  22363730.834   117522193.634       -2720.070          37.000    22363736.972    91575757.343       -2119.473          39.000  
G19  20530441.648   107888198.588       -1779.980          45.000                                                                  
G20  20402138.960   107213966.623        -357.855          46.000                                                                  
G05  22850680.236   120081143.673        1771.067          43.000    22850685.693    93569736.725        1379.590          37.000  
G09  23279431.803   122334237.924       -1515.516          37.000    23279445.539    95325440.599       -1180.934          37.000  
G14  24043528.074                       -5016.677          23.000    24043544.670    98454297.095       -3907.720          36.000  
G22  22442856.899   117937987.495       -4396.421          41.000                                                                  
G13  25398804.376                        1045.747          18.000                                                                  
> 2025 04 04 08 16 30.9990000  0 11                     
G06  21814091.215   114633819.372       -2524.717          40.000    21814095.078    89325064.732       -1967.111          40.000  
G11  21553367.269   113263708.391       -1398.662          44.000    21553366.722    88257434.610       -1090.300          38.000  
G12  22285042.303   117108683.453         571.927          43.000    22285044.317    91253524.395         445.644          39.000  
G17  22364248.543   117524914.371       -2721.451          37.000    22364254.624    91577877.423       -2121.051          39.000  
G19  20530780.603   107889979.241       -1781.793          45.000                                                                  
G20  20402207.195   107214325.223        -359.662          46.000                                                                  
G05  22850343.389   120079373.333        1769.290          43.000    22850348.831    93568357.228        1378.829          38.000  
G09  23279720.295   122335754.191       -1517.377          36.000    23279734.116    95326622.115       -1182.509          37.000  
G14  24044483.514                       -5007.167          22.000    24044499.063    98458204.749       -3908.141          36.000  
G22  22443693.650   117942384.547       -4397.896          41.000                                                                  
G13  25398605.730                        1040.207          17.000                                                                  
> 2025 04 04 08 16 31.9990000  0 11                     
G06  21814571.391   114636343.232       -2522.961          40.000    21814575.364    89327031.400       -1966.344          39.000  
G11  21553633.428   113265106.860       -1397.744          44.000    21553632.775    88258524.306       -1088.998          37.000  
G12  22284933.442   117108111.289         572.673          43.000    22284935.400    91253078.559         446.082          39.000  
G17  22364766.481   117527635.716       -2721.279          37.000    22364772.411    91579997.926       -2120.161          39.000  
G19  20531119.636   107891760.546       -1780.871          45.000                                                                  
G20  20402275.520   107214684.581        -358.783          46.000                                                                  
G05  22850006.629   120077603.539        1770.386          43.000    22850011.992    93566978.179        1379.448          37.000  
G09  23280008.815   122337271.212       -1516.844          36.000    23280022.802    95327804.205       -1181.840          38.000  
G14  24045439.818                       -5008.384          22.000    24045453.403    98462112.687       -3907.747          37.000  
G22  22444530.415   117946782.051       -4396.973          40.000                                                                  
G13  25398409.888                        1040.614          15.000                                                                  
> 2025 04 04 08 16 32.9990000  0 11                     
G06  21815051.597   114638866.814       -2523.679          40.000    21815055.536    89328997.799       -1966.284          39.000  
G11  21553899.592   113266505.077       -1397.979          44.000    21553898.886    88259613.845       -1089.517          38.000  
G12  22284824.648   117107539.375         571.738          43.000    22284826.524    91252632.903         445.396          39.000  
G17  22365284.405   117530357.031       -2721.638          38.000    22365290.277    91582118.433       -2120.355          39.000  
G19  20531458.672   107893541.928       -1781.543          45.000                                                                  
G20  20402343.932   107215044.156        -359.808          46.000                                                                  
G05  22849669.816   120075833.729        1769.919          43.000    22849675.196    93565599.109        1379.603          37.000  
G09  23280297.343   122338788.439       -1517.796          36.000    23280311.348    95328986.450       -1182.317          37.000  
G14  24046396.462                       -5020.494          23.000    24046407.596    98466020.238       -3907.367          37.000  
G22  22445367.152   117951179.474       -4397.312          40.000                                                                  
G13  25398213.379                        1035.993          14.000                                                                  
> 2025 04 04 08 16 33.9990000  0 11                     
G06  21815531.845   114641390.563       -2523.890          40.000    21815535.853    89330964.356       -1966.645          39.000  
G11  21554165.666   113267903.602       -1398.843          44.000    21554165.088    88260703.591       -1090.147          38.000  
G12  22284715.909   117106968.201         570.768          44.000    22284717.810    91252187.829         444.376          39.000  
G17  22365802.373   117533078.877       -2721.778          37.000    22365808.189    91584239.345       -2120.910          39.000  
G19  20531797.758   107895323.899       -1782.312          45.000                                                                  
G20  20402412.386   107215404.447        -360.736          46.000                                                                  
G05  22849333.246   120074064.448        1768.961          43.000    22849338.481    93564220.443        1378.396          38.000  
G09  23280586.164   122340306.345       -1518.448          36.000    23280600.228    95330169.246       -1183.348          37.000  
G14  24047352.444                       -5016.990          22.000    24047362.059    98469927.974       -3907.561          37.000  
G22  22446204.013   117955577.319       -4397.979          40.000                                                                  
G13  25398016.475                        1038.404          14.000                                                                  
> 2025 04 04 08 16 34.9990000  0 11                     
G06  21816012.116   114643914.652       -2523.838          41.000    21816016.112    89332931.180       -1966.870          39.000  
G11  21554431.898   113269302.589       -1398.623          44.000    21554431.231    88261793.686       -1089.510          37.000  
G12  22284607.409   117106397.941         570.430          43.000    22284609.178    91251743.470         444.302          39.000  
G17  22366320.480   117535801.450       -2722.856          38.000    22366326.269    91586360.799       -2121.147          39.000  
G19  20532137.055   107897106.643       -1782.739          45.000                                                                  
G20  20402481.129   107215765.630        -361.243          46.000                                                                  
G05  22848996.707   120072295.835        1768.526          43.000    22849001.874    93562842.296        1378.003          38.000  
G09  23280875.083   122341825.172       -1519.454          36.000    23280889.269    95331352.730       -1183.324          37.000  
G14  24048308.248                       -5012.312          22.000    24048316.533    98473835.990       -3907.976          38.000  
G22  22447040.956   117959975.763       -4398.266          40.000                                                                  
G13  25397821.903                        1023.811          11.000                                                                  
> 2025 04 04 08 16 35.9990000  0 10                     
G06  21816492.335   114646438.273       -2523.666          41.000    21816496.213    89334897.618       -1966.468          39.000  
G11  21554697.937   113270701.200       -1398.990          44.000    21554697.301    88262883.522       -1089.995          37.000  
G12  22284498.874   117105827.767         569.990          43.000    22284500.651    91251299.165         444.149          39.000  
G17  22366838.513   117538523.825       -2722.454          38.000    22366844.351    91588482.201       -2121.699          38.000  
G19  20532476.292   107898889.297       -1783.118          45.000                                                                  
G20  20402549.851   107216126.849        -361.639          46.000                                                                  
G05  22848660.100   120070527.049        1768.499          43.000    22848665.225    93561464.034        1377.987          38.000  
G09  23281164.017   122343343.979       -1518.983          36.000    23281178.351    95332536.272       -1183.875          37.000  
G14  24049263.716                       -5015.223          24.000    24049270.970    98477743.571       -3907.510          38.000  
G22  22447877.814   117964373.951       -4398.438          40.000                                                                  
> 2025 04 04 08 16 36.9990000  0 10                     
G06  21816972.540   114648961.697       -2523.214          41.000    21816976.371    89336863.913       -1965.937          39.000  
G11  21554964.033   113272099.697       -1398.300          44.000    21554963.461    88263973.281       -1089.653          37.000  
G12  22284390.438   117105257.953         569.915          43.000    22284392.231    91250855.156         444.092          39.000  
G17  22367356.657   117541246.366       -2722.147          39.000    22367362.361    91590603.620       -2121.298          38.000  
G19  20532815.545   107900672.145       -1782.641          45.000                                                                  
G20  20402618.582   107216488.387        -361.438          46.000                                                                  
G05  22848323.563   120068758.396        1768.698          43.000    22848328.691    93560085.863        1378.265          38.000  
G09  23281453.077   122344863.177       -1519.179          36.000    23281467.393    95333720.038       -1183.895          37.000  
G14  24050217.549                       -5014.682          25.000    24050225.335    98481651.005       -3907.251          38.000  
G22  22448714.711   117968772.169       -4398.045          40.000                                                                  
> 2025 04 04 08 16 37.9990000  0 10                     
G06  21817452.695   114651484.769       -2522.840          41.000    21817456.404    89338829.953       -1965.815          39.000  
G11  21555230.226   113273497.992       -1398.183          44.000    21555229.608    88265062.842       -1089.661          37.000  
G12  22284282.082   117104688.358         569.700          43.000    22284283.893    91250411.342         443.547          39.000  
G17  22367874.701   117543968.908       -2722.778          39.000    22367880.459    91592725.076       -2121.428          38.000  
G19  20533154.910   107902455.089       -1783.105          45.000                                                                  
G20  20402687.366   107216850.124        -361.566          46.000                                                                  
G05  22847987.015   120066989.729        1768.700          43.000    22847992.146    93558707.692        1378.010          37.000  
G09  23281742.105   122346382.549       -1519.948          36.000    23281756.491    95334903.943       -1183.987          37.000  
G14  24051168.680   126389743.8223      -5014.119          27.000    24051179.648    98485558.152       -3906.940          39.000  
G22  22449551.600   117973170.302       -4398.022          41.000                                                                  
> 2025 04 04 08 16 38.9990000  0 11                     
G06  21817932.732   114654007.451       -2522.348          41.000    21817936.536    89340795.679       -1965.757          39.000  
G11  21555496.180   113274895.988       -1397.760          44.000    21555495.727    88266152.190       -1089.101          37.000  
G12  22284173.828   117104118.946         569.520          43.000    22284175.504    91249967.633         443.692          39.000  
G17  22368392.830   117546691.364       -2722.299          38.000    22368398.524    91594846.491       -2121.158          38.000  
G19  20533494.305   107904238.017       -1782.758          45.000                                                                  
G20  20402756.271   107217212.010        -361.725          46.000                                                                  
G05  22847650.329   120065220.998        1769.014          43.000    22847655.510    93557329.474        1378.377          38.000  
G09  23282031.301   122347902.023       -1519.476          36.000    23282045.544    95336087.967       -1184.040          37.000  
G14  24052121.626   126394757.6172      -5013.896          28.000    24052133.898    98489464.975       -3906.537          39.000  
G22  22450388.610   117977568.259       -4397.666          40.000                                                                  
G25  24837662.926                        1643.116          25.000                                                                  
> 2025 04 04 08 16 39.9990000  0 10                     
G06  21818412.609   114656529.396       -2521.810          41.000    21818416.366    89342760.811       -1964.846          39.000  
G11  21555762.194   113276293.335       -1397.277          45.000    21555761.640    88267241.029       -1088.686          37.000  
G12  22284065.418   117103549.339         569.513          44.000    22284067.020    91249523.769         443.780          39.000  
G17  22368910.764   117549413.435       -2721.987          38.000    22368916.411    91596967.574       -2121.107          38.000  
G19  20533833.557   107906020.611       -1782.635          45.000                                                                  
G20  20402825.001   107217573.676        -361.755          45.000                                                                  
G05  22847313.736   120063451.838        1769.202          43.000    22847318.862    93555950.905        1378.491          38.000  
G09  23282320.399   122349421.245       -1518.689          37.000    23282334.642    95337271.820       -1183.973          37.000  
G14  24053082.215   126399770.5772      -5012.886          29.000    24053087.923    98493371.198       -3906.499          39.000  
G22  22451225.253   117981965.719       -4397.631          40.000                                                                  
> 2025 04 04 08 16 40.9990000  0 10                     
G06  21818892.487   114659051.099       -2521.804          41.000    21818896.124    89344725.758       -1964.769          39.000  
G11  21556028.024   113277690.580       -1397.493          44.000    21556027.562    88268329.794       -1088.905          37.000  
G12  22283957.095   117102980.075         568.851          43.000    22283958.683    91249080.191         443.141          39.000  
G17  22369428.765   117552135.613       -2722.597          37.000    22369434.321    91599088.755       -2121.580          39.000  
G19  20534172.663   107907803.391       -1783.203          45.000                                                                  
G20  20402893.698   107217935.639        -362.445          45.000                                                                  
G05  22846977.115   120061682.776        1768.594          43.000    22846982.172    93554572.415        1378.189          38.000  
G09  23282609.521   122350940.813       -1519.911          36.000    23282623.768    95338455.878       -1184.320          37.000  
G14  24054037.956   126404783.3402      -5013.288          31.000    24054041.895    98497277.231       -3906.039          39.000  
G22  22452061.935   117986363.180       -4398.010          41.000                                                                  
> 2025 04 04 08 16 41.9990000  0 10                     
G06  21819372.491   114661573.306       -2522.609          41.000    21819376.124    89346691.122       -1965.334          40.000  
G11  21556294.043   113279088.409       -1398.075          45.000    21556293.654    88269419.018       -1089.605          37.000  
G12  22283848.982   117102411.853         567.780          44.000    22283850.599    91248637.414         442.320          39.000  
G17  22369946.901   117554858.618       -2723.249          37.000    22369952.445    91601210.582       -2122.449          39.000  
G19  20534512.096   107909587.062       -1784.021          45.000                                                                  
G20  20402962.839   107218298.619        -363.629          46.000                                                                  
G05  22846640.579   120059914.541        1767.737          43.000    22846645.647    93553194.580        1377.531          38.000  
G09  23282898.985   122352461.395       -1521.156          36.000    23282913.060    95339640.747       -1185.033          37.000  
G14  24054992.576   126409796.5812      -5013.803          32.000    24054995.959    98501183.642       -3906.395          39.000  
G22  22452898.887   117990761.353       -4398.365          41.000                                                                  
> 2025 04 04 08 16 42.9990000  0 10                     
G06  21819852.428   114664095.431       -2522.020          41.000    21819856.018    89348656.410       -1965.159          39.000  
G11  21556560.073   113280486.283       -1397.809          45.000    21556559.607    88270508.270       -1088.990          37.000  
G12  22283740.980   117101844.129         567.623          44.000    22283742.641    91248195.031         442.297          39.000  
G17  22370465.107   117557581.888       -2723.351          37.000    22370470.599    91603332.601       -2122.451          39.000  
G19  20534851.519   107911371.064       -1784.094          45.000                                                                  
G20  20403031.926   107218662.062        -363.629          46.000                                                                  
G05  22846304.036   120058146.539        1768.156          43.000    22846309.233    93551816.923        1377.572          38.000  
G09  23283188.382   122353982.415       -1521.081          37.000    23283202.466    95340825.977       -1185.489          37.000  
G14  24055946.908   126414809.1801      -5012.920          32.000    24055950.037    98505089.977       -3906.278          39.000  
G22  22453735.898   117995159.692       -4398.290          41.000                                                                  
> 2025 04 04 08 16 43.9990000  0 10                     
G06  21820332.370   114666617.438       -2521.797          41.000    21820335.867    89350621.608       -1965.093          39.000  
G11  21556826.136   113281884.133       -1397.696          45.000    21556825.499    88271597.504       -1088.948          37.000  
G12  22283633.009   117101276.846         567.246          44.000    22283634.712    91247753.004         441.827          39.000  
G17  22370983.340   117560305.380       -2723.873          37.000    22370988.733    91605454.772       -2122.057          38.000  
G19  20535191.019   107913155.357       -1784.381          45.000                                                                  
G20  20403101.209   107219025.902        -364.001          46.000                                                                  
G05  22845967.652   120056378.739        1767.788          43.000    22845972.784    93550439.405        1377.784          38.000  
G09  23283477.964   122355503.836       -1521.620          37.000    23283491.866    95342011.477       -1185.237          37.000  
G14  24056901.399   126419822.198       -5013.857          33.000    24056904.065    98508996.206       -3906.152          39.000  
G22  22454572.801   117999558.177       -4398.880          40.000                                                                  
> 2025 04 04 08 16 44.9990000  0 10                     
G06  21820812.455   114669139.608       -2522.228          41.000    21820815.762    89352586.924       -1965.176          39.000  
G11  21557092.203   113283282.256       -1398.072          45.000    21557091.474    88272686.926       -1089.127          37.000  
G12  22283525.197   117100710.306         566.292          43.000    22283526.922    91247311.523         441.419          39.000  
G17  22371501.757   117563029.360       -2724.052          37.000    22371506.993    91607577.351       -2122.369          38.000  
G19  20535530.721   107914940.216       -1785.016          45.000                                                                  
G20  20403170.574   107219390.442        -364.832          46.000                                                                  
G05  22845631.398   120054611.436        1767.225          43.000    22845636.411    93549062.306        1377.006          38.000  
G09  23283767.780   122357025.944       -1522.360          37.000    23283781.503    95343197.544       -1186.304          37.000  
G14  24057854.518   126424835.299       -5013.084          34.000    24057858.098    98512902.544       -3906.263          39.000  
G22  22455409.865   118003957.031       -4399.310          41.000                                                                  
> 2025 04 04 08 16 45.9990000  0 10                     
G06  21821292.330   114671661.368       -2521.813          41.000    21821295.516    89354551.922       -1964.838          39.000  
G11  21557358.204   113284680.068       -1397.530          45.000    21557357.603    88273776.155       -1089.000          37.000  
G12  22283417.383   117100143.903         566.565          43.000    22283419.147    91246870.170         441.583          39.000  
G17  22372020.042   117565753.260       -2723.696          37.000    22372025.375    91609699.874       -2122.122          38.000  
G19  20535870.307   107916725.072       -1784.662          45.000                                                                  
G20  20403239.975   107219755.094        -364.612          46.000                                                                  
G05  22845295.054   120052844.037        1767.344          43.000    22845300.094    93547685.106        1377.492          38.000  
G09  23284057.432   122358548.162       -1522.050          36.000    23284071.070    95344383.688       -1185.773          37.000  
G14  24058808.983   126429848.028       -5012.837          34.000    24058812.086    98516808.533       -3905.605          40.000  
G22  22456246.849   118008355.717       -4398.896          41.000                                                                  
> 2025 04 04 08 16 46.9990000  0 10                     
G06  21821772.245   114674183.029       -2521.905          41.000    21821775.338    89356516.858       -1965.074          39.000  
G11  21557624.234   113286077.920       -1398.182          45.000    21557623.674    88274865.382       -1089.544          37.000  
G12  22283309.713   117099577.986         565.552          44.000    22283311.388    91246429.204         440.660          39.000  
G17  22372538.534   117568477.441       -2724.688          38.000    22372543.702    91611822.604       -2123.038          38.000  
G19  20536209.993   107918510.267       -1785.663          45.000                                                                  
G20  20403309.394   107220120.203        -365.704          45.000                                                                  
G05  22844958.745   120051076.872        1766.696          43.000    22844963.816    93546308.096        1376.864          38.000  
G09  23284347.226   122360070.817       -1523.376          37.000    23284360.751    95345570.182       -1187.071          37.000  
G14  24059762.870   126434860.601       -5012.878          35.000    24059766.071    98520714.453       -3906.146          40.000  
G22  22457084.036   118012754.527       -4399.070          40.000                                                                  
> 2025 04 04 08 16 47.9990000  0 10                     
G06  21822252.181   114676705.025       -2522.081          41.000    21822255.249    89358482.035       -1965.186          39.000  
G11  21557890.356   113287476.176       -1398.354          45.000    21557889.743    88275954.951       -1089.662          37.000  
G12  22283202.285   117099012.955         564.620          44.000    22283203.897    91245988.921         439.908          39.000  
G17  22373057.078   117571202.251       -2725.162          38.000    22373062.274    91613945.823       -2123.231          38.000  
G19  20536549.871   107920296.167       -1786.066          45.000                                                                  
G20  20403378.944   107220486.145        -366.248          45.000                                                                  
G05  22844622.583   120049310.349        1766.232          43.000    22844627.717    93544931.600        1376.091          38.000  
G09  23284637.157   122361594.328       -1523.940          37.000    23284650.576    95346757.317       -1187.151          37.000  
G14  24060716.642   126439873.514       -5012.977          36.000    24060720.065    98524620.621       -3906.039          40.000  
G22  22457921.135   118017153.934       -4399.537          40.000                                                                  
> 2025 04 04 08 16 48.9990000  0 10                     
G06  21822732.258   114679227.505       -2522.864          41.000    21822735.160    89360447.600       -1965.869          39.000  
G11  21558156.557   113288875.054       -1399.406          44.000    21558155.942    88277044.942       -1089.950          37.000  
G12  22283094.894   117098448.968         563.574          43.000    22283096.544    91245549.449         439.012          39.000  
G17  22373575.761   117573927.884       -2725.988          38.000    22373580.924    91616069.694       -2124.082          38.000  
G19  20536889.818   107922082.967       -1787.341          45.000                                                                  
G20  20403448.809   107220853.090        -367.255          45.000                                                                  
G05  22844286.596   120047544.630        1765.375          43.000    22844291.779    93543555.722        1375.497          38.000  
G09  23284927.413   122363118.846       -1525.248          37.000    23284940.659    95347945.287       -1188.551          37.000  
G14  24061670.303   126444886.881       -5013.613          36.000    24061674.118    98528527.151       -3906.820          40.000  
G22  22458758.445   118021554.050       -4400.547          41.000                                                                  
> 2025 04 04 08 16 49.9990000  0 10                     
G06  21823212.550   114681750.627       -2523.273          41.000    21823215.241    89362413.668       -1966.566          39.000  
G11  21558422.912   113290274.654       -1399.925          45.000    21558422.155    88278135.564       -1090.974          37.000  
G12  22282987.734   117097886.213         562.262          43.000    22282989.508    91245110.907         438.153          39.000  
G17  22374094.623   117576654.498       -2726.871          38.000    22374099.754    91618194.326       -2124.691          38.000  
G19  20537230.039   107923870.821       -1788.147          45.000                                                                  
G20  20403518.911   107221221.223        -368.579          45.000                                                                  
G05  22843950.831   120045779.892        1764.413          43.000    22843955.937    93542180.584        1375.131          38.000  
G09  23285217.836   122364644.545       -1526.494          37.000    23285230.855    95349134.137       -1189.426          36.000  
G14  24062624.150   126449900.911       -5014.634          37.000    24062628.344    98532434.147       -3907.127          40.000  
G22  22459595.867   118025955.050       -4401.511          40.000                                                                  
> 2025 04 04 08 16 50.9990000  0 11                     
G06  21823692.757   114684273.991       -2523.589          41.000    21823695.363    89364379.902       -1966.250          39.000  
G11  21558689.215   113291674.621       -1400.312          44.000    21558688.634    88279226.439       -1090.842          38.000  
G12  22282880.724   117097324.245         561.302          43.000    22282882.570    91244673.029         437.534          38.000  
G17  22374613.586   117579381.707       -2727.622          38.000    22374618.730    91620319.408       -2125.411          39.000  
G19  20537570.408   107925659.341       -1789.105          45.000                                                                  
G20  20403589.124   107221590.146        -369.763          45.000                                                                  
G05  22843615.124   120044015.733        1763.595          43.000    22843620.344    93540805.942        1373.839          38.000  
G09  23285508.369   122366171.005       -1527.639          37.000    23285521.164    95350323.560       -1189.830          36.000  
G14  24063578.106   126454915.106       -5014.562          37.000    24063582.537    98536341.322       -3907.448          40.000  
G04  25307343.659                       -2363.852          25.000                                                                  
G22  22460433.405   118030356.513       -4401.854          40.000                                                                  
> 2025 04 04 08 16 51.9990000  0 10                     
G06  21824173.059   114686797.686       -2523.920          41.000    21824175.594    89366346.431       -1966.698          39.000  
G11  21558955.655   113293075.026       -1400.620          44.000    21558955.146    88280317.650       -1091.182          38.000  
G12  22282773.864   117096763.177         560.453          43.000    22282775.808    91244235.826         436.825          38.000  
G17  22375132.762   117582109.578       -2728.380          38.000    22375137.668    91622445.025       -2125.626          38.000  
G19  20537910.953   107927448.580       -1789.661          45.000                                                                  
G20  20403659.568   107221959.917        -370.288          45.000                                                                  
G05  22843279.555   120042252.198        1763.362          43.000    22843284.766    93539431.783        1373.699          38.000  
G09  23285799.064   122367698.296       -1527.457          37.000    23285811.852    95351513.726       -1191.033          36.000  
G14  24064532.170   126459929.658       -5015.169          38.000    24064536.773    98540248.741       -3907.378          40.000  
G22  22461271.077   118034758.570       -4402.306          40.000                                                                  
> 2025 04 04 08 16 52.9990000  0 10                     
G06  21824653.212   114689320.518       -2522.391          41.000    21824655.663    89368312.258       -1965.358          39.000  
G11  21559222.060   113294474.683       -1399.331          44.000    21559221.434    88281408.290       -1090.179          38.000  
G12  22282667.106   117096201.820         561.417          43.000    22282668.956    91243798.426         437.428          38.000  
G17  22375651.755   117584836.924       -2727.087          39.000    22375656.630    91624570.225       -2124.950          38.000  
G19  20538251.362   107929237.374       -1788.678          45.000                                                                  
G20  20403729.819   107222329.354        -369.244          45.000                                                                  
G05  22842943.857   120040488.180        1764.092          43.000    22842949.131    93538057.220        1374.414          38.000  
G09  23286089.784   122369225.270       -1526.968          37.000    23286102.478    95352703.552       -1189.442          36.000  
G14  24065485.967   126464943.322       -5013.756          38.000    24065490.939    98544155.520       -3906.482          40.000  
G22  22462108.668   118039159.987       -4401.590          40.000                                                                  
> 2025 04 04 08 16 53.9990000  0 10                     
G06  21825133.258   114691842.912       -2522.546          41.000    21825135.679    89370277.769       -1965.754          39.000  
G11  21559488.398   113295873.990       -1399.543          44.000    21559487.763    88282498.674       -1091.130          38.000  
G12  22282560.305   117095640.562         560.985          43.000    22282562.060    91243361.066         437.044          39.000  
G17  22376170.890   117587564.162       -2727.631          38.000    22376175.661    91626695.355       -2125.404          38.000  
G19  20538591.742   107931026.122       -1789.093          45.000                                                                  
G20  20403800.240   107222698.885        -369.989          45.000                                                                  
G05  22842608.241   120038724.002        1763.625          43.000    22842613.454    93536682.537        1373.997          39.000  
G09  23286380.384   122370752.332       -1527.610          37.000    23286393.072    95353893.455       -1190.158          36.000  
G14  24066439.650   126469956.491       -5013.939          38.000    24066444.897    98548061.891       -3906.409          40.000  
G22  22462946.226   118043561.191       -4401.774          40.000                                                                  
> 2025 04 04 08 16 54.9990000  0 10                     
G06  21825613.195   114694365.055       -2522.093          41.000    21825615.617    89372243.075       -1965.140          39.000  
G11  21559754.619   113297273.153       -1399.099          44.000    21559754.005    88283588.938       -1090.187          38.000  
G12  22282453.572   117095079.642         560.615          43.000    22282455.297    91242924.004         436.756          39.000  
G17  22376689.858   117590291.496       -2727.645          38.000    22376694.779    91628820.543       -2125.284          39.000  
G19  20538932.118   107932815.037       -1789.319          45.000                                                                  
G20  20403870.524   107223068.695        -370.264          45.000                                                                  
G05  22842272.603   120036959.908        1763.840          43.000    22842277.785    93535307.924        1374.357          38.000  
G09  23286671.014   122372279.626       -1527.183          37.000    23286683.709    95355083.619       -1190.807          36.000  
G14  24067393.585   126474969.403       -5012.771          38.000    24067398.900    98551968.057       -3906.062          40.000  
G22  22463783.678   118047962.390       -4401.615          40.000                                                                  
> 2025 04 04 08 16 55.9990000  0 10                     
G06  21826093.139   114696887.322       -2522.208          41.000    21826095.542    89374208.459       -1965.394          39.000  
G11  21560020.970   113298672.551       -1399.401          44.000    21560020.315    88284679.379       -1090.437          38.000  
G12  22282346.918   117094519.387         560.116          43.000    22282348.657    91242487.421         436.610          39.000  
G17  22377208.941   117593019.272       -2728.091          39.000    22377213.862    91630946.099       -2125.864          39.000  
G19  20539272.662   107934604.475       -1789.667          45.000                                                                  
G20  20403941.010   107223439.138        -370.605          45.000                                                                  
G05  22841936.988   120035196.236        1763.735          43.000    22841942.217    93533933.632        1374.057          38.000  
G09  23286961.845   122373807.620       -1528.296          37.000    23286974.343    95356274.201       -1190.746          35.000  
G14  24068347.307   126479982.437       -5013.040          39.000    24068352.879    98555874.293       -3905.842          40.000  
G22  22464621.192   118052363.918       -4401.958          40.000                                                                  
> 2025 04 04 08 16 56.9990000  0 10                     
G06  21826573.189   114699410.016       -2523.463          41.000    21826575.703    89376174.207       -1966.309          39.000  
G11  21560287.367   113300072.488       -1400.685          44.000    21560286.879    88285770.224       -1091.001          38.000  
G12  22282240.476   117093960.138         558.091          43.000    22282242.148    91242051.649         435.110          39.000  
G17  22377728.163   117595747.807       -2729.514          40.000    22377733.089    91633072.270       -2126.942          39.000  
G19  20539613.444   107936394.736       -1791.052          45.000                                                                  
G20  20404011.773   107223810.543        -372.278          45.000                                                                  
G05  22841601.459   120033433.306        1761.989          43.000    22841606.746    93532559.923        1372.906          38.000  
G09  23287252.859   122375336.548       -1530.138          37.000    23287265.228    95357465.599       -1192.153          36.000  
G14  24069301.144   126484995.851       -5014.153          39.000    24069306.986    98559780.895       -3907.587          40.000  
G22  22465458.877   118056766.106       -4403.069          39.000                                                                  
> 2025 04 04 08 16 57.9990000  0 10                     
G06  21827053.297   114701932.941       -2523.002          41.000    21827055.814    89378140.124       -1966.158          39.000  
G11  21560553.945   113301472.774       -1400.322          44.000    21560553.351    88286861.372       -1091.597          38.000  
G12  22282134.097   117093401.714         557.892          43.000    22282135.935    91241616.502         434.861          39.000  
G17  22378247.501   117598476.964       -2729.328          40.000    22378252.461    91635198.844       -2127.019          38.000  
G19  20539954.201   107938185.681       -1791.296          45.000                                                                  
G20  20404082.511   107224182.736        -372.620          45.000                                                                  
G05  22841266.111   120031670.967        1761.976          42.000    22841271.294    93531186.656        1373.371          38.000  
G09  23287543.768   122376866.229       -1529.786          37.000    23287556.371    95358657.565       -1192.319          36.000  
G14  24070255.058   126490009.529       -5013.922          39.000    24070261.081    98563687.631       -3906.643          40.000  
G22  22466296.664   118061168.828       -4403.127          40.000                                                                  
> 2025 04 04 08 16 58.9990000  0 10                     
G06  21827533.535   114704456.298       -2523.033          41.000    21827536.028    89380106.361       -1965.940          39.000  
G11  21560820.580   113302873.588       -1400.613          45.000    21560819.938    88287952.870       -1091.074          38.000  
G12  22282028.022   117092844.258         557.399          43.000    22282029.799    91241182.104         434.576          39.000  
G17  22378766.932   117601206.859       -2729.760          39.000    22378771.990    91637326.038       -2127.122          38.000  
G19  20540295.280   107939977.428       -1791.650          45.000                                                                  
G20  20404153.425   107224555.855        -373.132          46.000                                                                  
G05  22840930.786   120029909.369        1761.620          42.000    22840936.082    93529813.968        1372.952          38.000  
G09  23287835.063   122378396.883       -1530.843          37.000    23287847.693    95359850.277       -1192.787          36.000  
G14  24071209.100   126495023.574       -5013.827          40.000    24071215.288    98567594.678       -3906.873          40.000  
G22  22467134.595   118065572.144       -4403.188          40.000                                                                  
> 2025 04 04 08 16 59.9990000  0 10                     
G06  21828013.878   114706979.770       -2523.687          41.000    21828016.278    89382072.702       -1966.627          39.000  
G11  21561087.164   113304274.607       -1401.177          45.000    21561086.505    88289044.592       -1091.728          38.000  
G12  22281922.077   117092287.484         556.312          43.000    22281923.909    91240748.241         433.730          39.000  
G17  22379286.468   117603937.188       -2730.518          39.000    22379291.515    91639453.566       -2127.672          38.000  
G19  20540636.353   107941769.711       -1792.682          45.000                                                                  
G20  20404224.609   107224929.623        -374.121          46.000                                                                  
G05  22840595.539   120028148.186        1760.803          43.000    22840600.932    93528441.647        1372.099          38.000  
G09  23288126.446   122379928.136       -1531.611          37.000    23288139.137    95361043.461       -1193.385          36.000  
G14  24072162.941   126500037.700       -5014.254          39.000    24072169.612    98571501.784       -3906.965          40.000  
G22  22467972.539   118069975.825       -4403.623          40.000                                                                  
> 2025 04 04 08 17 00.9990000  0 10                     
G06  21828494.253   114709503.590       -2523.780          41.000    21828496.602    89384039.301       -1966.451          39.000  
G11  21561353.902   113305676.101       -1401.537          45.000    21561353.228    88290136.680       -1092.150          38.000  
G12  22281816.269   117091731.626         555.824          43.000    22281818.137    91240315.127         432.806          39.000  
G17  22379806.208   117606668.245       -2731.010          38.000    22379811.098    91641581.621       -2127.321          38.000  
G19  20540977.613   107943562.741       -1793.017          45.000                                                                  
G20  20404296.007   107225304.274        -374.768          46.000                                                                  
G05  22840260.553   120026387.683        1760.599          43.000    22840265.880    93527069.838        1371.552          38.000  
G09  23288417.962   122381460.303       -1532.275          37.000    23288430.696    95362237.363       -1193.974          37.000  
G14  24073116.990   126505052.190       -5014.269          40.000    24073123.856    98575409.192       -3907.205          40.000  
G22  22468810.639   118074380.101       -4404.058          40.000                                                                  
> 2025 04 04 08 17 01.9990000  0 10                     
G06  21828974.567   114712027.136       -2523.591          41.000    21828976.718    89386005.712       -1966.312          39.000  
G11  21561620.678   113307077.431       -1401.351          45.000    21561619.815    88291228.611       -1091.758          37.000  
G12  22281710.572   117091176.069         555.336          43.000    22281712.431    91239882.203         432.966          39.000  
G17  22380325.806   117609399.337       -2730.844          38.000    22380330.797    91643709.778       -2128.056          38.000  
G19  20541318.889   107945355.924       -1793.274          45.000                                                                  
G20  20404367.399   107225679.189        -375.079          45.000                                                                  
G05  22839925.466   120024627.252        1760.475          43.000    22839930.889    93525698.056        1371.787          38.000  
G09  23288709.483   122382992.707       -1532.614          36.000    23288722.280    95363431.449       -1194.226          37.000  
G14  24074071.049   126510066.372       -5014.058          40.000    24074077.983    98579316.339       -3907.019          40.000  
G22  22469648.607   118078784.365       -4404.305          40.000                                                                  
> 2025 04 04 08 17 02.9990000  0 10                     
G06  21829454.773   114714550.639       -2520.757          41.000    21829456.993    89387972.042       -1963.850          39.000  
G11  21561887.440   113308478.809       -1398.648          45.000    21561886.597    88292320.599       -1089.763          37.000  
G12  22281604.988   117090621.031         557.507          43.000    22281606.765    91239449.711         434.640          39.000  
G17  22380845.564   117612130.743       -2728.571          38.000    22380850.560    91645838.148       -2126.509          38.000  
G19  20541660.262   107947149.462       -1790.900          45.000                                                                  
G20  20404438.844   107226054.592        -372.913          45.000                                                                  
G05  22839590.408   120022867.095        1762.944          43.000    22839595.791    93524326.523        1373.812          38.000  
G09  23289001.096   122384525.611       -1530.273          36.000    23289013.970    95364625.921       -1192.737          37.000  
G14  24075025.048   126515080.494       -5011.129          41.000    24075032.068    98583223.463       -3904.688          40.000  
G22  22470486.653   118083188.763       -4401.157          40.000                                                                  
> 2025 04 04 08 17 03.9990000  0 10                     
G06  21829934.868   114717073.101       -2525.743          41.000    21829936.997    89389937.624       -1968.081          39.000  
G11  21562154.010   113309879.258       -1403.715          45.000    21562153.171    88293411.848       -1093.797          37.000  
G12  22281499.264   117090065.523         551.883          43.000    22281501.123    91239016.840         430.234          39.000  
G17  22381365.218   117614861.464       -2733.672          38.000    22381370.235    91647965.952       -2130.426          39.000  
G19  20542001.454   107948942.353       -1796.155          45.000                                                                  
G20  20404510.146   107226429.460        -378.223          45.000                                                                  
G05  22839255.344   120021106.211        1757.471          43.000    22839260.708    93522954.415        1369.567          38.000  
G09  23289292.519   122386057.972       -1536.038          36.000    23289305.647    95365819.972       -1197.136          38.000  
G14  24075978.957   126520093.567       -5016.553          41.000    24075986.103    98587129.757       -3909.042          40.000  
G22  22471324.611   118087592.378       -4406.626          40.000                                                                  
> 2025 04 04 08 17 04.9990000  0 10                     
G06  21830414.743   114719594.380       -2521.774          41.000    21830416.786    89391902.226       -1964.419          40.000  
G11  21562420.243   113311278.646       -1399.853          45.000    21562419.445    88294502.271       -1090.781          37.000  
G12  22281393.401   117089509.373         555.598          43.000    22281395.258    91238583.485         433.077          39.000  
G17  22381884.603   117617591.327       -2730.328          38.000    22381889.727    91650093.119       -2127.520          39.000  
G19  20542342.546   107950734.486       -1792.670          45.000                                                                  
G20  20404581.359   107226803.693        -374.731          45.000                                                                  
G05  22838919.962   120019344.500        1761.168          43.000    22838925.383    93521581.647        1372.772          38.000  
G09  23289583.802   122387589.704       -1532.771          36.000    23289597.124    95367013.519       -1193.921          38.000  
G14  24076932.642   126525105.413       -5012.099          41.000    24076939.921    98591035.088       -3905.691          41.000  
G22  22472162.542   118091995.077       -4403.418          40.000                                                                  
> 2025 04 04 08 17 05.9990000  0 10                     
G06  21830894.622   114722115.891       -2520.556          41.000    21830896.738    89393867.044       -1964.090          40.000  
G11  21562686.628   113312678.346       -1398.663          45.000    21562685.784    88295592.944       -1089.822          37.000  
G12  22281287.764   117088954.033         556.136          43.000    22281289.631    91238150.767         433.158          39.000  
G17  22382404.154   117620321.747       -2729.443          38.000    22382409.295    91652220.724       -2127.041          39.000  
G19  20542683.630   107952527.247       -1791.907          45.000                                                                  
G20  20404652.713   107227178.678        -374.054          45.000                                                                  
G05  22838584.739   120017583.311        1762.245          43.000    22838590.275    93520209.329        1372.952          38.000  
G09  23289875.334   122389122.172       -1531.711          36.000    23289888.787    95368207.652       -1193.535          38.000  
G14  24077886.276   126530117.473       -5010.876          41.000    24077893.691    98594940.588       -3904.640          41.000  
G22  22473000.310   118096398.204       -4402.203          40.000                                                                  
> 2025 04 04 08 17 06.9990000  0 10                     
G06  21831374.204   114724636.099       -2520.768          41.000    21831376.365    89395830.837       -1963.985          40.000  
G11  21562952.816   113314076.875       -1398.880          45.000    21562951.793    88296682.706       -1089.975          38.000  
G12  22281181.974   117088397.971         555.302          43.000    22281183.690    91237717.456         433.056          39.000  
G17  22382923.623   117623051.241       -2730.029          38.000    22382928.652    91654347.567       -2127.067          39.000  
G19  20543024.738   107954319.120       -1792.456          45.000                                                                  
G20  20404723.890   107227552.912        -374.640          45.000                                                                  
G05  22838249.323   120015821.169        1761.749          42.000    22838254.974    93518836.242        1372.476          38.000  
G09  23290166.695   122390653.856       -1532.054          36.000    23290180.402    95369401.180       -1193.896          38.000  
G14  24078839.793   126535128.251       -5011.261          41.000    24078847.208    98598845.093       -3905.139          41.000  
G22  22473838.010   118100800.280       -4402.687          40.000                                                                  
> 2025 04 04 08 17 07.9990000  0 10                     
G06  21831853.700   114727155.537       -2519.226          41.000    21831855.829    89397794.044       -1962.755          40.000  
G11  21563218.823   113315474.736       -1397.546          45.000    21563217.789    88297771.948       -1088.865          38.000  
G12  22281076.060   117087841.696         556.267          43.000    22281077.817    91237283.996         433.447          39.000  
G17  22383442.865   117625780.264       -2728.809          38.000    22383447.976    91656474.096       -2126.472          38.000  
G19  20543365.722   107956110.639       -1791.394          45.000                                                                  
G20  20404795.041   107227926.896        -373.932          45.000                                                                  
G05  22837913.932   120014058.606        1762.599          42.000    22837919.581    93517462.783        1373.579          38.000  
G09  23290457.982   122392185.319       -1531.405          36.000    23290471.845    95370594.511       -1193.264          38.000  
G14  24079793.125   126540138.215       -5009.727          41.000    24079800.578    98602748.942       -3903.813          41.000  
G22  22474675.602   118105201.785       -4400.943          40.000                                                                  
> 2025 04 04 08 17 08.9990000  0 10                     
G06  21832333.033   114729674.348       -2518.587          42.000    21832335.251    89399756.777       -1962.826          40.000  
G11  21563484.740   113316872.085       -1397.107          45.000    21563483.696    88298860.791       -1088.747          38.000  
G12  22280970.128   117087285.374         556.058          43.000    22280972.002    91236850.487         433.643          39.000  
G17  22383962.203   117628508.999       -2728.645          38.000    22383967.394    91658600.395       -2126.273          38.000  
G19  20543706.518   107957901.946       -1791.357          45.000                                                                  
G20  20404866.229   107228300.795        -374.011          45.000                                                                  
G05  22837578.391   120012295.716        1762.943          42.000    22837584.103    93516089.119        1373.405          38.000  
G09  23290749.435   122393716.688       -1531.601          36.000    23290763.373    95371787.781       -1193.007          38.000  
G14  24080746.323   126545147.544       -5009.187          40.000    24080753.855    98606652.313       -3903.185          40.000  
G22  22475513.226   118109602.949       -4401.063          40.000                                                                  
> 2025 04 04 08 17 09.9990000  0 11                     
G06  21832812.308   114732192.823       -2518.667          42.000    21832814.492    89401719.223       -1962.916          40.000  
G11  21563750.516   113318269.206       -1397.735          45.000    21563749.593    88299949.478       -1089.350          37.000  
G12  22280864.242   117086729.265         555.438          43.000    22280866.340    91236417.161         432.787          39.000  
G17  22384481.477   117631237.772       -2729.583          39.000    22384486.523    91660726.695       -2126.768          38.000  
G19  20544047.381   107959693.314       -1791.931          45.000                                                                  
G20  20404937.392   107228674.878        -374.817          45.000                                                                  
G05  22837242.927   120010532.801        1762.557          42.000    22837248.708    93514715.430        1373.413          38.000  
G09  23291040.904   122395248.222       -1532.106          36.000    23291054.910    95372981.192       -1193.712          38.000  
G14  24081699.444   126550156.486       -5009.158          41.000    24081707.120    98610555.373       -3903.033          41.000  
G22  22476350.863   118114003.956       -4401.240          40.000                                                                  
G13  25390859.737                        1055.914          20.000                                                                  
> 2025 04 04 08 17 10.9990000  0 11                     
G06  21833291.637   114734711.366       -2518.381          41.000    21833293.746    89403681.719       -1962.691          40.000  
G11  21564016.411   113319666.473       -1397.276          45.000    21564015.652    88301038.245       -1088.619          38.000  
G12  22280758.499   117086173.792         555.246          43.000    22280760.544    91235984.332         432.520          38.000  
G17  22385000.839   117633966.888       -2729.193          39.000    22385005.885    91662853.300       -2126.546          38.000  
G19  20544388.299   107961485.141       -1792.010          45.000                                                                  
G20  20405008.647   107229049.539        -374.921          45.000                                                                  
G05  22836907.429   120008770.267        1762.479          42.000    22836913.329    93513342.042        1373.497          38.000  
G09  23291332.485   122396780.355       -1532.207          36.000    23291346.573    95374175.064       -1193.742          38.000  
G14  24082652.569   126555165.451       -5008.856          39.000    24082660.338    98614458.474       -3903.299          40.000  
G22  22477188.415   118118405.270       -4401.069          40.000                                                                  
G13  25390656.761                        1055.914          20.000                                                                  
> 2025 04 04 08 17 11.9990000  0 11                     
G06  21833771.051   114737230.206       -2517.949          41.000    21833773.112    89405644.417       -1962.034          40.000  
G11  21564282.343   113321064.145       -1396.778          45.000    21564281.710    88302127.321       -1088.545          38.000  
G12  22280652.906   117085619.163         555.238          43.000    22280654.996    91235552.180         432.399          38.000  
G17  22385520.301   117636696.682       -2729.092          39.000    22385525.353    91664980.410       -2126.802          38.000  
G19  20544729.352   107963277.680       -1791.870          45.000                                                                  
G20  20405080.052   107229425.033        -374.823          45.000                                                                  
G05  22836572.165   120007008.365        1762.797          42.000    22836577.971    93511969.134        1373.215          38.000  
G09  23291624.259   122398313.297       -1532.299          37.000    23291638.373    95375369.555       -1193.750          38.000  
G14  24083605.776   126560174.767       -5008.656          37.000    24083613.521    98618361.841       -3902.953          38.000  
G22  22478026.005   118122807.143       -4400.706          42.000                                                                  
G13  25390455.485                        1055.914          19.000                                                                  
> 2025 04 04 08 17 12.9990000  0 11                     
G06  21834250.340   114739748.670       -2519.039          41.000    21834252.318    89407606.872       -1962.607          40.000  
G11  21564548.252   113322461.578       -1397.941          45.000    21564547.665    88303216.233       -1089.412          38.000  
G12  22280547.393   117085064.770         553.936          43.000    22280549.440    91235120.161         431.464          38.000  
G17  22386039.822   117639426.446       -2730.431          38.000    22386044.754    91667107.468       -2127.305          38.000  
G19  20545070.544   107965070.265       -1793.042          45.000                                                                  
G20  20405151.618   107229800.698        -376.105          45.000                                                                  
G05  22836236.800   120005246.433        1761.522          42.000    22836242.641    93510596.215        1372.021          38.000  
G09  23291915.998   122399846.397       -1533.796          38.000    23291930.252    95376564.196       -1195.164          38.000  
G14  24084558.863   126565183.727       -5009.750          36.000    24084566.803    98622264.856       -3903.444          37.000  
G22  22478863.616   118127208.867       -4402.332          41.000                                                                  
G13  25390248.553                        1055.914          18.000                                                                  
> 2025 04 04 08 17 13.9990000  0 11                     
G06  21834729.259   114742265.489       -2516.125          41.000    21834731.265    89409568.015       -1960.484          40.000  
G11  21564813.850   113323857.437       -1395.324          45.000    21564813.443    88304303.950       -1087.395          38.000  
G12  22280441.654   117084509.259         555.876          43.000    22280443.654    91234687.297         433.672          38.000  
G17  22386559.001   117642154.828       -2727.784          38.000    22386563.984    91669233.533       -2125.433          38.000  
G19  20545411.381   107966861.602       -1790.784          45.000                                                                  
G20  20405222.854   107230175.232        -374.017          45.000                                                                  
G05  22835901.235   120003483.186        1763.849          42.000    22835907.183    93509222.244        1374.594          38.000  
G09  23292207.497   122401378.360       -1531.556          39.000    23292221.912    95377757.946       -1193.464          39.000  
G14  24085511.646   126570190.909       -5006.212          36.000    24085519.667    98626166.591       -3900.975          37.000  
G22  22479701.099   118131609.168       -4400.062          41.000                                                                  
G13  25390047.317                        1055.914          19.000                                                                  
> 2025 04 04 08 17 14.9990000  0 11                     
G06  21835207.981   114744781.415       -2515.494          41.000    21835210.156    89411528.503       -1960.158          40.000  
G11  21565079.419   113325252.554       -1394.935          45.000    21565078.968    88305391.018       -1086.746          38.000  
G12  22280335.979   117083953.481         555.710          43.000    22280337.785    91234254.199         433.079          38.000  
G17  22387078.198   117644882.772       -2727.642          38.000    22387083.102    91671359.177       -2125.525          38.000  
G19  20545752.339   107968652.497       -1790.912          45.000                                                                  
G20  20405294.100   107230549.441        -374.176          46.000                                                                  
G05  22835565.564   120001719.420        1763.560          42.000    22835571.588    93507847.865        1374.848          38.000  
G09  23292498.989   122402910.003       -1531.483          39.000    23292513.472    95378951.459       -1193.556          39.000  
G14  24086464.189   126575197.222       -5005.203          35.000    24086472.397    98630067.616       -3900.468          37.000  
G22  22480538.242   118136008.833       -4399.325          41.000                                                                  
G13  25389851.927                        1055.914          19.000                                                                  
> 2025 04 04 08 17 15.9990000  0 10                     
G06  21835686.676   114747296.793       -2515.487          42.000    21835688.861    89413488.514       -1959.810          40.000  
G11  21565344.892   113326647.200       -1394.594          45.000    21565344.418    88306477.747       -1086.477          38.000  
G12  22280230.184   117083397.659         555.740          43.000    22280232.097    91233821.111         432.971          38.000  
G17  22387597.295   117647610.437       -2727.608          39.000    22387602.214    91673484.646       -2125.327          39.000  
G19  20546093.123   107970443.198       -1790.747          45.000                                                                  
G20  20405365.290   107230923.580        -374.091          46.000                                                                  
G05  22835229.770   119999955.344        1764.073          42.000    22835235.871    93506473.284        1374.479          38.000  
G09  23292790.452   122404441.587       -1531.459          39.000    23292804.951    95380144.871       -1193.458          38.000  
G14  24087416.782   126580202.956       -5005.504          35.000    24087424.991    98633968.233       -3900.540          37.000  
G22  22481375.382   118140408.155       -4399.152          41.000                                                                  
> 2025 04 04 08 17 16.9990000  0 10                     
G06  21836165.377   114749812.121       -2515.406          42.000    21836167.606    89415448.523       -1960.149          40.000  
G11  21565610.363   113328041.919       -1394.884          45.000    21565609.830    88307564.562       -1086.971          38.000  
G12  22280124.493   117082842.397         554.446          43.000    22280126.469    91233388.441         431.836          38.000  
G17  22388116.386   117650338.427       -2728.265          39.000    22388121.351    91675610.352       -2126.107          39.000  
G19  20546433.942   107972234.291       -1791.492          45.000                                                                  
G20  20405436.565   107231298.245        -375.061          46.000                                                                  
G05  22834894.018   119998191.581        1763.300          42.000    22834900.338    93505098.944        1373.867          38.000  
G09  23293081.972   122405973.704       -1532.785          39.000    23293096.587    95381338.710       -1193.969          39.000  
G14  24088369.379   126585208.652       -5005.496          36.000    24088377.559    98637868.732       -3900.568          37.000  
G22  22482212.547   118144807.683       -4399.735          41.000                                                                  
> 2025 04 04 08 17 17.9990000  0 10                     
G06  21836644.069   114752327.338       -2515.411          42.000    21836646.172    89417408.430       -1960.084          40.000  
G11  21565875.754   113329436.627       -1395.043          45.000    21565875.194    88308651.344       -1086.921          38.000  
G12  22280018.909   117082287.568         554.413          43.000    22280020.890    91232956.078         431.871          39.000  
G17  22388635.506   117653066.651       -2728.548          39.000    22388640.523    91677736.219       -2126.173          39.000  
G19  20546774.886   107974025.699       -1791.913          45.000                                                                  
G20  20405507.996   107231673.321        -375.476          46.000                                                                  
G05  22834558.447   119996428.022        1763.195          42.000    22834564.839    93503724.757        1373.667          38.000  
G09  23293373.611   122407506.188       -1533.060          39.000    23293388.273    95382532.873       -1194.510          39.000  
G14  24089321.937   126590214.184       -5005.542          36.000    24089330.043    98641769.153       -3900.435          37.000  
G22  22483049.995   118149207.343       -4399.800          41.000                                                                  
> 2025 04 04 08 17 18.9990000  0 10                     
G06  21837122.733   114754842.540       -2514.976          42.000    21837124.955    89419368.313       -1959.426          39.000  
G11  21566141.238   113330831.426       -1394.592          45.000    21566140.521    88309738.207       -1086.919          38.000  
G12  22279913.441   117081733.273         554.307          43.000    22279915.451    91232524.153         432.029          39.000  
G17  22389154.709   117655795.137       -2728.223          39.000    22389159.810    91679862.304       -2125.909          39.000  
G19  20547115.892   107975817.457       -1791.699          45.000                                                                  
G20  20405579.510   107232048.895        -375.653          46.000                                                                  
G05  22834222.877   119994664.756        1763.603          42.000    22834229.336    93502350.772        1374.327          38.000  
G09  23293665.235   122409039.171       -1532.790          39.000    23293680.107    95383727.422       -1194.696          39.000  
G14  24090274.635   126595219.671       -5004.562          37.000    24090282.507    98645669.533       -3900.037          37.000  
G22  22483887.352   118153607.178       -4399.199          41.000                                                                  
> 2025 04 04 08 17 19.9990000  0 10                     
G06  21837601.383   114757358.008       -2515.517          42.000    21837603.634    89421328.429       -1960.386          40.000  
G11  21566406.745   113332226.610       -1395.331          45.000    21566406.079    88310825.356       -1087.550          39.000  
G12  22279808.138   117081179.835         553.127          43.000    22279810.150    91232092.911         431.006          39.000  
G17  22389674.133   117658524.294       -2729.161          39.000    22389679.181    91681988.929       -2126.741          39.000  
G19  20547457.036   107977609.915       -1792.670          45.000                                                                  
G20  20405651.117   107232425.276        -376.819          46.000                                                                  
G05  22833887.424   119992902.127        1762.503          42.000    22833893.927    93500977.296        1373.335          38.000  
G09  23293957.176   122410572.972       -1534.348          39.000    23293971.987    95384922.601       -1195.769          39.000  
G14  24091227.357   126600225.436       -5005.985          37.000    24091235.120    98649570.119       -3900.670          37.000  
G22  22484724.726   118158007.575       -4400.863          41.000                                                                  
> 2025 04 04 08 17 20.9990000  0 10                     
G06  21838080.041   114759873.448       -2515.866          42.000    21838082.304    89423288.512       -1960.553          39.000  
G11  21566672.349   113333621.845       -1395.790          45.000    21566671.687    88311912.530       -1087.468          39.000  
G12  22279702.948   117080626.923         552.246          43.000    22279704.958    91231662.071         430.391          39.000  
G17  22390193.538   117661253.715       -2730.025          39.000    22390198.702    91684115.767       -2127.585          39.000  
G19  20547798.093   107979402.755       -1793.311          45.000                                                                  
G20  20405722.835   107232802.141        -377.478          46.000                                                                  
G05  22833551.976   119991139.776        1761.902          43.000    22833558.568    93499604.045        1372.694          38.000  
G09  23294249.041   122412107.258       -1534.921          39.000    23294264.016    95386118.145       -1195.984          39.000  
G14  24092179.845   126605231.124       -5006.084          36.000    24092187.627    98653470.668       -3901.387          38.000  
G22  22485562.231   118162408.131       -4401.130          41.000                                                                  
> 2025 04 04 08 17 21.9990000  0 11                     
G06  21838558.785   114762389.291       -2515.883          42.000    21838561.124    89425248.899       -1960.482          39.000  
G11  21566937.939   113335017.620       -1395.965          45.000    21566937.263    88313000.160       -1087.905          39.000  
G12  22279597.964   117080074.996         551.728          43.000    22279599.882    91231231.997         429.726          39.000  
G17  22390713.076   117663983.907       -2730.240          39.000    22390718.346    91686243.154       -2127.393          39.000  
G19  20548139.462   107981196.419       -1793.957          44.000                                                                  
G20  20405794.763   107233179.958        -378.107          46.000                                                                  
G05  22833216.697   119989378.180        1761.275          42.000    22833223.329    93498231.374        1372.427          38.000  
G09  23294541.211   122413642.474       -1535.443          38.000    23294556.239    95387314.416       -1196.528          39.000  
G14  24093132.654   126610237.209       -5006.153          36.000    24093140.228    98657371.504       -3900.803          37.000  
G22  22486399.817   118166809.329       -4401.539          41.000                                                                  
G13  25388433.049                        1064.525          25.000                                                                  
> 2025 04 04 08 17 22.9990000  0 11                     
G06  21839037.512   114764905.087       -2515.705          42.000    21839039.935    89427209.244       -1960.261          39.000  
G11  21567203.597   113336413.434       -1395.833          45.000    21567202.932    88314087.805       -1087.811          39.000  
G12  22279493.057   117079523.580         551.271          43.000    22279494.996    91230802.312         429.427          39.000  
G17  22391232.570   117666714.374       -2730.294          39.000    22391238.081    91688370.787       -2127.463          39.000  
G19  20548480.788   107982990.419       -1794.098          45.000                                                                  
G20  20405866.713   107233558.243        -378.571          46.000                                                                  
G05  22832881.548   119987616.822        1761.595          42.000    22832888.107    93496858.897        1372.515          38.000  
G09  23294833.448   122415178.149       -1535.861          38.000    23294848.533    95388511.048       -1196.612          39.000  
G14  24094085.323   126615243.204       -5006.130          36.000    24094092.894    98661272.283       -3900.846          37.000  
G22  22487237.357   118171210.693       -4401.409          41.000                                                                  
G13  25388230.091                        1063.010          26.000                                                                  
> 2025 04 04 08 17 23.9990000  0 11                     
G06  21839516.257   114767420.728       -2515.840          42.000    21839518.624    89429169.505       -1960.401          40.000  
G11  21567469.220   113337809.222       -1396.151          45.000    21567468.497    88315175.420       -1087.318          39.000  
G12  22279388.236   117078972.591         550.673          43.000    22279390.213    91230372.986         428.911          39.000  
G17  22391752.208   117669445.077       -2730.979          39.000    22391757.753    91690498.610       -2128.397          39.000  
G19  20548822.270   107984784.718       -1794.580          45.000                                                                  
G20  20405938.725   107233936.915        -379.028          46.000                                                                  
G05  22832546.439   119985855.683        1760.911          42.000    22832552.948    93495486.591        1372.050          38.000  
G09  23295125.617   122416714.251       -1536.217          39.000    23295140.891    95389708.012       -1197.194          39.000  
G14  24095037.934   126620249.062       -5006.221          37.000    24095045.543    98665172.949       -3900.640          38.000  
G22  22488074.937   118175612.199       -4401.833          41.000                                                                  
G13  25388026.550                        1063.633          26.000                                                                  
> 2025 04 04 08 17 24.9990000  0 11                     
G06  21839995.008   114769936.544       -2516.033          42.000    21839997.346    89431129.878       -1960.815          40.000  
G11  21567734.886   113339205.267       -1396.553          45.000    21567734.079    88316263.241       -1088.096          38.000  
G12  22279283.585   117078422.326         549.807          43.000    22279285.576    91229944.190         428.368          39.000  
G17  22392271.770   117672176.242       -2731.656          39.000    22392277.408    91692626.773       -2128.507          39.000  
G19  20549163.726   107986579.561       -1795.325          45.000                                                                  
G20  20406010.918   107234316.266        -379.846          46.000                                                                  
G05  22832211.424   119984095.020        1760.135          42.000    22832217.942    93494114.655        1371.297          38.000  
G09  23295418.033   122418251.028       -1537.450          39.000    23295433.237    95390905.494       -1198.003          39.000  
G14  24095990.610   126625255.052       -5006.295          37.000    24095998.171    98669073.704       -3900.843          37.000  
G22  22488912.728   118180014.059       -4402.529          41.000                                                                  
G13  25387823.737                        1063.816          26.000                                                                  
> 2025 04 04 08 17 25.9990000  0 11                     
G06  21840473.589   114772451.207       -2511.672          42.000    21840475.918    89433089.359       -1957.057          40.000  
G11  21568000.458   113340600.282       -1392.019          45.000    21567999.572    88317350.275       -1084.618          38.000  
G12  22279178.727   117077871.502         553.558          43.000    22279180.711    91229514.992         431.380          39.000  
G17  22392791.184   117674906.633       -2727.716          39.000    22392796.984    91694754.325       -2125.343          39.000  
G19  20549505.263   107988373.701       -1791.632          45.000                                                                  
G20  20406082.971   107234695.024        -376.166          45.000                                                                  
G05  22831876.266   119982333.570        1763.873          42.000    22831882.714    93492742.078        1374.879          38.000  
G09  23295710.441   122419787.191       -1533.733          39.000    23295725.511    95392102.517       -1194.765          39.000  
G14  24096942.932   126630259.893       -5002.237          36.000    24096950.529    98672973.561       -3896.943          37.000  
G22  22489750.175   118184415.034       -4398.650          41.000                                                                  
G13  25387620.007   133412843.5003       1064.705          27.000                                                                  
> 2025 04 04 08 17 26.9990000  0 11                     
G06  21840952.008   114774965.101       -2514.212          42.000    21840954.445    89435048.225       -1959.368          40.000  
G11  21568265.814   113341994.619       -1394.700          45.000    21568265.028    88318436.759       -1086.637          38.000  
G12  22279073.835   117077320.464         550.560          43.000    22279075.905    91229085.607         428.939          39.000  
G17  22393310.611   117677636.532       -2730.334          38.000    22393316.492    91696881.540       -2127.510          39.000  
G19  20549846.470   107990167.436       -1794.086          44.000                                                                  
G20  20406154.995   107235073.522        -379.028          45.000                                                                  
G05  22831541.122   119980571.636        1761.519          42.000    22831547.419    93491369.136        1372.767          38.000  
G09  23296002.624   122421323.079       -1536.509          39.000    23296017.816    95393299.291       -1197.017          39.000  
G14  24097895.282   126635263.900       -5004.276          37.000    24097902.782    98676872.828       -3899.662          37.000  
G22  22490587.630   118188815.425       -4400.608          40.000                                                                  
G13  25387418.229   133411777.0892       1066.309          27.000                                                                  
> 2025 04 04 08 17 27.9990000  0 11                     
G06  21841430.538   114777479.772       -2516.919          41.000    21841433.021    89437007.722       -1961.452          40.000  
G11  21568531.435   113343389.853       -1397.584          45.000    21568530.557    88319523.976       -1089.125          38.000  
G12  22278969.188   117076770.801         547.057          42.000    22278971.165    91228657.300         426.397          39.000  
G17  22393830.307   117680367.590       -2733.442          38.000    22393836.274    91699009.642       -2130.085          39.000  
G19  20550188.092   107991962.403       -1797.443          45.000                                                                  
G20  20406227.253   107235453.341        -382.428          45.000                                                                  
G05  22831206.057   119978810.821        1758.380          41.000    22831212.329    93489997.081        1370.307          38.000  
G09  23296295.079   122422860.288       -1539.698          39.000    23296310.384    95394497.146       -1199.993          39.000  
G14  24098847.791   126640268.658       -5006.980          36.000    24098855.234    98680772.650       -3901.685          37.000  
G22  22491425.172   118193216.842       -4403.542          40.000                                                                  
G13  25387215.799   133410711.2032       1065.118          27.000                                                                  
> 2025 04 04 08 17 28.9990000  0 11                     
G06  21841909.049   114779994.354       -2515.178          41.000    21841911.607    89438967.124       -1959.931          40.000  
G11  21568796.920   113344785.110       -1395.762          44.000    21568796.159    88320611.189       -1087.944          38.000  
G12  22278864.767   117076221.594         548.557          43.000    22278866.591    91228229.329         427.430          39.000  
G17  22394349.977   117683098.894       -2731.621          38.000    22394355.930    91701137.908       -2128.509          39.000  
G19  20550529.761   107993757.665       -1796.008          45.000                                                                  
G20  20406299.654   107235833.577        -380.920          45.000                                                                  
G05  22830871.092   119977050.225        1760.094          42.000    22830877.155    93488625.220        1370.872          38.000  
G09  23296587.741   122424397.934       -1538.431          39.000    23296602.913    95395695.297       -1198.838          39.000  
G14  24099800.273   126645273.329       -5005.017          36.000    24099807.615    98684672.388       -3900.247          37.000  
G22  22492262.743   118197618.412       -4402.120          40.000                                                                  
G13  25387013.238   133409645.0322       1066.075          27.000                                                                  
> 2025 04 04 08 17 29.9990000  0 11                     
G06  21842387.382   114782508.266       -2514.139          41.000    21842390.022    89440926.009       -1958.972          40.000  
G11  21569062.343   113346179.810       -1395.077          45.000    21569061.471    88321697.942       -1086.717          38.000  
G12  22278760.215   117075672.304         548.777          43.000    22278762.035    91227801.310         427.883          39.000  
G17  22394869.630   117685829.878       -2731.376          38.000    22394875.645    91703265.967       -2128.693          39.000  
G19  20550871.347   107995552.687       -1795.349          45.000                                                                  
G20  20406372.018   107236213.712        -380.627          45.000                                                                  
G05  22830535.953   119975289.312        1760.490          41.000    22830542.070    93487253.064        1372.123          38.000  
G09  23296880.222   122425935.448       -1537.973          38.000    23296895.531    95396893.358       -1198.484          39.000  
G14  24100752.513   126650277.339       -5004.503          36.000    24100759.821    98688571.590       -3899.302          37.000  
G22  22493100.241   118202019.549       -4401.251          40.000                                                                  
G13  25386813.153   133408577.7722       1067.359          27.000                                                                  
> 2025 04 04 08 17 30.9990000  0 12                     
G06  21842865.817   114785022.248       -2513.677          41.000    21842868.529    89442884.956       -1958.927          40.000  
G11  21569327.792   113347574.680       -1394.807          44.000    21569327.001    88322784.853       -1086.658          38.000  
G12  22278655.837   117075123.645         548.620          42.000    22278657.534    91227373.794         427.133          39.000  
G17  22395389.342   117688561.282       -2731.418          38.000    22395395.409    91705394.312       -2128.656          39.000  
G19  20551213.090   107997348.178       -1795.544          45.000                                                                  
G20  20406444.363   107236594.426        -380.890          45.000                                                                  
G05  22830201.012   119973528.797        1760.288          41.000    22830207.092    93485881.249        1371.518          38.000  
G09  23297172.857   122427473.566       -1538.204          39.000    23297188.287    95398091.882       -1198.506          39.000  
G14  24101704.743   126655281.348       -5003.738          36.000    24101712.049    98692470.859       -3899.389          37.000  
G04  25325087.756                       -2337.886          26.000                                                                  
G22  22493937.803   118206420.991       -4401.369          40.000                                                                  
G13  25386609.911   133407509.7351       1068.117          26.000                                                                  
> 2025 04 04 08 17 31.9990000  0 11                     
G06  21843344.092   114787536.135       -2514.078          41.000    21843346.881    89444843.823       -1959.087          40.000  
G11  21569593.267   113348969.524       -1394.719          44.000    21569592.443    88323871.789       -1087.292          38.000  
G12  22278551.500   117074575.438         547.959          42.000    22278553.280    91226946.616         427.017          39.000  
G17  22395909.125   117691292.885       -2731.680          37.000    22395915.240    91707522.836       -2128.841          39.000  
G19  20551554.828   107999143.979       -1796.026          45.000                                                                  
G20  20406516.870   107236975.556        -381.226          45.000                                                                  
G05  22829866.082   119971768.485        1760.169          42.000    22829872.207    93484509.582        1371.781          38.000  
G09  23297465.608   122429012.085       -1538.642          38.000    23297481.040    95399290.748       -1199.067          39.000  
G14  24102656.803   126660285.239       -5003.766          36.000    24102664.155    98696370.010       -3899.780          37.000  
G22  22494775.419   118210822.536       -4401.655          40.000                                                                  
G13  25386406.452   133406441.732        1068.759          25.000                                                                  
> 2025 04 04 08 17 32.9990000  0 11                     
G06  21843822.290   114790049.750       -2513.346          41.000    21843825.261    89446802.471       -1958.226          40.000  
G11  21569858.570   113350364.249       -1394.286          44.000    21569857.840    88324958.562       -1086.722          38.000  
G12  22278447.164   117074027.540         547.957          43.000    22278449.003    91226519.696         426.834          39.000  
G17  22396428.922   117694024.618       -2731.445          37.000    22396435.153    91709651.428       -2128.431          39.000  
G19  20551896.600   108000939.934       -1795.886          45.000                                                                  
G20  20406589.445   107237356.979        -381.525          45.000                                                                  
G05  22829531.160   119970008.272        1760.352          42.000    22829537.250    93483137.967        1371.839          38.000  
G09  23297758.359   122430550.887       -1538.709          38.000    23297773.814    95400489.790       -1198.895          38.000  
G14  24103609.030   126665288.862       -5003.230          36.000    24103616.352    98700268.912       -3898.544          37.000  
G22  22495612.995   118215224.082       -4401.369          40.000                                                                  
G13  25386201.950   133405373.193        1068.967          25.000                                                                  
> 2025 04 04 08 17 33.9990000  0 11                     
G06  21844300.533   114792562.871       -2512.874          41.000    21844303.574    89448760.752       -1958.264          40.000  
G11  21570123.868   113351758.552       -1393.835          44.000    21570123.165    88326045.043       -1086.156          38.000  
G12  22278342.885   117073479.706         547.873          43.000    22278344.741    91226092.805         426.738          39.000  
G17  22396948.759   117696756.181       -2731.419          38.000    22396954.937    91711779.884       -2128.407          39.000  
G19  20552238.223   108002735.773       -1795.782          45.000                                                                  
G20  20406661.981   107237738.400        -381.396          45.000                                                                  
G05  22829196.215   119968247.853        1760.484          42.000    22829202.284    93481766.231        1372.093          38.000  
G09  23298051.081   122432089.687       -1539.034          38.000    23298066.642    95401688.858       -1198.837          38.000  
G14  24104561.154   126670291.949       -5002.964          36.000    24104568.370    98704167.421       -3898.471          36.000  
G22  22496450.448   118219625.298       -4400.792          40.000                                                                  
G13  25385998.090   133404303.791        1069.765          25.000                                                                  
> 2025 04 04 08 17 34.9990000  0 11                     
G06  21844778.874   114795076.396       -2513.519          41.000    21844781.886    89450719.344       -1958.639          40.000  
G11  21570389.282   113353153.374       -1394.610          44.000    21570388.641    88327131.921       -1087.030          38.000  
G12  22278238.816   117072932.851         546.521          43.000    22278240.681    91225666.681         426.008          39.000  
G17  22397468.614   117699488.432       -2732.634          37.000    22397474.762    91713908.965       -2129.540          39.000  
G19  20552580.105   108004532.466       -1797.058          45.000                                                                  
G20  20406734.750   107238120.793        -382.672          45.000                                                                  
G05  22828861.323   119966488.181        1759.617          42.000    22828867.422    93480395.101        1370.496          38.000  
G09  23298343.983   122433629.460       -1540.155          38.000    23298359.641    95402888.693       -1200.588          38.000  
G14  24105513.359   126675295.414       -5003.052          36.000    24105520.451    98708066.255       -3899.152          36.000  
G22  22497288.097   118224027.226       -4401.879          40.000                                                                  
G13  25385795.912   133403234.521        1066.570          23.000                                                                  
> 2025 04 04 08 17 35.9990000  0 11                     
G06  21845257.011   114797589.097       -2512.026          41.000    21845260.065    89452677.285       -1957.477          40.000  
G11  21570654.489   113354547.507       -1393.365          44.000    21570653.900    88328218.256       -1086.080          38.000  
G12  22278134.621   117072385.754         547.351          43.000    22278136.469    91225240.361         426.449          39.000  
G17  22397988.368   117702220.265       -2731.476          38.000    22397994.603    91716037.637       -2128.477          39.000  
G19  20552921.894   108006328.743       -1796.185          45.000                                                                  
G20  20406807.348   107238502.896        -382.086          45.000                                                                  
G05  22828526.467   119964728.051        1760.580          42.000    22828532.419    93479023.550        1371.655          38.000  
G09  23298636.765   122435168.888       -1539.116          38.000    23298652.480    95404088.276       -1199.547          38.000  
G14  24106465.338   126680298.095       -5002.070          35.000    24106472.327    98711964.381       -3897.141          37.000  
G22  22498125.571   118228428.559       -4401.230          40.000                                                                  
G13  25385591.526                        1071.309          22.000                                                                  
> 2025 04 04 08 17 36.9990000  0 11                     
G06  21845735.058   114800101.388       -2512.740          41.000    21845738.155    89454634.916       -1957.743          40.000  
G11  21570919.731   113355941.301       -1394.216          44.000    21570919.099    88329304.290       -1086.137          38.000  
G12  22278030.572   117071838.782         546.315          43.000    22278032.423    91224814.152         425.758          39.000  
G17  22398508.176   117704952.001       -2732.750          37.000    22398514.389    91718166.223       -2128.992          39.000  
G19  20553263.718   108008124.965       -1796.997          45.000                                                                  
G20  20406880.111   107238885.067        -382.721          45.000                                                                  
G05  22828191.466   119962967.810        1759.774          42.000    22828197.426    93477651.957        1371.219          38.000  
G09  23298929.672   122436708.466       -1540.156          38.000    23298945.370    95405287.919       -1200.542          38.000  
G14  24107417.173   126685300.251       -5002.474          35.000    24107424.104    98715862.219       -3898.074          36.000  
G22  22498963.161   118232829.655       -4401.731          40.000                                                                  
G13  25385387.928                        1070.702          22.000                                                                  
> 2025 04 04 08 17 37.9990000  0 11                     
G06  21846213.187   114802613.726       -2513.029          41.000    21846216.182    89456592.582       -1958.159          40.000  
G11  21571184.989   113357335.255       -1394.432          44.000    21571184.340    88330390.507       -1086.441          38.000  
G12  22277926.697   117071292.434         545.693          43.000    22277928.400    91224388.439         424.754          39.000  
G17  22399028.051   117707684.102       -2732.813          37.000    22399034.269    91720295.137       -2129.214          39.000  
G19  20553605.533   108009921.698       -1797.614          45.000                                                                  
G20  20406952.873   107239267.861        -383.502          45.000                                                                  
G05  22827856.571   119961207.970        1758.925          42.000    22827862.549    93476280.642        1370.738          39.000  
G09  23299222.644   122438248.605       -1540.827          38.000    23299238.539    95406488.019       -1200.461          38.000  
G14  24108368.940   126690302.496       -5002.650          35.000    24108375.937    98719760.066       -3898.474          37.000  
G22  22499800.724   118237231.069       -4402.196          40.000                                                                  
G13  25385183.575                        1070.347          22.000                                                                  
> 2025 04 04 08 17 38.9990000  0 11                     
G06  21846691.231   114805125.668       -2511.665          41.000    21846694.259    89458549.932       -1957.345          40.000  
G11  21571450.096   113358728.949       -1393.679          44.000    21571449.553    88331476.509       -1085.933          38.000  
G12  22277822.810   117070746.263         546.139          43.000    22277824.591    91223962.846         425.604          39.000  
G17  22399548.079   117710416.185       -2732.083          38.000    22399554.129    91722424.043       -2128.982          39.000  
G19  20553947.479   108011718.448       -1796.710          45.000                                                                  
G20  20407025.840   107239650.776        -382.990          45.000                                                                  
G05  22827521.721   119959448.074        1759.808          42.000    22827527.553    93474909.295        1371.243          38.000  
G09  23299515.783   122439788.871       -1540.388          38.000    23299531.429    95407688.257       -1200.267          38.000  
G14  24109320.756   126695304.332       -5001.632          35.000    24109327.769    98723657.569       -3897.319          37.000  
G22  22500638.244   118241632.295       -4401.009          40.000                                                                  
G13  25384979.751                        1069.810          21.000                                                                  
> 2025 04 04 08 17 39.9990000  0 11                     
G06  21847169.134   114807637.431       -2511.272          41.000    21847172.257    89460507.143       -1956.866          40.000  
G11  21571715.313   113360122.512       -1393.063          44.000    21571714.668    88332562.411       -1085.362          38.000  
G12  22277718.981   117070200.506         545.649          42.000    22277720.647    91223537.570         425.270          38.000  
G17  22400068.128   117713148.404       -2732.067          38.000    22400073.942    91724553.046       -2129.036          39.000  
G19  20554289.589   108013515.408       -1796.777          45.000                                                                  
G20  20407098.819   107240034.036        -383.173          45.000                                                                  
G05  22827186.864   119957688.275        1759.851          42.000    22827192.667    93473538.039        1371.035          38.000  
G09  23299808.806   122441329.493       -1540.495          38.000    23299824.491    95408888.711       -1200.391          37.000  
G14  24110272.467   126700305.920       -5001.157          34.000    24110279.626    98727554.934       -3897.499          38.000  
G22  22501475.727   118246033.631       -4401.011          39.000                                                                  
G13  25384774.664                        1077.337          20.000                                                                  
> 2025 04 04 08 17 40.9990000  0 11                     
G06  21847646.993   114810148.711       -2510.852          41.000    21847650.148    89462463.985       -1956.671          40.000  
G11  21571980.369   113361515.753       -1393.070          44.000    21571979.801    88333648.044       -1085.385          38.000  
G12  22277615.209   117069654.801         545.587          42.000    22277616.794    91223112.359         425.068          39.000  
G17  22400588.016   117715880.488       -2732.023          38.000    22400593.889    91726681.937       -2128.585          39.000  
G19  20554631.547   108015312.319       -1796.912          45.000                                                                  
G20  20407171.779   107240417.355        -383.148          44.000                                                                  
G05  22826851.932   119955928.340        1760.117          42.000    22826857.779    93472166.648        1371.613          38.000  
G09  23300101.960   122442870.157       -1541.142          38.000    23300117.565    95410089.235       -1200.412          37.000  
G14  24111224.001   126705307.071       -5001.112          34.000    24111231.307    98731451.891       -3896.718          38.000  
G22  22502313.212   118250434.614       -4400.885          40.000                                                                  
G13  25384569.361                        1077.795          19.000                                                                  
> 2025 04 04 08 17 41.9990000  0 11                     
G06  21848124.780   114812659.557       -2510.866          41.000    21848127.950    89464420.481       -1956.717          41.000  
G11  21572245.373   113362908.652       -1393.170          44.000    21572244.828    88334733.410       -1085.116          37.000  
G12  22277511.405   117069109.235         545.220          42.000    22277512.993    91222687.237         424.648          39.000  
G17  22401107.936   117718612.472       -2732.299          38.000    22401113.729    91728810.748       -2128.878          39.000  
G19  20554973.519   108017109.164       -1797.137          45.000                                                                  
G20  20407244.803   107240800.770        -383.813          44.000                                                                  
G05  22826517.045   119954168.293        1759.748          42.000    22826522.895    93470795.189        1371.102          38.000  
G09  23300395.143   122444410.909       -1541.269          37.000    23300410.665    95411289.821       -1201.042          37.000  
G14  24112175.647   126710307.724       -5001.063          33.000    24112183.009    98735348.492       -3896.775          38.000  
G22  22503150.689   118254835.454       -4400.866          40.000                                                                  
G13  25384363.831                        1073.568          19.000                                                                  
> 2025 04 04 08 17 42.9990000  0 11                     
G06  21848602.490   114815170.223       -2510.590          41.000    21848605.649    89466376.842       -1956.342          40.000  
G11  21572510.237   113364301.471       -1392.621          44.000    21572509.898    88335818.762       -1086.340          37.000  
G12  22277407.672   117068564.076         544.876          42.000    22277409.157    91222262.449         424.562          38.000  
G17  22401627.897   117721344.597       -2732.088          37.000    22401633.594    91730939.686       -2128.851          40.000  
G19  20555315.444   108018906.281       -1797.375          45.000                                                                  
G20  20407317.713   107241184.532        -383.997          45.000                                                                  
G05  22826182.170   119952408.414        1759.642          42.000    22826188.039    93469423.846        1371.093          38.000  
G09  23300688.300   122445952.016       -1541.385          37.000    23300703.813    95412490.690       -1201.102          38.000  
G14  24113127.186   126715308.141       -5000.784          33.000    24113134.454    98739244.951       -3896.537          37.000  
G22  22503988.163   118259236.360       -4400.892          40.000                                                                  
G13  25384158.750                        1069.127          18.000                                                                  
> 2025 04 04 08 17 43.9990000  0 11                     
G06  21849080.125   114817680.457       -2509.953          41.000    21849083.324    89468332.847       -1955.904          40.000  
G11  21572775.115   113365693.960       -1392.291          44.000    21572774.905    88336903.789       -1084.848          37.000  
G12  22277303.879   117068019.035         544.915          42.000    22277305.472    91221837.743         424.567          39.000  
G17  22402147.821   117724076.651       -2732.209          38.000    22402153.472    91733068.570       -2128.771          40.000  
G19  20555657.343   108020703.363       -1797.211          44.000                                                                  
G20  20407390.782   107241568.388        -383.862          45.000                                                                  
G05  22825847.220   119950648.390        1760.157          42.000    22825853.136    93468052.440        1371.119          38.000  
G09  23300981.556   122447493.207       -1541.072          34.000    23300997.021    95413691.596       -1200.540          37.000  
G14  24114078.724   126720308.157       -4999.915          33.000    24114086.018    98743141.044       -3896.030          37.000  
G22  22504825.535   118263637.056       -4400.960          40.000                                                                  
G13  25383953.674                        1077.197          16.000                                                                  
> 2025 04 04 08 17 44.9990000  0 11                     
G06  21849557.778   114820190.472       -2509.630          41.000    21849561.030    89470288.694       -1955.474          40.000  
G11  21573040.078   113367086.357       -1392.349          44.000    21573039.864    88337988.745       -1084.725          38.000  
G12  22277200.224   117067474.355         544.841          42.000    22277201.817    91221413.291         424.542          39.000  
G17  22402667.721   117726808.822       -2731.915          39.000    22402673.429    91735197.551       -2128.862          40.000  
G19  20555999.462   108022500.638       -1797.131          45.000                                                                  
G20  20407463.978   107241952.567        -384.290          45.000                                                                  
G05  22825512.261   119948888.504        1760.171          42.000    22825518.351    93466681.086        1371.398          38.000  
G09  23301274.762   122449034.747       -1541.709          34.000    23301290.215    95414892.809       -1201.012          37.000  
G14  24115030.092   126725307.910       -4999.640          33.000    24115037.443    98747036.927       -3895.459          37.000  
G22  22505663.028   118268037.735       -4400.639          40.000                                                                  
G13  25383749.091                        1071.518          14.000                                                                  
> 2025 04 04 08 17 45.9990000  0 11                     
G06  21850035.179   114822699.571       -2508.463          41.000    21850038.369    89472243.853       -1954.788          40.000  
G11  21573304.793   113368477.913       -1391.036          44.000    21573304.716    88339073.079       -1083.797          37.000  
G12  22277096.550   117066929.349         545.053          42.000    22277098.086    91220988.600         424.872          39.000  
G17  22403187.448   117729540.446       -2731.417          38.000    22403193.233    91737326.061       -2128.493          40.000  
G19  20556341.374   108024297.419       -1796.698          44.000                                                                  
G20  20407537.021   107242336.337        -383.557          45.000                                                                  
G05  22825177.203   119947128.050        1760.802          42.000    22825183.344    93465309.305        1371.735          38.000  
G09  23301568.050   122450575.851       -1540.950          35.000    23301583.451    95416093.681       -1200.899          37.000  
G14  24115981.513   126730306.716       -4998.474          33.000    24115988.677    98750932.091       -3894.738          37.000  
G22  22506500.319   118272437.737       -4399.584          40.000                                                                  
G13  25383541.602                        1081.237          13.000                                                                  
> 2025 04 04 08 17 46.9990000  0 11                     
G06  21850512.515   114825208.113       -2508.583          41.000    21850515.755    89474198.544       -1954.636          40.000  
G11  21573569.443   113369869.031       -1391.341          43.000    21573569.402    88340157.050       -1083.528          38.000  
G12  22276992.788   117066384.317         544.656          42.000    22276994.335    91220563.898         424.706          38.000  
G17  22403707.129   117732271.788       -2731.085          38.000    22403713.066    91739454.384       -2128.278          40.000  
G19  20556683.299   108026094.020       -1796.674          45.000                                                                  
G20  20407610.186   107242720.082        -383.905          45.000                                                                  
G05  22824842.188   119945367.314        1760.688          42.000    22824848.207    93463937.329        1371.788          38.000  
G09  23301861.159   122452116.920       -1540.772          36.000    23301876.683    95417294.525       -1200.927          38.000  
G14  24116932.704   126735304.858       -4998.115          33.000    24116939.823    98754826.835       -3894.735          37.000  
G22  22507337.459   118276837.394       -4399.834          41.000                                                                  
G13  25383336.662                        1075.063          12.000                                                                  
> 2025 04 04 08 17 47.9990000  0 11                     
G06  21850989.857   114827716.497       -2508.434          41.000    21850993.123    89476153.124       -1954.686          40.000  
G11  21573834.153   113371260.098       -1391.379          44.000    21573834.041    88341241.031       -1084.168          38.000  
G12  22276889.224   117065839.690         544.203          42.000    22276890.813    91220139.541         423.689          38.000  
G17  22404226.962   117735003.382       -2731.848          37.000    22404232.840    91741582.904       -2128.953          40.000  
G19  20557025.312   108027890.912       -1797.186          45.000                                                                  
G20  20407683.272   107243104.211        -384.686          45.000                                                                  
G05  22824507.147   119943606.779        1760.195          42.000    22824513.223    93462565.464        1371.740          38.000  
G09  23302154.490   122453658.385       -1541.988          37.000    23302170.051    95418495.645       -1201.603          38.000  
G14  24117883.736   126740302.991       -4998.355          32.000    24117890.841    98758721.396       -3894.474          37.000  
G22  22508174.670   118281237.175       -4400.103          41.000                                                                  
G13  25383131.857                        1076.890          12.000                                                                  
> 2025 04 04 08 17 48.9990000  0 11                     
G06  21851467.181   114830225.262       -2509.206          40.000    21851470.598    89478107.995       -1955.071          40.000  
G11  21574098.951   113372651.648       -1391.823          44.000    21574098.943    88342325.353       -1084.264          38.000  
G12  22276785.725   117065296.050         543.156          42.000    22276787.457    91219715.909         423.198          38.000  
G17  22404746.888   117737735.673       -2732.715          37.000    22404752.924    91743711.944       -2129.143          40.000  
G19  20557367.426   108029688.579       -1798.053          44.000                                                                  
G20  20407756.471   107243489.251        -385.443          45.000                                                                  
G05  22824172.154   119941846.958        1759.406          42.000    22824178.423    93461194.206        1371.082          38.000  
G09  23302448.011   122455200.785       -1542.817          37.000    23302463.617    95419697.521       -1202.272          38.000  
G14  24118834.930   126745301.383       -4999.161          32.000    24118842.061    98762616.276       -3895.575          37.000  
G22  22509011.976   118285637.548       -4401.078          40.000                                                                  
G13  25382928.367                        1081.961          14.000                                                                  
> 2025 04 04 08 17 49.9990000  0 12                     
G06  21851944.652   114832734.363       -2509.385          40.000    21851948.052    89480063.140       -1955.064          41.000  
G11  21574363.764   113374043.657       -1392.319          44.000    21574363.804    88343410.015       -1084.690          38.000  
G12  22276682.391   117064753.323         542.214          42.000    22276684.136    91219292.991         422.454          38.000  
G17  22405266.966   117740468.638       -2732.961          37.000    22405272.986    91745841.528       -2129.890          39.000  
G19  20557709.588   108031487.019       -1798.804          44.000                                                                  
G20  20407829.893   107243875.163        -386.304          45.000                                                                  
G05  22823837.339   119940087.817        1758.720          42.000    22823843.620    93459823.449        1370.295          38.000  
G09  23302741.691   122456743.970       -1543.605          37.000    23302757.329    95420900.048       -1202.832          36.000  
G14  24119786.119   126750300.066       -4998.326          31.000    24119793.371    98766511.369       -3895.392          37.000  
G22  22509849.426   118290038.481       -4401.143          41.000                                                                  
G25  24817685.262                        1606.641          24.000                                                                  
G13  25382721.825                        1081.961          12.000                                                                  
> 2025 04 04 08 17 50.9990000  0 11                     
G06  21852422.212   114835243.807       -2509.720          40.000    21852425.603    89482018.574       -1955.783          41.000  
G11  21574628.734   113375436.094       -1392.762          44.000    21574628.774    88344495.069       -1085.321          37.000  
G12  22276579.361   117064211.480         541.230          42.000    22276581.041    91218870.794         421.453          38.000  
G17  22405787.151   117743202.285       -2734.193          38.000    22405793.250    91747971.640       -2130.588          40.000  
G19  20558051.975   108033286.195       -1799.725          44.000                                                                  
G20  20407903.353   107244261.942        -387.433          45.000                                                                  
G05  22823502.652   119938329.337        1757.879          42.000    22823509.048    93458453.189        1369.961          38.000  
G09  23303035.508   122458288.099       -1544.637          37.000    23303051.209    95422103.228       -1203.745          37.000  
G14  24120737.350   126755299.129       -4999.903          31.000    24120744.700    98770406.737       -3896.012          37.000  
G22  22510686.951   118294439.999       -4402.125          41.000                                                                  
G13  25382515.110                        1083.168          13.000                                                                  
> 2025 04 04 08 17 51.9990000  0 10                     
G06  21852899.755   114837753.272       -2509.487          40.000    21852903.107    89483973.988       -1955.434          40.000  
G11  21574893.747   113376828.692       -1393.003          44.000    21574893.804    88345580.186       -1085.384          37.000  
G12  22276476.294   117063670.243         540.854          42.000    22276477.983    91218449.045         421.665          38.000  
G17  22406307.418   117745936.288       -2734.340          38.000    22406313.547    91750102.038       -2130.645          40.000  
G19  20558394.369   108035085.813       -1799.854          44.000                                                                  
G20  20407977.188   107244649.281        -387.543          45.000                                                                  
G05  22823168.031   119936571.215        1757.975          42.000    22823174.590    93457083.238        1369.821          38.000  
G09  23303329.473   122459832.738       -1544.747          37.000    23303345.028    95423306.857       -1203.756          37.000  
G14  24121688.958   126760298.172       -4999.265          31.000    24121695.976    98774302.069       -3895.572          37.000  
G22  22511524.606   118298841.751       -4401.841          41.000                                                                  
> 2025 04 04 08 17 52.9990000  0 10                     
G06  21853377.215   114840262.564       -2509.450          41.000    21853380.530    89485929.289       -1955.554          40.000  
G11  21575158.792   113378221.197       -1392.602          44.000    21575158.786    88346665.268       -1085.660          37.000  
G12  22276373.402   117063129.422         540.508          42.000    22276374.896    91218027.623         420.897          38.000  
G17  22406827.796   117748670.482       -2734.337          38.000    22406833.920    91752232.553       -2130.482          40.000  
G19  20558736.917   108036885.680       -1800.165          44.000                                                                  
G20  20408050.895   107245036.970        -387.915          45.000                                                                  
G05  22822833.422   119934813.237        1757.834          42.000    22822840.096    93455713.398        1369.802          38.000  
G09  23303623.377   122461377.761       -1545.399          37.000    23303639.018    95424510.798       -1204.240          38.000  
G14  24122640.356   126765296.999       -4999.000          30.000    24122647.258    98778197.272       -3895.535          37.000  
G22  22512362.247   118303243.597       -4402.103          41.000                                                                  
> 2025 04 04 08 17 53.9990000  0 10                     
G06  21853854.699   114842772.112       -2509.536          40.000    21853858.129    89487884.762       -1955.473          40.000  
G11  21575423.770   113379614.063       -1393.107          44.000    21575423.795    88347750.610       -1084.967          37.000  
G12  22276270.645   117062589.403         539.726          42.000    22276272.131    91217606.843         420.406          38.000  
G17  22407348.264   117751405.277       -2735.269          38.000    22407354.399    91754363.571       -2131.396          40.000  
G19  20559079.558   108038686.208       -1800.891          44.000                                                                  
G20  20408124.800   107245425.447        -388.818          45.000                                                                  
G05  22822498.914   119933055.848        1756.779          42.000    22822505.696    93454344.004        1368.973          39.000  
G09  23303917.460   122462923.564       -1546.340          37.000    23303933.071    95425715.299       -1204.588          38.000  
G14  24123591.699   126770296.095       -4999.334          29.000    24123598.477    98782092.654       -3895.526          37.000  
G22  22513199.840   118307645.903       -4402.709          41.000                                                                  
> 2025 04 04 08 17 54.9990000  0 10                     
G06  21854332.208   114845281.461       -2508.679          40.000    21854335.669    89489840.096       -1954.821          40.000  
G11  21575688.778   113381006.848       -1392.475          44.000    21575688.864    88348835.917       -1084.938          37.000  
G12  22276167.984   117062049.756         540.206          43.000    22276169.439    91217186.327         421.019          38.000  
G17  22407868.761   117754140.172       -2734.391          38.000    22407874.749    91756494.670       -2130.626          40.000  
G19  20559422.265   108040486.940       -1800.220          44.000                                                                  
G20  20408198.735   107245814.260        -388.324          45.000                                                                  
G05  22822164.587   119931298.596        1757.628          42.000    22822171.227    93452974.721        1369.461          39.000  
G09  23304211.715   122464469.673       -1545.715          37.000    23304227.211    95426920.086       -1204.617          37.000  
G14  24124542.950   126775294.861       -4999.309          29.000    24124549.632    98785987.822       -3894.752          37.000  
G22  22514037.532   118312048.275       -4402.102          41.000                                                                  
> 2025 04 04 08 17 55.9990000  0 10                     
G06  21854809.641   114847790.186       -2508.677          40.000    21854813.026    89491794.963       -1954.980          40.000  
G11  21575953.755   113382399.121       -1392.436          45.000    21575953.784    88349920.794       -1085.228          38.000  
G12  22276065.279   117061510.085         539.465          42.000    22276066.810    91216765.794         420.463          38.000  
G17  22408389.101   117756874.829       -2734.814          38.000    22408395.126    91758625.560       -2131.279          39.000  
G19  20559764.984   108042287.488       -1800.830          44.000                                                                  
G20  20408272.842   107246202.993        -389.301          45.000                                                                  
G05  22821830.140   119929541.034        1757.422          42.000    22821836.732    93451605.219        1369.024          39.000  
G09  23304505.897   122466015.699       -1546.338          37.000    23304521.430    95428124.804       -1205.055          37.000  
G14  24125493.752   126780293.098       -4998.413          28.000    24125500.735    98789882.556       -3895.197          37.000  
G22  22514875.020   118316450.216       -4401.856          40.000                                                                  
> 2025 04 04 08 17 56.9990000  0 10                     
G06  21855287.084   114850299.162       -2508.815          40.000    21855290.478    89493750.019       -1955.081          40.000  
G11  21576218.816   113383791.732       -1392.679          45.000    21576218.688    88351005.950       -1085.310          37.000  
G12  22275962.664   117060971.204         538.909          42.000    22275964.296    91216345.905         419.890          38.000  
G17  22408909.582   117759610.048       -2735.212          37.000    22408915.550    91760756.887       -2131.301          40.000  
G19  20560107.672   108044088.671       -1801.251          44.000                                                                  
G20  20408346.919   107246592.486        -389.746          45.000                                                                  
G05  22821495.850   119927784.071        1756.831          42.000    22821502.340    93450236.122        1368.782          39.000  
G09  23304800.267   122467562.544       -1547.354          38.000    23304815.666    95429330.109       -1205.443          37.000  
G14  24126444.930   126785291.622       -4998.205          28.000    24126451.782    98793777.451       -3894.915          37.000  
G22  22515712.693   118320852.611       -4402.243          41.000                                                                  
> 2025 04 04 08 17 57.9990000  0 10                     
G06  21855764.479   114852807.928       -2508.649          41.000    21855767.881    89495704.894       -1954.377          40.000  
G11  21576483.824   113385184.263       -1392.603          45.000    21576483.724    88352091.034       -1084.838          38.000  
G12  22275860.039   117060432.728         538.300          42.000    22275861.818    91215926.294         419.272          38.000  
G17  22409430.189   117762345.401       -2735.491          37.000    22409436.020    91762888.344       -2131.827          39.000  
G19  20560450.408   108045890.085       -1801.581          44.000                                                                  
G20  20408421.115   107246982.309        -389.996          45.000                                                                  
G05  22821161.583   119926027.239        1756.633          43.000    22821167.946    93448867.158        1368.901          39.000  
G09  23305094.757   122469109.657       -1547.192          38.000    23305109.979    95430535.648       -1205.652          37.000  
G14  24127396.129   126790289.852       -4997.743          27.000    24127402.844    98797672.142       -3894.435          36.000  
G22  22516550.473   118325255.088       -4402.530          41.000                                                                  
> 2025 04 04 08 17 58.9990000  0 10                     
G06  21856241.980   114855316.890       -2509.327          41.000    21856245.268    89497659.920       -1955.110          40.000  
G11  21576748.910   113386577.066       -1392.875          45.000    21576748.791    88353176.331       -1085.783          38.000  
G12  22275757.799   117059894.983         537.328          42.000    22275759.450    91215507.258         418.810          38.000  
G17  22409950.831   117765081.285       -2736.022          37.000    22409956.574    91765020.182       -2132.012          39.000  
G19  20560793.229   108047692.079       -1802.368          44.000                                                                  
G20  20408495.426   107247372.837        -391.022          45.000                                                                  
G05  22820827.342   119924270.888        1756.111          43.000    22820833.836    93447498.585        1368.471          39.000  
G09  23305389.591   122470657.516       -1548.439          38.000    23305404.594    95431741.773       -1206.451          37.000  
G14  24128347.217   126795288.134       -4998.508          27.000    24128353.948    98801566.939       -3894.987          35.000  
G22  22517388.331   118329657.956       -4403.093          41.000                                                                  
> 2025 04 04 08 17 59.9990000  0 10                     
G06  21856719.469   114857826.091       -2509.758          41.000    21856722.723    89499615.166       -1955.546          40.000  
G11  21577014.088   113387970.252       -1393.789          45.000    21577013.908    88354261.928       -1085.786          38.000  
G12  22275655.660   117059358.064         536.093          42.000    22275657.342    91215088.894         417.731          38.000  
G17  22410471.607   117767817.776       -2737.033          37.000    22410477.273    91767152.508       -2132.673          39.000  
G19  20561136.298   108049494.744       -1803.192          44.000                                                                  
G20  20408569.821   107247764.166        -391.998          45.000                                                                  
G05  22820493.275   119922515.133        1755.213          43.000    22820499.659    93446130.471        1367.758          39.000  
G09  23305684.672   122472206.163       -1549.417          38.000    23305699.311    95432948.488       -1206.963          38.000  
G14  24129298.272   126800286.698       -4998.592          25.000    24129305.173    98805461.942       -3895.199          36.000  
G22  22518226.221   118334061.318       -4404.042          41.000                                                                  
> 2025 04 04 08 18 00.9990000  0 10                     
G06  21857197.014   114860335.346       -2508.844          41.000    21857200.166    89501570.396       -1954.625          40.000  
G11  21577279.180   113389363.564       -1392.679          45.000    21577279.167    88355347.662       -1085.682          38.000  
G12  22275553.624   117058821.760         536.572          42.000    22275555.313    91214670.977         418.368          38.000  
G17  22410992.417   117770554.662       -2736.266          37.000    22410998.059    91769285.136       -2132.506          39.000  
G19  20561479.327   108051297.852       -1802.527          44.000                                                                  
G20  20408644.407   107248156.075        -391.455          45.000                                                                  
G05  22820159.275   119920759.756        1755.686          42.000    22820165.615    93444762.655        1368.033          39.000  
G09  23305979.697   122473755.370       -1549.050          38.000    23305994.142    95434155.688       -1207.543          37.000  
G14  24130249.159                       -5005.301          23.000    24130256.334    98809356.974       -3894.633          36.000  
G22  22519064.171   118338464.951       -4403.046          41.000                                                                  
> 2025 04 04 08 18 01.9990000  0 12                     
G06  21857674.180   114862843.209       -2507.133          41.000    21857677.310    89503524.604       -1953.878          41.000  
G11  21577544.084   113390755.616       -1391.494          45.000    21577544.049    88356432.370       -1084.478          38.000  
G12  22275451.537   117058284.632         537.247          42.000    22275453.113    91214252.466         418.762          38.000  
G17  22411513.056   117773290.522       -2735.666          37.000    22411518.599    91771416.971       -2131.726          40.000  
G19  20561822.310   108053100.010       -1801.880          44.000                                                                  
G20  20408718.938   107248547.144        -391.113          45.000                                                                  
G05  22819825.045   119919003.325        1756.892          43.000    22819831.337    93443394.024        1368.737          38.000  
G09  23306274.482   122475303.729       -1548.078          39.000    23306288.711    95435362.208       -1206.791          37.000  
G14  24131197.320                       -4997.610          21.000    24131207.134    98813250.897       -3893.450          36.000  
G04  25341531.654                       -2336.606          25.000                                                                  
G22  22519901.924   118342867.436       -4402.342          41.000                                                                  
G25  24815079.574                        1667.758          25.000                                                                  
> 2025 04 04 08 18 02.9990000  0 10                     
G06  21858151.140   114865350.416       -2507.438          41.000    21858154.399    89505478.244       -1953.524          40.000  
G11  21577808.929   113392147.097       -1391.533          45.000    21577808.837    88357516.598       -1084.241          38.000  
G12  22275349.297   117057747.413         536.804          42.000    22275350.820    91213833.835         418.356          38.000  
G17  22412033.557   117776025.969       -2735.386          36.000    22412039.127    91773548.506       -2131.860          39.000  
G19  20562165.131   108054901.888       -1802.173          44.000                                                                  
G20  20408793.347   107248938.030        -391.180          45.000                                                                  
G05  22819490.752   119917246.564        1756.392          42.000    22819496.957    93442025.120        1368.390          39.000  
G09  23306569.193   122476851.921       -1548.927          39.000    23306583.284    95436568.568       -1206.840          37.000  
G14  24132149.001                       -4994.711          20.000    24132157.819    98817144.286       -3893.726          36.000  
G22  22520739.555   118347269.448       -4402.101          41.000                                                                  
> 2025 04 04 08 18 03.9990000  0 10                     
G06  21858628.168   114867857.564       -2507.162          41.000    21858631.476    89507431.868       -1953.284          40.000  
G11  21578073.714   113393538.629       -1391.255          45.000    21578073.659    88358600.970       -1084.355          38.000  
G12  22275247.199   117057210.727         536.641          42.000    22275248.678    91213415.636         418.222          38.000  
G17  22412554.128   117778761.781       -2735.488          36.000    22412559.745    91775680.274       -2131.442          39.000  
G19  20562507.998   108056704.138       -1802.191          44.000                                                                  
G20  20408867.797   107249329.425        -391.370          45.000                                                                  
G05  22819156.460   119915490.063        1756.650          43.000    22819162.744    93440656.420        1368.980          39.000  
G09  23306863.898   122478400.589       -1548.482          38.000    23306877.990    95437775.332       -1206.750          37.000  
G14  24133101.626                       -5001.604          21.000    24133108.518    98821037.621       -3893.057          36.000  
G22  22521577.169   118351671.676       -4402.065          41.000                                                                  
> 2025 04 04 08 18 04.9990000  0 10                     
G06  21859105.151   114870364.250       -2506.874          41.000    21859108.563    89509385.145       -1953.190          40.000  
G11  21578338.417   113394929.822       -1391.189          45.000    21578338.450    88359684.996       -1084.102          38.000  
G12  22275145.107   117056674.145         536.065          42.000    22275146.617    91212997.518         418.082          38.000  
G17  22413074.748   117781497.453       -2735.817          37.000    22413080.247    91777811.971       -2131.816          38.000  
G19  20562850.959   108058506.359       -1802.582          44.000                                                                  
G20  20408942.203   107249720.891        -391.718          45.000                                                                  
G05  22818822.319   119913733.461        1756.630          43.000    22818828.480    93439287.636        1368.674          39.000  
G09  23307158.562   122479949.350       -1549.143          39.000    23307172.689    95438982.171       -1207.126          37.000  
G14  24134053.629                       -4996.907          19.000    24134059.155    98824930.595       -3893.538          36.000  
G22  22522414.882   118356073.656       -4402.009          41.000                                                                  
> 2025 04 04 08 18 05.9990000  0 10                     
G06  21859582.263   114872871.070       -2507.054          41.000    21859585.618    89511338.535       -1953.699          41.000  
G11  21578603.215   113396321.246       -1391.667          45.000    21578603.257    88360769.223       -1084.352          38.000  
G12  22275043.096   117056138.272         535.357          42.000    22275044.768    91212579.969         416.845          38.000  
G17  22413595.409   117784233.596       -2736.444          37.000    22413600.917    91779944.046       -2132.346          39.000  
G19  20563194.066   108060309.117       -1803.119          44.000                                                                  
G20  20409016.834   107250113.038        -392.798          45.000                                                                  
G05  22818488.251   119911977.315        1755.774          42.000    22818494.239    93437919.243        1367.782          39.000  
G09  23307453.495   122481498.776       -1550.248          39.000    23307467.519    95440189.491       -1207.494          37.000  
G14  24135007.603                       -4992.868          19.000    24135009.761    98828823.618       -3893.408          36.000  
G22  22523252.596   118360476.028       -4402.912          41.000                                                                  
> 2025 04 04 08 18 06.9990000  0 10                     
G06  21860059.388   114875378.154       -2506.662          41.000    21860062.749    89513292.094       -1953.118          41.000  
G11  21578868.134   113397713.061       -1391.633          45.000    21578867.976    88361853.737       -1084.297          38.000  
G12  22274941.247   117055603.235         535.049          42.000    22274942.973    91212163.061         416.791          38.000  
G17  22414116.096   117786970.361       -2736.966          37.000    22414121.675    91782076.582       -2132.542          38.000  
G19  20563537.311   108062112.556       -1803.668          44.000                                                                  
G20  20409091.615   107250505.966        -393.158          45.000                                                                  
G05  22818154.133   119910221.779        1755.398          42.000    22818160.180    93436551.272        1367.861          39.000  
G09  23307748.455   122483048.965       -1550.448          39.000    23307762.526    95441397.490       -1208.089          37.000  
G14  24135956.576                       -4995.135          19.000    24135960.471    98832716.822       -3892.770          36.000  
G22  22524090.566   118364878.874       -4402.735          42.000                                                                  
> 2025 04 04 08 18 07.9990000  0 10                     
G06  21860536.457   114877885.237       -2507.194          41.000    21860539.819    89515245.678       -1953.927          41.000  
G11  21579133.084   113399104.960       -1392.216          45.000    21579132.817    88362938.332       -1084.695          38.000  
G12  22274839.575   117055068.758         533.982          42.000    22274841.299    91211746.585         416.254          39.000  
G17  22414636.961   117789707.444       -2737.356          36.000    22414642.419    91784209.378       -2133.127          38.000  
G19  20563880.595   108063916.388       -1804.169          45.000                                                                  
G20  20409166.482   107250899.416        -393.683          45.000                                                                  
G05  22817820.154   119908466.540        1754.948          43.000    22817826.086    93435183.544        1367.235          40.000  
G09  23308043.576   122484599.704       -1551.018          38.000    23308057.612    95442605.847       -1208.692          37.000  
G14  24136907.346                       -4996.093          21.000    24136911.251    98836610.034       -3893.494          36.000  
G22  22524928.447   118369281.911       -4402.985          42.000                                                                  
> 2025 04 04 08 18 08.9990000  0 10                     
G06  21861013.674   114880392.397       -2506.840          41.000    21861016.877    89517199.316       -1954.000          40.000  
G11  21579398.025   113400497.047       -1392.264          45.000    21579397.754    88364023.053       -1084.632          38.000  
G12  22274738.005   117054534.924         533.758          42.000    22274739.744    91211330.621         415.264          39.000  
G17  22415157.845   117792444.927       -2737.156          38.000    22415163.328    91786342.462       -2133.242          38.000  
G19  20564223.947   108065720.721       -1804.486          44.000                                                                  
G20  20409241.408   107251293.482        -394.232          45.000                                                                  
G05  22817486.347   119906711.719        1754.592          43.000    22817492.155    93433816.159        1367.010          39.000  
G09  23308338.720   122486151.039       -1551.904          39.000    23308352.834    95443814.683       -1209.431          36.000  
G14  24137861.529                       -4993.654          25.000    24137861.958    98840503.249       -3893.285          35.000  
G22  22525766.285   118373685.305       -4403.264          41.000                                                                  
