     3.04           OBSERVATION DATA    M: Mixed            RINEX VERSION / TYPE
RTKCONV demo5 b34i                      20250404 103040 UTC PGM / RUN BY / DATE 
format: u-blox UBX                                          COMMENT             
log: D:\20242\demo5_b34i\data\HoDenLu\chung\hdl1.ubx        COMMENT             
                                                            MARKER NAME         
                                                            MARKER NUMBER       
                                                            MARKER TYPE         
                                                            OBSERVER / AGENCY   
                                                            REC # / TYPE / VERS 
                                                            ANT # / TYPE        
 -1627736.1487  5730975.8591  2269813.6887                  APPROX POSITION XYZ 
        0.0000        0.0000        0.0000                  ANTENNA: DELTA H/E/N
G    8 C1C L1C D1C S1C C2X L2X D2X S2X                      SYS / # / OBS TYPES 
  2025    04    04    10    15   28.0020000     GPS         TIME OF FIRST OBS   
  2025    04    04    10    30   28.0030000     GPS         TIME OF LAST OBS    
G L1C                                                       SYS / PHASE SHIFT   
G L2X  0.00000                                              SYS / PHASE SHIFT   
  0                                                         GLONASS SLOT / FRQ #
 C1C    0.000 C1P    0.000 C2C    0.000 C2P    0.000        GLONASS COD/PHS/BIS 
                                                            END OF HEADER       
> 2025 04 04 10 15 28.0020000  0  9                     
G05  21575182.032   113378367.4161      -1326.685          46.000    21575182.274    88346767.4861      -1033.832          37.000  
G06  24244729.654   127406915.2281      -2542.751          44.000    24244741.824    99278163.4851      -1981.695          40.000  
G12  23468899.389   123329915.8491      -3350.306          41.000    23468903.223    96101233.9601      -2610.406          37.000  
G11  22761641.972   119613244.5041      -1712.483          41.000    22761644.360    93205127.1861      -1334.393          45.000  
G19  24160204.998   126962760.5761      -4758.818          39.000                                                                  
G20  22060290.020   115927621.9551      -2916.732          46.000                                                                  
G13  22245801.259   116902326.4431       1404.482          37.000                                                                  
G25  24111444.404   126706508.5321      -1989.565          40.000                                                                  
G29  24882168.083   130756695.3011       2043.353          41.000    24882171.438   101888330.2291       1592.333          33.000  
> 2025 04 04 10 15 29.0020000  0  9                     
G05  21575434.545   113379694.252       -1327.551          46.000    21575434.719    88347801.408       -1034.540          37.000  
G06  24245213.591   127409458.008       -2543.406          44.000    24245225.699    99280144.841       -1981.783          40.000  
G12  23469536.889   123333266.373       -3350.945          42.000    23469540.825    96103844.806       -2611.656          37.000  
G11  22761967.868   119614957.028       -1713.099          42.000    22761970.271    93206461.647       -1335.019          45.000  
G19  24161110.608   126967519.751       -4759.877          39.000                                                                  
G20  22060845.061   115930538.605       -2917.216          46.000                                                                  
G13  22245533.953   116900922.043        1403.363          37.000                                                                  
G25  24111822.885   126708497.804       -1990.192          39.000                                                                  
G29  24881779.263   130754651.844        2043.008          41.000    24881782.530   101886737.950        1592.044          33.000  
> 2025 04 04 10 15 30.0020000  0  9                     
G05  21575687.219   113381021.917       -1327.838          46.000    21575687.368    88348835.977       -1035.583          35.000  
G06  24245697.518   127412001.290       -2543.169          44.000    24245709.693    99282126.626       -1982.076          42.000  
G12  23470174.637   123336617.668       -3351.680          40.000    23470178.680    96106456.131       -2611.442          35.000  
G11  22762293.791   119616670.086       -1712.735          41.000    22762296.296    93207796.497       -1335.007          45.000  
G19  24162016.416   126972279.608       -4759.978          36.000                                                                  
G20  22061400.148   115933455.823       -2917.577          46.000                                                                  
G13  22245267.074   116899518.421        1403.593          25.000                                                                  
G25  24112201.548   126710487.995       -1990.463          39.000                                                                  
G29  24881390.615   130752608.913        2043.323          41.000    24881393.839   101885146.019        1591.696          32.000  
> 2025 04 04 10 15 31.0020000  0  9                     
G05  21575939.970   113382349.910       -1328.094          46.000    21575940.001    88349870.757       -1035.004          35.000  
G06  24246181.531   127414544.680       -2543.269          44.000    24246193.687    99284108.465       -1981.881          41.000  
G12  23470812.369   123339969.227       -3351.898          43.000    23470816.432    96109067.765       -2612.065          37.000  
G11  22762619.795   119618383.231       -1712.906          42.000    22762622.325    93209131.401       -1335.031          44.000  
G19  24162922.260   126977039.723       -4760.467          39.000                                                                  
G20  22061955.337   115936373.154       -2917.344          46.000                                                                  
G13  22244999.874   116898115.139        1402.371          32.000                                                                  
G25  24112580.263   126712478.651       -1990.768          38.000    24112586.148                       -1551.010          27.000  
G29  24881001.949   130750566.004        2043.762          40.000    24881005.036   101883554.197        1591.632          32.000  
> 2025 04 04 10 15 32.0020000  0  9                     
G05  21576192.792   113383678.212       -1328.870          44.000    21576192.720    88350905.772       -1035.461          34.000  
G06  24246665.524   127417088.064       -2544.048          43.000    24246677.753    99286090.343       -1982.582          41.000  
G12  23471450.187   123343321.018       -3353.066          43.000    23471454.270    96111679.589       -2612.760          41.000  
G11  22762945.777   119620096.354       -1714.244          42.000    22762948.259    93210466.295       -1335.469          45.000  
G19  24163828.137   126981799.983       -4760.117          34.000                                                                  
G20  22062510.471   115939290.450       -2918.292          46.000                                                                  
G13  22244733.014   116896711.880        1402.519          36.000                                                                  
G25  24112959.140   126714469.653       -1992.408          39.000    24112964.431                       -1557.848          26.000  
G29  24880613.174   130748523.187        2042.092          39.000    24880616.314   101881962.340        1591.198          32.000  
> 2025 04 04 10 15 33.0020000  0  9                     
G05  21576445.562   113385007.062       -1328.912          45.000    21576445.483    88351941.282       -1035.858          34.000  
G06  24247149.502   127419631.626       -2543.215          43.000    24247161.711    99288072.353       -1982.332          41.000  
G12  23472088.053   123346673.249       -3352.639          43.000    23472092.192    96114291.662       -2612.217          41.000  
G11  22763271.861   119621809.680       -1713.923          43.000    22763274.185    93211801.375       -1335.378          44.000  
G19  24164734.168   126986560.731       -4760.809          37.000                                                                  
G20  22063065.639   115942208.051       -2917.880          46.000                                                                  
G13  22244465.886   116895309.396        1401.795          40.000                                                                  
G25  24113337.957   126716461.188       -1991.481          39.000                                                                  
G29  24880224.466   130746480.558        2042.121          36.000    24880227.676   101880370.854        1591.256          30.000  
> 2025 04 04 10 15 34.0020000  0  9                     
G05  21576698.417   113386336.406       -1329.767          46.000    21576698.492    88352977.046       -1036.029          35.000  
G06  24247633.622   127422175.485       -2543.905          35.000    24247645.795    99290054.594       -1982.848          35.000  
G12  23472725.937   123350025.877       -3352.509          42.000    23472730.296    96116904.090       -2612.724          41.000  
G11  22763597.957   119623523.199       -1713.421          38.000    22763600.351    93213136.574       -1334.935          42.000  
G19  24165640.043   126991321.815       -4761.845          36.000                                                                  
G20  22063620.876   115945125.843       -2917.767          46.000                                                                  
G13  22244198.876   116893907.218        1401.898          40.000                                                                  
G25  24113717.079   126718453.332       -1992.379          39.000    24113725.794                       -1550.753          26.000  
G29  24879835.844   130744438.135        2042.744          43.000    24879838.888   101878779.259        1591.883          34.000  
> 2025 04 04 10 15 35.0020000  0  8                     
G05  21576951.497   113387666.252       -1331.348          46.000    21576951.543    88354013.303       -1035.742          35.000  
G06  24248121.417   127424737.1103      -2545.751          39.000    24248130.212    99292038.063       -1984.454          40.000  
G12  23473364.000   123353378.953       -3354.235          43.000    23473368.295    96119516.921       -2613.953          40.000  
G11  22763924.193   119625236.947       -1714.562          42.000    22763926.370    93214472.015       -1336.607          45.000  
G20  22064176.239   115948043.982       -2919.512          46.000                                                                  
G13  22243931.889   116892505.550        1400.540          40.000                                                                  
G25  24114096.256   126720446.105       -1994.454          39.000    24114105.467                       -1554.392          26.000  
G29  24879447.235   130742395.976        2040.500          41.000    24879450.170   101877187.857        1590.982          34.000  
> 2025 04 04 10 15 36.0020000  0  8                     
G05  21577204.613   113388996.181       -1330.029          46.000    21577204.644    88355049.670       -1036.169          35.000  
G06  24248604.118   127427280.8722      -2544.405          42.000    24248614.273    99294020.119       -1981.870          39.000  
G12  23474002.097   123356732.103       -3353.546          42.000    23474006.388    96122129.771       -2613.408          41.000  
G11  22764250.361   119626950.544       -1713.883          43.000    22764252.449    93215807.208       -1335.338          44.000  
G20  22064731.609   115950961.881       -2918.007          47.000                                                                  
G13  22243664.957   116891103.985        1401.255          40.000                                                                  
G25  24114475.363   126722439.035       -1993.328          39.000                                                                  
G29  24879058.537   130740353.569        2041.811          43.000    24879061.410   101875596.406        1592.317          35.000  
> 2025 04 04 10 15 37.0020000  0  9                     
G05  21577457.728   113390326.416       -1330.377          46.000    21577457.754    88356086.216       -1036.548          35.000  
G06  24249087.999   127429824.2671      -2544.235          42.000    24249098.439    99296002.335       -1981.800          41.000  
G12  23474640.030   123360085.396       -3352.476          44.000    23474644.467    96124742.716       -2612.628          40.000  
G11  22764576.509   119628664.126       -1714.150          39.000    22764578.585    93217142.461       -1334.655          40.000  
G19  24168358.475   127005580.5131      -4762.643          33.000                                                                  
G20  22065286.867   115953879.795       -2918.014          46.000                                                                  
G13  22243398.188   116889702.749        1399.317          34.000                                                                  
G25  24114854.581   126724432.280       -1992.978          40.000                                                                  
G29  24878669.854   130738311.168        2042.365          44.000    24878672.706   101874004.937        1592.463          34.000  
> 2025 04 04 10 15 38.0020000  0  9                     
G05  21577710.894   113391656.940       -1330.829          46.000    21577710.834    88357123.010       -1036.493          34.000  
G06  24249573.953   127432368.125       -2544.074          44.000    24249582.473    99297984.540       -1982.512          41.000  
G12  23475278.221   123363439.017       -3353.990          43.000    23475282.585    96127355.818       -2613.531          40.000  
G11  22764902.550   119630377.787       -1713.467          38.000    22764904.703    93218477.755       -1335.416          41.000  
G19  24169264.661   127010342.223       -4762.369          39.000                                                                  
G20  22065842.073   115956797.749       -2918.459          46.000                                                                  
G13  22243131.541   116888301.688        1399.766          30.000                                                                  
G25  24115234.072   126726425.882       -1993.406          39.000                                                                  
G29  24878281.260   130736268.766        2042.054          42.000    24878284.112   101872413.529        1590.909          29.000  
> 2025 04 04 10 15 39.0020000  0  9                     
G05  21577964.216   113392988.337       -1331.879          47.000    21577964.044    88358160.423       -1038.318          31.000  
G06  24250056.530   127434912.531       -2544.723          44.000    24250066.635    99299967.228       -1982.942          42.000  
G12  23475916.477   123366793.291       -3354.579          42.000    23475920.896    96129969.620       -2614.128          38.000  
G11  22765228.820   119632091.534       -1714.467          32.000    22765230.868    93219813.317       -1335.720          35.000  
G19  24170171.002   127015104.790       -4763.195          34.000                                                                  
G20  22066397.523   115959716.311       -2917.922          35.000                                                                  
G13  22242865.080   116886901.195        1401.670          30.000                                                                  
G25  24115613.602   126728420.504       -1995.580          39.000                                                                  
G29  24877892.835   130734226.971        2041.468          42.000    24877895.618   101870822.430        1590.226          34.000  
> 2025 04 04 10 15 40.0020000  0  9                     
G05  21578217.719   113394320.481       -1332.751          46.000    21578217.191    88359198.549       -1039.020          33.000  
G06  24250540.516   127437457.420       -2545.522          42.000    24250550.944    99301950.263       -1983.781          40.000  
G12  23476554.838   123370148.313       -3355.544          42.000    23476559.355    96132583.882       -2614.704          40.000  
G11  22765554.335   119633794.8773      -1715.021          32.000    22765557.082    93221149.433       -1336.535          41.000  
G19  24171077.398   127019867.935       -4763.748          35.000                                                                  
G20  22066953.133   115962635.386       -2919.530          46.000                                                                  
G13  22242598.681   116885501.846        1398.344          34.000                                                                  
G25  24115993.319   126730415.884       -1996.678          38.000    24116001.057                       -1554.900          25.000  
G29  24877504.377   130732185.616        2040.509          44.000    24877507.236   101869231.792        1589.517          33.000  
> 2025 04 04 10 15 41.0020000  0  9                     
G05  21578471.431   113395654.058       -1334.644          44.000    21578470.894    88360237.630       -1040.094          37.000  
G06  24251025.838   127440003.475       -2545.918          37.000    24251035.458    99303934.248       -1982.517          32.000  
G12  23477193.518   123373504.645       -3357.322          42.000    23477198.039    96135199.225       -2616.122          41.000  
G11  22765883.052   119635510.3212      -1716.263          38.000    22765883.654    93222486.207       -1337.717          42.000  
G19  24171984.001   127024632.563       -4766.450          41.000                                                                  
G20  22067508.723   115965555.608       -2921.421          48.000                                                                  
G13  22242332.239   116884103.372        1397.679          29.000                                                                  
G25  24116373.294   126732412.728       -1998.185          41.000                                                                  
G29  24877116.142   130730145.343        2039.221          41.000    24877119.040   101867641.963        1589.824          32.000  
> 2025 04 04 10 15 42.0020000  0  9                     
G05  21578725.102   113396987.690       -1332.819          46.000    21578724.734    88361276.857       -1038.422          35.000  
G06  24251510.394   127442549.290       -2545.013          43.000    24251519.855    99305917.847       -1982.834          41.000  
G12  23477832.071   123376860.979       -3355.593          41.000    23477836.790    96137814.573       -2614.360          40.000  
G11  22766208.989   119637225.8562      -1715.061          42.000    22766210.207    93223822.944       -1335.413          44.000  
G19  24172890.538   127029397.008       -4763.239          39.000                                                                  
G20  22068064.232   115968475.636       -2919.592          46.000                                                                  
G13  22242067.242   116882851.9183       1398.490          32.000                                                                  
G25  24116753.260   126734409.819       -1996.047          39.000                                                                  
G29  24876727.879   130728104.884        2041.661          41.000    24876730.783   101866051.954        1591.264          33.000  
> 2025 04 04 10 15 43.0020000  0  9                     
G05  21578978.841   113398320.585       -1332.257          46.000    21578978.405    88362315.523       -1038.257          36.000  
G06  24251994.441   127445094.105       -2544.033          45.000    24252004.063    99307900.897       -1982.473          43.000  
G12  23478470.603   123380216.511       -3354.647          40.000    23478475.431    96140429.285       -2614.100          40.000  
G11  22766534.012   119638939.7871      -1713.721          41.000    22766536.407    93225158.855       -1335.309          44.000  
G19  24173797.015   127034160.648       -4763.391          37.000                                                                  
G20  22068619.679   115971394.656       -2918.287          45.000                                                                  
G13  22241800.841   116881452.4291       1399.417          35.000                                                                  
G25  24117133.128   126736406.189       -1995.692          41.000                                                                  
G29  24876339.299   130726063.443        2042.111          42.000    24876342.367   101864461.242        1592.174          34.000  
> 2025 04 04 10 15 44.0020000  0  9                     
G05  21579232.399   113399653.425       -1334.198          45.000    21579231.947    88363354.090       -1039.813          35.000  
G06  24252478.288   127447638.565       -2545.953          44.000    24252488.271    99309883.590       -1983.764          43.000  
G12  23479109.227   123383571.903       -3356.934          42.000    23479114.014    96143043.877       -2615.858          40.000  
G11  22766862.494   119640653.882       -1715.970          41.000    22766862.638    93226494.483       -1336.898          44.000  
G19  24174703.451   127038924.034       -4764.745          38.000                                                                  
G20  22069175.100   115974313.395       -2920.269          46.000                                                                  
G13  22241536.212   116880053.540        1397.263          38.000                                                                  
G25  24117513.073   126738402.588       -1998.185          40.000    24117518.796                       -1555.875          24.000  
G29  24875950.761   130724021.621        2040.111          43.000    24875953.814   101862870.209        1590.058          34.000  
> 2025 04 04 10 15 45.0020000  0  9                     
G05  21579485.866   113400986.167       -1333.014          46.000    21579485.426    88364392.604       -1039.050          35.000  
G06  24252962.173   127450182.644       -2544.204          44.000    24252972.367    99311865.993       -1982.583          44.000  
G12  23479747.677   123386927.108       -3355.135          43.000    23479752.588    96145658.336       -2614.699          40.000  
G11  22767188.065   119642367.520       -1713.807          41.000    22767188.829    93227829.818       -1335.560          44.000  
G19  24175609.785   127043687.254       -4763.421          37.000                                                                  
G20  22069730.464   115977231.741       -2918.497          46.000                                                                  
G13  22241268.578   116878654.369        1398.908          37.000                                                                  
G25  24117892.973   126740398.937       -1996.922          39.000    24117898.802                       -1555.659          25.000  
G29  24875562.112   130721979.406        2041.977          43.000    24875565.137   101861278.857        1591.517          35.000  
> 2025 04 04 10 15 46.0020000  0  9                     
G05  21579739.462   113402319.076       -1333.063          46.000    21579739.075    88365431.226       -1038.403          35.000  
G06  24253446.071   127452726.594       -2543.735          44.000    24253456.328    99313848.264       -1982.103          44.000  
G12  23480386.134   123390282.447       -3355.340          42.000    23480391.144    96148272.874       -2614.730          40.000  
G11  22767514.732   119644081.044       -1713.168          41.000    22767514.807    93229165.032       -1335.147          45.000  
G19  24176516.055   127048450.621       -4763.224          38.000                                                                  
G20  22070285.850   115980149.980       -2918.128          46.000                                                                  
G13  22241001.754   116877255.438        1398.337          32.000                                                                  
G25  24118272.808   126742395.545       -1996.556          39.000    24118278.698                       -1556.997          25.000  
G29  24875173.602   130719937.075        2042.162          43.000    24875176.544   101859687.457        1591.707          35.000  
> 2025 04 04 10 15 47.0020000  0  9                     
G05  21579993.140   113403652.222       -1333.063          46.000    21579992.765    88366470.035       -1038.739          35.000  
G06  24253929.955   127455270.508       -2543.819          44.000    24253940.295    99315830.521       -1982.136          44.000  
G12  23481024.707   123393637.936       -3355.400          42.000    23481029.728    96150887.546       -2614.844          40.000  
G11  22767840.890   119645794.529       -1713.243          41.000    22767840.874    93230500.225       -1335.258          45.000  
G19  24177422.463   127053214.038       -4763.572          38.000                                                                  
G20  22070841.252   115983068.211       -2918.128          45.000                                                                  
G13  22240734.304   116875856.604        1398.838          35.000                                                                  
G25  24118652.784   126744392.448       -1996.963          38.000                                                                  
G29  24874785.051   130717894.701        2042.122          43.000    24874787.852   101858095.960        1591.672          35.000  
> 2025 04 04 10 15 48.0020000  0  9                     
G05  21580246.870   113404985.527       -1333.386          46.000    21580246.530    88367508.995       -1039.716          35.000  
G06  24254413.827   127457814.275       -2544.084          44.000    24254424.311    99317812.674       -1982.161          43.000  
G12  23481663.206   123396993.485       -3355.937          42.000    23481668.236    96153502.246       -2615.153          40.000  
G11  22768166.664   119647507.863       -1713.108          42.000    22768167.001    93231835.282       -1335.091          44.000  
G19  24178328.913   127057977.510       -4763.784          38.000                                                                  
G20  22071396.542   115985986.319       -2918.046          45.000                                                                  
G13  22240466.765   116874457.868        1398.906          36.000                                                                  
G25  24119032.845   126746389.580       -1997.421          39.000                                                                  
G29  24874396.350   130715852.156        2042.543          43.000    24874399.170   101856504.378        1591.990          35.000  
> 2025 04 04 10 15 49.0020000  0  9                     
G05  21580500.577   113406319.177       -1333.862          46.000    21580500.310    88368548.180       -1039.478          35.000  
G06  24254897.695   127460358.101       -2543.761          43.000    24254908.388    99319794.870       -1982.036          43.000  
G12  23482301.691   123400349.273       -3355.686          42.000    23482306.856    96156117.104       -2614.986          40.000  
G11  22768492.490   119649221.251       -1713.384          42.000    22768493.035    93233170.388       -1335.199          44.000  
G19  24179235.442   127062741.158       -4763.896          38.000                                                                  
G20  22071951.852   115988904.525       -2918.392          45.000                                                                  
G13  22240200.292   116873059.471        1397.646          38.000                                                                  
G25  24119412.893   126748387.126       -1997.664          39.000                                                                  
G29  24874007.567   130713809.675        2042.635          43.000    24874010.539   101854912.814        1591.620          35.000  
> 2025 04 04 10 15 50.0020000  0  9                     
G05  21580754.452   113407653.229       -1334.271          45.000    21580754.176    88369587.662       -1039.307          34.000  
G06  24255381.689   127462902.037       -2543.778          43.000    24255392.552    99321777.151       -1982.380          45.000  
G12  23482940.331   123403705.445       -3356.564          41.000    23482945.484    96158732.309       -2615.220          38.000  
G11  22768818.348   119650934.722       -1713.482          42.000    22768819.034    93234505.596       -1335.289          45.000  
G19  24180141.901   127067505.144       -4764.061          37.000                                                                  
G20  22072507.109   115991822.860       -2918.343          46.000                                                                  
G13  22239933.925   116871661.458        1397.831          37.000                                                                  
G25  24119793.110   126750385.154       -1998.353          40.000                                                                  
G29  24873618.897   130711767.333        2042.046          42.000    24873621.940   101853321.400        1591.724          31.000  
> 2025 04 04 10 15 51.0020000  0  9                     
G05  21581008.351   113408987.821       -1334.766          45.000    21581008.044    88370627.670       -1039.911          34.000  
G06  24255865.585   127465446.233       -2544.579          41.000    24255876.625    99323759.596       -1982.620          37.000  
G12  23483579.034   123407062.031       -3356.597          40.000    23483584.203    96161347.842       -2614.914          40.000  
G11  22769144.358   119652648.438       -1713.011          43.000    22769145.184    93235840.910       -1335.551          44.000  
G19  24181048.474   127072269.589       -4764.996          38.000                                                                  
G20  22073062.481   115994741.449       -2918.425          46.000                                                                  
G13  22239667.781   116870263.908        1399.007          28.000                                                                  
G25  24120173.364   126752383.761       -1998.539          40.000                                                                  
G29  24873230.325   130709725.276        2041.604          43.000    24873233.332   101851730.160        1592.123          33.000  
> 2025 04 04 10 15 52.0020000  0  9                     
G05  21581262.375   113410322.726       -1334.821          45.000    21581262.029    88371667.823       -1039.301          32.000  
G06  24256349.730   127467990.437       -2543.733          41.000    24256360.823    99325742.129       -1982.363          39.000  
G12  23484217.803   123410418.978       -3356.421          39.000    23484223.025    96163963.611       -2615.748          40.000  
G11  22769470.340   119654362.259       -1714.277          42.000    22769471.272    93237176.339       -1334.871          45.000  
G19  24181955.301   127077034.281       -4764.587          37.000                                                                  
G20  22073617.922   115997660.155       -2918.405          45.000                                                                  
G13  22239401.476   116868867.006        1395.530          28.000                                                                  
G25  24120553.790   126754382.850       -1998.862          38.000                                                                  
G29  24872841.718   130707683.180        2041.847          42.000    24872844.533   101850139.004        1591.559          33.000  
> 2025 04 04 10 15 53.0020000  0  9                     
G05  21581516.368   113411657.892       -1335.321          46.000    21581516.059    88372708.207       -1039.941          35.000  
G06  24256833.719   127470534.653       -2543.839          43.000    24256845.100    99327724.577       -1982.453          40.000  
G12  23484856.562   123413775.990       -3357.053          40.000    23484861.789    96166579.496       -2616.511          40.000  
G11  22769796.382   119656075.974       -1713.189          42.000    22769797.317    93238511.711       -1335.175          45.000  
G19  24182862.085   127081799.039       -4764.567          38.000                                                                  
G20  22074173.271   116000578.838       -2918.796          46.000                                                                  
G13  22239135.457   116867445.2563       1396.751          33.000                                                                  
G25  24120934.346   126756382.217       -1998.902          39.000                                                                  
G29  24872453.049   130705641.076        2042.325          42.000    24872456.026   101848547.745        1591.616          34.000  
> 2025 04 04 10 15 54.0020000  0  9                     
G05  21581770.445   113412993.132       -1335.425          46.000    21581770.223    88373748.661       -1041.180          35.000  
G06  24257317.718   127473078.708       -2544.022          43.000    24257329.083    99329707.014       -1982.489          41.000  
G12  23485495.353   123417133.006       -3356.938          40.000    23485500.554    96169195.389       -2616.097          40.000  
G11  22770122.352   119657789.511       -1713.713          41.000    22770123.354    93239846.934       -1335.325          45.000  
G19  24183768.844   127086563.912       -4765.348          36.000                                                                  
G20  22074728.658   116003497.337       -2918.873          45.000                                                                  
G13  22238869.431   116866048.0602       1397.108          32.000                                                                  
G25  24121314.786   126758381.784       -2000.087          39.000    24121326.075                       -1559.909          23.000  
G29  24872064.292   130703598.787        2042.560          42.000    24872067.539   101846956.352        1592.044          34.000  
> 2025 04 04 10 15 55.0020000  0  9                     
G05  21582024.747   113414328.921       -1336.182          46.000    21582024.456    88374789.535       -1041.101          35.000  
G06  24257801.835   127475622.965       -2544.466          43.000    24257813.231    99331689.562       -1982.830          39.000  
G12  23486134.269   123420490.582       -3357.959          41.000    23486139.596    96171811.652       -2616.784          39.000  
G11  22770448.311   119659503.285       -1714.114          41.000    22770449.354    93241182.331       -1335.485          45.000  
G19  24184675.703   127091329.139       -4766.669          34.000                                                                  
G20  22075284.016   116006416.123       -2919.089          46.000                                                                  
G13  22238603.583   116864651.1301       1396.423          33.000                                                                  
G25  24121695.504   126760381.950       -2000.724          39.000                                                                  
G29  24871675.678   130701556.779        2041.836          42.000    24871679.044   101845365.157        1591.278          34.000  
> 2025 04 04 10 15 56.0020000  0  9                     
G05  21582279.075   113415665.248       -1336.755          46.000    21582278.700    88375830.859       -1041.833          35.000  
G06  24258286.045   127478167.481       -2544.746          43.000    24258297.434    99333672.272       -1982.867          41.000  
G12  23486773.203   123423848.549       -3358.484          40.000    23486778.618    96174428.240       -2616.827          40.000  
G11  22770774.192   119661217.250       -1714.430          41.000    22770775.505    93242517.923       -1335.769          44.000  
G19  24185582.729   127096094.622       -4765.613          35.000                                                                  
G20  22075839.471   116009335.190       -2919.352          46.000                                                                  
G13  22238337.860   116863255.261        1395.628          35.000                                                                  
G25  24122076.157   126762382.671       -2000.975          39.000                                                                  
G29  24871287.110   130699514.962        2041.483          42.000    24871290.565   101843774.161        1590.324          34.000  
> 2025 04 04 10 15 57.0020000  0  9                     
G05  21582533.591   113417002.295       -1337.280          46.000    21582533.033    88376872.709       -1042.010          35.000  
G06  24258770.411   127480712.445       -2545.224          43.000    24258781.683    99335655.356       -1983.549          41.000  
G12  23487412.291   123427207.127       -3358.340          40.000    23487417.739    96177045.358       -2616.981          41.000  
G11  22771100.323   119662931.666       -1714.438          41.000    22771101.777    93243853.830       -1335.961          44.000  
G19  24186489.665   127100860.832       -4766.697          35.000                                                                  
G20  22076395.078   116012254.690       -2920.015          46.000                                                                  
G13  22238072.286   116861860.005        1394.423          30.000                                                                  
G25  24122456.995   126764384.203       -2001.344          39.000                                                                  
G29  24870898.757   130697473.617        2041.285          42.000    24870902.097   101842183.494        1589.918          34.000  
> 2025 04 04 10 15 58.0020000  0  9                     
G05  21582788.088   113418339.969       -1337.897          46.000    21582787.584    88377915.028       -1042.291          37.000  
G06  24259254.707   127483257.697       -2545.498          43.000    24259266.150    99337638.710       -1983.744          41.000  
G12  23488051.471   123430566.311       -3359.202          40.000    23488056.972    96179662.846       -2617.466          40.000  
G11  22771426.492   119664646.402       -1714.526          41.000    22771428.038    93245189.975       -1336.127          44.000  
G19  24187396.922   127105627.574       -4766.827          35.000                                                                  
G20  22076950.640   116015174.518       -2919.983          46.000                                                                  
G13  22237806.960   116860463.7323       1394.511          37.000                                                                  
G25  24122837.855   126766386.429       -2003.022          39.000                                                                  
G29  24870510.346   130695432.557        2040.880          42.000    24870513.654   101840593.042        1590.524          34.000  
> 2025 04 04 10 15 59.0020000  0  9                     
G05  21583042.783   113419678.179       -1338.666          46.000    21583042.341    88378957.809       -1043.127          36.000  
G06  24259739.134   127485803.258       -2545.783          42.000    24259750.646    99339622.243       -1983.613          43.000  
G12  23488690.655   123433925.922       -3359.514          41.000    23488696.282    96182280.756       -2618.176          39.000  
G11  22771752.666   119666361.387       -1715.257          41.000    22771754.392    93246526.311       -1336.668          44.000  
G19  24188304.141   127110394.706       -4767.222          35.000                                                                  
G20  22077506.257   116018094.646       -2920.287          45.000                                                                  
G13  22237541.418   116859069.5282       1393.969          35.000                                                                  
G25  24123218.989   126768389.275       -2003.558          39.000                                                                  
G29  24870122.062   130693391.755        2040.610          42.000    24870125.351   101839002.860        1589.630          34.000  
> 2025 04 04 10 16 00.0020000  0  9                     
G05  21583297.444   113421016.985       -1338.757          46.000    21583297.180    88380001.016       -1042.889          36.000  
G06  24260223.443   127488349.041       -2545.955          41.000    24260235.095    99341605.984       -1983.890          38.000  
G12  23489330.025   123437286.103       -3360.626          41.000    23489335.733    96184899.041       -2618.320          39.000  
G11  22772079.049   119668076.659       -1714.948          41.000    22772080.914    93247862.897       -1336.358          44.000  
G19  24189211.315   127115162.326       -4766.948          34.000                                                                  
G20  22078061.988   116021015.117       -2920.376          46.000                                                                  
G13  22237276.076   116857675.9022       1393.670          35.000                                                                  
G25  24123600.235   126770392.763       -2003.386          40.000                                                                  
G29  24869733.835   130691351.306        2040.276          42.000    24869737.203   101837412.840        1590.135          33.000  
> 2025 04 04 10 16 01.0020000  0  9                     
G05  21583552.302   113422356.168       -1339.417          46.000    21583552.185    88381044.532       -1043.475          37.000  
G06  24260708.013   127490895.118       -2546.014          39.000    24260719.790    99343589.888       -1983.789          41.000  
G12  23489969.485   123440646.540       -3360.305          39.000    23489975.219    96187517.599       -2618.576          39.000  
G11  22772405.326   119669792.043       -1715.638          41.000    22772407.350    93249199.550       -1336.530          44.000  
G19  24190118.695   127119930.147       -4767.421          34.000                                                                  
G20  22078617.684   116023935.705       -2920.587          46.000                                                                  
G13  22237010.909   116856282.0841       1392.888          34.000                                                                  
G25  24123981.608   126772396.770       -2004.224          40.000                                                                  
G29  24869345.574   130689310.901        2040.399          42.000    24869348.958   101835822.943        1589.795          34.000  
> 2025 04 04 10 16 02.0020000  0  9                     
G05  21583807.295   113423695.874       -1339.374          46.000    21583807.202    88382088.476       -1044.086          36.000  
G06  24261192.598   127493441.223       -2545.665          40.000    24261204.404    99345573.800       -1983.378          39.000  
G12  23490608.913   123444007.421       -3360.682          41.000    23490614.755    96190136.495       -2618.942          39.000  
G11  22772731.712   119671507.656       -1715.147          42.000    22772733.795    93250536.370       -1336.401          45.000  
G19  24191026.134   127124698.539       -4767.621          33.000                                                                  
G20  22079173.464   116026856.583       -2920.502          46.000                                                                  
G13  22236745.562   116854888.955        1392.789          30.000                                                                  
G25  24124363.073   126774401.370       -2004.511          39.000    24124372.351                       -1563.112          25.000  
G29  24868957.374   130687270.811        2040.283          42.000    24868960.729   101834233.260        1590.023          34.000  
> 2025 04 04 10 16 03.0020000  0  9                     
G05  21584062.379   113425035.880       -1340.228          46.000    21584062.201    88383132.683       -1044.482          36.000  
G06  24261677.110   127495987.475       -2546.103          44.000    24261689.082    99347557.910       -1983.280          44.000  
G12  23491248.476   123447368.547       -3361.402          37.000    23491254.313    96192755.588       -2619.600          41.000  
G11  22773058.114   119673223.246       -1715.475          41.000    22773060.166    93251873.207       -1337.098          44.000  
G19  24191933.472   127129466.795       -4765.238          32.000                                                                  
G20  22079729.303   116029777.493       -2921.423          45.000                                                                  
G13  22236481.012   116853495.977        1392.578          33.000                                                                  
G25  24124744.627   126776406.316       -2005.584          40.000    24124755.212    98786838.9921      -1562.791          26.000  
G29  24868569.174   130685230.672        2039.873          42.000    24868572.572   101832643.480        1589.382          34.000  
> 2025 04 04 10 16 04.0020000  0  9                     
G05  21584317.465   113426376.224       -1340.784          45.000    21584317.238    88384177.009       -1043.921          36.000  
G06  24262161.547   127498533.496       -2545.644          42.000    24262173.613    99349541.757       -1983.861          38.000  
G12  23491888.127   123450729.913       -3362.314          40.000    23491893.833    96195374.801       -2619.206          38.000  
G11  22773384.452   119674938.788       -1716.731          30.000    22773386.657    93253210.077       -1337.996          34.000  
G19  24192841.002   127134235.667       -4768.622          35.000                                                                  
G20  22080285.027   116032698.247       -2920.452          36.000                                                                  
G13  22236216.297   116852103.384        1392.053          38.000                                                                  
G25  24125126.165   126778411.601       -2005.288          40.000    24125138.441                       -1562.872          27.000  
G29  24868180.925   130683190.517        2040.530          42.000    24868184.454   101831053.743        1590.446          33.000  
> 2025 04 04 10 16 05.0020000  0  9                     
G05  21584572.527   113427716.725       -1341.168          45.000    21584572.409    88385221.561       -1044.476          34.000  
G06  24262645.988   127501079.892       -2545.229          38.000    24262658.181    99351525.984       -1983.422          39.000  
G12  23492527.794   123454091.439       -3361.650          41.000    23492533.476    96197994.129       -2619.775          39.000  
G11  22773710.642   119676656.3133      -1715.325          39.000    22773713.040    93254546.808       -1337.521          40.000  
G19  24193748.555   127139004.427       -4768.633          39.000                                                                  
G20  22080841.071   116035619.337       -2921.660          48.000                                                                  
G13  22235951.699                        1386.993          27.000                                                                  
G25  24125507.787   126780417.209       -2005.732          40.000                                                                  
G29  24867792.624   130681150.343        2040.209          42.000    24867796.209   101829464.018        1590.711          33.000  
> 2025 04 04 10 16 06.0020000  0  9                     
G05  21584827.792   113429057.758       -1341.431          47.000    21584827.705    88386266.571       -1045.764          34.000  
G06  24263130.533   127503626.224       -2546.785          43.000    24263142.834    99353510.186       -1984.356          41.000  
G12  23493167.470   123457453.439       -3362.285          40.000    23493173.298    96200613.834       -2619.725          39.000  
G11  22774037.093   119678372.1632      -1716.583          43.000    22774039.451    93255883.803       -1336.573          43.000  
G19  24194656.144   127143773.548       -4769.955          27.000                                                                  
G20  22081396.982   116038540.401       -2920.894          45.000                                                                  
G13  22235690.109   116849339.4663       1391.524          28.000                                                                  
G25  24125889.589   126782423.411       -2006.570          40.000    24125902.294                       -1563.994          26.000  
G29  24867404.480   130679110.428        2039.457          42.000    24867407.956   101827874.497        1589.479          33.000  
> 2025 04 04 10 16 07.0020000  0  9                     
G05  21585083.052   113430399.544       -1341.821          47.000    21585083.099    88387312.123       -1045.148          37.000  
G06  24263615.190   127506173.024       -2546.707          42.000    24263627.461    99355494.697       -1984.421          41.000  
G12  23493807.306   123460815.970       -3362.111          40.000    23493813.089    96203234.022       -2619.859          39.000  
G11  22774363.582   119680088.343       -1715.789          42.000    22774366.009    93257221.062       -1336.670          43.000  
G19  24195564.420   127148543.427       -4769.545          36.000                                                                  
G20  22081952.995   116041462.021       -2921.072          46.000                                                                  
G13  22235423.693   116847939.2243       1392.548          34.000                                                                  
G25  24126271.475   126784430.418       -2007.151          40.000                                                                  
G29  24867016.339   130677070.923        2039.832          42.000    24867019.776   101826285.273        1590.024          34.000  
> 2025 04 04 10 16 08.0020000  0  9                     
G05  21585338.458   113431741.639       -1342.664          46.000    21585338.560    88388357.944       -1046.250          36.000  
G06  24264099.963   127508719.886       -2547.036          43.000    24264112.169    99357479.244       -1984.449          41.000  
G12  23494447.219   123464178.855       -3363.552          40.000    23494453.047    96205854.407       -2620.701          39.000  
G11  22774690.176   119681804.544       -1716.428          42.000    22774692.524    93258558.373       -1337.463          43.000  
G19  24196472.359   127153313.357       -4770.397          38.000                                                                  
G20  22082509.039   116044383.723       -2922.441          46.000                                                                  
G13  22235159.127   116846549.7853       1390.529          34.000                                                                  
G25  24126653.533   126786437.792       -2007.588          40.000                                                                  
G29  24866628.263   130675031.446        2039.090          43.000    24866631.750   101824696.106        1588.478          33.000  
> 2025 04 04 10 16 09.0020000  0  9                     
G05  21585593.859   113433083.825       -1342.444          46.000    21585594.008    88389403.752       -1045.964          36.000  
G06  24264584.510   127511266.547       -2546.775          42.000    24264596.816    99359463.708       -1984.307          40.000  
G12  23495087.142   123467541.785       -3363.883          37.000    23495093.036    96208474.849       -2620.658          39.000  
G11  22775016.722   119683520.530       -1715.601          41.000    22775019.050    93259895.537       -1337.381          43.000  
G19  24197380.061   127158083.395       -4770.206          38.000                                                                  
G20  22083064.983   116047305.186       -2921.646          46.000                                                                  
G13  22234893.408   116845153.0152       1389.262          33.000                                                                  
G25  24127035.557   126788445.353       -2007.594          40.000                                                                  
G29  24866240.202   130672991.765        2039.560          43.000    24866243.761   101823106.755        1589.015          34.000  
> 2025 04 04 10 16 10.0020000  0  9                     
G05  21585849.279   113434426.170       -1342.351          46.000    21585849.584    88390449.754       -1045.470          35.000  
G06  24265069.110   127513813.058       -2546.156          44.000    24265081.307    99361447.926       -1983.561          43.000  
G12  23495727.036   123470904.692       -3362.473          38.000    23495733.139    96211095.316       -2620.491          39.000  
G11  22775343.216   119685236.426       -1715.887          41.000    22775345.649    93261232.580       -1336.585          42.000  
G19  24198287.700   127162853.406       -4769.276          37.000                                                                  
G20  22083621.021   116050226.568       -2921.216          46.000                                                                  
G13  22234629.345   116843765.5403       1390.526          36.000                                                                  
G25  24127417.713   126790453.137       -2007.532          40.000    24127428.766    98797786.6541      -1565.119          27.000  
G29  24865852.104   130670951.992        2040.224          42.000    24865855.515   101821517.291        1589.808          34.000  
> 2025 04 04 10 16 11.0020000  0  9                     
G05  21586104.806   113435768.632       -1342.284          46.000    21586105.102    88391495.896       -1046.665          38.000  
G06  24265553.718   127516359.556       -2545.690          36.000    24265565.872    99363432.248       -1984.283          37.000  
G12  23496366.865   123474267.545       -3362.467          38.000    23496373.142    96213715.804       -2620.179          39.000  
G11  22775669.742   119686952.179       -1715.190          41.000    22775672.192    93262569.493       -1336.861          45.000  
G19  24199195.279   127167623.420       -4769.284          39.000                                                                  
G20  22084176.915   116053147.841       -2921.189          46.000                                                                  
G13  22234366.677   116842385.1583       1390.529          38.000                                                                  
G25  24127799.866   126792461.125       -2007.913          41.000    24127810.922    98799351.228       -1564.486          27.000  
G29  24865463.844   130668912.025        2040.241          42.000    24865467.252   101819927.728        1589.769          34.000  
> 2025 04 04 10 16 12.0020000  0  9                     
G05  21586360.242   113437111.345       -1342.895          46.000    21586360.638    88392542.124       -1046.475          37.000  
G06  24266038.349   127518905.893       -2546.646          39.000    24266050.504    99365416.410       -1983.877          38.000  
G12  23497006.821   123477630.737       -3363.187          39.000    23497013.134    96216336.461       -2621.064          39.000  
G11  22775996.180   119688667.792       -1715.791          39.000    22775998.761    93263906.392       -1336.972          44.000  
G19  24200103.069   127172393.603       -4770.273          37.000                                                                  
G20  22084732.752   116056069.046       -2921.239          46.000                                                                  
G13  22234101.757   116840993.0042       1389.943          38.000                                                                  
G25  24128181.988   126794469.459       -2008.858          41.000    24128194.265    98800916.126       -1565.699          27.000  
G29  24865075.677   130666872.022        2040.153          42.000    24865078.980   101818338.136        1589.305          33.000  
> 2025 04 04 10 16 13.0020000  0  8                     
G05  21586615.883   113438454.449       -1343.274          46.000    21586616.269    88393588.694       -1046.886          37.000  
G06  24266522.803   127521452.274       -2546.642          42.000    24266535.139    99367400.560       -1984.341          42.000  
G12  23497646.857   123480994.207       -3363.514          40.000    23497653.257    96218957.322       -2621.088          40.000  
G11  22776322.640   119690383.543       -1715.366          41.000    22776325.326    93265243.346       -1337.225          44.000  
G19  24201010.777   127177164.070       -4770.013          37.000                                                                  
G20  22085288.688   116058990.409       -2921.512          46.000                                                                  
G25  24128564.351   126796478.199       -2009.143          41.000                                                                  
G29  24864687.400   130664832.168        2039.877          42.000    24864690.673   101816748.512        1590.061          34.000  
> 2025 04 04 10 16 14.0020000  0  9                     
G05  21586871.381   113439797.510       -1343.616          46.000    21586871.778    88394635.245       -1047.025          37.000  
G06  24267007.214   127523998.451       -2546.456          43.000    24267019.583    99369384.613       -1984.083          42.000  
G12  23498286.798   123484357.563       -3363.036          38.000    23498293.294    96221578.137       -2621.375          41.000  
G11  22776649.082   119692098.960       -1714.956          39.000    22776651.832    93266580.012       -1337.122          43.000  
G19  24201918.416   127181934.377       -4770.686          37.000                                                                  
G20  22085844.543   116061911.498       -2921.675          45.000                                                                  
G13  22233572.040   116838209.4952       1390.974          25.000                                                                  
G25  24128946.731   126798486.982       -2009.768          40.000    24128960.103    98804057.7051      -1564.531          30.000  
G29  24864299.193   130662791.989        2039.892          42.000    24864302.521   101815158.824        1590.471          34.000  
> 2025 04 04 10 16 15.0020000  0  9                     
G05  21587127.006   113441140.995       -1343.471          46.000    21587127.395    88395682.118       -1046.527          37.000  
G06  24267491.739   127526544.713       -2545.971          43.000    24267504.097    99371368.736       -1983.861          42.000  
G12  23498926.940   123487721.264       -3363.712          40.000    23498933.374    96224199.168       -2620.712          40.000  
G11  22776975.447   119693814.552       -1715.469          41.000    22776978.293    93267916.827       -1336.484          44.000  
G19  24202826.278   127186705.000       -4770.595          38.000                                                                  
G20  22086400.365   116064832.696       -2921.056          46.000                                                                  
G13  22233307.530   116836818.7113       1389.722          32.000                                                                  
G25  24129329.229   126800496.309       -2009.462          40.000    24129345.597    98805623.404       -1565.451          29.000  
G29  24863910.937   130660751.937        2040.510          41.000    24863914.211   101813569.219        1589.488          33.000  
> 2025 04 04 10 16 16.0020000  0  9                     
G05  21587382.665   113442484.751       -1344.222          46.000    21587383.180    88396729.218       -1047.900          37.000  
G06  24267976.287   127529090.973       -2546.599          43.000    24267988.633    99373352.825       -1984.384          42.000  
G12  23499567.006   123491085.125       -3363.987          40.000    23499573.503    96226820.431       -2621.237          39.000  
G11  22777301.872   119695530.080       -1715.989          41.000    22777304.751    93269253.610       -1337.072          44.000  
G19  24203734.108   127191475.732       -4770.975          37.000                                                                  
G20  22086956.313   116067753.920       -2921.450          46.000                                                                  
G13  22233043.372   116835429.6982       1389.597          36.000                                                                  
G25  24129711.791   126802505.971       -2010.276          41.000    24129728.881                       -1560.303          29.000  
G29  24863522.721   130658711.852        2040.331          41.000    24863525.973   101811979.564        1589.296          33.000  
> 2025 04 04 10 16 17.0020000  0  9                     
G05  21587638.429   113443828.720       -1343.827          46.000    21587639.012    88397776.458       -1046.951          37.000  
G06  24268460.718   127531637.178       -2545.942          43.000    24268473.084    99375336.869       -1983.937          42.000  
G12  23500207.111   123494449.183       -3363.786          40.000    23500213.645    96229441.765       -2621.355          40.000  
G11  22777628.265   119697245.509       -1714.941          42.000    22777631.147    93270590.331       -1336.279          44.000  
G19  24204642.157   127196246.650       -4771.100          35.000                                                                  
G20  22087512.199   116070675.115       -2920.876          46.000                                                                  
G13  22232777.100   116834040.5612       1388.934          33.000                                                                  
G25  24130094.310   126804515.894       -2010.024          40.000    24130111.374    98808771.5351      -1566.361          29.000  
G29  24863134.466   130656671.733        2040.608          42.000    24863137.724   101810389.818        1590.213          34.000  
> 2025 04 04 10 16 18.0020000  0  9                     
G05  21587894.190   113445172.537       -1344.174          47.000    21587894.618    88398823.570       -1047.130          36.000  
G06  24268945.128   127534182.907       -2545.865          42.000    24268957.539    99377320.548       -1983.208          40.000  
G12  23500847.176   123497813.008       -3363.939          41.000    23500853.697    96232062.914       -2621.512          40.000  
G11  22777954.614   119698960.539       -1715.498          41.000    22777957.436    93271926.660       -1336.448          45.000  
G19  24205549.896   127201017.237       -4770.070          36.000                                                                  
G20  22088067.964   116073595.852       -2920.444          46.000                                                                  
G13  22232516.309   116832651.4012       1389.220          37.000                                                                  
G25  24130476.814   126806525.743       -2010.270          40.000    24130494.154    98810337.678       -1566.024          29.000  
G29  24862746.119   130654631.114        2040.874          42.000    24862749.440   101808799.818        1588.720          34.000  
> 2025 04 04 10 16 19.0020000  0  9                     
G05  21588149.909   113446516.505       -1343.873          46.000    21588150.396    88399870.868       -1047.404          36.000  
G06  24269429.550   127536728.536       -2545.035          42.000    24269442.016    99379304.127       -1983.285          42.000  
G12  23501487.237   123501176.872       -3363.726          39.000    23501493.747    96234684.100       -2621.012          38.000  
G11  22778280.898   119700675.379       -1714.279          42.000    22778283.722    93273262.920       -1336.246          43.000  
G19  24206457.690   127205787.990       -4770.834          37.000                                                                  
G20  22088623.793   116076516.475       -2920.371          46.000                                                                  
G13  22232250.773   116831262.3012       1390.454          34.000                                                                  
G25  24130859.250   126808535.782       -2010.172          40.000    24130877.162    98811903.946       -1565.854          30.000  
G29  24862357.831   130652590.462        2041.592          42.000    24862361.142   101807209.558        1590.641          35.000  
> 2025 04 04 10 16 20.0020000  0  9                     
G05  21588405.737   113447860.733       -1344.567          47.000    21588406.226    88400918.334       -1047.677          36.000  
G06  24269913.977   127539274.184       -2543.787          33.000    24269926.465    99381287.829       -1982.820          34.000  
G12  23502127.449   123504540.939       -3364.146          36.000    23502134.022    96237305.400       -2621.517          40.000  
G11  22778607.311   119702390.244       -1714.796          41.000    22778610.052    93274599.116       -1336.283          46.000  
G19  24207365.595   127210558.685       -4771.206          35.000                                                                  
G20  22089179.532   116079437.103       -2920.522          45.000                                                                  
G13  22231986.057   116829872.7691       1389.776          37.000                                                                  
G25  24131241.951   126810546.189       -2010.586          41.000    24131259.575    98813470.429       -1567.109          28.000  
G29  24861969.422   130650549.704        2040.644          42.000    24861972.802   101805619.423        1590.392          33.000  
> 2025 04 04 10 16 21.0020000  0  8                     
G05  21588661.599   113449204.857       -1343.983          46.000    21588662.091    88401965.701       -1047.129          36.000  
G06  24270398.660   127541819.309       -2544.179          40.000    24270410.937    99383270.942       -1983.234          38.000  
G12  23502767.486   123507904.631       -3362.915          38.000    23502774.176    96239926.596       -2621.264          40.000  
G11  22778933.573   119704104.559       -1714.510          41.000    22778936.289    93275935.019       -1335.600          44.000  
G19  24208273.482   127215329.331       -4770.875          32.000                                                                  
G20  22089735.170   116082357.295       -2920.112          45.000                                                                  
G25  24131624.604   126812556.514       -2009.942          41.000    24131642.301    98815036.912       -1566.542          27.000  
G29  24861581.054   130648508.544        2041.146          42.000    24861584.305   101804028.901        1589.206          36.000  
> 2025 04 04 10 16 22.0020000  0  9                     
G05  21588917.359   113450549.280       -1344.892          46.000    21588917.983    88403013.303       -1048.367          36.000  
G06  24270882.935   127544364.526       -2545.300          43.000    24270895.300    99385254.264       -1983.261          39.000  
G12  23503407.638   123511268.736       -3364.159          40.000    23503414.467    96242547.946       -2621.893          41.000  
G11  22779259.727   119705818.957       -1714.831          42.000    22779262.504    93277270.947       -1336.315          44.000  
G19  24209181.380   127220100.084       -4770.963          32.000                                                                  
G20  22090290.940   116085277.598       -2920.531          46.000                                                                  
G13  22231454.044   116827079.1583       1387.954          32.000                                                                  
G25  24132007.295   126814567.263       -2011.127          39.000    24132024.790    98816603.736       -1566.786          29.000  
G29  24861192.697   130646467.424        2040.670          42.000    24861195.855   101802438.374        1590.407          33.000  
> 2025 04 04 10 16 23.0020000  0  9                     
G05  21589173.387   113451894.632       -1345.851          46.000    21589173.952    88404061.605       -1048.649          36.000  
G06  24271367.274   127546910.353       -2545.842          43.000    24271379.792    99387238.006       -1984.260          40.000  
G12  23504047.929   123514633.681       -3365.553          40.000    23504054.861    96245169.954       -2622.315          41.000  
G11  22779586.115   119707533.998       -1715.049          42.000    22779588.908    93278607.332       -1336.506          45.000  
G19  24210089.618   127224871.722       -4772.022          32.000                                                                  
G20  22090846.876   116088198.514       -2921.135          46.000                                                                  
G13  22231189.954   116825691.2212       1387.333          32.000                                                                  
G25  24132390.215   126816578.942       -2011.614          40.000    24132407.784    98818171.268       -1567.632          30.000  
G29  24860804.538   130644426.943        2039.967          42.000    24860807.604   101800848.362        1590.754          34.000  
> 2025 04 04 10 16 24.0020000  0  9                     
G05  21589429.498   113453240.640       -1346.196          47.000    21589430.116    88405110.448       -1049.050          35.000  
G06  24271851.666   127549456.645       -2546.540          41.000    24271864.403    99389222.131       -1983.988          40.000  
G12  23504688.428   123517999.242       -3365.654          40.000    23504695.296    96247792.441       -2622.683          39.000  
G11  22779912.675   119709249.449       -1715.909          42.000    22779915.460    93279944.026       -1336.713          45.000  
G19  24210998.017   127229643.776       -4772.609          33.000                                                                  
G20  22091402.724   116091119.869       -2921.581          46.000                                                                  
G13  22230926.063   116824303.9262       1386.204          33.000                                                                  
G25  24132773.274   126818591.430       -2012.943          41.000    24132790.813    98819739.513       -1568.082          29.000  
G29  24860416.381   130642386.820        2039.784          42.000    24860419.396   101799258.712        1589.118          33.000  
> 2025 04 04 10 16 25.0020000  0  9                     
G05  21589685.677   113454587.164       -1346.869          46.000    21589686.397    88406159.770       -1049.559          36.000  
G06  24272336.079   127552003.121       -2546.933          41.000    24272349.065    99391206.377       -1983.713          40.000  
G12  23505328.877   123521365.182       -3366.372          40.000    23505335.815    96250415.216       -2622.461          39.000  
G11  22780239.111   119710965.091       -1716.109          41.000    22780242.029    93281280.874       -1336.940          45.000  
G19  24211906.379   127234416.381       -4772.859          34.000                                                                  
G20  22091958.721   116094041.449       -2921.722          46.000                                                                  
G13  22230665.004   116822917.1452       1385.337          29.000                                                                  
G25  24133156.266   126820604.483       -2013.455          40.000    24133173.991    98821308.163       -1569.407          30.000  
G29  24860028.243   130640346.903        2040.000          41.000    24860031.122   101797669.175        1589.089          34.000  
> 2025 04 04 10 16 26.0020000  0  9                     
G05  21589941.927   113455933.919       -1346.752          46.000    21589942.755    88407209.184       -1050.740          35.000  
G06  24272820.522   127554549.518       -2546.869          41.000    24272833.667    99393190.558       -1984.954          39.000  
G12  23505969.372   123524731.269       -3366.282          39.000    23505976.265    96253038.224       -2624.081          38.000  
G11  22780565.550   119712680.629       -1715.843          42.000    22780568.436    93282617.718       -1337.570          44.000  
G19  24212815.045   127239188.805       -4771.988          34.000                                                                  
G20  22092514.688   116096963.062       -2921.818          46.000                                                                  
G13  22230400.715   116821530.314        1385.621          38.000                                                                  
G25  24133539.368   126822617.872       -2013.643          40.000    24133557.189    98822876.859       -1568.312          29.000  
G29  24859639.970   130638307.003        2039.819          42.000    24859642.869   101796079.614        1589.876          34.000  
> 2025 04 04 10 16 27.0020000  0  9                     
G05  21590198.352   113457281.213       -1347.693          46.000    21590199.103    88408258.982       -1050.406          39.000  
G06  24273305.054   127557096.097       -2546.193          41.000    24273319.082    99395182.9771      -1984.644          42.000  
G12  23506609.993   123528097.771       -3366.330          40.000    23506616.799    96255661.408       -2623.356          38.000  
G11  22780892.100   119714396.405       -1714.449          33.000    22780894.873    93283954.721       -1337.325          39.000  
G19  24213723.839   127243962.014       -4773.406          35.000                                                                  
G20  22093070.717   116099884.779       -2922.423          38.000                                                                  
G13  22230136.277   116820144.114        1386.743          35.000                                                                  
G25  24133922.531   126824631.770       -2014.205          40.000    24133940.381    98824446.302       -1569.907          28.000  
G29  24859251.838   130636267.300        2039.025          41.000    24859253.588   101794487.3261       1588.931          31.000  
> 2025 04 04 10 16 28.0020000  0  9                     
G05  21590454.750   113458628.868       -1347.617          46.000    21590455.556    88409309.106       -1050.368          36.000  
G06  24273789.681   127559642.941       -2547.124          43.000    24273803.715    99397167.473       -1985.207          40.000  
G12  23507250.663   123531464.632       -3366.709          40.000    23507257.475    96258284.996       -2623.817          39.000  
G11  22781218.812   119716112.338       -1715.363          42.000    22781221.340    93285291.756       -1337.238          45.000  
G19  24214632.054   127248750.2603      -4772.521          31.000                                                                  
G20  22093626.708   116102806.812       -2921.454          41.000                                                                  
G13  22229873.770   116818758.378        1385.355          35.000                                                                  
G25  24134305.884   126826646.184       -2014.796          41.000    24134323.784    98826015.881       -1568.907          33.000  
G29  24858863.714   130634227.731        2038.884          42.000    24858863.674   101792897.939        1589.841          34.000  
> 2025 04 04 10 16 29.0020000  0  9                     
G05  21590711.377   113459976.950       -1348.363          46.000    21590711.939    88410359.561       -1050.771          37.000  
G06  24274274.352   127562189.847       -2546.308          37.000    24274289.584    99399152.107       -1983.636          37.000  
G12  23507891.423   123534831.857       -3367.365          40.000    23507898.256    96260908.766       -2623.447          39.000  
G11  22781545.353   119717828.355       -1716.327          43.000    22781547.828    93286628.887       -1337.077          44.000  
G19  24215542.328   127253533.2773      -4770.896          31.000                                                                  
G20  22094182.763   116105728.904       -2922.109          47.000                                                                  
G13  22229609.583   116817372.949        1387.074          31.000                                                                  
G25  24134689.423   126828661.088       -2015.273          40.000    24134707.174    98827585.982       -1570.044          29.000  
G29  24858475.554   130632188.248        2039.446          39.000    24858476.317   101791308.701        1588.892          30.000  
> 2025 04 04 10 16 30.0020000  0  9                     
G05  21590968.060   113461325.607       -1349.397          47.000    21590968.530    88411410.455       -1051.306          33.000  
G06  24274759.068   127564737.024       -2547.141          42.000    24274773.289    99401136.846       -1985.121          40.000  
G12  23508532.283   123538199.573       -3368.349          38.000    23508539.072    96263532.926       -2624.023          39.000  
G11  22781871.892   119719544.663       -1716.921          43.000    22781874.421    93287966.247       -1337.747          44.000  
G19  24216449.446   127258307.3092      -4774.631          35.000                                                                  
G20  22094738.930   116108651.324       -2922.740          46.000                                                                  
G13  22229346.215   116815988.425        1384.148          35.000                                                                  
G25  24135073.014   126830676.630       -2016.558          40.000    24135090.654    98829156.475       -1570.674          29.000  
G29  24858087.545   130630149.127        2038.724          39.000    24858085.962   101789719.784        1589.418          29.000  
> 2025 04 04 10 16 31.0020000  0  9                     
G05  21591224.983   113462675.123       -1349.972          47.000    21591225.359    88412462.002       -1051.346          35.000  
G06  24275243.790   127567284.776       -2547.654          42.000    24275259.023    99403122.127       -1985.283          41.000  
G12  23509173.103   123541568.028       -3368.501          39.000    23509180.057    96266157.720       -2624.904          39.000  
G11  22782198.538   119721261.540       -1717.269          42.000    22782201.140    93289304.079       -1337.797          44.000  
G19  24217355.832   127263081.5681      -4775.167          35.000                                                                  
G20  22095295.152   116111574.365       -2923.263          46.000                                                                  
G13  22229082.525   116814604.319        1383.563          37.000                                                                  
G25  24135456.794   126832693.087       -2017.024          40.000    24135474.399    98830727.823       -1571.208          29.000  
G29  24857699.628   130628110.542        2038.904          40.000    24857697.729   101788131.308        1588.712          30.000  
> 2025 04 04 10 16 32.0020000  0  9                     
G05  21591482.002   113464025.606       -1350.917          46.000    21591482.270    88413514.328       -1052.348          35.000  
G06  24275728.733   127569833.241       -2548.733          41.000    24275743.893    99405107.972       -1986.462          39.000  
G12  23509814.283   123544937.403       -3370.034          39.000    23509821.296    96268783.227       -2626.163          40.000  
G11  22782525.296   119722979.088       -1717.529          42.000    22782528.093    93290642.425       -1338.290          44.000  
G19  24218266.452   127267857.186       -4775.531          34.000                                                                  
G20  22095851.489   116114498.095       -2923.928          46.000                                                                  
G13  22228819.178   116813221.336        1382.422          37.000                                                                  
G25  24135840.718   126834710.600       -2017.894          40.000    24135858.328    98832299.870       -1572.968          29.000  
G29  24857311.897   130626072.628        2037.752          40.000    24857309.763   101786543.335        1587.638          31.000  
> 2025 04 04 10 16 33.0020000  0  9                     
G05  21591739.170   113465376.803       -1351.648          46.000    21591739.443    88414567.252       -1053.478          35.000  
G06  24276213.695   127572382.103       -2548.964          42.000    24276228.745    99407094.088       -1986.996          41.000  
G12  23510455.535   123548307.429       -3370.623          40.000    23510462.554    96271409.187       -2626.705          38.000  
G11  22782852.322   119724697.057       -1718.315          42.000    22782854.962    93291981.106       -1339.441          43.000  
G19  24219175.044   127272633.697       -4777.497          31.000                                                                  
G20  22096407.949   116117422.268       -2924.508          45.000                                                                  
G13  22228554.209   116811840.1413       1382.182          31.000                                                                  
G25  24136224.739   126836728.903       -2018.735          40.000    24136242.384    98833872.520       -1572.729          30.000  
G29  24856924.196   130624035.143        2037.248          39.000    24856922.501   101784955.684        1587.155          31.000  
> 2025 04 04 10 16 34.0020000  0  9                     
G05  21591996.410   113466728.719       -1352.411          46.000    21591996.640    88415620.636       -1053.782          36.000  
G06  24276698.717   127574931.410       -2549.740          42.000    24276713.766    99409080.506       -1986.568          43.000  
G12  23511096.929   123551677.979       -3370.977          38.000    23511103.910    96274035.625       -2626.809          39.000  
G11  22783179.448   119726415.394       -1718.626          42.000    22783181.848    93293320.091       -1339.168          43.000  
G19  24220081.941   127277410.376       -4777.199          36.000                                                                  
G20  22096964.578   116120346.872       -2924.970          45.000                                                                  
G13  22228293.468   116810469.6392       1380.670          39.000                                                                  
G25  24136608.906   126838747.973       -2019.620          39.000    24136626.708    98835445.783       -1573.658          30.000  
G29  24856536.600   130621998.009        2036.322          40.000    24856535.125   101783368.301        1586.985          30.000  
> 2025 04 04 10 16 35.0020000  0  9                     
G05  21592253.792   113468081.249       -1352.743          46.000    21592253.937    88416674.577       -1054.031          36.000  
G06  24277183.939   127577481.124       -2550.078          31.000    24277198.883    99411067.372       -1987.099          34.000  
G12  23511738.306   123555049.251       -3371.758          40.000    23511745.355    96276662.555       -2626.955          39.000  
G11  22783506.533   119728134.085       -1718.336          43.000    22783508.925    93294659.365       -1339.454          43.000  
G19  24220991.247   127282187.843       -4776.941          34.000                                                                  
G20  22097521.209   116123271.901       -2925.210          45.000                                                                  
G13  22228031.573   116809088.4722       1380.658          38.000                                                                  
G25  24136993.188   126840767.741       -2019.633          42.000    24137011.058    98837019.795       -1574.067          29.000  
G29  24856148.997   130619961.327        2036.845          42.000    24856147.613   101781781.278        1587.369          33.000  
> 2025 04 04 10 16 36.0020000  0  9                     
G05  21592511.243   113469434.115       -1352.819          47.000    21592511.420    88417728.745       -1054.126          36.000  
G06  24277669.178   127580030.910       -2549.048          31.000    24277684.086    99413054.147       -1986.194          33.000  
G12  23512379.778   123558420.636       -3371.259          38.000    23512386.910    96279289.645       -2626.602          39.000  
G11  22783833.446   119729852.911       -1717.978          34.000    22783835.980    93295998.646       -1339.206          41.000  
G19  24221899.245   127286965.291       -4777.645          36.000                                                                  
G20  22098077.740   116126196.890       -2924.757          46.000                                                                  
G13  22227768.513   116807707.6082       1381.433          35.000                                                                  
G25  24137377.609   126842787.899       -2019.892          41.000    24137395.362    98838593.830       -1573.807          31.000  
G29  24855761.318   130617924.621        2036.885          41.000    24855760.140   101780194.241        1587.827          31.000  
> 2025 04 04 10 16 37.0020000  0  9                     
G05  21592768.691   113470786.920       -1352.760          47.000    21592768.885    88418782.878       -1053.928          37.000  
G06  24278154.391   127582580.243       -2549.526          31.000    24278169.130    99415040.672       -1986.260          36.000  
G12  23513021.321   123561791.914       -3370.756          38.000    23513028.407    96281916.658       -2626.820          38.000  
G11  22784160.609   119731571.358       -1718.175          37.000    22784163.061    93297337.689       -1339.067          41.000  
G19  24222808.579   127291742.782       -4777.670          37.000                                                                  
G20  22098634.392   116129121.673       -2924.607          47.000                                                                  
G13  22227504.796   116806326.1781       1381.941          34.000                                                                  
G25  24137762.120   126844808.114       -2020.025          42.000    24137779.992    98840168.041       -1574.393          31.000  
G29  24855373.728   130615887.702        2037.084          41.000    24855372.543   101778606.976        1587.447          31.000  
> 2025 04 04 10 16 38.0020000  0  9                     
G05  21593026.054   113472139.682       -1353.262          47.000    21593026.300    88419836.997       -1054.349          36.000  
G06  24278639.353   127585129.251       -2548.924          27.000    24278654.118    99417026.899       -1986.298          31.000  
G12  23513662.880   123565163.108       -3370.865          38.000    23513669.902    96284543.545       -2626.982          40.000  
G11  22784487.521   119733289.185       -1714.170          26.000    22784490.080    93298676.432       -1338.598          39.000  
G19  24223717.817   127296519.982       -4777.568          36.000                                                                  
G20  22099190.853   116132046.065       -2924.263          45.000                                                                  
G13  22227243.534   116804945.284        1380.841          33.000                                                                  
G25  24138146.522   126846828.296       -2019.966          40.000    24138164.201    98841742.245       -1573.470          30.000  
G29  24854986.051   130613850.336        2037.378          43.000    24854985.011   101777019.505        1586.631          31.000  
> 2025 04 04 10 16 39.0020000  0  9                     
G05  21593283.535   113473492.518       -1352.895          46.000    21593283.802    88420891.170       -1054.587          37.000  
G06  24279124.249   127587678.068       -2549.092          39.000    24279139.165    99419012.958       -1986.745          41.000  
G12  23514304.427   123568534.289       -3371.019          41.000    23514311.339    96287170.423       -2626.975          40.000  
G11  22784814.595   119735007.258       -1717.886          43.000    22784816.827    93300015.001       -1338.950          46.000  
G19  24224627.013   127301297.368       -4778.628          35.000                                                                  
G20  22099747.273   116134970.332       -2923.951          45.000                                                                  
G13  22226981.162   116803564.299        1381.761          38.000                                                                  
G25  24138531.066   126848848.728       -2020.795          40.000    24138548.490    98843316.563       -1574.805          30.000  
G29  24854598.353   130611812.856        2037.363          42.000    24854597.304   101775420.8191       1587.538          32.000  
> 2025 04 04 10 16 40.0020000  0  9                     
G05  21593541.022   113474845.715       -1353.379          46.000    21593541.304    88421945.638       -1054.785          37.000  
G06  24279609.261   127590226.982       -2549.031          40.000    24279624.039    99420999.168       -1986.202          40.000  
G12  23514946.083   123571905.724       -3371.538          40.000    23514952.778    96289797.565       -2627.399          38.000  
G11  22785141.442   119736725.143       -1717.889          43.000    22785143.637    93301353.619       -1338.731          44.000  
G19  24225536.268   127306074.868       -4777.002          32.000                                                                  
G20  22100303.708   116137894.707       -2924.620          46.000                                                                  
G13  22226718.324   116802183.734        1381.209          32.000                                                                  
G25  24138915.603   126850869.523       -2021.027          40.000    24138933.072    98844891.201       -1574.162          31.000  
G29  24854210.682   130609775.389        2037.398          42.000    24854209.915   101773833.204        1587.400          33.000  
> 2025 04 04 10 16 41.0020000  0  9                     
G05  21593798.548   113476199.273       -1353.541          46.000    21593798.788    88423000.286       -1054.321          36.000  
G06  24280094.185   127592775.955       -2548.969          40.000    24280108.971    99422985.442       -1986.371          38.000  
G12  23515587.760   123575277.457       -3371.953          40.000    23515594.379    96292424.862       -2627.371          38.000  
G11  22785468.368   119738443.144       -1718.520          42.000    22785470.597    93302692.292       -1338.638          44.000  
G19  24226445.400   127310852.524       -4777.304          31.000                                                                  
G20  22100860.267   116140819.160       -2924.615          46.000                                                                  
G13  22226455.599   116800803.629        1379.757          32.000                                                                  
G25  24139300.163   126852890.777       -2021.604          41.000    24139317.756    98846466.125       -1574.440          31.000  
G29  24853822.922   130607738.018        2037.515          42.000    24853822.365   101772245.642        1587.246          33.000  
> 2025 04 04 10 16 42.0020000  0  9                     
G05  21594056.199   113477553.105       -1353.931          46.000    21594056.397    88424055.246       -1054.854          36.000  
G06  24280579.181   127595324.967       -2548.776          40.000    24280593.880    99424971.646       -1986.312          38.000  
G12  23516229.366   123578649.412       -3372.081          40.000    23516236.237    96295052.350       -2627.632          38.000  
G11  22785795.387   119740161.108       -1717.931          42.000    22785797.524    93304030.968       -1338.613          43.000  
G19  24227354.691   127315630.403       -4777.942          29.000                                                                  
G20  22101416.864   116143743.604       -2924.646          45.000                                                                  
G13  22226193.362   116799423.575        1380.550          35.000                                                                  
G25  24139684.883   126854912.355       -2021.851          41.000    24139702.467    98848041.483       -1575.524          30.000  
G29  24853435.244   130605700.657        2037.089          43.000    24853434.886   101770658.076        1587.725          34.000  
> 2025 04 04 10 16 43.0020000  0  9                     
G05  21594313.954   113478907.153       -1354.303          46.000    21594314.132    88425110.379       -1055.079          36.000  
G06  24281064.241   127597873.892       -2549.015          40.000    24281078.785    99426957.849       -1985.966          39.000  
G12  23516871.044   123582021.524       -3372.271          40.000    23516877.960    96297679.957       -2627.747          39.000  
G11  22786122.305   119741878.971       -1717.670          43.000    22786124.369    93305369.623       -1338.541          42.000  
G19  24228263.755   127320408.450       -4779.579          29.000                                                                  
G20  22101973.338   116146668.038       -2924.648          45.000                                                                  
G13  22225930.674   116798043.772        1380.130          34.000                                                                  
G25  24140069.445   126856934.266       -2021.928          41.000    24140087.168    98849616.917       -1575.217          29.000  
G29  24853047.616   130603663.210        2037.607          41.000    24853047.167   101769070.458        1588.298          33.000  
> 2025 04 04 10 16 44.0020000  0  9                     
G05  21594571.678   113480261.549       -1354.422          47.000    21594571.846    88426165.722       -1054.567          36.000  
G06  24281549.278   127600422.947       -2549.147          40.000    24281563.705    99428944.071       -1986.128          37.000  
G12  23517512.750   123585393.895       -3372.475          40.000    23517519.776    96300307.783       -2628.181          37.000  
G11  22786449.200   119743596.995       -1718.135          41.000    22786451.236    93306708.330       -1338.847          45.000  
G19  24229173.408   127325186.713       -4778.148          33.000                                                                  
G20  22102529.980   116149592.553       -2924.419          46.000                                                                  
G13  22225668.114   116796664.020        1379.237          35.000                                                                  
G25  24140454.206   126858956.549       -2022.802          38.000    24140472.111    98851192.823       -1576.938          29.000  
G29  24852659.878   130601625.878        2037.439          39.000    24852659.517   101767482.919        1586.765          31.000  
> 2025 04 04 10 16 45.0020000  0  9                     
G05  21594829.513   113481616.182       -1354.967          47.000    21594829.586    88427221.314       -1055.637          35.000  
G06  24282034.314   127602971.953       -2549.247          41.000    24282048.603    99430930.277       -1986.360          41.000  
G12  23518154.328   123588766.366       -3372.359          40.000    23518161.610    96302935.760       -2628.346          39.000  
G11  22786776.022   119745314.924       -1718.117          42.000    22786778.228    93308046.985       -1338.883          43.000  
G19  24230082.718   127329964.983       -4777.837          31.000                                                                  
G20  22103086.379   116152517.078       -2924.725          44.000                                                                  
G13  22225405.694   116795285.034        1378.324          34.000                                                                  
G25  24140839.051   126860979.169       -2022.836          38.000    24140857.071    98852768.822       -1575.934          31.000  
G29  24852272.128   130599588.519        2037.411          38.000    24852271.881   101765895.406        1586.888          30.000  
> 2025 04 04 10 16 46.0020000  0  9                     
G05  21595087.517   113482971.318       -1355.626          47.000    21595087.415    88428277.278       -1056.665          36.000  
G06  24282519.389   127605521.124       -2549.371          40.000    24282533.527    99432916.655       -1986.432          40.000  
G12  23518796.223   123592139.304       -3372.940          41.000    23518803.417    96305564.016       -2628.235          39.000  
G11  22787102.970   119747033.071       -1718.211          43.000    22787105.034    93309385.768       -1338.490          43.000  
G19  24230992.047   127334743.723       -4779.135          36.000                                                                  
G20  22103642.891   116155441.795       -2924.878          45.000                                                                  
G13  22225143.289   116793906.302        1378.485          29.000                                                                  
G25  24141224.083   126863002.349       -2023.452          39.000    24141242.111    98854345.336       -1576.326          30.000  
G29  24851884.518   130597551.373        2037.004          38.000    24851884.372   101764307.960        1586.583          31.000  
> 2025 04 04 10 16 47.0020000  0  9                     
G05  21595345.513   113484326.849       -1355.446          47.000    21595345.258    88429333.540       -1055.723          35.000  
G06  24283004.428   127608070.444       -2548.986          40.000    24283018.612    99434903.147       -1986.402          40.000  
G12  23519438.174   123595512.633       -3372.871          41.000    23519445.441    96308192.572       -2628.438          39.000  
G11  22787429.916   119748751.322       -1718.073          41.000    22787431.965    93310724.672       -1338.590          43.000  
G19  24231901.453   127339522.785       -4778.447          35.000                                                                  
G20  22104199.516   116158366.653       -2924.785          45.000                                                                  
G13  22224881.152   116792527.803        1378.295          33.000                                                                  
G25  24141609.138   126865026.072       -2023.941          39.000    24141627.213    98855922.279       -1577.129          31.000  
G29  24851496.910   130595514.318        2037.358          39.000    24851496.889   101762720.660        1587.519          30.000  
> 2025 04 04 10 16 48.0020000  0  9                     
G05  21595603.440   113485682.531       -1356.196          46.000    21595603.211    88430389.921       -1056.783          35.000  
G06  24283489.465   127610619.650       -2549.359          41.000    24283503.655    99436889.532       -1986.536          40.000  
G12  23520080.193   123598886.033       -3373.479          41.000    23520087.422    96310821.189       -2629.344          37.000  
G11  22787756.948   119750469.460       -1718.250          42.000    22787758.886    93312063.481       -1339.090          43.000  
G19  24232810.864   127344301.856       -4778.748          35.000                                                                  
G20  22104755.985   116161291.448       -2925.146          45.000                                                                  
G13  22224619.277   116791149.516        1377.932          33.000                                                                  
G25  24141994.275   126867049.978       -2024.300          41.000    24142012.358    98857499.348       -1577.075          32.000  
G29  24851109.328   130593477.182        2036.744          43.000    24851109.372   101761133.290        1586.913          35.000  
> 2025 04 04 10 16 49.0020000  0  9                     
G05  21595861.530   113487039.008       -1357.190          47.000    21595861.395    88431446.914       -1057.770          35.000  
G06  24283974.494   127613169.334       -2549.884          41.000    24283988.829    99438876.287       -1987.244          40.000  
G12  23520722.208   123602260.063       -3374.483          41.000    23520729.474    96313450.268       -2628.598          38.000  
G11  22788084.031   119752188.040       -1719.291          41.000    22788085.956    93313402.627       -1339.626          43.000  
G19  24233720.315   127349081.624       -4780.066          35.000                                                                  
G20  22105312.536   116164216.717       -2925.582          46.000                                                                  
G13  22224357.366   116789772.024        1375.634          32.000                                                                  
G25  24142379.617   126869074.753       -2024.896          37.000    24142397.632    98859077.033       -1577.919          31.000  
G29  24850721.676   130591440.456        2036.724          42.000    24850721.931   101759546.187        1586.929          34.000  
> 2025 04 04 10 16 50.0020000  0  9                     
G05  21596119.719   113488395.987       -1357.138          46.000    21596119.547    88432504.286       -1057.715          36.000  
G06  24284459.661   127615719.247       -2549.976          41.000    24284473.986    99440863.213       -1986.774          40.000  
G12  23521364.385   123605634.493       -3374.647          38.000    23521371.615    96316079.726       -2629.610          35.000  
G11  22788411.112   119753906.851       -1718.893          43.000    22788413.052    93314741.984       -1339.263          43.000  
G19  24234629.758   127353861.771       -4779.833          34.000                                                                  
G20  22105869.176   116167142.258       -2925.516          45.000                                                                  
G13  22224095.326   116788394.850        1377.021          30.000                                                                  
G25  24142764.989   126871100.030       -2025.814          39.000    24142783.204    98860655.213       -1578.866          30.000  
G29  24850334.076   130589404.013        2036.448          42.000    24850334.572   101757959.363        1587.174          34.000  
> 2025 04 04 10 16 51.0020000  0  9                     
G05  21596378.118   113489753.509       -1358.063          46.000    21596377.954    88433562.076       -1058.346          33.000  
G06  24284944.821   127618269.407       -2550.397          41.000    24284959.185    99442850.392       -1987.109          40.000  
G12  23522006.791   123609009.416       -3375.354          41.000    23522013.778    96318709.485       -2630.461          37.000  
G11  22788738.264   119755625.893       -1719.515          43.000    22788740.117    93316081.494       -1339.678          42.000  
G19  24235539.360   127358642.351       -4780.909          35.000                                                                  
G20  22106425.916   116170068.015       -2925.802          46.000                                                                  
G13  22223833.272   116787018.319        1376.283          34.000                                                                  
G25  24143150.370   126873125.936       -2026.500          37.000    24143168.775    98862233.796       -1578.429          30.000  
G29  24849946.568   130587367.796        2035.811          42.000    24849947.297   101756372.701        1586.519          34.000  
> 2025 04 04 10 16 52.0020000  0  9                     
G05  21596636.461   113491111.472       -1358.190          47.000    21596636.278    88434620.207       -1058.342          34.000  
G06  24285430.061   127620819.779       -2550.671          41.000    24285444.515    99444837.631       -1987.201          40.000  
G12  23522649.190   123612384.782       -3375.486          43.000    23522656.002    96321339.656       -2630.272          41.000  
G11  22789065.506   119757345.117       -1719.355          42.000    22789067.218    93317421.127       -1339.659          43.000  
G19  24236449.002   127363423.241       -4781.327          32.000                                                                  
G20  22106982.739   116172994.039       -2926.702          46.000                                                                  
G13  22223571.312   116785642.108        1375.966          35.000                                                                  
G25  24143535.854   126875152.442       -2027.300          37.000    24143554.514    98863812.854       -1579.446          31.000  
G29  24849559.161   130585331.802        2035.973          42.000    24849560.039   101754786.259        1585.858          34.000  
> 2025 04 04 10 16 53.0020000  0  9                     
G05  21596894.976   113492470.119       -1358.953          47.000    21596894.890    88435678.937       -1059.098          37.000  
G06  24285915.399   127623370.488       -2550.946          41.000    24285929.902    99446825.238       -1987.885          40.000  
G12  23523291.649   123615760.686       -3375.939          40.000    23523298.484    96323970.274       -2631.562          39.000  
G11  22789392.867   119759064.750       -1720.495          43.000    22789394.435    93318761.073       -1340.450          43.000  
G19  24237358.735   127368204.739       -4781.630          33.000                                                                  
G20  22107539.562   116175920.411       -2926.519          46.000                                                                  
G13  22223309.426   116784266.641        1375.287          34.000                                                                  
G25  24143921.629   126877179.713       -2027.051          36.000    24143940.537    98865392.568       -1580.947          30.000  
G29  24849171.819   130583296.147        2035.353          42.000    24849172.770   101753200.046        1585.054          34.000  
> 2025 04 04 10 16 54.0020000  0  9                     
G05  21597153.638   113493829.569       -1360.031          46.000    21597153.497    88436738.213       -1058.970          36.000  
G06  24286400.867   127625921.752       -2551.428          41.000    24286415.195    99448813.222       -1988.379          40.000  
G12  23523934.251   123619137.310       -3376.648          42.000    23523940.978    96326601.396       -2631.434          38.000  
G11  22789720.207   119760784.819       -1720.328          42.000    22789721.820    93320101.413       -1340.533          43.000  
G19  24238268.586   127372986.958       -4782.474          37.000                                                                  
G20  22108096.502   116178847.349       -2927.234          45.000                                                                  
G13  22223047.555   116782891.856        1373.737          35.000                                                                  
G25  24144307.467   126879207.699       -2028.400          40.000    24144326.539    98866972.884       -1580.820          33.000  
G29  24848784.590   130581261.033        2034.807          42.000    24848785.636   101751614.231        1584.800          35.000  
> 2025 04 04 10 16 55.0020000  0  9                     
G05  21597412.287   113495189.213       -1359.912          46.000    21597412.353    88437797.706       -1059.319          35.000  
G06  24286886.251   127628472.939       -2551.038          41.000    24286900.650    99450801.149       -1987.891          41.000  
G12  23524576.837   123622514.059       -3377.021          41.000    23524583.472    96329232.650       -2631.593          38.000  
G11  22790047.548   119762504.838       -1720.251          42.000    22790049.079    93321441.701       -1340.470          43.000  
G19  24239178.398   127377769.163       -4782.505          37.000                                                                  
G20  22108653.388   116181774.221       -2927.202          45.000                                                                  
G13  22222785.879   116781517.292        1374.571          35.000                                                                  
G25  24144693.451   126881236.081       -2028.862          41.000    24144712.558    98868553.435       -1581.251          32.000  
G29  24848397.236   130579225.847        2035.331          43.000    24848398.548   101750028.352        1585.789          35.000  
> 2025 04 04 10 16 56.0020000  0  9                     
G05  21597671.129   113496549.228       -1360.750          46.000    21597671.163    88438857.449       -1059.774          36.000  
G06  24287371.696   127631024.200       -2551.129          41.000    24287386.136    99452789.137       -1987.830          40.000  
G12  23525219.526   123625891.081       -3377.287          41.000    23525226.023    96331864.071       -2632.147          37.000  
G11  22790374.871   119764224.919       -1720.142          42.000    22790376.389    93322781.994       -1340.298          43.000  
G19  24240088.292   127382551.607       -4782.703          35.000                                                                  
G20  22109210.349   116184701.172       -2926.910          45.000                                                                  
G13  22222524.161   116780143.280        1373.726          33.000                                                                  
G25  24145079.394   126883264.856       -2029.174          41.000    24145098.621    98870134.306       -1581.373          32.000  
G29  24848009.945   130577190.736        2034.792          43.000    24848011.426   101748442.522        1585.784          36.000  
> 2025 04 04 10 16 57.0020000  0  9                     
G05  21597930.139   113497910.511       -1360.267          48.000    21597930.150    88439918.177       -1059.949          36.000  
G06  24287857.288   127633576.467       -2551.373          41.000    24287871.762    99454777.906       -1987.878          41.000  
G12  23525862.477   123629269.327       -3377.449          42.000    23525868.959    96334496.461       -2631.676          36.000  
G11  22790702.311   119765946.025       -1719.981          42.000    22790703.882    93324123.129       -1340.350          43.000  
G19  24240998.546   127387335.281       -4782.971          35.000                                                                  
G20  22109767.590   116187629.184       -2927.188          46.000                                                                  
G13  22222263.177   116778770.111        1373.632          36.000                                                                  
G25  24145465.696   126885295.008       -2029.706          42.000    24145485.075    98871716.233       -1581.564          33.000  
G29  24847622.718   130575156.669        2034.762          43.000    24847624.503   101746857.527        1585.470          36.000  
> 2025 04 04 10 16 58.0020000  0  9                     
G05  21598188.576   113499269.179       -1358.103          47.000    21598188.787    88440976.923       -1058.230          36.000  
G06  24288342.394   127636125.818       -2548.914          41.000    24288356.906    99456764.403       -1985.834          41.000  
G12  23526505.022   123632644.876       -3376.049          42.000    23526511.302    96337126.751       -2629.354          36.000  
G11  22791029.384   119767664.181       -1717.522          42.000    22791030.780    93325461.957       -1338.430          42.000  
G19  24241908.160   127392116.112       -4779.875          36.000                                                                  
G20  22110324.191   116190554.247       -2924.286          46.000                                                                  
G13  22222001.344   116777394.537        1375.983          34.000                                                                  
G25  24145851.543   126887322.564       -2026.982          42.000    24145870.941    98873296.144       -1580.223          33.000  
G29  24847235.184   130573119.622        2037.619          44.000    24847236.964   101745270.225        1587.922          36.000  
> 2025 04 04 10 16 59.0020000  0  9                     
G05  21598447.072   113500627.501       -1358.456          47.000    21598447.250    88442035.382       -1058.809          36.000  
G06  24288827.338   127638674.573       -2548.755          41.000    24288841.900    99458750.411       -1985.962          41.000  
G12  23527147.465   123636020.017       -3375.400          42.000    23527153.531    96339756.718       -2630.314          38.000  
G11  22791356.180   119769381.726       -1717.456          43.000    22791357.533    93326800.329       -1338.812          42.000  
G19  24242817.804   127396896.881       -4782.876          29.000                                                                  
G20  22110880.631   116193478.793       -2924.756          45.000                                                                  
G13  22221739.679   116776018.628        1376.276          34.000                                                                  
G25  24146237.357   126889349.894       -2027.583          42.000    24146256.593    98874875.860       -1579.583          33.000  
G29  24846847.385   130571082.029        2037.294          44.000    24846849.312   101743682.475        1587.306          36.000  
> 2025 04 04 10 17 00.0020000  0 10                     
G05  21598705.571   113501985.799       -1357.953          45.000    21598705.694    88443093.789       -1058.004          36.000  
G06  24289312.346   127641223.006       -2547.986          40.000    24289326.849    99460736.261       -1985.047          40.000  
G12  23527789.819   123639395.043       -3374.409          41.000    23527795.760    96342386.611       -2629.242          36.000  
G11  22791682.919   119771098.965       -1716.845          43.000    22791684.218    93328138.418       -1337.759          42.000  
G19  24243727.586   127401677.088       -4779.360          28.000                                                                  
G20  22111437.161   116196403.000       -2923.701          46.000                                                                  
G13  22221477.819   116774642.599        1376.560          40.000                                                                  
G30  26506264.154                        -362.281          26.000                                                                  
G25  24146623.129   126891377.249       -2027.156          39.000    24146642.353    98876455.635       -1579.744          32.000  
G29  24846459.554   130569044.102        2038.496          42.000    24846461.694   101742094.518        1588.636          36.000  
> 2025 04 04 10 17 01.0020000  0  9                     
G05  21598963.917   113503343.794       -1358.111          47.000    21598964.081    88444151.992       -1057.958          34.000  
G06  24289797.163   127643770.802       -2547.601          41.000    24289811.706    99462721.575       -1985.047          40.000  
G12  23528432.066   123642769.621       -3374.178          41.000    23528437.953    96345016.104       -2629.127          38.000  
G11  22792009.559   119772815.574       -1716.626          42.000    22792010.839    93329476.005       -1337.384          42.000  
G19  24244636.966   127406456.857       -4779.596          29.000                                                                  
G20  22111993.531   116199326.634       -2923.524          46.000                                                                  
G13  22221215.817   116773266.234        1376.094          38.000                                                                  
G25  24147008.861   126893404.373       -2027.132          37.000    24147028.206    98878035.201       -1579.892          31.000  
G29  24846071.641   130567005.547        2038.834          42.000    24846073.816   101740506.039        1588.344          34.000  
> 2025 04 04 10 17 02.0020000  0  9                     
G05  21599222.236   113504701.442       -1357.890          46.000    21599222.439    88445209.900       -1057.954          37.000  
G06  24290281.874   127646318.100       -2547.101          42.000    24290296.388    99464706.399       -1984.796          40.000  
G12  23529074.279   123646143.960       -3374.664          32.000    23529080.053    96347645.547       -2630.225          33.000  
G11  22792336.166   119774531.597       -1716.000          42.000    22792337.346    93330813.196       -1337.219          43.000  
G19  24245546.301   127411236.287       -4779.343          34.000                                                                  
G20  22112549.678   116202249.677       -2922.864          45.000                                                                  
G13  22220953.601   116771889.497        1376.818          37.000                                                                  
G25  24147394.548   126895431.309       -2027.434          42.000    24147413.965    98879614.624       -1580.438          31.000  
G29  24845683.608   130564966.434        2039.280          42.000    24845685.845   101738917.125        1588.613          34.000  
> 2025 04 04 10 17 03.0020000  0  9                     
G05  21599480.676   113506059.383       -1357.964          46.000    21599480.840    88446268.013       -1058.317          36.000  
G06  24290766.647   127648865.373       -2547.711          42.000    24290781.100    99466691.311       -1984.888          39.000  
G12  23529716.510   123649518.295       -3374.769          44.000    23529722.413    96350274.854       -2629.590          39.000  
G11  22792662.669   119776247.593       -1716.306          43.000    22792663.885    93332150.305       -1337.112          42.000  
G19  24246458.473   127415999.0943      -4779.917          30.000                                                                  
G20  22113105.822   116205172.748       -2923.210          45.000                                                                  
G13  22220691.502   116770513.108        1376.206          37.000                                                                  
G25  24147780.260   126897458.532       -2027.563          40.000    24147799.578    98881194.254       -1578.872          30.000  
G29  24845295.579   130562927.342        2038.885          42.000    24845297.918   101737328.172        1589.944          35.000  
> 2025 04 04 10 17 04.0020000  0  9                     
G05  21599739.053   113507417.459       -1358.075          46.000    21599739.299    88447326.268       -1058.311          35.000  
G06  24291251.357   127651412.394       -2546.454          41.000    24291265.777    99468676.037       -1984.424          40.000  
G12  23530358.666   123652892.737       -3374.275          42.000    23530364.418    96352904.275       -2629.337          40.000  
G11  22792989.155   119777963.402       -1715.843          43.000    22792990.394    93333487.320       -1337.102          42.000  
G19  24247369.818   127420787.5732      -4779.119          29.000                                                                  
G20  22113661.940   116208095.657       -2922.815          46.000                                                                  
G13  22220429.502   116769136.778        1375.951          34.000                                                                  
G25  24148166.015   126899485.943       -2027.829          41.000    24148185.414    98882774.087       -1579.697          32.000  
G29  24844907.547   130560888.046        2038.911          43.000    24844909.953   101735739.146        1589.323          34.000  
> 2025 04 04 10 17 05.0020000  0  9                     
G05  21599997.486   113508775.698       -1358.527          46.000    21599997.711    88448384.625       -1058.203          35.000  
G06  24291736.096   127653959.381       -2547.418          41.000    24291750.468    99470660.693       -1984.918          40.000  
G12  23531000.810   123656267.266       -3374.985          41.000    23531006.436    96355533.776       -2629.801          38.000  
G11  22793315.688   119779679.102       -1715.862          43.000    22793316.889    93334824.242       -1337.211          42.000  
G19  24248276.909   127425567.3422      -4780.199          36.000                                                                  
G20  22114218.140   116211018.498       -2923.069          45.000                                                                  
G13  22220167.439   116767760.442        1376.087          34.000                                                                  
G25  24148551.870   126901513.550       -2027.653          41.000    24148571.346    98884354.064       -1580.078          32.000  
G29  24844519.493   130558848.644        2039.003          42.000    24844521.993   101734150.025        1588.888          35.000  
> 2025 04 04 10 17 06.0020000  0  9                     
G05  21600256.006   113510134.183       -1358.555          46.000    21600256.202    88449443.207       -1058.735          35.000  
G06  24292220.750   127656506.332       -2546.729          41.000    24292235.014    99472645.281       -1984.174          40.000  
G12  23531643.029   123659641.966       -3374.719          42.000    23531648.514    96358163.422       -2629.730          39.000  
G11  22793642.238   119781394.769       -1715.829          43.000    22793643.506    93336161.106       -1336.969          43.000  
G19  24249185.638   127430347.1482      -4780.005          35.000                                                                  
G20  22114774.323   116213941.300       -2922.905          45.000                                                                  
G13  22219905.375   116766384.490        1375.857          39.000                                                                  
G25  24148937.628   126903541.550       -2028.010          41.000    24148957.176    98885934.306       -1581.058          31.000  
G29  24844131.413   130556809.183        2039.380          42.000    24844133.923   101732560.846        1589.076          34.000  
> 2025 04 04 10 17 07.0020000  0  9                     
G05  21600514.556   113511492.953       -1358.670          46.000    21600514.730    88450501.961       -1058.358          35.000  
G06  24292705.383   127659053.277       -2546.252          41.000    24292719.504    99474629.907       -1984.155          39.000  
G12  23532285.316   123663016.854       -3374.539          43.000    23532290.620    96360793.200       -2629.513          38.000  
G11  22793968.786   119783110.423       -1715.586          43.000    22793969.965    93337497.962       -1336.523          43.000  
G19  24250098.291   127435127.163       -4780.664          36.000                                                                  
G20  22115330.569   116216864.121       -2922.797          45.000                                                                  
G13  22219643.506   116765008.733        1375.952          38.000                                                                  
G25  24149323.600   126905569.868       -2028.356          41.000    24149343.440    98887514.841       -1581.280          32.000  
G29  24843743.356   130554769.791        2039.316          42.000    24843745.872   101730971.717        1589.183          34.000  
> 2025 04 04 10 17 08.0020000  0  9                     
G05  21600773.240   113512852.060       -1359.297          46.000    21600773.416    88451561.030       -1059.198          35.000  
G06  24293190.101   127661600.283       -2546.960          41.000    24293204.013    99476614.542       -1984.705          39.000  
G12  23532927.668   123666392.011       -3375.251          43.000    23532932.909    96363423.197       -2629.934          39.000  
G11  22794295.360   119784826.097       -1715.779          42.000    22794296.619    93338834.894       -1336.957          40.000  
G19  24251005.804   127439907.338       -4780.605          35.000                                                                  
G20  22115886.649   116219787.007       -2923.030          44.000                                                                  
G13  22219381.692   116763633.302        1375.162          38.000                                                                  
G25  24149709.688   126907598.610       -2029.043          41.000    24149729.373    98889095.577       -1580.694          32.000  
G29  24843355.351   130552730.423        2039.129          43.000    24843357.891   101729382.626        1588.646          35.000  
> 2025 04 04 10 17 09.0020000  0  9                     
G05  21601031.937   113514211.527       -1359.805          46.000    21601032.130    88452620.327       -1059.116          36.000  
G06  24293674.826   127664147.324       -2547.900          37.000    24293688.614    99478599.230       -1981.805          33.000  
G12  23533570.094   123669767.437       -3375.264          43.000    23533575.282    96366053.418       -2630.635          38.000  
G11  22794621.850   119786541.852       -1715.324          43.000    22794623.101    93340171.858       -1337.216          44.000  
G19  24251914.918   127444687.732       -4780.346          35.000                                                                  
G20  22116442.823   116222709.983       -2923.027          45.000                                                                  
G13  22219119.881   116762258.195        1374.381          38.000                                                                  
G25  24150095.808   126909627.753       -2029.234          41.000    24150115.578    98890676.746       -1580.793          31.000  
G29  24842967.340   130550691.139        2039.334          43.000    24842969.940   101727793.535        1589.216          34.000  
> 2025 04 04 10 17 10.0020000  0  9                     
G05  21601290.596   113515571.355       -1359.966          46.000    21601291.002    88453680.020       -1060.287          36.000  
G06  24294159.616   127666694.548       -2547.937          41.000    24294173.219    99480584.107       -1983.832          39.000  
G12  23534212.479   123673143.196       -3375.949          43.000    23534217.490    96368683.859       -2630.599          38.000  
G11  22794948.370   119788257.707       -1715.563          44.000    22794949.561    93341508.849       -1336.820          43.000  
G19  24252824.358   127449468.618       -4783.211          27.000                                                                  
G20  22116998.963   116225633.092       -2923.086          45.000                                                                  
G13  22218858.184   116760883.475        1374.367          38.000                                                                  
G25  24150482.042   126911657.395       -2030.250          41.000    24150501.801    98892258.255       -1581.467          32.000  
G29  24842579.254   130548651.973        2038.995          43.000    24842581.879   101726204.578        1588.778          34.000  
> 2025 04 04 10 17 11.0020000  0  9                     
G05  21601549.266   113516931.509       -1360.263          46.000    21601549.793    88454739.843       -1059.530          35.000  
G06  24294644.441   127669241.759       -2547.241          41.000    24294657.820    99482568.987       -1985.266          39.000  
G12  23534854.962   123676519.159       -3375.983          43.000    23534859.827    96371314.502       -2630.824          38.000  
G11  22795274.878   119789973.599       -1715.922          43.000    22795275.974    93342845.897       -1336.928          43.000  
G19  24253734.052   127454249.386       -4781.134          32.000                                                                  
G20  22117555.300   116228556.243       -2922.997          45.000                                                                  
G13  22218596.383   116759509.019        1374.262          38.000                                                                  
G25  24150868.423   126913687.392       -2030.244          41.000    24150888.248    98893840.097       -1581.806          32.000  
G29  24842191.199   130546612.831        2039.204          43.000    24842193.961   101724615.646        1588.584          35.000  
> 2025 04 04 10 17 12.0020000  0  9                     
G05  21601808.114   113518292.269       -1361.189          46.000    21601808.722    88455800.162       -1060.245          35.000  
G06  24295129.290   127671789.297       -2547.693          41.000    24295142.712    99484554.080       -1985.608          40.000  
G12  23535497.608   123679895.660       -3376.405          43.000    23535502.382    96373945.493       -2631.397          38.000  
G11  22795601.482   119791689.792       -1716.425          43.000    22795602.670    93344183.192       -1337.443          43.000  
G19  24254643.827   127459030.821       -4781.134          32.000                                                                  
G20  22118111.642   116231479.769       -2923.806          45.000                                                                  
G13  22218334.775   116758135.123        1373.432          38.000                                                                  
G25  24151254.838   126915718.086       -2031.318          41.000    24151274.859    98895422.457       -1582.321          31.000  
G29  24841803.305   130544574.029        2038.744          43.000    24841805.987   101723026.929        1588.198          35.000  
> 2025 04 04 10 17 13.0020000  0  9                     
G05  21602067.189   113519653.490       -1361.725          46.000    21602067.837    88456860.853       -1060.886          36.000  
G06  24295614.148   127674337.024       -2547.675          42.000    24295627.496    99486539.344       -1985.645          40.000  
G12  23536140.082   123683272.577       -3376.897          43.000    23536145.078    96376576.873       -2631.765          38.000  
G11  22795928.190   119793406.173       -1716.514          43.000    22795929.221    93345520.656       -1337.850          42.000  
G19  24255553.398   127463812.610       -4781.900          33.000                                                                  
G20  22118668.102   116234403.479       -2923.915          45.000                                                                  
G13  22218073.384   116756761.650        1372.934          37.000                                                                  
G25  24151641.442   126917749.306       -2031.668          41.000    24151661.456    98897005.230       -1583.065          32.000  
G29  24841415.329   130542535.414        2038.564          43.000    24841418.159   101721438.376        1589.110          35.000  
> 2025 04 04 10 17 14.0020000  0  9                     
G05  21602326.275   113521015.100       -1361.795          46.000    21602326.884    88457921.884       -1061.292          35.000  
G06  24296099.046   127676884.901       -2547.864          41.000    24296112.427    99488524.658       -1985.388          40.000  
G12  23536782.879   123686649.794       -3377.620          42.000    23536787.785    96379208.469       -2631.721          39.000  
G11  22796254.777   119795122.671       -1716.766          43.000    22796255.820    93346858.169       -1337.723          42.000  
G19  24256463.223   127468594.609       -4782.320          33.000                                                                  
G20  22119224.539   116237327.319       -2923.851          45.000                                                                  
G13  22217812.036   116755388.609        1372.875          35.000                                                                  
G25  24152027.960   126919780.983       -2031.872          41.000    24152048.260    98898588.388       -1584.260          31.000  
G29  24841027.490   130540496.948        2038.186          42.000    24841030.347   101719849.982        1588.622          35.000  
> 2025 04 04 10 17 15.0020000  0  9                     
G05  21602585.420   113522377.410       -1358.373          45.000    21602586.172    88458983.415       -1058.226          35.000  
G06  24296583.890   127679433.185       -2544.360          42.000    24296597.385    99490510.337       -1982.269          40.000  
G12  23537425.775   123690027.639       -3374.099          43.000    23537430.567    96381840.546       -2628.896          39.000  
G11  22796581.517   119796839.577       -1712.621          43.000    22796582.535    93348196.018       -1334.405          42.000  
G19  24257373.543                       -4782.893          26.000                                                                  
G20  22119781.039   116240251.613       -2920.233          45.000                                                                  
G13  22217550.933   116754016.220        1376.505          38.000                                                                  
G25  24152414.757   126921813.448       -2028.595          41.000    24152435.184                       -1584.668          31.000  
G29  24840639.713   130538458.887        2042.234          42.000    24840642.558   101718261.942        1590.886          34.000  
> 2025 04 04 10 17 16.0020000  0  9                     
G05  21602844.513   113523738.924       -1361.635          45.000    21602845.237    88460044.381       -1061.441          35.000  
G06  24297068.644   127681980.377       -2547.107          41.000    24297082.239    99492495.143       -1984.595          40.000  
G12  23538068.452   123693404.554       -3377.052          43.000    23538073.078    96384471.902       -2630.919          39.000  
G11  22796907.978   119798555.381       -1715.872          43.000    22796909.123    93349533.018       -1337.161          42.000  
G19  24258283.931                       -4782.965          25.000                                                                  
G20  22120337.229   116243174.820       -2923.180          45.000                                                                  
G13  22217289.619   116752643.011        1373.046          37.000                                                                  
G25  24152801.359   126923845.179       -2032.040          41.000    24152821.962    98901768.2711      -1582.467          31.000  
G29  24840251.654   130536419.751        2039.333          42.000    24840254.528   101716672.938        1588.704          35.000  
> 2025 04 04 10 17 17.0020000  0  9                     
G05  21603103.589   113525100.559       -1361.754          45.000    21603104.171    88461105.364       -1061.014          35.000  
G06  24297553.339   127684527.415       -2546.869          41.000    24297566.959    99494479.843       -1984.625          39.000  
G12  23538711.152   123696781.544       -3377.079          43.000    23538715.706    96387103.309       -2631.263          38.000  
G11  22797234.407   119800271.003       -1715.733          44.000    22797235.535    93350869.842       -1336.828          42.000  
G19  24259191.189   127482909.3313      -4781.904          27.000                                                                  
G20  22120893.473   116246097.893       -2923.284          45.000                                                                  
G13  22217028.258   116751269.974        1372.239          36.000                                                                  
G25  24153188.084   126925877.094       -2032.351          41.000    24153208.656    98903351.605       -1583.380          31.000  
G29  24839863.636   130534380.427        2039.307          42.000    24839866.379   101715083.860        1589.011          34.000  
> 2025 04 04 10 17 18.0020000  0 10                     
G05  21603362.709   113526462.695       -1362.631          45.000    21603363.355    88462166.775       -1062.010          35.000  
G06  24298038.074   127687074.700       -2548.199          41.000    24298051.612    99496464.720       -1985.181          39.000  
G12  23539353.869   123700158.930       -3377.933          43.000    23539358.385    96389735.049       -2631.827          39.000  
G11  22797560.884   119801986.844       -1716.070          44.000    22797562.018    93352206.870       -1337.222          42.000  
G19  24260098.940   127487691.3032      -4781.891          27.000                                                                  
G20  22121449.763   116249021.191       -2923.695          45.000                                                                  
G13  22216767.049   116749897.289        1372.338          39.000                                                                  
G30  26507192.332                        -352.789          26.000                                                                  
G25  24153574.886   126927909.553       -2032.759          41.000    24153595.430    98904935.298       -1583.518          31.000  
G29  24839475.601   130532341.360        2038.678          42.000    24839478.260   101713494.981        1588.601          35.000  
> 2025 04 04 10 17 19.0030000  0  9                     
G05  21603622.287   113527826.719       -1362.634          45.000    21603622.905    88463229.636       -1061.292          35.000  
G06  24298523.417   127689624.689       -2547.426          43.000    24298536.917    99498451.763       -1984.672          41.000  
G12  23539997.283   123703540.148       -3378.030          43.000    23540001.849    96392369.770       -2632.044          38.000  
G11  22797887.847   119803704.614       -1715.780          44.000    22797888.925    93353545.395       -1337.128          42.000  
G19  24261009.645   127492477.9471      -4780.956          25.000                                                                  
G20  22122006.738   116251947.648       -2923.500          45.000                                                                  
G13  22216505.727   116748523.738        1372.137          38.000                                                                  
G25  24153962.238   126929944.647       -2033.076          41.000    24153982.822    98906521.153       -1585.295          31.000  
G29  24839087.192   130530300.451        2039.044          42.000    24839090.067   101711904.696        1588.153          35.000  
> 2025 04 04 10 17 20.0030000  0  9                     
G05  21603881.567   113529189.477       -1362.921          45.000    21603882.332    88464291.473       -1060.706          35.000  
G06  24299008.265   127692172.018       -2546.780          42.000    24299021.662    99500436.660       -1985.006          41.000  
G12  23540640.073   123706917.973       -3377.743          43.000    23540644.537    96395001.827       -2631.656          38.000  
G11  22798214.387   119805420.482       -1715.335          44.000    22798215.440    93354882.439       -1336.903          42.000  
G19  24261922.733   127497260.447       -4782.539          32.000                                                                  
G20  22122563.109   116254871.035       -2923.271          45.000                                                                  
G13  22216244.492   116747151.650        1371.812          34.000                                                                  
G25  24154349.200   126931977.878       -2032.888          41.000    24154369.591    98908105.425       -1584.599          32.000  
G29  24838699.169   130528261.438        2038.940          42.000    24838702.017   101710315.804        1589.423          35.000  
> 2025 04 04 10 17 21.0030000  0  9                     
G05  21604140.961   113530552.388       -1363.434          45.000    21604141.587    88465353.542       -1061.871          35.000  
G06  24299493.000   127694719.205       -2547.911          41.000    24299506.306    99502421.498       -1984.599          39.000  
G12  23541282.925   123710295.881       -3377.794          42.000    23541287.375    96397633.983       -2632.368          38.000  
G11  22798541.015   119807136.211       -1715.948          44.000    22798541.894    93356219.323       -1336.300          43.000  
G19  24262830.875   127502043.073       -4782.972          36.000                                                                  
G20  22123119.375   116257794.304       -2923.292          45.000                                                                  
G13  22215983.543   116745779.619        1371.697          30.000                                                                  
G25  24154736.135   126934011.352       -2034.120          42.000    24154756.599    98909690.050       -1586.049          31.000  
G29  24838311.132   130526222.249        2039.429          43.000    24838313.966   101708726.871        1588.794          35.000  
> 2025 04 04 10 17 22.0030000  0  9                     
G05  21604400.363   113531915.702       -1363.416          45.000    21604400.941    88466415.924       -1063.104          35.000  
G06  24299977.848   127697266.508       -2547.316          40.000    24299991.179    99504406.486       -1985.633          35.000  
G12  23541925.779   123713674.126       -3378.407          42.000    23541930.315    96400266.389       -2632.908          38.000  
G11  22798867.623   119808852.112       -1716.209          43.000    22798868.554    93357556.426       -1337.322          42.000  
G19  24263745.416   127506825.785       -4783.299          35.000                                                                  
G20  22123675.737   116260717.728       -2923.914          45.000                                                                  
G13  22215723.062   116744408.172        1370.554          33.000                                                                  
G25  24155123.273   126936045.277       -2034.140          42.000    24155143.640    98911274.901       -1585.477          31.000  
G29  24837923.101   130524183.259        2038.373          43.000    24837925.883   101707138.003        1589.057          35.000  
> 2025 04 04 10 17 23.0030000  0 10                     
G05  21604659.914   113533279.648       -1363.940          46.000    21604660.492    88467478.714       -1063.171          36.000  
G06  24300462.799   127699814.185       -2548.059          43.000    24300475.923    99506391.563       -1985.659          39.000  
G12  23542568.691   123717052.927       -3379.043          43.000    23542573.180    96402899.233       -2633.388          38.000  
G11  22799194.287   119810568.401       -1716.643          37.000    22799195.258    93358893.828       -1337.850          39.000  
G19  24264655.778   127511609.041       -4783.638          35.000                                                                  
G20  22124232.128   116263641.472       -2923.698          46.000                                                                  
G13  22215462.167   116743037.405        1370.259          29.000                                                                  
G30  26507194.897                        -370.302          26.000                                                                  
G25  24155510.517   126938079.951       -2035.287          42.000    24155530.865    98912860.262       -1586.080          32.000  
G29  24837535.101   130522144.578        2038.837          41.000    24837538.001   101705549.417        1588.519          34.000  
> 2025 04 04 10 17 24.0030000  0  9                     
G05  21604919.574   113534644.207       -1365.088          45.000    21604920.179    88468542.017       -1064.087          36.000  
G06  24300947.736   127702362.202       -2548.290          43.000    24300960.833    99508377.024       -1986.507          40.000  
G12  23543211.862   123720432.273       -3380.319          43.000    23543216.202    96405532.429       -2633.702          40.000  
G11  22799520.993   119812284.768       -1716.592          45.000    22799522.042    93360231.115       -1337.494          39.000  
G19  24265566.787   127516392.947       -4784.310          35.000                                                                  
G20  22124788.630   116266565.618       -2924.415          42.000                                                                  
G13  22215201.581   116741666.878        1369.460          35.000                                                                  
G25  24155897.837   126940115.231       -2035.970          42.000    24155917.986    98914446.250       -1587.432          32.000  
G29  24837147.083   130520106.214        2038.184          40.000    24837150.208   101703961.133        1587.433          35.000  
> 2025 04 04 10 17 25.0030000  0  9                     
G05  21605179.305   113536009.183       -1365.015          45.000    21605179.916    88469605.605       -1064.050          36.000  
G06  24301432.638   127704910.325       -2548.447          42.000    24301445.779    99510362.585       -1985.355          39.000  
G12  23543855.042   123723811.888       -3379.384          43.000    23543859.427    96408165.939       -2633.853          39.000  
G11  22799847.654   119814001.474       -1716.949          45.000    22799848.719    93361568.861       -1337.696          44.000  
G19  24266477.321   127521177.020       -4784.880          33.000                                                                  
G20  22125345.175   116269489.842       -2924.359          45.000                                                                  
G13  22214940.735   116740296.906        1369.381          36.000                                                                  
G25  24156285.234   126942151.032       -2035.911          41.000    24156305.369    98916032.575       -1587.488          32.000  
G29  24836759.220   130518068.013        2038.031          42.000    24836762.394   101702372.949        1588.141          35.000  
> 2025 04 04 10 17 26.0030000  0  9                     
G05  21605439.010   113537374.349       -1365.167          45.000    21605439.732    88470669.385       -1063.910          37.000  
G06  24301917.681   127707458.373       -2548.218          43.000    24301930.627    99512348.087       -1985.731          39.000  
G12  23544498.262   123727191.680       -3380.375          42.000    23544502.638    96410799.525       -2633.654          40.000  
G11  22800174.347   119815717.999       -1716.706          43.000    22800175.401    93362906.463       -1337.864          43.000  
G19  24267387.173   127525961.195       -4784.441          33.000                                                                  
G20  22125901.690   116272414.064       -2924.314          46.000                                                                  
G13  22214680.005   116738927.096        1369.329          36.000                                                                  
G25  24156672.674   126944187.092       -2036.192          41.000    24156692.727    98917619.119       -1587.054          33.000  
G29  24836371.320   130516029.745        2038.129          42.000    24836374.524   101700784.678        1588.776          35.000  
> 2025 04 04 10 17 27.0030000  0  9                     
G05  21605698.754   113538739.954       -1365.765          45.000    21605699.650    88471733.461       -1064.050          36.000  
G06  24302402.689   127710006.566       -2548.268          43.000    24302415.646    99514333.676       -1985.781          39.000  
G12  23545141.464   123730571.771       -3380.476          43.000    23545145.975    96413433.368       -2634.005          40.000  
G11  22800501.096   119817434.694       -1717.007          42.000    22800502.107    93364244.128       -1337.770          43.000  
G19  24268297.734   127530745.699       -4784.080          33.000                                                                  
G20  22126458.194   116275338.420       -2924.392          46.000                                                                  
G13  22214419.333   116737557.658        1369.365          36.000                                                                  
G25  24157060.163   126946223.687       -2036.694          42.000    24157080.326    98919206.045       -1587.086          31.000  
G29  24835983.514   130513991.624        2037.952          42.000    24835986.796   101699196.518        1588.190          34.000  
> 2025 04 04 10 17 28.0030000  0  9                     
G05  21605958.661   113540106.089       -1366.321          45.000    21605959.701    88472797.990       -1064.655          36.000  
G06  24302887.627   127712555.034       -2548.537          43.000    24302900.530    99516319.487       -1985.903          40.000  
G12  23545784.877   123733952.356       -3380.521          43.000    23545789.309    96416067.581       -2634.043          39.000  
G11  22800827.833   119819151.624       -1716.861          43.000    22800828.842    93365582.013       -1337.992          43.000  
G19  24269208.150   127535530.653       -4785.375          32.000                                                                  
G20  22127014.766   116278263.077       -2924.804          46.000                                                                  
G13  22214158.798   116736188.801        1368.912          36.000                                                                  
G25  24157447.872   126948260.866       -2037.313          42.000    24157467.955    98920793.499       -1588.589          31.000  
G29  24835595.646   130511953.756        2038.055          43.000    24835599.059   101697608.587        1588.116          34.000  
> 2025 04 04 10 17 29.0030000  0  9                     
G05  21606218.720   113541472.580       -1366.498          45.000    21606219.666    88473862.806       -1064.648          36.000  
G06  24303372.728   127715103.571       -2548.457          43.000    24303385.626    99518305.349       -1985.595          40.000  
G12  23546428.269   123737333.200       -3380.757          43.000    23546432.625    96418702.006       -2634.416          39.000  
G11  22801154.594   119820868.664       -1717.010          43.000    22801155.616    93366919.926       -1337.866          43.000  
G19  24270118.599   127540315.799       -4784.854          32.000                                                                  
G20  22127571.335   116281187.812       -2924.667          46.000                                                                  
G13  22213898.363   116734820.269        1368.560          36.000                                                                  
G25  24157835.741   126950298.460       -2037.494          42.000    24157855.664    98922381.186       -1588.127          30.000  
G29  24835207.881   130509915.998        2037.860          43.000    24835211.299   101696020.728        1587.787          35.000  
> 2025 04 04 10 17 30.0030000  0  9                     
G05  21606478.640   113542839.368       -1367.188          45.000    21606479.790    88474927.836       -1065.460          36.000  
G06  24303857.881   127717652.168       -2548.933          43.000    24303870.504    99520291.275       -1985.893          40.000  
G12  23547071.740   123740714.295       -3381.262          43.000    23547076.078    96421336.606       -2634.439          39.000  
G11  22801481.386   119822585.671       -1717.186          44.000    22801482.357    93368257.872       -1338.162          43.000  
G19  24271029.171   127545101.115       -4785.517          33.000                                                                  
G20  22128128.056   116284112.589       -2924.769          45.000                                                                  
G13  22213637.901   116733451.996        1368.480          36.000                                                                  
G25  24158223.615   126952336.419       -2038.175          41.000    24158243.502    98923969.254       -1588.427          31.000  
G29  24834820.157   130507878.273        2037.585          40.000    24834823.621   101694432.881        1587.988          35.000  
> 2025 04 04 10 17 31.0030000  0  9                     
G05  21606738.787   113544206.681       -1367.725          45.000    21606739.907    88475993.228       -1064.984          36.000  
G06  24304342.897   127720200.956       -2548.436          43.000    24304355.490    99522277.315       -1985.900          39.000  
G12  23547715.190   123744095.754       -3380.986          43.000    23547719.542    96423971.555       -2635.027          39.000  
G11  22801808.012   119824302.901       -1716.814          44.000    22801809.196    93369595.952       -1337.950          43.000  
G19  24271939.799   127549886.850       -4785.422          33.000                                                                  
G20  22128684.649   116287037.674       -2924.680          44.000                                                                  
G13  22213377.466   116732084.246        1368.010          36.000                                                                  
G25  24158611.603   126954374.973       -2038.573          42.000    24158631.475    98925557.705       -1587.666          31.000  
G29  24834432.440   130505840.786        2037.598          42.000    24834435.924   101692845.188        1587.915          35.000  
> 2025 04 04 10 17 32.0030000  0  9                     
G05  21606998.975   113545573.662       -1367.383          45.000    21607000.043    88477058.478       -1065.704          36.000  
G06  24304827.968   127722749.215       -2548.316          43.000    24304840.367    99524262.972       -1985.768          39.000  
G12  23548358.531   123747476.913       -3381.544          43.000    23548362.946    96426606.190       -2634.874          39.000  
G11  22802134.605   119826019.590       -1716.767          44.000    22802135.850    93370933.614       -1337.697          44.000  
G19  24272850.456   127554672.175       -4784.829          32.000                                                                  
G20  22129241.120   116289962.184       -2924.656          42.000                                                                  
G13  22213117.064   116730716.139        1368.013          37.000                                                                  
G25  24158999.555   126956413.335       -2038.496          41.000    24159019.277    98927146.086       -1589.159          32.000  
G29  24834044.540   130503802.686        2038.141          43.000    24834048.059   101691257.098        1587.756          35.000  
> 2025 04 04 10 17 33.0030000  0  9                     
G05  21607259.183   113546941.022       -1367.566          45.000    21607260.215    88478123.945       -1065.674          35.000  
G06  24305313.085   127725297.522       -2548.224          43.000    24305325.256    99526248.662       -1985.646          39.000  
G12  23549001.861   123750858.327       -3381.604          43.000    23549006.409    96429241.045       -2634.902          39.000  
G11  22802461.311   119827736.322       -1716.662          44.000    22802462.630    93372271.329       -1337.528          44.000  
G19  24273761.001   127559457.821       -4786.376          33.000                                                                  
G20  22129797.665   116292886.755       -2924.693          42.000                                                                  
G13  22212856.689   116729348.422        1367.490          37.000                                                                  
G25  24159387.524   126958452.116       -2038.890          42.000    24159407.060    98928734.709       -1588.371          32.000  
G29  24833656.635   130501764.696        2038.025          43.000    24833660.289   101689669.060        1587.756          35.000  
> 2025 04 04 10 17 34.0030000  0  9                     
G05  21607519.408   113548308.486       -1367.755          45.000    21607520.454    88479189.481       -1066.138          35.000  
G06  24305798.105   127727845.680       -2547.871          43.000    24305810.097    99528234.236       -1985.445          38.000  
G12  23549645.384   123754239.741       -3381.053          43.000    23549649.826    96431875.910       -2634.600          39.000  
G11  22802787.937   119829452.874       -1716.258          45.000    22802789.325    93373608.906       -1337.304          44.000  
G19  24274671.749   127564243.352       -4785.528          32.000                                                                  
G20  22130354.185   116295811.152       -2924.338          42.000                                                                  
G13  22212596.418   116727980.749        1368.009          36.000                                                                  
G25  24159775.500   126960491.051       -2038.910          41.000    24159794.993    98930323.513       -1589.047          32.000  
G29  24833268.754   130499726.536        2038.422          43.000    24833272.431   101688080.871        1587.946          36.000  
> 2025 04 04 10 17 35.0030000  0  9                     
G05  21607779.632   113549675.662       -1367.090          45.000    21607780.726    88480254.821       -1064.990          35.000  
G06  24306282.886   127730393.279       -2547.419          43.000    24306294.842    99530219.378       -1984.769          39.000  
G12  23550288.839   123757620.844       -3381.116          43.000    23550293.288    96434510.543       -2634.659          39.000  
G11  22803114.457   119831168.895       -1716.066          45.000    22803115.951    93374946.063       -1337.188          44.000  
G19  24275582.415   127569028.533       -4784.978          31.000                                                                  
G20  22130910.510   116298735.015       -2923.695          42.000                                                                  
G13  22212336.050   116726612.825        1367.778          37.000                                                                  
G25  24160163.417   126962529.789       -2038.612          41.000    24160182.950    98931912.124       -1589.276          32.000  
G29  24832880.825   130497687.832        2038.947          43.000    24832884.482   101686492.273        1588.385          36.000  
> 2025 04 04 10 17 36.0030000  0  9                     
G05  21608039.788   113551042.909       -1366.589          45.000    21608040.967    88481320.227       -1065.289          35.000  
G06  24306767.742   127732940.663       -2546.766          43.000    24306779.637    99532204.352       -1984.739          39.000  
G12  23550932.195   123761001.897       -3380.729          43.000    23550936.626    96437145.113       -2634.158          39.000  
G11  22803440.849   119832884.642       -1715.297          44.000    22803442.528    93376283.002       -1336.376          44.000  
G19  24276492.803   127573813.631       -4784.551          31.000                                                                  
G20  22131466.857   116301658.672       -2923.123          42.000                                                                  
G13  22212075.745   116725244.880        1368.848          37.000                                                                  
G25  24160551.417   126964568.674       -2038.521          41.000    24160570.900    98933500.868       -1589.203          31.000  
G29  24832492.954   130495648.928        2039.416          43.000    24832496.524   101684903.506        1589.136          36.000  
> 2025 04 04 10 17 37.0030000  0  9                     
G05  21608299.897   113552409.593       -1365.936          45.000    21608300.959    88482385.166       -1063.941          35.000  
G06  24307252.304   127735487.199       -2545.320          43.000    24307264.213    99534188.661       -1983.450          39.000  
G12  23551575.506   123764382.312       -3379.840          43.000    23551579.839    96439779.219       -2633.613          39.000  
G11  22803767.231   119834599.556       -1714.094          45.000    22803769.044    93377619.299       -1335.534          44.000  
G19  24277403.023   127578598.116       -4783.505          32.000                                                                  
G20  22132023.144   116304581.516       -2921.984          42.000                                                                  
G13  22211815.129   116723876.433        1368.992          36.000                                                                  
G25  24160939.318   126966607.053       -2037.429          41.000    24160958.674    98935089.221       -1588.209          31.000  
G29  24832104.779   130493609.177        2040.594          43.000    24832108.466   101683314.099        1590.131          36.000  
> 2025 04 04 10 17 38.0030000  0  9                     
G05  21608559.925   113553776.003       -1365.973          45.000    21608560.926    88483449.935       -1065.271          35.000  
G06  24307736.817   127738033.192       -2545.657          43.000    24307748.707    99536172.512       -1983.552          39.000  
G12  23552218.717   123767762.340       -3379.890          43.000    23552222.994    96442413.019       -2633.745          39.000  
G11  22804093.535   119836313.928       -1714.156          45.000    22804095.428    93378955.165       -1335.381          44.000  
G19  24278313.394   127583382.172       -4783.238          32.000                                                                  
G20  22132579.258   116307503.782       -2921.835          42.000                                                                  
G13  22211554.611   116722507.537        1369.410          34.000                                                                  
G25  24161327.250   126968645.257       -2038.139          41.000    24161346.517    98936677.389       -1587.833          31.000  
G29  24831716.498   130491568.873        2040.588          43.000    24831720.236   101681724.239        1589.691          35.000  
> 2025 04 04 10 17 39.0030000  0  9                     
G05  21608819.971   113555142.247       -1366.370          45.000    21608820.862    88484514.522       -1065.045          35.000  
G06  24308221.371   127740578.722       -2545.292          43.000    24308233.193    99538156.070       -1983.784          39.000  
G12  23552861.835   123771142.137       -3379.755          43.000    23552866.140    96445046.601       -2633.535          39.000  
G11  22804419.667   119838027.807       -1714.029          45.000    22804421.497    93380290.675       -1335.465          44.000  
G19  24279223.482   127588165.931       -4783.542          33.000                                                                  
G20  22133135.264   116310425.642       -2921.878          42.000                                                                  
G13  22211294.049   116721138.630        1368.607          35.000                                                                  
G25  24161715.080   126970683.297       -2038.259          41.000    24161734.226    98938265.468       -1588.281          31.000  
G29  24831328.112   130489528.116        2040.790          43.000    24831331.884   101680134.032        1589.893          35.000  
> 2025 04 04 10 17 40.0030000  0  9                     
G05  21609080.189   113556509.411       -1369.501          45.000    21609081.012    88485579.837       -1067.505          35.000  
G06  24308705.949   127743124.908       -2548.342          43.000    24308717.796    99540140.088       -1985.867          39.000  
G12  23553505.255   123774522.777       -3383.579          43.000    23553509.483    96447680.859       -2636.241          39.000  
G11  22804745.931   119839742.355       -1717.507          45.000    22804747.772    93381626.672       -1338.130          44.000  
G19  24280133.978   127592950.552       -4787.925          33.000                                                                  
G20  22133691.467   116313348.180       -2925.805          42.000                                                                  
G13  22211033.632   116719770.553        1364.336          34.000                                                                  
G25  24162103.113   126972722.371       -2041.544          41.000    24162122.091    98939854.391       -1592.962          30.000  
G29  24830939.916   130487487.983        2037.976          43.000    24830943.671   101678544.326        1587.573          35.000  
> 2025 04 04 10 17 41.0030000  0  9                     
G05  21609340.128   113557875.142       -1365.472          45.000    21609340.809    88486644.054       -1063.727          35.000  
G06  24309190.133   127745669.408       -2544.016          43.000    24309202.023    99542122.812       -1982.130          39.000  
G12  23554148.308   123777901.883       -3378.525          42.000    23554152.517    96450313.946       -2632.724          39.000  
G11  22805071.840   119841455.137       -1712.298          45.000    22805073.781    93382961.313       -1334.206          44.000  
G19  24281044.015   127597733.526       -4782.153          32.000                                                                  
G20  22134247.160   116316268.981       -2920.444          42.000                                                                  
G13  22210772.887   116718400.977        1370.325          35.000                                                                  
G25  24162490.998   126974760.074       -2037.298          41.000    24162510.164    98941439.1711      -1587.191          30.000  
G29  24830551.454   130485446.189        2042.078          43.000    24830555.175   101676953.313        1591.419          35.000  
> 2025 04 04 10 17 42.0030000  0  9                     
G05  21609599.965   113559240.448       -1365.564          45.000    21609600.647    88487707.913       -1063.861          35.000  
G06  24309674.263   127748213.157       -2543.503          43.000    24309686.103    99544104.960       -1982.085          39.000  
G12  23554791.244   123781280.481       -3378.340          43.000    23554795.459    96452946.641       -2633.129          38.000  
G11  22805397.555   119843167.245       -1711.972          45.000    22805399.497    93384295.410       -1334.009          44.000  
G19  24281954.196   127602516.056       -4782.322          32.000                                                                  
G20  22134802.794   116319189.071       -2919.840          42.000                                                                  
G13  22210512.190   116717031.064        1368.971          35.000                                                                  
G25  24162878.803   126976797.432       -2037.633          41.000    24162897.145    98943026.714       -1588.174          30.000  
G29  24830162.872   130483403.668        2042.554          44.000    24830166.449   101675361.708        1591.956          35.000  
> 2025 04 04 10 17 43.0030000  0  9                     
G05  21609859.951   113560606.209       -1365.753          43.000    21609860.515    88488772.139       -1064.178          36.000  
G06  24310158.356   127750757.106       -2543.897          42.000    24310170.241    99546087.214       -1982.178          40.000  
G12  23555434.230   123784659.452       -3379.316          42.000    23555438.483    96455579.564       -2633.253          39.000  
G11  22805723.442   119844879.486       -1712.361          45.000    22805725.217    93385629.643       -1334.013          44.000  
G19  24282864.498   127607298.828       -4782.896          33.000                                                                  
G20  22135358.475   116322109.300       -2920.528          39.000                                                                  
G13  22210251.614   116715661.464        1368.972          36.000                                                                  
G25  24163266.557   126978835.261       -2037.938          41.000    24163283.510    98944614.655       -1587.772          30.000  
G29  24829774.243   130481361.283        2042.120          42.000    24829777.770   101673770.278        1591.962          37.000  
> 2025 04 04 10 17 44.0030000  0  9                     
G05  21610119.989   113561972.044       -1365.594          45.000    21610120.333    88489836.454       -1064.160          36.000  
G06  24310642.514   127753300.852       -2543.426          42.000    24310654.288    99548069.353       -1981.652          40.000  
G12  23556077.095   123788038.379       -3378.469          41.000    23556081.480    96458212.539       -2633.108          39.000  
G11  22806049.293   119846591.540       -1711.745          43.000    22806051.055    93386963.722       -1333.914          44.000  
G19  24283774.614   127612081.610       -4782.461          33.000                                                                  
G20  22135914.240   116325029.424       -2919.636          40.000                                                                  
G13  22209991.056   116714292.002        1369.198          36.000                                                                  
G25  24163654.485   126980873.272       -2037.672          41.000    24163671.810    98946202.756       -1588.846          30.000  
G29  24829385.590   130479318.743        2042.853          42.000    24829389.102   101672178.690        1592.114          37.000  
> 2025 04 04 10 17 45.0030000  0  9                     
G05  21610379.689   113563337.050       -1364.716          45.000    21610380.097    88490900.074       -1063.159          36.000  
G06  24311126.383   127755843.521       -2542.276          42.000    24311138.206    99550050.661       -1980.965          41.000  
G12  23556719.957   123791416.451       -3377.757          41.000    23556724.304    96460844.784       -2631.875          39.000  
G11  22806374.880   119848302.484       -1710.321          43.000    22806376.719    93388296.931       -1333.015          44.000  
G19  24284684.414   127616863.480       -4781.574          32.000                                                                  
G20  22136469.721   116327948.490       -2918.412          39.000                                                                  
G13  22209730.217   116712921.663        1370.457          36.000                                                                  
G25  24164042.119   126982910.553       -2036.854          41.000    24164059.725    98947790.171       -1586.187          30.000  
G29  24828996.580   130477275.156        2044.165          42.000    24829000.115   101670586.290        1592.871          37.000  
> 2025 04 04 10 17 46.0030000  0  9                     
G05  21610639.590   113564702.186       -1370.251          45.000    21610639.877    88491963.832       -1067.462          37.000  
G06  24311610.130   127758386.045       -2547.380          42.000    24311621.974    99552031.842       -1984.983          40.000  
G12  23557362.745   123794794.589       -3383.282          41.000    23557367.195    96463477.101       -2636.107          39.000  
G11  22806700.408   119850013.301       -1715.689          43.000    22806702.226    93389630.018       -1337.022          44.000  
G19  24285594.289   127621645.277       -4786.075          31.000                                                                  
G20  22137025.193   116330867.393       -2923.589          39.000                                                                  
G13  22209469.325   116711551.462        1365.005          36.000                                                                  
G25  24164429.713   126984948.031       -2042.229          41.000    24164448.015    98949377.858       -1591.899          30.000  
G29  24828607.643   130475231.385        2039.081          42.000    24828611.133   101668993.735        1589.410          37.000  
> 2025 04 04 10 17 47.0030000  0  9                     
G05  21610899.243   113566066.056       -1363.898          45.000    21610899.463    88493026.611       -1062.646          37.000  
G06  24312093.756   127760927.067       -2541.466          43.000    24312105.515    99554011.850       -1980.077          40.000  
G12  23558005.282   123798171.393       -3377.154          42.000    23558009.786    96466108.375       -2631.353          39.000  
G11  22807025.711   119851722.558       -1709.091          43.000    22807027.302    93390961.909       -1332.203          43.000  
G19  24286504.010   127626425.863       -4780.718          31.000                                                                  
G20  22137580.333   116333784.829       -2917.641          39.000                                                                  
G13  22209208.275   116710179.986        1371.515          36.000                                                                  
G25  24164817.121   126986984.361       -2036.805          41.000    24164835.678    98950964.569       -1586.614          30.000  
G29  24828218.355   130473186.134        2045.264          42.000    24828221.833   101667400.048        1594.073          37.000  
> 2025 04 04 10 17 48.0030000  0  9                     
G05  21611158.773   113567429.752       -1363.910          45.000    21611158.947    88494089.207       -1062.476          36.000  
G06  24312577.135   127763467.553       -2540.201          43.000    24312588.918    99555991.467       -1979.567          40.000  
G12  23558647.798   123801547.869       -3376.092          41.000    23558652.299    96468739.401       -2631.021          39.000  
G11  22807350.803   119853431.313       -1708.615          43.000    22807352.286    93392293.407       -1331.426          43.000  
G19  24287413.701   127631206.015       -4780.416          31.000                                                                  
G20  22138135.510   116336701.724       -2916.833          39.000                                                                  
G13  22208947.229   116708808.278        1371.489          36.000                                                                  
G25  24165204.595   126989020.489       -2035.866          40.000    24165223.124    98952551.184       -1586.506          30.000  
G29  24827829.058   130471140.371        2045.953          42.000    24827832.563   101665805.951        1593.927          37.000  
> 2025 04 04 10 17 49.0030000  0  9                     
G05  21611418.257   113568793.421       -1363.654          45.000    21611418.372    88495151.809       -1062.762          36.000  
G06  24313060.467   127766007.802       -2540.083          42.000    24313072.262    99557970.869       -1979.125          40.000  
G12  23559290.226   123804924.298       -3376.301          41.000    23559294.766    96471370.389       -2631.027          39.000  
G11  22807675.874   119855139.798       -1708.105          43.000    22807677.402    93393624.693       -1331.095          43.000  
G19  24288323.451   127635986.078       -4779.531          32.000                                                                  
G20  22138690.506   116339618.391       -2916.415          39.000                                                                  
G13  22208686.279   116707436.544        1372.133          36.000                                                                  
G25  24165592.146   126991056.745       -2036.186          40.000    24165610.763    98954137.895       -1586.768          30.000  
G29  24827439.718   130469094.349        2046.448          43.000    24827443.206   101664211.644        1594.611          37.000  
> 2025 04 04 10 17 50.0030000  0  9                     
G05  21611677.678   113570156.984       -1363.385          45.000    21611677.874    88496214.334       -1062.702          36.000  
G06  24313543.714   127768547.639       -2539.479          42.000    24313555.581    99559949.974       -1978.984          40.000  
G12  23559932.746   123808300.538       -3376.138          41.000    23559937.193    96474001.225       -2630.882          38.000  
G11  22808000.915   119856847.878       -1707.766          43.000    22808002.389    93394955.664       -1330.890          43.000  
G19  24289233.082   127640765.920       -4779.805          32.000                                                                  
G20  22139245.540   116342534.705       -2916.125          39.000                                                                  
G13  22208425.226   116706064.721        1372.079          36.000                                                                  
G25  24165979.667   126993092.930       -2036.165          41.000    24165998.260    98955724.503       -1586.606          29.000  
G29  24827050.241   130467047.942        2046.716          43.000    24827053.797   101662617.038        1595.062          37.000  
> 2025 04 04 10 17 51.0030000  0  9                     
G05  21611937.022   113571520.276       -1363.208          45.000    21611937.282    88497276.664       -1062.280          36.000  
G06  24314026.910   127771086.979       -2539.499          42.000    24314038.799    99561928.662       -1979.066          40.000  
G12  23560575.150   123811676.449       -3376.096          42.000    23560579.540    96476631.764       -2630.341          38.000  
G11  22808325.907   119858555.421       -1707.429          43.000    22808327.308    93396286.217       -1330.724          43.000  
G19  24290142.360   127645545.344       -4778.983          32.000                                                                  
G20  22139800.409   116345450.461       -2915.631          39.000                                                                  
G13  22208163.959   116704692.624        1371.842          35.000                                                                  
G25  24166367.120   126995128.920       -2036.169          41.000    24166385.866    98957311.002       -1586.729          29.000  
G29  24826660.733   130465001.017        2046.960          43.000    24826664.218   101661022.036        1595.123          37.000  
> 2025 04 04 10 17 52.0030000  0  9                     
G05  21612196.515   113572883.793       -1363.214          44.000    21612196.691    88498339.156       -1062.103          33.000  
G06  24314510.061   127773626.268       -2538.726          42.000    24314522.067    99563907.326       -1978.479          39.000  
G12  23561217.586   123815052.516       -3375.261          40.000    23561222.087    96479262.490       -2630.225          39.000  
G11  22808650.888   119860262.905       -1706.825          44.000    22808652.331    93397616.701       -1330.093          43.000  
G19  24291051.979   127650325.030       -4779.250          33.000                                                                  
G20  22140355.340   116348366.317       -2914.995          42.000                                                                  
G13  22207902.901   116703320.758        1372.120          35.000                                                                  
G25  24166754.653   126997165.244       -2036.045          41.000    24166773.303    98958897.685       -1585.627          28.000  
G29  24826271.226   130462954.063        2047.522          44.000    24826274.723   101659426.996        1595.752          33.000  
> 2025 04 04 10 17 53.0030000  0  9                     
G05  21612455.915   113574247.289       -1364.020          47.000    21612456.087    88499401.560       -1062.659          33.000  
G06  24314993.207   127776165.161       -2539.099          41.000    24315005.215    99565885.718       -1978.720          41.000  
G12  23561860.050   123818428.396       -3376.232          41.000    23561864.547    96481893.039       -2630.771          39.000  
G11  22808975.714   119861969.978       -1707.254          43.000    22808977.109    93398946.899       -1330.259          42.000  
G19  24291961.749   127655104.430       -4780.003          33.000                                                                  
G20  22140910.191   116351281.744       -2915.672          42.000                                                                  
G13  22207641.790   116701948.744        1372.386          30.000                                                                  
G25  24167142.159   126999201.540       -2036.820          41.000    24167160.888    98960484.358       -1586.817          29.000  
G29  24825881.610   130460906.756        2047.131          43.000    24825885.083   101657831.699        1595.367          35.000  
> 2025 04 04 10 17 54.0030000  0  9                     
G05  21612715.462   113575611.147       -1363.922          46.000    21612715.609    88500464.276       -1062.170          34.000  
G06  24315476.351   127778704.215       -2539.204          41.000    24315488.524    99567864.175       -1978.460          40.000  
G12  23562502.547   123821804.586       -3376.037          42.000    23562507.077    96484523.832       -2630.702          36.000  
G11  22809300.669   119863677.228       -1707.063          43.000    22809301.953    93400277.206       -1330.142          40.000  
G19  24292871.281   127659884.064       -4779.824          33.000                                                                  
G20  22141464.935   116354197.258       -2915.535          41.000                                                                  
G13  22207380.577   116700577.153        1372.106          30.000                                                                  
G25  24167529.660   127001238.284       -2036.751          41.000    24167548.506    98962071.426       -1586.962          29.000  
G29  24825492.029   130458859.560        2047.302          43.000    24825495.442   101656236.486        1595.331          34.000  
> 2025 04 04 10 17 55.0030000  0  9                     
G05  21612975.027   113576975.349       -1363.940          45.000    21612975.381    88501527.443       -1063.269          34.000  
G06  24315959.451   127781243.395       -2538.747          42.000    24315971.746    99569842.763       -1978.128          40.000  
G12  23563144.985   123825181.112       -3376.364          41.000    23563149.483    96487154.867       -2630.849          37.000  
G11  22809625.594   119865384.622       -1707.017          44.000    22809626.820    93401607.637       -1330.218          42.000  
G19  24293781.053   127664664.010       -4780.151          32.000                                                                  
G20  22142019.833   116357112.940       -2915.175          42.000                                                                  
G13  22207119.469   116699205.862        1372.446          33.000                                                                  
G25  24167917.377   127003275.537       -2036.374          40.000    24167936.226    98963658.989       -1587.170          29.000  
G29  24825102.463   130456812.485        2047.510          43.000    24825105.928   101654641.374        1594.830          35.000  
> 2025 04 04 10 17 56.0030000  0  9                     
G05  21613234.630   113578339.668       -1364.594          45.000    21613234.992    88502590.514       -1063.586          34.000  
G06  24316442.603   127783782.333       -2539.109          42.000    24316454.878    99571821.135       -1978.568          39.000  
G12  23563787.525   123828557.584       -3376.031          42.000    23563792.033    96489785.896       -2631.088          37.000  
G11  22809950.525   119867091.746       -1707.087          44.000    22809951.654    93402937.852       -1329.960          42.000  
G19  24294690.715   127669443.887       -4780.260          34.000                                                                  
G20  22142574.510   116360028.228       -2915.398          37.000                                                                  
G13  22206858.817   116697834.620        1371.079          36.000                                                                  
G25  24168305.099   127005312.901       -2037.330          39.000    24168323.993    98965246.531       -1587.732          29.000  
G29  24824712.911   130454765.186        2047.284          43.000    24824716.263   101653046.039        1595.783          35.000  
> 2025 04 04 10 17 57.0030000  0  9                     
G05  21613494.362   113579704.534       -1365.167          42.000    21613494.796    88503654.095       -1064.264          35.000  
G06  24316925.776   127786321.563       -2539.424          42.000    24316938.097    99573799.749       -1978.662          40.000  
G12  23564430.077   123831934.504       -3376.995          40.000    23564434.608    96492417.277       -2631.665          37.000  
G11  22810275.367   119868799.099       -1707.502          43.000    22810276.542    93404268.237       -1330.608          42.000  
G19  24295600.808   127674224.288       -4781.135          34.000                                                                  
G20  22143129.477   116362944.164       -2915.866          40.000                                                                  
G13  22206598.035   116696464.093        1368.737          33.000                                                                  
G25  24168692.936   127007350.862       -2038.379          40.000    24168712.061    98966834.498       -1587.970          28.000  
G29  24824323.414   130452718.155        2046.442          43.000    24824326.700   101651450.964        1595.642          34.000  
> 2025 04 04 10 17 58.0030000  0  9                     
G05  21613754.271   113581069.806       -1365.442          43.000    21613754.634    88504717.925       -1063.861          35.000  
G06  24317408.906   127788860.952       -2539.336          42.000    24317421.287    99575778.465       -1978.650          41.000  
G12  23565072.669   123835311.806       -3377.495          41.000    23565077.249    96495048.937       -2631.707          38.000  
G11  22810600.338   119870506.622       -1707.565          43.000    22810601.410    93405598.756       -1330.498          42.000  
G19  24296510.792   127679004.877       -4781.025          35.000                                                                  
G20  22143684.330   116365860.063       -2915.878          40.000                                                                  
G13  22206336.963   116695093.776        1370.366          36.000                                                                  
G25  24169080.852   127009389.345       -2038.785          40.000    24169100.052    98968422.942       -1588.841          28.000  
G29  24823933.981   130450671.333        2046.820          43.000    24823937.279   101649856.097        1594.513          34.000  
> 2025 04 04 10 17 59.0030000  0  9                     
G05  21614014.350   113582435.608       -1366.486          43.000    21614014.567    88505782.186       -1064.661          36.000  
G06  24317892.134   127791400.580       -2539.886          42.000    24317904.552    99577757.381       -1978.966          40.000  
G12  23565715.429   123838689.525       -3378.501          41.000    23565720.024    96497680.908       -2632.433          38.000  
G11  22810925.324   119872214.353       -1708.120          44.000    22810926.441    93406929.471       -1330.929          42.000  
G19  24297420.455   127683785.886       -4781.050          35.000                                                                  
G20  22144239.302   116368776.203       -2916.595          40.000                                                                  
G13  22206076.307   116693724.023        1369.092          36.000                                                                  
G25  24169468.888   127011428.403       -2039.762          40.000    24169488.034    98970011.768       -1589.210          28.000  
G29  24823544.515   130448624.735        2046.179          43.000    24823547.796   101648261.364        1594.196          34.000  
> 2025 04 04 10 18 00.0030000  0  9                     
G05  21614274.367   113583802.238       -1367.175          43.000    21614274.663    88506847.119       -1065.442          35.000  
G06  24318375.496   127793940.778       -2540.287          42.000    24318387.871    99579736.762       -1979.400          40.000  
G12  23566358.360   123842068.009       -3379.020          41.000    23566363.036    96500313.514       -2633.175          38.000  
G11  22811250.487   119873922.693       -1708.768          43.000    22811251.532    93408260.639       -1331.380          42.000  
G19  24298330.117   127688567.658       -4782.335          35.000                                                                  
G20  22144794.377   116371692.965       -2916.958          40.000                                                                  
G13  22205815.581   116692355.141        1368.583          36.000                                                                  
G25  24169857.080   127013468.410       -2040.393          40.000    24169876.031    98971601.368       -1589.747          28.000  
G29  24823155.224   130446578.721        2045.770          44.000    24823158.424   101646667.066        1593.707          35.000  
> 2025 04 04 10 18 01.0030000  0  9                     
G05  21614534.482   113585169.666       -1367.255          44.000    21614534.867    88507912.666       -1065.570          35.000  
G06  24318858.842   127796481.484       -2540.414          43.000    24318871.317    99581716.524       -1979.522          41.000  
G12  23567001.304   123845447.177       -3378.585          41.000    23567006.035    96502946.613       -2632.795          38.000  
G11  22811575.748   119875631.509       -1708.921          43.000    22811576.639    93409592.170       -1331.417          42.000  
G19  24299239.999   127693350.087       -4782.193          35.000                                                                  
G20  22145349.466   116374610.239       -2917.279          40.000                                                                  
G13  22205555.188   116690986.997        1368.507          36.000                                                                  
G25  24170245.371   127015509.226       -2040.844          39.000    24170264.461    98973191.654       -1590.264          28.000  
G29  24822765.953   130444533.212        2045.502          43.000    24822769.199   101645073.143        1594.177          35.000  
> 2025 04 04 10 18 02.0030000  0  9                     
G05  21614794.707   113586537.378       -1367.865          47.000    21614795.119    88508978.293       -1065.906          38.000  
G06  24319342.299   127799022.204       -2541.005          38.000    24319354.917    99583696.421       -1979.886          37.000  
G12  23567644.362   123848826.485       -3378.442          41.000    23567649.046    96505579.899       -2633.719          38.000  
G11  22811900.922   119877340.246       -1708.975          43.000    22811901.804    93410923.696       -1331.351          42.000  
G19  24300149.938   127698132.663       -4782.559          36.000                                                                  
G20  22145904.606   116377527.418       -2916.645          37.000                                                                  
G13  22205294.714   116689619.007        1369.188          35.000                                                                  
G25  24170633.790   127017550.404       -2041.566          41.000    24170652.891                       -1590.378          27.000  
G29  24822376.688   130442487.674        2045.471          43.000    24822379.884   101643479.176        1594.440          35.000  
> 2025 04 04 10 18 03.0030000  0  9                     
G05  21615055.142   113587905.652       -1368.945          47.000    21615055.442    88510044.478       -1066.205          36.000  
G06  24319825.829   127801563.107       -2542.186          33.000    24319838.402    99585676.059       -1981.815          25.000  
G12  23568287.371   123852206.416       -3380.217          41.000    23568292.090    96508213.527       -2633.557          38.000  
G11  22812226.061   119879049.340       -1709.035          44.000    22812226.892    93412255.429       -1331.912          42.000  
G19  24301059.921   127702915.763       -4783.250          34.000                                                                  
G20  22146459.736   116380444.982       -2918.061          29.000                                                                  
G13  22205034.688   116688251.674        1366.865          36.000                                                                  
G25  24171022.351   127019592.220       -2042.255          39.000    24171041.441    98976373.3421      -1591.628          27.000  
G29  24821987.586   130440442.476        2045.056          44.000    24821990.678   101641885.546        1593.115          33.000  
> 2025 04 04 10 18 04.0030000  0  9                     
G05  21615315.521   113589274.261       -1369.025          47.000    21615315.875    88511110.948       -1067.078          36.000  
G06  24320309.363   127804104.231       -2541.066          41.000    24320322.094    99587656.216       -1979.892          36.000  
G12  23568930.597   123855586.544       -3380.164          39.000    23568935.343    96510847.384       -2634.230          39.000  
G11  22812551.224   119880758.492       -1708.605          44.000    22812552.136    93413587.278       -1331.831          41.000  
G19  24301969.977   127707699.028       -4783.647          30.000                                                                  
G20  22147012.456   116383335.6443      -2918.227          33.000                                                                  
G13  22204774.446   116686884.728        1366.451          38.000                                                                  
G25  24171410.961   127021634.465       -2042.248          40.000    24171428.923    98977964.646       -1590.892          29.000  
G29  24821598.436   130438397.328        2045.251          44.000    24821601.505   101640291.915        1594.409          34.000  
> 2025 04 04 10 18 05.0030000  0  9                     
G05  21615575.959   113590643.070       -1368.701          47.000    21615576.340    88512177.530       -1066.370          36.000  
G06  24320792.964   127806645.263       -2540.423          43.000    24320805.729    99589636.338       -1980.089          39.000  
G12  23569573.826   123858966.764       -3379.637          40.000    23569578.582    96513481.360       -2633.591          38.000  
G11  22812876.460   119882467.565       -1708.443          45.000    22812877.338    93414918.985       -1331.048          41.000  
G19  24302880.630                       -4785.950          21.000                                                                  
G20  22147567.381   116386253.1422      -2918.130          31.000                                                                  
G13  22204514.283   116685517.856        1366.683          37.000                                                                  
G25  24171799.657   127023676.970       -2042.412          40.000    24171817.284    98979556.258       -1592.310          28.000  
G29  24821209.169   130436352.139        2045.550          44.000    24821212.268   101638698.278        1594.421          34.000  
> 2025 04 04 10 18 06.0030000  0  8                     
G05  21615836.405   113592011.859       -1368.597          47.000    21615836.840    88513244.147       -1066.821          36.000  
G06  24321276.397   127809185.980       -2540.706          42.000    24321289.128    99591616.100       -1979.990          39.000  
G12  23570217.004   123862346.947       -3380.318          40.000    23570221.767    96516115.255       -2634.267          38.000  
G11  22813201.684   119884176.355       -1708.865          45.000    22813202.484    93416250.515       -1331.340          41.000  
G20  22148121.559   116389170.4812      -2917.542          33.000                                                                  
G13  22204253.918   116684151.003        1366.630          37.000                                                                  
G25  24172188.303   127025719.517       -2043.208          40.000    24172209.657    98981147.806       -1591.367          27.000  
G29  24820820.023   130434306.664        2045.532          44.000    24820823.035   101637104.350        1594.513          35.000  
> 2025 04 04 10 18 07.0030000  0  9                     
G05  21616096.987   113593381.188       -1371.301          48.000    21616097.398    88514311.141       -1068.323          36.000  
G06  24321759.852   127811726.945       -2542.797          42.000    24321772.536    99593596.067       -1981.998          39.000  
G12  23570860.153   123865727.523       -3382.536          40.000    23570865.131    96518749.464       -2635.815          38.000  
G11  22813526.882   119885885.352       -1710.803          45.000    22813527.746    93417582.223       -1333.576          41.000  
G19  24304703.126   127722076.2123      -4785.709          32.000                                                                  
G20  22148679.489   116392087.996       -2918.987          33.000                                                                  
G13  22203993.779   116682784.699        1363.826          37.000                                                                  
G25  24172577.150   127027762.678       -2045.566          40.000    24172600.083    98982739.841       -1592.706          26.000  
G29  24820430.849   130432261.411        2043.445          43.000    24820433.895   101635510.711        1592.114          35.000  
> 2025 04 04 10 18 08.0030000  0  9                     
G05  21616357.575   113594750.345       -1369.733          48.000    21616357.904    88515378.010       -1066.986          37.000  
G06  24322243.309   127814267.437       -2540.939          42.000    24322256.038    99595575.696       -1979.908          39.000  
G12  23571503.311   123869107.802       -3380.417          40.000    23571508.375    96521383.491       -2634.224          39.000  
G11  22813851.972   119887593.854       -1708.789          45.000    22813852.919    93418913.505       -1331.263          41.000  
G19  24305613.974   127726859.5052      -4783.863          33.000                                                                  
G20  22149235.768   116395005.263       -2917.544          33.000                                                                  
G13  22203733.585   116681418.048        1366.665          35.000                                                                  
G25  24172965.916   127029805.701       -2043.540          39.000    24172988.250    98984331.861       -1591.650          27.000  
G29  24820041.524   130430215.705        2045.398          43.000    24820044.656   101633916.681        1593.481          35.000  
> 2025 04 04 10 18 09.0030000  0  9                     
G05  21616618.216   113596119.924       -1369.452          46.000    21616618.547    88516445.291       -1067.285          38.000  
G06  24322726.710   127816808.054       -2541.050          40.000    24322739.590    99597555.433       -1979.596          41.000  
G12  23572146.446   123872488.448       -3380.558          40.000    23572151.603    96524017.718       -2634.037          38.000  
G11  22814177.138   119889302.522       -1708.664          41.000    22814178.090    93420244.907       -1331.504          41.000  
G19  24306520.142   127731643.1792      -4783.865          33.000                                                                  
G20  22149792.151   116397922.544       -2916.675          38.000                                                                  
G13  22203473.423   116680052.036        1366.478          32.000                                                                  
G25  24173354.853   127031849.220       -2043.883          39.000    24173377.405    98985924.214       -1593.882          25.000  
G29  24819652.280   130428170.161        2045.459          45.000    24819655.399   101632322.674        1593.927          35.000  
> 2025 04 04 10 18 10.0030000  0  9                     
G05  21616878.835   113597489.469       -1369.836          46.000    21616879.204    88517512.436       -1067.291          38.000  
G06  24323209.995   127819348.368       -2540.081          40.000    24323223.034    99599534.942       -1979.313          41.000  
G12  23572789.708   123875868.986       -3380.347          40.000    23572794.930    96526651.900       -2634.205          38.000  
G11  22814502.254   119891010.875       -1708.519          41.000    22814503.184    93421576.081       -1331.318          39.000  
G19  24307433.541   127736426.6402      -4783.682          34.000                                                                  
G20  22150347.681   116400839.554       -2917.262          37.000                                                                  
G13  22203213.228   116678685.907        1366.191          32.000                                                                  
G25  24173743.773   127033892.786       -2043.858          39.000    24173765.709                       -1589.416          23.000  
G29  24819262.951   130426124.311        2046.027          44.000    24819266.114   101630728.520        1594.482          36.000  
> 2025 04 04 10 18 11.0030000  0  9                     
G05  21617139.478   113598859.095       -1369.708          47.000    21617139.866    88518579.685       -1067.426          38.000  
G06  24323693.271   127821888.574       -2540.277          41.000    24323706.373    99601514.283       -1979.143          40.000  
G12  23573433.002   123879249.548       -3380.712          40.000    23573438.187    96529286.129       -2634.415          38.000  
G11  22814827.370   119892719.052       -1708.310          41.000    22814828.202    93422907.134       -1331.241          40.000  
G19  24308343.090   127741210.1492      -4783.381          33.000                                                                  
G20  22150902.767   116403756.386       -2916.780          38.000                                                                  
G13  22202952.991   116677319.762        1366.588          30.000                                                                  
G25  24174132.689   127035936.515       -2043.952          39.000    24174155.204                       -1587.305          21.000  
G29  24818873.606   130424078.315        2045.972          44.000    24818876.736   101629134.252        1594.019          36.000  
> 2025 04 04 10 18 12.0030000  0 10                     
G05  21617400.256   113600228.978       -1369.977          47.000    21617400.519    88519647.119       -1067.432          38.000  
G06  24324176.626   127824428.717       -2540.137          41.000    24324189.839    99603493.610       -1979.056          39.000  
G12  23574076.355   123882630.257       -3380.687          41.000    23574081.503    96531920.434       -2633.939          37.000  
G11  22815152.516   119894427.164       -1707.933          41.000    22815153.290    93424238.120       -1330.911          40.000  
G19  24309253.176   127745993.7132      -4783.365          33.000                                                                  
G20  22151457.514   116406673.197       -2916.948          38.000                                                                  
G13  22202692.941   116675953.948        1365.376          30.000                                                                  
G30  26511170.288                        -343.383          26.000                                                                  
G25  24174521.589   127037980.569       -2044.338          39.000    24174544.071                       -1592.859          20.000  
G29  24818484.254   130422032.282        2046.021          44.000    24818487.405   101627539.911        1594.434          35.000  
> 2025 04 04 10 18 13.0030000  0  9                     
G05  21617660.954   113601599.185       -1370.270          47.000    21617661.112    88520714.818       -1067.883          38.000  
G06  24324659.991   127826968.940       -2540.223          41.000    24324673.274    99605473.009       -1979.419          39.000  
G12  23574719.698   123886011.182       -3380.584          41.000    23574724.784    96534554.938       -2634.212          37.000  
G11  22815477.529   119896135.361       -1708.364          41.000    22815478.437    93425569.179       -1330.998          40.000  
G19  24310163.000   127750777.552       -4783.987          32.000                                                                  
G20  22152012.460   116409590.061       -2916.605          38.000                                                                  
G13  22202433.162   116674588.396        1365.497          30.000                                                                  
G25  24174910.578   127040025.034       -2044.731          39.000    24174933.427                       -1595.335          22.000  
G29  24818094.917   130419986.319        2046.057          44.000    24818098.107   101625945.688        1593.713          35.000  
> 2025 04 04 10 18 14.0030000  0  9                     
G05  21617921.662   113602969.516       -1370.276          47.000    21617921.893    88521782.605       -1067.749          38.000  
G06  24325143.319   127829509.003       -2539.954          41.000    24325156.739    99607452.278       -1979.187          39.000  
G12  23575363.040   123889392.218       -3380.690          41.000    23575368.170    96537189.516       -2634.626          37.000  
G11  22815802.481   119897843.378       -1708.101          41.000    22815803.427    93426900.116       -1330.837          40.000  
G19  24311073.348   127755561.364       -4783.841          32.000                                                                  
G20  22152567.479   116412506.803       -2916.611          39.000                                                                  
G13  22202173.320   116673222.918        1365.511          29.000                                                                  
G25  24175299.593   127042069.689       -2044.891          39.000    24175322.282                       -1587.746          22.000  
G29  24817705.599   130417940.225        2046.045          44.000    24817708.714   101624351.323        1594.440          35.000  
> 2025 04 04 10 18 15.0030000  0  9                     
G05  21618182.547   113604340.295       -1370.532          48.000    21618182.717    88522850.752       -1067.810          38.000  
G06  24325626.623   127832049.259       -2540.092          41.000    24325640.222    99609431.679       -1979.003          40.000  
G12  23576006.446   123892773.592       -3381.057          41.000    23576011.443    96539824.349       -2634.598          37.000  
G11  22816127.491   119899551.563       -1707.617          41.000    22816128.535    93428231.174       -1330.812          40.000  
G19  24311983.716   127760345.513       -4783.460          32.000                                                                  
G20  22153122.523   116415423.729       -2916.293          39.000                                                                  
G13  22201913.694   116671858.012        1364.518          31.000                                                                  
G25  24175688.759   127044114.852       -2044.839          39.000    24175711.591                       -1591.043          23.000  
G29  24817316.188   130415894.302        2046.362          44.000    24817319.357   101622757.093        1594.861          35.000  
> 2025 04 04 10 18 16.0030000  0  9                     
G05  21618443.399   113605710.916       -1370.923          47.000    21618443.632    88523918.774       -1068.536          38.000  
G06  24326109.885   127834589.037       -2539.938          41.000    24326123.669    99611410.720       -1979.261          39.000  
G12  23576649.854   123896154.688       -3381.322          41.000    23576654.774    96542458.984       -2635.019          37.000  
G11  22816452.421   119901259.290       -1707.900          41.000    22816453.523    93429561.862       -1330.813          41.000  
G19  24312894.087   127765129.356       -4783.793          31.000                                                                  
G20  22153677.469   116418340.212       -2916.555          39.000                                                                  
G13  22201654.116   116670492.769        1365.632          31.000                                                                  
G25  24176077.897   127046159.909       -2045.132          39.000    24176099.772                       -1589.437          24.000  
G29  24816926.791   130413847.930        2046.271          44.000    24816929.990   101621162.544        1594.019          35.000  
> 2025 04 04 10 18 17.0030000  0  9                     
G05  21618704.044   113607080.861       -1370.587          47.000    21618704.325    88524986.250       -1067.615          38.000  
G06  24326592.904   127837127.889       -2538.990          41.000    24326606.806    99613389.038       -1978.550          39.000  
G12  23577293.137   123899535.050       -3380.702          41.000    23577298.102    96545093.004       -2634.342          37.000  
G11  22816777.204   119902966.075       -1707.141          41.000    22816778.347    93430891.824       -1330.323          41.000  
G19  24313804.189   127769912.417       -4783.770          31.000                                                                  
G20  22154232.390   116421255.749       -2915.739          38.000                                                                  
G13  22201394.067   116669126.915        1365.879          30.000                                                                  
G25  24176466.856   127048204.379       -2045.068          39.000    24176488.918                       -1590.298          24.000  
G29  24816537.232   130411800.643        2046.942          44.000    24816540.436   101619567.220        1595.117          35.000  
> 2025 04 04 10 18 18.0030000  0  9                     
G05  21618964.752   113608451.128       -1370.569          47.000    21618965.136    88526054.019       -1068.121          38.000  
G06  24327076.047   127839666.820       -2539.019          41.000    24327090.000    99615367.424       -1978.468          39.000  
G12  23577936.451   123902915.673       -3381.001          41.000    23577941.343    96547727.244       -2634.258          37.000  
G11  22817102.020   119904672.902       -1706.787          41.000    22817103.133    93432221.827       -1330.279          41.000  
G19  24314714.599   127774695.715       -4783.781          32.000                                                                  
G20  22154787.084   116424171.377       -2915.783          38.000                                                                  
G13  22201134.486   116667761.422        1364.801          30.000                                                                  
G25  24176855.967   127050249.252       -2045.224          39.000    24176878.080                       -1593.388          23.000  
G29  24816147.651   130409753.417        2046.991          44.000    24816150.895   101617971.971        1595.679          35.000  
> 2025 04 04 10 18 19.0030000  0  9                     
G05  21619225.647   113609821.732       -1370.587          46.000    21619226.104    88527122.028       -1067.566          37.000  
G06  24327559.224   127842205.816       -2538.809          40.000    24327573.119    99617345.812       -1978.063          40.000  
G12  23578579.700   123906296.439       -3380.480          38.000    23578584.716    96550361.656       -2634.019          37.000  
G11  22817426.870   119906379.916       -1706.997          38.000    22817428.044    93433551.969       -1331.382          33.000  
G19  24315625.024   127779479.261       -4784.934          32.000                                                                  
G20  22155341.791   116427086.787       -2915.743          38.000                                                                  
G13  22200875.010   116666396.191        1363.588          31.000                                                                  
G25  24177245.048   127052294.534       -2045.249          38.000    24177267.744                       -1594.594          23.000  
G29  24815758.119   130407706.283        2047.613          43.000    24815761.383   101616376.863        1594.891          36.000  
> 2025 04 04 10 18 20.0030000  0  9                     
G05  21619486.616   113611192.498       -1371.094          45.000    21619487.041    88528190.163       -1068.781          36.000  
G06  24328042.338   127844725.1563      -2539.282          35.000    24328056.183    99619324.019       -1976.188          29.000  
G12  23579222.977   123909677.430       -3381.318          41.000    23579228.131    96552996.150       -2634.430          37.000  
G11  22817751.717   119908086.577       -1707.980          46.000    22817752.863    93434881.790       -1330.511          41.000  
G19  24316534.988   127784262.751       -4783.691          35.000                                                                  
G20  22155896.337   116430002.415       -2915.810          45.000                                                                  
G13  22200615.269   116665030.999        1365.714          35.000                                                                  
G25  24177634.208   127054340.049       -2046.131          40.000    24177654.955    99003454.5141      -1593.594          27.000  
G29  24815368.598   130405659.003        2046.893          43.000    24815371.809   101614781.545        1595.160          35.000  
> 2025 04 04 10 18 21.0030000  0  9                     
G05  21619747.354   113612563.634       -1371.472          45.000    21619747.913    88529258.546       -1068.744          37.000  
G06  24328525.445   127847264.1412      -2538.717          40.000    24328539.394    99621302.533       -1979.024          41.000  
G12  23579866.385   123913058.660       -3381.560          40.000    23579871.548    96555630.862       -2634.559          37.000  
G11  22818076.520   119909793.446       -1707.097          45.000    22818077.686    93436211.853       -1330.087          42.000  
G19  24317445.252   127789046.693       -4783.877          26.000                                                                  
G20  22156450.958   116432918.115       -2915.910          45.000                                                                  
G13  22200355.728   116663666.588        1359.905          27.000                                                                  
G25  24178023.509   127056385.993       -2046.117          38.000    24178044.665    99005048.778       -1594.273          27.000  
G29  24814979.063   130403611.841        2047.247          43.000    24814982.325   101613186.342        1594.690          35.000  
> 2025 04 04 10 18 22.0030000  0  9                     
G05  21620008.304   113613935.456       -1372.284          45.000    21620008.981    88530327.537       -1069.434          37.000  
G06  24329008.636   127849803.5372      -2539.796          40.000    24329022.649    99623281.301       -1978.770          41.000  
G12  23580509.894   123916440.470       -3381.845          40.000    23580515.187    96558266.077       -2635.602          36.000  
G11  22818401.343   119911500.686       -1707.513          44.000    22818402.596    93437542.191       -1330.563          42.000  
G19  24318355.725   127793830.883       -4784.883          31.000                                                                  
G20  22157005.769   116435834.251       -2916.501          46.000                                                                  
G13  22200101.299   116662319.4233       1364.001          32.000                                                                  
G25  24178413.003   127058432.721       -2047.338          39.000    24178433.713    99006643.664       -1594.994          27.000  
G29  24814589.728   130401565.131        2046.429          43.000    24814592.825   101611591.479        1594.678          35.000  
> 2025 04 04 10 18 23.0030000  0  9                     
G05  21620269.508   113615307.907       -1372.852          45.000    21620270.184    88531396.977       -1069.897          37.000  
G06  24329491.855   127852343.2862      -2539.986          40.000    24329505.948    99625260.296       -1978.929          38.000  
G12  23581153.451   123919822.853       -3382.727          41.000    23581158.771    96560901.713       -2635.722          36.000  
G11  22818726.223   119913208.316       -1707.942          44.000    22818727.489    93438872.794       -1330.642          42.000  
G19  24319266.204   127798615.812       -4785.298          33.000                                                                  
G20  22157560.560   116438750.729       -2916.641          46.000                                                                  
G13  22199844.335   116660969.0253       1363.075          33.000                                                                  
G25  24178802.415   127060480.119       -2047.762          39.000    24178823.326    99008239.094       -1596.546          27.000  
G29  24814200.410   130399518.747        2046.069          43.000    24814203.413   101609996.918        1594.055          34.000  
> 2025 04 04 10 18 24.0030000  0  9                     
G05  21620530.837   113616681.096       -1373.492          46.000    21620531.566    88532466.988       -1070.239          37.000  
G06  24329975.258   127854883.4952      -2540.326          40.000    24329989.207    99627239.674       -1979.425          38.000  
G12  23581797.083   123923205.872       -3383.293          41.000    23581802.498    96563537.844       -2636.347          36.000  
G11  22819051.168   119914916.376       -1708.244          44.000    22819052.410    93440203.759       -1331.084          42.000  
G19  24320176.810   127803401.309       -4785.387          33.000                                                                  
G20  22158115.478   116441667.703       -2917.157          46.000                                                                  
G13  22199586.727   116659615.3882       1362.439          34.000                                                                  
G25  24179192.189   127062528.336       -2048.426          39.000    24179213.767    99009835.061       -1595.994          26.000  
G29  24813811.102   130397472.843        2045.734          43.000    24813814.081   101608402.682        1594.324          34.000  
> 2025 04 04 10 18 25.0030000  0  9                     
G05  21620792.212   113618055.003       -1374.323          46.000    21620793.042    88533537.568       -1070.612          37.000  
G06  24330458.711   127857423.6471      -2540.667          40.000    24330472.708    99629219.403       -1979.854          38.000  
G12  23582440.839   123926589.534       -3383.894          41.000    23582446.378    96566174.442       -2636.259          36.000  
G11  22819376.222   119916624.857       -1708.601          44.000    22819377.536    93441535.042       -1331.388          42.000  
G19  24321087.479   127808187.440       -4786.023          33.000                                                                  
G20  22158670.520   116444585.111       -2917.582          46.000                                                                  
G13  22199330.036   116658266.3922       1361.573          34.000                                                                  
G25  24179581.993   127064577.333       -2049.333          39.000    24179600.727    99011431.635       -1596.888          26.000  
G29  24813421.914   130395427.390        2045.233          43.000    24813424.825   101606808.843        1593.640          34.000  
> 2025 04 04 10 18 26.0030000  0  9                     
G05  21621053.849   113619429.360       -1374.567          46.000    21621054.583    88534608.511       -1071.033          37.000  
G06  24330942.151   127859964.472       -2540.820          39.000    24330956.141    99631199.289       -1980.084          38.000  
G12  23583084.696   123929973.564       -3384.569          41.000    23583090.331    96568811.347       -2637.189          36.000  
G11  22819701.384   119918333.522       -1708.686          44.000    22819702.648    93442866.469       -1331.655          42.000  
G19  24321998.363   127812973.922       -4786.379          34.000                                                                  
G20  22159225.604   116447502.706       -2917.776          46.000                                                                  
G13  22199070.128   116656904.8192       1361.500          34.000                                                                  
G25  24179971.900   127066626.858       -2049.713          39.000    24179989.959    99013028.685       -1596.890          26.000  
G29  24813032.695   130393382.110        2045.190          43.000    24813035.669   101605215.109        1593.719          34.000  
> 2025 04 04 10 18 27.0030000  0  9                     
G05  21621315.497   113620804.252       -1375.354          46.000    21621316.249    88535679.848       -1071.692          36.000  
G06  24331425.631   127862505.586       -2541.457          39.000    24331439.661    99633179.351       -1980.323          38.000  
G12  23583728.707   123933358.020       -3384.899          41.000    23583734.330    96571448.611       -2637.973          36.000  
G11  22820026.575   119920042.429       -1708.901          44.000    22820027.818    93444198.094       -1331.826          42.000  
G19  24322909.108   127817760.778       -4787.266          34.000                                                                  
G20  22159780.781   116450420.566       -2918.017          46.000                                                                  
G13  22198810.440   116655543.7902       1360.701          34.000                                                                  
G25  24180361.946   127068676.989       -2050.690          39.000    24180378.846    99014626.162       -1597.273          25.000  
G29  24812643.595   130391337.103        2044.812          44.000    24812646.390   101603621.603        1593.396          34.000  
> 2025 04 04 10 18 28.0030000  0  9                     
G05  21621577.201   113622179.831       -1375.867          46.000    21621578.028    88536751.727       -1071.960          36.000  
G06  24331909.184   127865047.096       -2541.491          39.000    24331923.249    99635159.737       -1980.587          38.000  
G12  23584372.786   123936743.084       -3385.209          41.000    23584378.441    96574086.336       -2637.880          36.000  
G11  22820351.804   119921751.766       -1709.602          44.000    22820353.213    93445530.029       -1332.302          42.000  
G19  24323820.185   127822548.246       -4788.055          34.000                                                                  
G20  22160336.055   116453338.871       -2918.583          46.000                                                                  
G13  22198551.950   116654183.4782       1359.603          34.000                                                                  
G25  24180752.144   127070727.877       -2051.296          39.000    24180768.006    99016224.280       -1597.640          24.000  
G29  24812254.595   130389292.519        2044.458          44.000    24812257.322   101602028.435        1592.889          34.000  
> 2025 04 04 10 18 29.0030000  0  9                     
G05  21621839.137   113623556.211       -1377.008          46.000    21621840.025    88537824.254       -1073.340          37.000  
G06  24332392.809   127867589.141       -2542.551          39.000    24332406.852    99637140.571       -1981.210          38.000  
G12  23585016.956   123940128.883       -3386.271          42.000    23585022.843    96576724.632       -2639.250          36.000  
G11  22820677.233   119923461.612       -1710.393          44.000    22820678.709    93446862.368       -1332.863          43.000  
G19  24324731.535   127827336.362       -4789.149          34.000                                                                  
G20  22160891.466   116456257.696       -2919.399          46.000                                                                  
G13  22198292.947   116652823.9752       1359.042          35.000                                                                  
G25  24181142.588   127072779.634       -2052.441          39.000    24181157.956    99017823.044       -1599.063          25.000  
G29  24811865.702   130387248.488        2043.268          44.000    24811868.356   101600435.679        1592.242          34.000  
> 2025 04 04 10 18 30.0030000  0  9                     
G05  21622101.248   113624933.218       -1377.173          46.000    21622102.108    88538897.241       -1073.132          37.000  
G06  24332876.509   127870131.574       -2542.338          39.000    24332890.580    99639121.667       -1981.159          39.000  
G12  23585661.290   123943515.238       -3386.549          42.000    23585667.212    96579363.310       -2638.920          36.000  
G11  22821002.665   119925171.806       -1710.236          44.000    22821004.218    93448194.982       -1332.778          42.000  
G19  24325642.893   127832125.012       -4789.159          34.000                                                                  
G20  22161446.963   116459176.904       -2919.258          46.000                                                                  
G13  22198033.707   116651465.0622       1358.639          34.000                                                                  
G25  24181533.165   127074832.121       -2052.848          39.000    24181546.647    99019422.434       -1599.381          26.000  
G29  24811476.879   130385204.821        2043.597          44.000    24811479.449   101598843.235        1592.084          34.000  
> 2025 04 04 10 18 31.0030000  0  9                     
G05  21622363.384   113626310.559       -1377.277          46.000    21622364.156    88539970.474       -1073.145          37.000  
G06  24333360.336   127872674.052       -2542.352          39.000    24333374.382    99641102.811       -1980.838          39.000  
G12  23586305.591   123946901.835       -3386.581          42.000    23586311.658    96582002.188       -2638.471          36.000  
G11  22821328.094   119926882.047       -1710.093          44.000    22821329.633    93449527.635       -1332.381          43.000  
G19  24326553.983   127836913.844       -4788.943          33.000                                                                  
G20  22162002.431   116462096.176       -2919.103          46.000                                                                  
G13  22197774.619   116650106.452        1358.612          34.000                                                                  
G25  24181923.791   127076884.980       -2052.795          39.000    24181935.692    99021022.094       -1600.251          24.000  
G29  24811088.034   130383161.218        2043.774          43.000    24811090.516   101597250.787        1592.596          34.000  
> 2025 04 04 10 18 32.0030000  0  9                     
G05  21622625.601   113627688.062       -1377.466          46.000    21622626.230    88541043.868       -1073.236          36.000  
G06  24333844.203   127875216.391       -2542.139          39.000    24333858.121    99643083.870       -1981.424          40.000  
G12  23586949.996   123950288.491       -3386.334          42.000    23586956.085    96584641.185       -2638.811          38.000  
G11  22821653.434   119928592.151       -1709.831          44.000    22821655.005    93450860.201       -1332.516          42.000  
G19  24327465.260   127841702.821       -4789.490          33.000                                                                  
G20  22162557.888   116465015.347       -2918.791          46.000                                                                  
G13  22197515.555   116648747.987        1357.523          32.000                                                                  
G25  24182314.419   127078938.068       -2053.146          39.000    24182326.125                       -1592.517          23.000  
G29  24810699.114   130381117.496        2043.854          43.000    24810701.717   101595658.317        1592.676          34.000  
> 2025 04 04 10 18 33.0030000  0  9                     
G05  21622887.771   113629065.724       -1377.960          45.000    21622888.357    88542117.377       -1073.590          36.000  
G06  24334327.939   127877758.618       -2542.413          39.000    24334341.875    99645064.835       -1980.925          41.000  
G12  23587594.294   123953675.196       -3386.312          41.000    23587600.505    96587280.202       -2639.453          38.000  
G11  22821978.827   119930302.153       -1710.155          44.000    22821980.400    93452192.667       -1332.764          42.000  
G19  24328376.394   127846491.760       -4789.446          33.000                                                                  
G20  22163113.379   116467934.392       -2919.069          46.000                                                                  
G13  22197256.589   116647389.565        1358.003          30.000                                                                  
G25  24182705.100   127080991.395       -2053.678          39.000    24182715.651                       -1599.430          23.000  
G29  24810310.276   130379073.673        2043.915          43.000    24810312.776   101594065.731        1592.310          34.000  
> 2025 04 04 10 18 34.0030000  0  9                     
G05  21623150.016   113630443.787       -1378.552          45.000    21623150.603    88543191.205       -1074.304          36.000  
G06  24334811.832   127880301.025       -2542.625          39.000    24334825.746    99647045.880       -1981.263          40.000  
G12  23588238.804   123957062.321       -3387.563          42.000    23588245.079    96589919.483       -2639.724          38.000  
G11  22822304.113   119932012.283       -1710.386          44.000    22822305.704    93453525.220       -1332.708          42.000  
G19  24329287.554   127851281.007       -4789.452          34.000                                                                  
G20  22163668.838   116470853.619       -2919.585          46.000                                                                  
G13  22196997.694   116646031.705        1357.363          35.000                                                                  
G25  24183095.871   127083045.181       -2053.916          39.000    24183106.124                       -1598.520          23.000  
G29  24809921.512   130377030.033        2043.451          43.000    24809923.946   101592473.264        1591.937          34.000  
> 2025 04 04 10 18 35.0030000  0  9                     
G05  21623412.201   113631822.072       -1378.369          45.000    21623412.942    88544265.161       -1073.981          36.000  
G06  24335295.603   127882843.378       -2542.451          40.000    24335309.601    99649026.930       -1981.071          40.000  
G12  23588883.348   123960449.514       -3387.115          42.000    23588889.717    96592558.854       -2639.129          38.000  
G11  22822629.501   119933722.350       -1709.831          44.000    22822631.148    93454857.746       -1332.800          42.000  
G19  24330198.761   127856070.362       -4789.425          34.000                                                                  
G20  22164224.302   116473772.785       -2919.052          46.000                                                                  
G13  22196738.661   116644674.011        1358.145          36.000                                                                  
G25  24183486.780   127085099.321       -2054.207          39.000    24183496.885                       -1594.625          22.000  
G29  24809532.514   130374986.319        2043.896          43.000    24809534.989   101590880.772        1592.432          34.000  
> 2025 04 04 10 18 36.0030000  0  9                     
G05  21623674.558   113633200.593       -1378.656          45.000    21623675.267    88545339.321       -1073.932          36.000  
G06  24335779.463   127885385.701       -2542.427          40.000    24335793.502    99651007.958       -1981.197          40.000  
G12  23589527.822   123963836.858       -3387.051          42.000    23589534.352    96595198.359       -2639.484          38.000  
G11  22822954.905   119935432.382       -1710.004          43.000    22822956.575    93456190.221       -1332.440          42.000  
G19  24331110.203   127860859.833       -4789.661          34.000                                                                  
G20  22164779.750   116476691.923       -2919.197          46.000                                                                  
G13  22196479.837   116643316.601        1357.576          36.000                                                                  
G25  24183877.723   127087153.713       -2054.883          39.000    24183886.785                       -1605.678          21.000  
G29  24809143.617   130372942.588        2043.604          43.000    24809146.183   101589288.214        1593.079          34.000  
> 2025 04 04 10 18 37.0030000  0  9                     
G05  21623936.836   113634579.316       -1378.864          45.000    21623937.638    88546413.693       -1074.310          36.000  
G06  24336263.153   127887927.939       -2542.106          40.000    24336277.321    99652988.917       -1980.592          40.000  
G12  23590172.363   123967224.348       -3387.131          42.000    23590178.861    96597837.941       -2639.618          38.000  
G11  22823280.164   119937142.330       -1709.894          43.000    22823282.000    93457522.652       -1332.419          42.000  
G19  24332021.629   127865649.366       -4789.119          35.000                                                                  
G20  22165335.153   116479611.003       -2919.064          46.000                                                                  
G13  22196220.955   116641959.345        1357.307          35.000                                                                  
G25  24184268.650   127089208.381       -2054.708          39.000    24184277.848                       -1610.432          20.000  
G29  24808754.757   130370898.791        2044.000          43.000    24808757.282   101587695.676        1592.877          35.000  
> 2025 04 04 10 18 38.0030000  0  9                     
G05  21624199.255   113635958.435       -1380.035          45.000    21624200.090    88547488.337       -1075.519          36.000  
G06  24336746.844   127890470.314       -2543.190          40.000    24336761.106    99654969.985       -1981.900          41.000  
G12  23590817.001   123970612.141       -3388.692          42.000    23590823.583    96600477.775       -2640.403          38.000  
G11  22823605.558   119938852.394       -1710.846          43.000    22823607.439    93458855.154       -1333.224          42.000  
G19  24332933.203   127870439.220       -4791.050          35.000                                                                  
G20  22165890.550   116482530.215       -2920.148          46.000                                                                  
G13  22195962.269   116640602.483        1355.458          35.000                                                                  
G25  24184659.727   127091263.533       -2056.135          39.000    24184670.079                       -1592.332          17.000  
G29  24808365.877   130368855.142        2042.694          43.000    24808368.416   101586103.235        1591.571          35.000  
> 2025 04 04 10 18 39.0030000  0  9                     
G05  21624461.628   113637337.515       -1379.053          45.000    21624462.527    88548562.912       -1074.384          36.000  
G06  24337230.579   127893012.398       -2542.209          40.000    24337244.832    99656950.818       -1980.726          40.000  
G12  23591461.582   123973999.785       -3387.229          43.000    23591468.275    96603117.524       -2639.705          38.000  
G11  22823930.954   119940562.144       -1709.510          43.000    22823932.804    93460187.430       -1332.109          42.000  
G19  24333844.689   127875228.941       -4789.854          35.000                                                                  
G20  22166446.006   116485449.130       -2918.764          46.000                                                                  
G13  22195703.711   116639245.540        1357.067          36.000                                                                  
G25  24185050.752   127093318.719       -2055.328          39.000    24185059.277                       -1598.570          19.000  
G29  24807976.895   130366811.196        2044.025          43.000    24807979.516   101584510.548        1592.798          35.000  
> 2025 04 04 10 18 40.0030000  0  9                     
G05  21624724.046   113638716.510       -1379.315          46.000    21624724.929    88549637.475       -1075.049          36.000  
G06  24337714.338   127895554.116       -2542.049          40.000    24337728.448    99658931.373       -1980.640          40.000  
G12  23592106.206   123977387.305       -3387.429          42.000    23592112.887    96605757.144       -2639.726          38.000  
G11  22824256.305   119942271.529       -1709.291          43.000    22824258.070    93461519.430       -1332.044          42.000  
G19  24334756.425   127880018.421       -4789.853          35.000                                                                  
G20  22167001.257   116488367.700       -2918.659          46.000                                                                  
G13  22195444.955   116637888.533        1357.184          35.000                                                                  
G25  24185441.707   127095373.898       -2055.662          39.000    24185448.396                       -1597.985          20.000  
G29  24807587.972   130364766.893        2044.281          44.000    24807590.582   101582917.555        1593.152          35.000  
> 2025 04 04 10 18 41.0030000  0  9                     
G05  21624986.556   113640095.904       -1379.718          46.000    21624987.320    88550712.325       -1074.890          36.000  
G06  24338198.034   127898095.952       -2542.115          39.000    24338212.202    99660912.030       -1980.663          40.000  
G12  23592750.914   123980775.127       -3388.199          43.000    23592757.497    96608396.994       -2639.937          38.000  
G11  22824581.669   119943981.046       -1709.749          43.000    22824583.362    93462851.508       -1332.340          42.000  
G19  24335668.043   127884808.181       -4790.048          35.000                                                                  
G20  22167556.709   116491286.412       -2918.805          46.000                                                                  
G13  22195186.398   116636531.931        1356.169          35.000                                                                  
G25  24185832.802   127097429.547       -2056.018          39.000    24185837.789                       -1605.952          21.000  
G29  24807199.047   130362722.729        2043.860          44.000    24807201.547   101581324.735        1592.645          35.000  
> 2025 04 04 10 18 42.0030000  0  9                     
G05  21625249.163   113641475.675       -1379.932          46.000    21625249.824    88551787.478       -1075.134          36.000  
G06  24338681.599   127900637.917       -2542.080          39.000    24338695.881    99662892.774       -1980.652          40.000  
G12  23593395.701   123984163.254       -3388.166          43.000    23593402.243    96611037.100       -2640.031          38.000  
G11  22824906.999   119945690.642       -1709.515          43.000    22824908.730    93464183.644       -1331.899          42.000  
G19  24336579.537   127889598.240       -4789.786          33.000                                                                  
G20  22168112.214   116494205.236       -2918.813          46.000                                                                  
G13  22194927.930   116635175.642        1356.329          36.000                                                                  
G25  24186224.028   127099485.643       -2055.997          39.000    24186229.925                       -1601.133          22.000  
G29  24806809.954   130360678.680        2044.250          44.000    24806812.588   101579731.975        1592.926          35.000  
> 2025 04 04 10 18 43.0030000  0  9                     
G05  21625511.863   113642855.828       -1380.518          46.000    21625512.382    88552862.937       -1075.708          36.000  
G06  24339165.333   127903179.972       -2541.795          40.000    24339179.691    99664873.608       -1981.015          41.000  
G12  23594040.506   123987551.669       -3388.536          43.000    23594047.097    96613677.428       -2640.576          38.000  
G11  22825232.346   119947400.344       -1709.940          44.000    22825234.018    93465515.902       -1332.394          42.000  
G19  24337490.994   127894388.523       -4790.610          34.000                                                                  
G20  22168667.626   116497124.183       -2919.008          46.000                                                                  
G13  22194669.607   116633819.785        1355.437          36.000                                                                  
G25  24186615.361   127101542.205       -2056.867          40.000    24186620.306                       -1599.617          22.000  
G29  24806421.045   130358634.754        2043.713          44.000    24806423.695   101578139.290        1592.657          35.000  
> 2025 04 04 10 18 44.0030000  0  9                     
G05  21625774.572   113644236.529       -1381.256          46.000    21625775.123    88553938.817       -1076.434          36.000  
G06  24339649.128   127905722.340       -2542.751          39.000    24339663.507    99666854.640       -1981.090          41.000  
G12  23594685.463   123990940.547       -3389.297          43.000    23594692.011    96616318.067       -2640.833          38.000  
G11  22825557.685   119949110.294       -1710.174          44.000    22825559.311    93466848.331       -1332.550          42.000  
G19  24338402.765   127899179.246       -4791.177          35.000                                                                  
G20  22169223.154   116500043.395       -2919.413          46.000                                                                  
G13  22194411.357   116632464.428        1355.458          35.000                                                                  
G25  24187006.781   127103599.361       -2057.506          40.000    24187010.398                       -1603.703          20.000  
G29  24806032.175   130356591.103        2043.347          44.000    24806034.873   101576546.838        1591.931          35.000  
> 2025 04 04 10 18 45.0030000  0  9                     
G05  21626037.441   113645618.041       -1381.811          45.000    21626038.022    88555015.317       -1076.971          36.000  
G06  24340133.055   127908265.234       -2543.302          39.000    24340147.407    99668836.116       -1981.513          41.000  
G12  23595330.443   123994330.166       -3390.041          43.000    23595336.974    96618959.311       -2641.123          37.000  
G11  22825883.207   119950820.804       -1710.805          43.000    22825884.876    93468181.202       -1333.105          42.000  
G19  24339314.738   127903970.665       -4791.663          34.000                                                                  
G20  22169778.749   116502963.180       -2920.110          46.000                                                                  
G13  22194153.306   116631109.943        1354.052          36.000                                                                  
G25  24187398.387   127105657.413       -2058.688          40.000    24187403.382                       -1615.786          19.000  
G29  24805643.341   130354548.024        2042.578          44.000    24805646.157   101574954.806        1592.059          35.000  
> 2025 04 04 10 18 46.0030000  0  9                     
G05  21626300.454   113647000.222       -1382.562          45.000    21626301.073    88556092.346       -1077.460          36.000  
G06  24340617.030   127910808.535       -2543.568          39.000    24340631.300    99670817.900       -1981.804          39.000  
G12  23595975.618   123997720.361       -3390.583          43.000    23595982.079    96621601.053       -2642.152          37.000  
G11  22826208.726   119952531.702       -1711.117          43.000    22826210.397    93469514.367       -1333.304          42.000  
G19  24340226.688   127908762.662       -4792.119          33.000                                                                  
G20  22170334.377   116505883.362       -2920.455          46.000                                                                  
G13  22193895.471   116629756.049        1353.476          35.000                                                                  
G25  24187790.138   127107716.185       -2058.801          40.000    24187793.371                       -1604.758          20.000  
G29  24805254.665   130352505.332        2042.480          43.000    24805257.343   101573363.109        1592.047          35.000  
> 2025 04 04 10 18 47.0030000  0  9                     
G05  21626563.531   113648382.899       -1383.154          45.000    21626564.089    88557169.753       -1077.924          35.000  
G06  24341101.034   127913352.038       -2543.889          40.000    24341115.310    99672799.880       -1982.069          39.000  
G12  23596620.901   124001110.941       -3390.807          43.000    23596627.323    96624243.076       -2642.222          37.000  
G11  22826534.226   119954242.819       -1711.523          43.000    22826535.908    93470847.684       -1333.344          42.000  
G19  24341138.535   127913555.046       -4792.620          32.000                                                                  
G20  22170890.078   116508803.769       -2920.716          46.000                                                                  
G13  22193637.451   116628402.633        1353.616          30.000                                                                  
G25  24188182.028   127109775.532       -2059.541          40.000    24188185.315                       -1595.686          22.000  
G29  24804865.969   130350462.870        2042.309          44.000    24804868.716   101571771.573        1591.772          35.000  
> 2025 04 04 10 18 48.0030000  0  9                     
G05  21626826.644   113649766.298       -1384.058          45.000    21626827.391    88558247.728       -1078.430          34.000  
G06  24341585.098   127915896.005       -2544.187          40.000    24341599.319    99674782.176       -1982.858          40.000  
G12  23597266.312   124004502.184       -3391.787          43.000    23597272.762    96626885.568       -2642.653          37.000  
G11  22826859.902   119955954.347       -1711.956          43.000    22826861.535    93472181.374       -1333.972          42.000  
G19  24342050.558   127918347.972       -4793.075          32.000                                                                  
G20  22171445.785   116511724.632       -2921.274          46.000                                                                  
G13  22193379.979   116627050.030        1352.007          31.000                                                                  
G25  24188574.046   127111835.658       -2060.659          40.000    24188576.148                       -1605.207          23.000  
G29  24804477.380   130348420.880        2041.541          43.000    24804480.061   101570180.414        1590.924          35.000  
> 2025 04 04 10 18 49.0030000  0  9                     
G05  21627090.101   113651150.779       -1384.906          45.000    21627090.817    88559326.569       -1079.333          35.000  
G06  24342069.414   127918440.784       -2544.914          40.000    24342083.548    99676765.139       -1983.265          41.000  
G12  23597911.846   124007894.398       -3392.493          43.000    23597918.309    96629528.867       -2643.375          37.000  
G11  22827185.735   119957666.696       -1712.603          43.000    22827187.364    93473515.660       -1334.514          42.000  
G19  24342962.940   127923141.907       -4794.263          34.000                                                                  
G20  22172001.806   116514646.305       -2921.824          46.000                                                                  
G13  22193122.609   116625698.419        1351.285          36.000                                                                  
G25  24188966.368   127113896.964       -2061.719          40.000    24188967.019                       -1600.960          23.000  
G29  24804089.096   130346379.692        2041.003          43.000    24804091.657   101568589.913        1590.167          35.000  
> 2025 04 04 10 18 50.0030000  0  9                     
G05  21627353.774   113652535.930       -1385.516          45.000    21627354.380    88560405.906       -1080.029          35.000  
G06  24342553.714   127920985.965       -2545.270          39.000    24342567.905    99678748.359       -1983.078          41.000  
G12  23598557.580   124011287.205       -3392.770          43.000    23598563.888    96632172.615       -2643.725          37.000  
G11  22827511.587   119959379.440       -1712.934          43.000    22827513.351    93474850.278       -1335.018          42.000  
G19  24343875.392   127927936.399       -4794.733          34.000                                                                  
G20  22172557.839   116517568.410       -2922.304          46.000                                                                  
G13  22192865.531   116624347.522        1350.547          36.000                                                                  
G25  24189358.702   127115959.015       -2062.817          40.000    24189360.016                       -1599.263          22.000  
G29  24803700.697   130344338.943        2040.472          43.000    24803703.322   101566999.692        1589.532          35.000  
> 2025 04 04 10 18 51.0030000  0  9                     
G05  21627617.415   113653921.900       -1386.615          46.000    21627618.098    88561485.917       -1080.969          35.000  
G06  24343038.146   127923531.686       -2545.868          39.000    24343052.316    99680732.048       -1983.973          40.000  
G12  23599203.510   124014680.762       -3393.905          43.000    23599209.643    96634816.949       -2645.064          37.000  
G11  22827837.544   119961092.721       -1713.753          43.000    22827839.366    93476185.293       -1335.342          42.000  
G19  24344787.686   127932731.576       -4795.822          34.000                                                                  
G20  22173114.046   116520491.043       -2922.983          46.000                                                                  
G13  22192608.432   116622997.407        1349.527          37.000                                                                  
G25  24189751.297   127118021.928       -2063.656          40.000    24189751.815                       -1602.227          22.000  
G29  24803312.362   130342298.713        2039.899          43.000    24803315.040   101565409.904        1589.539          34.000  
> 2025 04 04 10 18 52.0030000  0  9                     
G05  21627881.261   113655308.661       -1387.079          46.000    21627881.904    88562566.486       -1080.939          35.000  
G06  24343522.729   127926077.973       -2546.242          39.000    24343536.904    99682716.161       -1984.561          40.000  
G12  23599849.361   124018075.005       -3394.333          43.000    23599855.565    96637461.819       -2645.233          37.000  
G11  22828163.670   119962806.506       -1713.843          43.000    22828165.515    93477520.719       -1335.639          42.000  
G19  24345700.415   127937527.431       -4795.994          34.000                                                                  
G20  22173670.393   116523414.228       -2923.450          46.000                                                                  
G13  22192351.580   116621648.087        1348.907          37.000                                                                  
G25  24190144.067   127120085.697       -2064.131          40.000    24190144.358                       -1612.093          22.000  
G29  24802924.246   130340259.039        2039.362          43.000    24802926.926   101563820.548        1589.349          34.000  
> 2025 04 04 10 18 53.0030000  0  9                     
G05  21628145.386   113656696.250       -1388.080          46.000    21628145.852    88563647.715       -1081.799          35.000  
G06  24344007.406   127928624.782       -2547.311          39.000    24344021.562    99684700.671       -1984.613          40.000  
G12  23600495.485   124021470.020       -3395.545          43.000    23600501.599    96640107.280       -2645.753          37.000  
G11  22828489.864   119964520.851       -1714.631          43.000    22828491.769    93478856.572       -1336.069          42.000  
G19  24346613.287   127942324.047       -4797.428          34.000                                                                  
G20  22174226.744   116526337.969       -2924.022          46.000                                                                  
G13  22192094.928   116620299.568        1348.105          37.000                                                                  
G25  24190536.964   127122150.391       -2065.083          40.000    24190538.968                       -1612.468          24.000  
G29  24802536.207   130338219.921        2038.788          43.000    24802538.901   101562231.664        1588.666          34.000  
> 2025 04 04 10 18 54.0030000  0  9                     
G05  21628409.688   113658084.569       -1388.904          46.000    21628410.044    88564729.536       -1082.953          35.000  
G06  24344492.024   127931172.044       -2547.786          39.000    24344506.483    99686685.553       -1985.015          41.000  
G12  23601141.577   124024865.641       -3395.806          43.000    23601147.856    96642753.226       -2646.087          37.000  
G11  22828816.193   119966235.631       -1715.142          43.000    22828818.011    93480192.770       -1336.697          42.000  
G19  24347526.059   127947121.212       -4798.298          34.000                                                                  
G20  22174783.187   116529262.167       -2924.540          46.000                                                                  
G13  22191838.364   116618951.816        1346.746          36.000                                                                  
G25  24190930.072   127124215.866       -2066.007          41.000    24190932.429                       -1604.484          24.000  
G29  24802148.192   130336181.257        2038.464          43.000    24802151.013   101560643.081        1588.172          34.000  
> 2025 04 04 10 18 55.0030000  0  9                     
G05  21628674.087   113659473.588       -1389.099          46.000    21628674.266    88565811.883       -1082.605          35.000  
G06  24344976.832   127933719.755       -2547.859          39.000    24344991.343    99688670.791       -1985.077          41.000  
G12  23601787.920   124028261.900       -3396.286          43.000    23601794.105    96645399.648       -2646.270          37.000  
G11  22829142.657   119967950.854       -1715.225          42.000    22829144.362    93481529.274       -1336.635          42.000  
G19  24348439.047   127951918.940       -4797.476          34.000                                                                  
G20  22175339.742   116532186.801       -2924.647          46.000                                                                  
G13  22191581.953   116617604.688        1346.962          36.000                                                                  
G25  24191323.304   127126282.106       -2066.476          40.000    24191325.864                       -1617.099          24.000  
G29  24801760.272   130334143.031        2038.342          43.000    24801763.119   101559054.855        1588.190          34.000  
> 2025 04 04 10 18 56.0030000  0  9                     
G05  21628938.485   113660863.102       -1390.143          46.000    21628938.647    88566894.621       -1083.240          35.000  
G06  24345461.699   127936267.678       -2548.237          40.000    24345476.279    99690656.208       -1985.818          41.000  
G12  23602434.393   124031658.559       -3397.201          44.000    23602440.487    96648046.407       -2647.080          38.000  
G11  22829468.993   119969666.282       -1715.967          42.000    22829470.732    93482865.978       -1337.213          42.000  
G19  24349352.084   127956717.092       -4798.894          34.000                                                                  
G20  22175896.235   116535111.686       -2925.241          46.000                                                                  
G13  22191325.734   116616258.098        1345.426          36.000                                                                  
G25  24191716.754   127128348.936       -2067.587          41.000    24191720.880                       -1613.150          24.000  
G29  24801372.510   130332105.075        2037.457          43.000    24801375.304   101557466.869        1586.841          34.000  
> 2025 04 04 10 18 57.0030000  0  9                     
G05  21629203.060   113662253.501       -1390.552          46.000    21629203.154    88567978.085       -1084.107          35.000  
G06  24345946.752   127938816.260       -2548.707          40.000    24345961.259    99692642.103       -1985.907          41.000  
G12  23603081.089   124035056.029       -3397.708          44.000    23603087.028    96650693.784       -2647.125          38.000  
G11  22829795.512   119971382.324       -1716.088          42.000    22829797.273    93484203.144       -1337.155          42.000  
G19  24350265.391   127961515.998       -4798.844          34.000                                                                  
G20  22176453.031   116538037.199       -2925.541          46.000                                                                  
G13  22191069.751   116614912.388        1345.277          36.000                                                                  
G25  24192110.288   127130416.706       -2068.021          41.000    24192115.069                       -1611.061          25.000  
G29  24800984.772   130330067.728        2037.445          43.000    24800987.530   101555879.299        1587.189          34.000  
> 2025 04 04 10 18 58.0030000  0  9                     
G05  21629467.583   113663644.169       -1391.003          46.000    21629467.777    88569061.683       -1083.624          35.000  
G06  24346431.716   127941364.802       -2548.466          40.000    24346446.256    99694627.967       -1985.963          41.000  
G12  23603727.773   124038453.679       -3398.026          44.000    23603733.665    96653341.281       -2647.511          38.000  
G11  22830122.060   119973098.341       -1716.183          42.000    22830123.821    93485540.306       -1337.100          42.000  
G19  24351178.399   127966315.045       -4799.004          34.000                                                                  
G20  22177009.883   116540962.700       -2925.644          46.000                                                                  
G13  22190813.749   116613566.882        1345.671          36.000                                                                  
G25  24192503.738   127132484.792       -2068.073          41.000    24192509.109                       -1611.341          26.000  
G29  24800596.954   130328030.370        2037.323          43.000    24800599.763   101554291.773        1587.067          34.000  
> 2025 04 04 10 18 59.0030000  0  9                     
G05  21629732.172   113665035.307       -1391.156          46.000    21629732.395    88570145.742       -1084.497          35.000  
G06  24346916.799   127943913.554       -2548.472          40.000    24346931.307    99696614.026       -1985.874          41.000  
G12  23604374.512   124041851.720       -3398.349          44.000    23604380.271    96655989.098       -2647.327          38.000  
G11  22830448.670   119974814.574       -1716.346          42.000    22830450.468    93486877.614       -1337.378          42.000  
G19  24352091.601   127971114.497       -4799.349          35.000                                                                  
G20  22177566.560   116543888.416       -2925.744          46.000                                                                  
G13  22190557.651   116612221.907        1344.917          36.000                                                                  
G25  24192897.462   127134553.461       -2068.872          41.000    24192904.380                       -1611.910          26.000  
G29  24800209.215   130325993.241        2037.286          43.000    24800212.150   101552704.377        1587.225          34.000  
> 2025 04 04 10 19 00.0030000  0  9                     
G05  21629997.020   113666426.949       -1391.992          46.000    21629997.148    88571230.127       -1085.120          35.000  
G06  24347401.834   127946462.541       -2549.073          40.000    24347416.411    99698600.239       -1986.230          42.000  
G12  23605021.310   124045250.135       -3398.645          43.000    23605026.874    96658637.236       -2648.540          38.000  
G11  22830775.263   119976530.982       -1716.547          42.000    22830777.170    93488215.103       -1337.635          42.000  
G19  24353004.931   127975914.280       -4800.024          35.000                                                                  
G20  22178123.282   116546814.353       -2926.072          46.000                                                                  
G13  22190301.801   116610877.437        1343.641          36.000                                                                  
G25  24193291.336   127136622.666       -2069.586          41.000    24193298.016                       -1613.412          27.000  
G29  24799821.587   130323956.328        2036.719          43.000    24799824.507   101551117.188        1586.859          34.000  
> 2025 04 04 10 19 01.0030000  0  9                     
G05  21630261.936   113667819.314       -1392.944          46.000    21630262.010    88572315.056       -1085.437          35.000  
G06  24347887.016   127949011.975       -2549.727          40.000    24347901.576    99700586.817       -1986.959          41.000  
G12  23605668.189   124048649.205       -3399.499          43.000    23605673.783    96661285.872       -2649.143          38.000  
G11  22831101.882   119978247.860       -1717.369          42.000    22831103.852    93489552.906       -1338.079          42.000  
G19  24353918.461   127980714.659       -4800.888          34.000                                                                  
G20  22178680.124   116549740.744       -2926.681          46.000                                                                  
G13  22190046.145   116609533.617        1343.243          36.000                                                                  
G25  24193685.197   127138692.671       -2070.771          41.000    24193693.133                       -1614.607          27.000  
G29  24799434.044   130321919.898        2035.864          43.000    24799436.966   101549530.326        1586.877          35.000  
> 2025 04 04 10 19 02.0030000  0  9                     
G05  21630527.060   113669212.247       -1393.085          46.000    21630527.102    88573400.487       -1085.492          35.000  
G06  24348372.187   127951561.757       -2549.844          39.000    24348386.773    99702573.629       -1986.434          41.000  
G12  23606315.236   124052048.781       -3399.671          43.000    23606320.812    96663934.856       -2648.871          38.000  
G11  22831428.651   119979965.027       -1716.953          42.000    22831430.678    93490890.986       -1338.244          42.000  
G19  24354832.047   127985515.581       -4800.843          33.000                                                                  
G20  22179237.142   116552667.475       -2926.875          46.000                                                                  
G13  22189790.490   116608190.336        1343.716          32.000                                                                  
G25  24194079.367   127140763.326       -2070.787          41.000    24194088.663    99070742.1721      -1614.016          28.000  
G29  24799046.541   130319883.766        2036.328          43.000    24799049.398   101547943.742        1586.462          35.000  
> 2025 04 04 10 19 03.0030000  0  9                     
G05  21630792.244   113670605.707       -1393.811          46.000    21630792.260    88574486.277       -1085.931          35.000  
G06  24348857.451   127954111.731       -2550.116          40.000    24348871.989    99704560.636       -1987.289          41.000  
G12  23606962.221   124055448.759       -3399.762          43.000    23606967.828    96666584.198       -2649.470          39.000  
G11  22831755.533   119981682.445       -1717.285          42.000    22831757.550    93492229.230       -1338.661          42.000  
G19  24355745.722   127990316.759       -4802.062          33.000                                                                  
G20  22179794.066   116555594.434       -2926.822          46.000                                                                  
G13  22189535.406   116606847.887        1342.319          37.000                                                                  
G25  24194473.385   127142834.572       -2071.338          41.000    24194483.230    99072356.105       -1615.087          28.000  
G29  24798659.036   130317847.914        2035.693          43.000    24798661.953   101546357.338        1586.694          35.000  
> 2025 04 04 10 19 04.0030000  0  9                     
G05  21631057.598   113671999.722       -1394.244          46.000    21631057.471    88575572.526       -1086.151          35.000  
G06  24349342.715   127956662.043       -2550.466          40.000    24349357.333    99706547.864       -1987.114          40.000  
G12  23607609.399   124058849.260       -3400.925          43.000    23607615.026    96669233.923       -2650.014          38.000  
G11  22832082.419   119983400.129       -1717.743          42.000    22832084.405    93493567.686       -1338.724          42.000  
G19  24356659.447   127995118.481       -4801.813          34.000                                                                  
G20  22180351.098   116558521.696       -2927.270          46.000                                                                  
G13  22189280.328   116605505.837        1341.447          30.000                                                                  
G25  24194867.887   127144906.437       -2072.318          42.000    24194879.090    99073970.580       -1614.801          28.000  
G29  24798271.723   130315812.352        2035.400          43.000    24798274.602   101544771.187        1586.432          34.000  
> 2025 04 04 10 19 05.0030000  0  9                     
G05  21631322.875   113673394.173       -1395.026          46.000    21631322.778    88576659.149       -1086.963          34.000  
G06  24349828.036   127959212.485       -2550.495          40.000    24349842.654    99708535.205       -1987.003          40.000  
G12  23608256.583   124062250.041       -3400.676          43.000    23608262.247    96671883.898       -2650.087          37.000  
G11  22832409.285   119985117.987       -1718.174          42.000    22832411.185    93494906.259       -1338.691          43.000  
G19  24357573.293   127999920.467       -4802.012          34.000                                                                  
G20  22180908.220   116561449.123       -2927.644          46.000                                                                  
G13  22189026.336                        1347.234          21.000                                                                  
G25  24195262.173   127146978.800       -2072.676          42.000    24195273.342    99075585.358       -1615.423          29.000  
G29  24797884.431   130313776.954        2035.211          44.000    24797887.298   101543185.182        1585.809          34.000  
> 2025 04 04 10 19 06.0030000  0  9                     
G05  21631588.376   113674789.182       -1395.331          46.000    21631588.250    88577746.153       -1087.189          34.000  
G06  24350313.404   127961763.227       -2550.652          40.000    24350328.047    99710522.805       -1987.771          42.000  
G12  23608903.919   124065651.358       -3401.578          42.000    23608909.597    96674534.286       -2650.656          39.000  
G11  22832736.237   119986836.098       -1718.341          43.000    22832738.105    93496245.077       -1338.816          42.000  
G19  24358486.921   128004722.943       -4803.607          32.000                                                                  
G20  22181465.236   116564376.849       -2927.744          45.000                                                                  
G13  22188768.830                        1337.118          22.000                                                                  
G25  24195656.737   127149051.813       -2073.414          41.000    24195669.480    99077200.622       -1615.891          30.000  
G29  24797497.231   130311741.858        2035.010          43.000    24797500.055   101541599.420        1585.492          35.000  
> 2025 04 04 10 19 07.0030000  0  9                     
G05  21631853.820   113676184.836       -1396.112          46.000    21631853.878    88578833.667       -1087.646          35.000  
G06  24350798.861   127964314.384       -2551.332          40.000    24350813.575    99712510.661       -1987.927          42.000  
G12  23609551.377   124069053.218       -3402.314          42.000    23609556.999    96677185.111       -2651.116          39.000  
G11  22833063.157   119988554.610       -1719.014          42.000    22833065.148    93497584.175       -1339.399          42.000  
G19  24359401.039   128009526.080       -4803.695          29.000                                                                  
G20  22182022.383   116567304.983       -2928.583          46.000                                                                  
G13  22188516.417   116601439.8073       1340.126          34.000                                                                  
G25  24196051.370   127151125.527       -2074.303          42.000    24196066.497    99078816.550       -1615.525          32.000  
G29  24797110.016   130309707.170        2034.247          44.000    24797112.873   101540013.925        1585.205          34.000  
> 2025 04 04 10 19 08.0030000  0  9                     
G05  21632119.548   113677581.089       -1396.558          46.000    21632119.601    88579921.675       -1088.489          35.000  
G06  24351284.256   127966865.834       -2551.557          41.000    24351299.204    99714498.807       -1988.041          42.000  
G12  23610198.845   124072455.597       -3402.694          42.000    23610204.447    96679836.271       -2651.196          38.000  
G11  22833390.200   119990273.411       -1719.100          42.000    22833392.222    93498923.495       -1339.532          42.000  
G19  24360315.225   128014329.621       -4803.970          28.000                                                                  
G20  22182579.568   116570233.408       -2928.815          45.000                                                                  
G13  22188262.565   116600106.6263       1341.668          30.000                                                                  
G25  24196446.042   127153199.906       -2074.843          42.000    24196463.630    99080432.898       -1617.039          31.000  
G29  24796722.921   130307672.807        2033.960          44.000    24796725.778   101538428.692        1585.052          33.000  
> 2025 04 04 10 19 09.0030000  0  9                     
G05  21632385.364   113678977.993       -1397.003          46.000    21632385.386    88581010.161       -1088.678          35.000  
G06  24351769.919   127969417.694       -2552.008          41.000    24351784.906    99716487.252       -1988.186          41.000  
G12  23610846.504   124075858.552       -3403.110          43.000    23610852.051    96682487.915       -2651.749          38.000  
G11  22833717.365   119991992.605       -1719.317          41.000    22833719.320    93500263.130       -1339.608          42.000  
G19  24361229.621   128019133.607       -4804.433          27.000                                                                  
G20  22183136.913   116573162.233       -2928.813          45.000                                                                  
G13  22188008.345   116598770.5362       1338.643          30.000                                                                  
G25  24196840.973   127155275.002       -2075.240          42.000    24196858.729    99082049.896       -1617.217          29.000  
G29  24796335.939   130305638.839        2033.905          44.000    24796338.801   101536843.771        1585.046          32.000  
> 2025 04 04 10 19 10.0030000  0  9                     
G05  21632651.248   113680375.543       -1397.601          46.000    21632651.287    88582099.180       -1089.581          35.000  
G06  24352255.500   127971969.905       -2552.154          40.000    24352270.584    99718476.054       -1988.676          42.000  
G12  23611494.212   124079262.036       -3403.502          43.000    23611499.757    96685140.002       -2651.927          37.000  
G11  22834044.545   119993712.163       -1719.550          42.000    22834046.517    93501603.020       -1339.902          43.000  
G19  24362144.125   128023938.029       -4803.857          27.000                                                                  
G20  22183694.297   116576091.485       -2929.219          46.000                                                                  
G13  22187755.983   116597443.9693       1338.706          34.000                                                                  
G25  24197236.080   127157350.810       -2075.798          42.000    24197254.354    99083667.416       -1617.874          31.000  
G29  24795948.884   130303605.230        2033.673          43.000    24795951.838   101535259.173        1584.912          33.000  
> 2025 04 04 10 19 11.0030000  0  9                     
G05  21632917.382   113681773.521       -1398.114          46.000    21632917.210    88583188.490       -1088.892          35.000  
G06  24352741.243   127974522.276       -2552.234          40.000    24352756.329    99720464.889       -1988.713          42.000  
G12  23612142.015   124082665.870       -3403.862          43.000    23612147.469    96687792.354       -2652.442          38.000  
G11  22834371.830   119995431.880       -1719.527          42.000    22834373.729    93502943.060       -1339.842          42.000  
G19  24363058.569   128028742.801       -4804.798          32.000                                                                  
G20  22184251.837   116579020.852       -2929.190          45.000                                                                  
G13  22187498.704   116596091.7473       1338.046          36.000                                                                  
G25  24197631.154   127159427.117       -2076.355          42.000    24197649.393    99085285.278       -1617.750          30.000  
G29  24795561.873   130301571.823        2033.563          44.000    24795564.948   101533674.703        1584.760          33.000  
> 2025 04 04 10 19 12.0030000  0  9                     
G05  21633183.587   113683172.131       -1398.358          46.000    21633183.253    88584278.317       -1089.679          35.000  
G06  24353227.026   127977075.038       -2552.473          40.000    24353242.185    99722454.059       -1988.868          42.000  
G12  23612789.838   124086070.240       -3404.113          42.000    23612795.355    96690445.108       -2652.416          38.000  
G11  22834699.072   119997151.946       -1719.610          42.000    22834701.040    93504283.369       -1339.712          42.000  
G19  24363973.140   128033548.212       -4805.677          33.000                                                                  
G20  22184809.404   116581950.620       -2929.326          46.000                                                                  
G13  22187245.065   116594759.1872       1337.731          37.000                                                                  
G25  24198026.504   127161504.156       -2076.970          42.000    24198044.603    99086903.762       -1618.350          30.000  
G29  24795175.127   130299538.789        2033.697          44.000    24795178.052   101532090.528        1584.222          34.000  
> 2025 04 04 10 19 13.0030000  0  9                     
G05  21633449.772   113684570.939       -1398.645          46.000    21633449.393    88585368.291       -1089.478          35.000  
G06  24353712.798   127979627.708       -2552.305          40.000    24353727.897    99724443.155       -1988.693          42.000  
G12  23613437.765   124089474.745       -3404.529          42.000    23613443.276    96693097.984       -2653.026          39.000  
G11  22835026.315   119998871.948       -1719.997          42.000    22835028.480    93505623.612       -1340.020          41.000  
G19  24364887.625   128038353.600       -4804.995          33.000                                                                  
G20  22185366.911   116584880.324       -2929.413          46.000                                                                  
G13  22186990.862   116593423.8102       1337.554          36.000                                                                  
G25  24198421.789   127163581.444       -2077.063          41.000    24198439.883    99088522.441       -1619.740          30.000  
G29  24794788.243   130297505.704        2033.234          44.000    24794791.233   101530506.325        1584.515          34.000  
> 2025 04 04 10 19 14.0030000  0  9                     
G05  21633715.988   113685969.968       -1399.469          46.000    21633715.603    88586458.460       -1090.253          35.000  
G06  24354198.506   127982180.367       -2553.176          40.000    24354213.678    99726432.231       -1989.260          42.000  
G12  23614085.761   124092879.348       -3404.832          42.000    23614091.242    96695750.931       -2653.366          39.000  
G11  22835353.590   120000591.858       -1720.100          42.000    22835355.843    93506963.802       -1339.964          42.000  
G19  24365802.075   128043159.179       -4805.936          33.000                                                                  
G20  22185924.334   116587809.974       -2929.974          46.000                                                                  
G13  22186736.535   116592086.6792       1336.830          36.000                                                                  
G25  24198817.247   127165659.019       -2078.262          41.000    24198835.332    99090141.296       -1618.514          31.000  
G29  24794401.367   130295472.557        2032.764          43.000    24794404.242   101528922.038        1584.027          34.000  
> 2025 04 04 10 19 15.0030000  0  9                     
G05  21633982.334   113687369.065       -1399.213          46.000    21633981.793    88587548.687       -1090.442          35.000  
G06  24354684.190   127984732.796       -2552.357          40.000    24354699.351    99728421.140       -1988.836          42.000  
G12  23614733.534   124096283.966       -3404.659          42.000    23614739.262    96698403.867       -2653.150          39.000  
G11  22835680.783   120002311.573       -1719.415          42.000    22835682.991    93508303.856       -1339.694          42.000  
G19  24366716.734   128047964.667       -4804.986          33.000                                                                  
G20  22186481.735   116590739.428       -2929.338          45.000                                                                  
G13  22186481.944   116590749.5562       1337.229          34.000                                                                  
G25  24199212.768   127167736.724       -2077.853          41.000    24199230.828    99091760.354       -1619.583          31.000  
G29  24794014.461   130293439.220        2033.667          43.000    24794017.255   101527337.604        1584.698          34.000  
> 2025 04 04 10 19 16.0030000  0  9                     
G05  21634248.702   113688768.392       -1399.554          46.000    21634248.040    88588639.055       -1090.234          35.000  
G06  24355169.927   127987285.204       -2552.443          40.000    24355184.963    99730410.024       -1988.844          42.000  
G12  23615381.427   124099688.713       -3404.883          42.000    23615387.206    96701056.910       -2653.264          39.000  
G11  22836008.033   120004031.243       -1719.950          42.000    22836010.188    93509643.863       -1340.165          42.000  
G19  24367631.251   128052770.280       -4805.777          32.000                                                                  
G20  22187039.211   116593668.847       -2929.377          46.000                                                                  
G13  22186227.304   116589412.7172       1336.448          35.000                                                                  
G25  24199608.282   127169814.732       -2078.238          41.000    24199626.344    99093379.544       -1619.613          31.000  
G29  24793627.457   130291405.863        2033.337          43.000    24793630.336   101525753.173        1584.143          34.000  
> 2025 04 04 10 19 17.0030000  0  9                     
G05  21634515.020   113690168.123       -1400.299          46.000    21634514.451    88589729.759       -1090.924          36.000  
G06  24355655.702   127989837.739       -2552.606          40.000    24355670.692    99732399.022       -1988.981          42.000  
G12  23616029.429   124103093.762       -3405.157          42.000    23616035.154    96703710.197       -2653.268          39.000  
G11  22836335.234   120005751.015       -1719.848          42.000    22836337.562    93510983.967       -1340.179          42.000  
G19  24368545.704   128057576.167       -4805.948          33.000                                                                  
G20  22187596.757   116596598.397       -2929.643          46.000                                                                  
G13  22185972.876   116588076.2102       1336.646          35.000                                                                  
G25  24200003.847   127171893.225       -2078.986          41.000    24200021.875    99094999.116       -1618.851          31.000  
G29  24793240.478   130289372.641        2033.185          44.000    24793243.523   101524168.879        1584.155          34.000  
> 2025 04 04 10 19 18.0030000  0 10                     
G05  21634781.601   113691568.511       -1400.653          46.000    21634780.936    88590820.978       -1091.309          36.000  
G06  24356141.587   127992390.680       -2552.984          40.000    24356156.478    99734388.314       -1989.313          42.000  
G12  23616677.529   124106499.403       -3405.261          42.000    23616683.220    96706363.925       -2653.692          39.000  
G11  22836662.526   120007471.202       -1720.170          42.000    22836664.972    93512324.360       -1340.291          42.000  
G19  24369460.506   128062382.642       -4806.963          33.000                                                                  
G20  22188154.312   116599528.354       -2929.977          46.000                                                                  
G13  22185718.600   116586740.4322       1335.090          35.000                                                                  
G30  26515149.198                        -366.383          23.000                                                                  
G25  24200399.603   127173972.421       -2079.184          41.000    24200417.489    99096619.258       -1619.280          31.000  
G29  24792853.642   130287339.839        2032.800          44.000    24792856.736   101522584.857        1584.345          34.000  
> 2025 04 04 10 19 19.0030000  0  9                     
G05  21635048.134   113692969.055       -1400.922          46.000    21635047.531    88591912.332       -1091.834          36.000  
G06  24356627.410   127994943.513       -2553.120          40.000    24356642.387    99736377.531       -1989.170          42.000  
G12  23617325.611   124109905.100       -3405.791          42.000    23617331.317    96709017.694       -2653.491          39.000  
G11  22836989.777   120009191.226       -1720.020          42.000    22836992.274    93513664.630       -1340.177          42.000  
G19  24370375.060   128067189.049       -4806.184          32.000                                                                  
G20  22188711.847   116602458.187       -2929.983          46.000                                                                  
G13  22185464.396   116585404.1381       1335.864          37.000                                                                  
G25  24200795.334   127176051.872       -2079.818          41.000    24200813.230    99098239.649       -1619.967          31.000  
G29  24792466.801   130285306.908        2033.038          44.000    24792469.782   101521000.810        1582.855          34.000  
> 2025 04 04 10 19 20.0030000  0  9                     
G05  21635314.748   113694370.019       -1401.361          46.000    21635314.083    88593003.972       -1091.864          36.000  
G06  24357113.191   127997496.478       -2552.997          40.000    24357128.214    99738366.864       -1989.405          42.000  
G12  23617973.888   124113311.139       -3406.140          42.000    23617979.515    96711671.761       -2654.268          39.000  
G11  22837317.011   120010911.430       -1720.355          42.000    22837319.659    93515005.047       -1340.429          42.000  
G19  24371289.952   128071995.837       -4806.424          31.000                                                                  
G20  22189269.342   116605388.185       -2930.282          46.000                                                                  
G13  22185210.262   116584068.934        1334.733          38.000                                                                  
G25  24201191.147   127178131.820       -2080.327          41.000    24201209.037    99099860.360       -1620.365          30.000  
G29  24792080.063   130283274.167        2032.562          44.000    24792082.948   101519416.786        1584.607          33.000  
> 2025 04 04 10 19 21.0030000  0  9                     
G05  21635581.396   113695771.465       -1401.672          46.000    21635580.820    88594096.013       -1092.023          36.000  
G06  24357599.062   128000049.680       -2553.340          41.000    24357614.131    99740356.370       -1989.780          43.000  
G12  23618622.188   124116717.559       -3406.575          43.000    23618627.744    96714326.121       -2654.453          38.000  
G11  22837644.402   120012631.838       -1720.447          42.000    22837646.987    93516345.638       -1340.595          42.000  
G19  24372204.682   128076803.015       -4807.102          31.000                                                                  
G20  22189826.914   116608318.397       -2930.118          46.000                                                                  
G13  22184956.167   116582734.173        1334.677          38.000                                                                  
G25  24201587.101   127180212.294       -2080.552          42.000    24201604.953    99101481.575       -1621.361          30.000  
G29  24791693.216   130281241.636        2032.538          44.000    24791696.090   101517833.042        1583.411          33.000  
> 2025 04 04 10 19 22.0030000  0  9                     
G05  21635848.146   113697173.436       -1402.417          46.000    21635847.634    88595188.449       -1092.578          37.000  
G06  24358084.956   128002603.140       -2553.618          41.000    24358100.126    99742346.047       -1989.905          42.000  
G12  23619270.407   124120124.415       -3407.080          42.000    23619276.024    96716980.820       -2654.818          39.000  
G11  22837971.573   120014352.479       -1720.931          42.000    22837974.396    93517686.397       -1340.929          42.000  
G19  24373119.520   128081610.580       -4808.330          31.000                                                                  
G20  22190384.654   116611248.878       -2930.801          46.000                                                                  
G13  22184702.286   116581400.006        1333.906          32.000                                                                  
G25  24201983.124   127182293.364       -2081.489          42.000    24202001.033    99103103.193       -1622.337          31.000  
G29  24791306.452   130279209.371        2032.007          44.000    24791309.356   101516249.458        1582.935          33.000  
> 2025 04 04 10 19 23.0030000  0  9                     
G05  21636115.033   113698576.175       -1402.985          46.000    21636114.635    88596281.509       -1093.530          37.000  
G06  24358570.989   128005157.079       -2554.084          41.000    24358586.168    99744336.111       -1990.002          42.000  
G12  23619918.968   124123531.948       -3407.813          43.000    23619924.454    96719636.035       -2655.341          39.000  
G11  22838299.013   120016073.614       -1721.278          42.000    22838301.963    93519027.532       -1341.410          43.000  
G19  24374034.794   128086418.776       -4809.344          31.000                                                                  
G20  22190942.469   116614179.849       -2931.136          45.000                                                                  
G13  22184448.646   116580066.513        1333.167          32.000                                                                  
G25  24202379.315   127184375.266       -2082.141          42.000    24202397.221    99104725.413       -1622.732          32.000  
G29  24790919.886   130277177.601        2031.683          44.000    24790922.640   101514666.243        1583.282          33.000  
> 2025 04 04 10 19 24.0030000  0  9                     
G05  21636382.029   113699979.458       -1403.784          45.000    21636381.733    88597374.976       -1093.549          37.000  
G06  24359057.093   128007711.300       -2554.474          41.000    24359072.344    99746326.431       -1990.706          42.000  
G12  23620567.605   124126939.943       -3408.195          43.000    23620572.968    96722291.622       -2656.031          39.000  
G11  22838626.579   120017795.026       -1721.881          42.000    22838629.610    93520368.888       -1341.534          43.000  
G19  24374949.966   128091227.396       -4808.888          32.000                                                                  
G20  22191500.188   116617111.094       -2931.638          45.000                                                                  
G13  22184195.133   116578733.599        1332.406          36.000                                                                  
G25  24202775.691   127186457.793       -2083.073          42.000    24202793.494    99106348.092       -1622.591          32.000  
G29  24790533.418   130275146.147        2031.061          43.000    24790536.090   101513083.270        1583.362          33.000  
> 2025 04 04 10 19 25.0030000  0  9                     
G05  21636649.291   113701383.498       -1404.309          46.000    21636648.875    88598469.039       -1094.019          37.000  
G06  24359543.293   128010266.028       -2554.913          41.000    24359558.530    99748317.117       -1990.803          43.000  
G12  23621216.234   124130348.583       -3409.183          43.000    23621221.604    96724947.728       -2656.353          39.000  
G11  22838954.173   120019516.897       -1722.054          42.000    22838957.332    93521710.587       -1341.969          43.000  
G19  24375865.173   128096036.662       -4809.851          30.000                                                                  
G20  22192058.076   116620042.835       -2931.823          46.000                                                                  
G13  22183941.710   116577401.323        1332.036          35.000                                                                  
G25  24203172.202   127188541.143       -2083.187          41.000    24203190.017    99107971.515       -1623.045          32.000  
G29  24790146.976   130273115.185        2030.664          43.000    24790149.648   101511500.738        1582.562          33.000  
> 2025 04 04 10 19 26.0030000  0  9                     
G05  21636916.572   113702788.243       -1404.828          46.000    21636916.179    88599563.685       -1094.733          37.000  
G06  24360029.617   128012821.186       -2554.956          41.000    24360044.813    99750308.172       -1990.673          41.000  
G12  23621865.002   124133757.900       -3409.393          43.000    23621870.385    96727604.335       -2656.965          38.000  
G11  22839281.865   120021239.235       -1722.329          42.000    22839285.079    93523052.677       -1342.006          43.000  
G19  24376780.472   128100846.489       -4809.681          35.000                                                                  
G20  22192616.043   116622975.044       -2932.155          46.000                                                                  
G13  22183688.475   116576069.895        1330.591          32.000                                                                  
G25  24203568.821   127190625.290       -2084.413          41.000    24203586.693    99109595.523       -1624.636          32.000  
G29  24789760.606   130271084.678        2030.603          44.000    24789763.219   101509918.488        1582.440          33.000  
