     3.04           OBSERVATION DATA    M: Mixed            RINEX VERSION / TYPE
RTKCONV demo5 b34i                      20250404 085105 UTC PGM / RUN BY / DATE 
format: u-blox UBX                                          COMMENT             
log: D:\20242\demo5_b34i\data\khac\d0\svd2_0m.ubx           COMMENT             
                                                            MARKER NAME         
                                                            MARKER NUMBER       
                                                            MARKER TYPE         
                                                            OBSERVER / AGENCY   
                                                            REC # / TYPE / VERS 
                                                            ANT # / TYPE        
 -1626737.2546  5730519.2225  2271688.0098                  APPROX POSITION XYZ 
        0.0000        0.0000        0.0000                  ANTENNA: DELTA H/E/N
G    8 C1C L1C D1C S1C C2X L2X D2X S2X                      SYS / # / OBS TYPES 
  2025    04    04    08    35   51.0000000     GPS         TIME OF FIRST OBS   
  2025    04    04    08    50   56.0010000     GPS         TIME OF LAST OBS    
G L1C                                                       SYS / PHASE SHIFT   
G L2X  0.00000                                              SYS / PHASE SHIFT   
  0                                                         GLONASS SLOT / FRQ #
 C1C    0.000 C1P    0.000 C2C    0.000 C2P    0.000        GLONASS COD/PHS/BIS 
                                                            END OF HEADER       
> 2025 04 04 08 35 51.0000000  0 10                     
G06  22364119.293   117524239.3261      -2442.417          44.000    22364123.036    91577345.0771      -1903.313          40.000  
G11  21867959.689   114916904.5171      -1430.844          45.000    21867960.619    89545643.2281      -1114.982          44.000  
G12  22227846.920   116808123.8631        -53.281          46.000    22227850.992    91019330.8491        -41.533          40.000  
G17  23002988.555   120881522.1171      -3055.371          38.000    23002997.324    94193426.0181      -2381.099          33.000  
G19  20972236.336   110209844.0821      -2214.777          45.000                                                                  
G20  20542739.460   107952825.5591       -897.413          42.000                                                                  
G05  22498425.207   118230022.3271       1416.593          41.000    22498429.617    92127308.7761       1103.712          38.000  
G09  23676963.730   124423279.4111      -2074.047          34.000    23676973.011    96953231.1401      -1615.891          32.000  
G22  23433837.541   123145647.8191      -4538.611          41.000                                                                  
G13  25121993.777   132016970.4151       1468.540          36.000                                                                  
> 2025 04 04 08 35 52.0000000  0 10                     
G06  22364584.209   117526682.265       -2443.487          44.000    22364587.842    91579248.664       -1904.123          40.000  
G11  21868232.117   114918336.117       -1431.996          45.000    21868233.083    89546758.774       -1116.063          44.000  
G12  22227857.371   116808178.022         -54.818          46.000    22227861.341    91019373.058         -42.960          40.000  
G17  23003570.363   120884579.025       -3057.181          38.000    23003579.035    94195808.009       -2382.113          32.000  
G19  20972657.962   110212059.768       -2216.449          45.000                                                                  
G20  20542910.371   107953723.812        -898.855          42.000                                                                  
G05  22498155.797   118228606.765        1414.778          41.000    22498160.176    92126205.749        1102.626          38.000  
G09  23677358.677   124425354.446       -2075.488          37.000    23677367.824    96954848.017       -1617.408          33.000  
G22  23434701.291   123150187.190       -4539.808          41.000                                                                  
G13  25121714.403   132015502.418        1467.786          36.000                                                                  
> 2025 04 04 08 35 53.0000000  0 10                     
G06  22365049.300   117529126.223       -2444.795          44.000    22365052.911    91581153.020       -1904.885          40.000  
G11  21868504.756   114919768.818       -1433.468          45.000    21868505.735    89547875.151       -1117.035          45.000  
G12  22227868.007   116808233.857         -57.035          46.000    22227871.981    91019416.534         -44.158          41.000  
G17  23004152.293   120887637.253       -3059.078          38.000    23004160.932    94198191.034       -2383.485          32.000  
G19  20973079.946   110214276.942       -2218.219          44.000                                                                  
G20  20543081.452   107954623.601        -900.772          42.000                                                                  
G05  22497886.681   118227192.629        1413.104          41.000    22497891.151    92125103.811        1101.199          38.000  
G09  23677753.764   124427431.011       -2077.385          37.000    23677763.221    96956466.121       -1618.954          34.000  
G22  23435565.354   123154727.716       -4541.151          41.000                                                                  
G13  25121435.122   132014035.164        1466.853          36.000                                                                  
> 2025 04 04 08 35 54.0000000  0 11                     
G06  22365514.594   117531571.221       -2445.576          44.000    22365518.149    91583058.215       -1905.464          40.000  
G11  21868777.633   114921202.655       -1434.244          45.000    21868778.519    89548992.431       -1117.625          45.000  
G12  22227878.885   116808291.373         -58.119          46.000    22227882.881    91019461.373         -45.693          41.000  
G17  23004734.452   120890696.997       -3060.285          39.000    23004743.063    94200575.217       -2384.587          33.000  
G19  20973502.248   110216495.635       -2219.360          45.000                                                                  
G20  20543252.947   107955524.986        -902.164          43.000                                                                  
G05  22497617.721   118225779.950        1412.114          42.000    22497622.384    92124003.051        1100.354          38.000  
G09  23678149.221   124429509.179       -2078.434          37.000    23678158.787    96958085.488       -1620.005          34.000  
G25  24541401.200                        1163.081          20.000                                                                  
G22  23436429.586   123159269.436       -4542.084          40.000                                                                  
G13  25121156.069   132012568.756        1466.213          36.000                                                                  
> 2025 04 04 08 35 55.0000000  0 11                     
G06  22365979.917   117534017.084       -2446.739          44.000    22365983.621    91584964.104       -1906.828          40.000  
G11  21869050.681   114922637.466       -1435.814          45.000    21869051.556    89550110.463       -1118.763          44.000  
G12  22227890.099   116808350.423         -60.262          46.000    22227894.035    91019507.384         -47.019          40.000  
G17  23005316.865   120893757.914       -3062.211          39.000    23005325.501    94202960.317       -2385.361          33.000  
G19  20973924.824   110218715.678       -2221.539          45.000                                                                  
G20  20543424.703   107956427.762        -903.883          43.000                                                                  
G05  22497349.189   118224368.607        1410.078          41.000    22497353.780    92122903.287        1098.982          38.000  
G09  23678544.998   124431588.813       -2080.652          37.000    23678554.835    96959705.952       -1621.641          34.000  
G25  24541174.637                        1163.081          17.000                                                                  
G22  23437293.980   123163812.182       -4543.914          40.000                                                                  
G13  25120877.038   132011102.950        1464.789          36.000                                                                  
> 2025 04 04 08 35 56.0000000  0 11                     
G06  22366445.528   117536463.634       -2446.576          44.000    22366449.128    91586870.483       -1906.539          40.000  
G11  21869323.801   114924073.030       -1435.880          45.000    21869324.710    89551229.073       -1118.690          44.000  
G12  22227901.659   116808410.766         -60.564          46.000    22227905.520    91019554.404         -47.270          40.000  
G17  23005899.506   120896819.864       -3062.068          39.000    23005907.973    94205346.245       -2385.243          33.000  
G19  20974347.524   110220936.855       -2221.405          45.000                                                                  
G20  20543596.777   107957331.740        -904.123          43.000                                                                  
G05  22497080.735   118222958.346        1409.786          41.000    22497085.387    92121804.387        1098.554          38.000  
G09  23678941.008   124433669.703       -2081.247          36.000    23678951.079    96961327.427       -1621.620          34.000  
G25  24540952.355                        1163.081          16.000                                                                  
G22  23438158.534   123168355.734       -4543.633          40.000                                                                  
G13  25120598.221   132009637.539        1465.396          36.000                                                                  
> 2025 04 04 08 35 57.0000000  0 11                     
G06  22366911.154   117538910.532       -2447.303          44.000    22366914.712    91588777.140       -1906.736          40.000  
G11  21869597.150   114925509.012       -1436.377          45.000    21869598.004    89552348.033       -1119.324          45.000  
G12  22227913.450   116808472.130         -62.173          46.000    22227917.222    91019602.214         -48.060          40.000  
G17  23006482.299   120899882.578       -3063.248          39.000    23006490.744    94207732.808       -2386.790          33.000  
G19  20974770.355   110223158.858       -2222.406          45.000                                                                  
G20  20543768.974   107958236.593        -905.268          43.000                                                                  
G05  22496812.502   118221548.828        1408.942          41.000    22496817.088    92120706.083        1097.825          38.000  
G09  23679337.121   124435751.462       -2082.406          36.000    23679347.443    96962949.593       -1622.516          34.000  
G25  24540727.116                        1163.081          12.000                                                                  
G22  23439023.120   123172899.795       -4544.590          41.000                                                                  
G13  25120319.320   132008172.223        1465.244          37.000                                                                  
> 2025 04 04 08 35 58.0000000  0 11                     
G06  22367376.936   117541358.210       -2447.971          44.000    22367380.421    91590684.435       -1907.712          40.000  
G11  21869870.503   114926945.888       -1437.210          45.000    21869871.435    89553467.677       -1119.989          44.000  
G12  22227925.405   116808534.912         -63.400          46.000    22227929.148    91019651.144         -49.551          40.000  
G17  23007065.300   120902946.430       -3064.227          40.000    23007073.562    94210120.227       -2387.691          32.000  
G19  20975193.367   110225382.143       -2223.804          45.000                                                                  
G20  20543941.417   107959142.769        -906.711          43.000                                                                  
G05  22496544.545   118220140.552        1407.851          41.000    22496549.048    92119608.719        1097.053          39.000  
G09  23679733.536   124437834.573       -2083.716          36.000    23679744.075    96964572.830       -1623.421          34.000  
G25  24540507.290                        1163.081          14.000                                                                  
G22  23439887.839   123177444.761       -4545.011          40.000                                                                  
G13  25120040.543   132006707.449        1464.611          36.000                                                                  
> 2025 04 04 08 35 59.0000000  0 10                     
G06  22367842.912   117543806.910       -2448.165          44.000    22367846.433    91592592.496       -1907.583          40.000  
G11  21870144.038   114928383.849       -1437.335          45.000    21870145.069    89554588.172       -1120.216          45.000  
G12  22227937.706   116808599.370         -64.209          46.000    22227941.363    91019701.353         -50.034          40.000  
G17  23007648.506   120906011.667       -3064.708          40.000    23007656.730    94212508.774       -2388.563          33.000  
G19  20975616.640   110227606.905       -2224.420          45.000                                                                  
G20  20544114.085   107960050.492        -907.436          43.000                                                                  
G05  22496276.777   118218733.713        1407.208          42.000    22496281.285    92118512.494        1096.096          38.000  
G09  23680130.231   124439919.336       -2084.412          35.000    23680140.990    96966197.286       -1624.385          34.000  
G22  23440752.895   123181990.910       -4545.550          40.000                                                                  
G13  25119761.984   132005243.440        1464.286          36.000                                                                  
> 2025 04 04 08 36 00.0000000  0 10                     
G06  22368308.844   117546255.164       -2447.635          45.000    22368312.418    91594500.222       -1906.844          40.000  
G11  21870417.571   114929821.481       -1437.003          45.000    21870418.601    89555708.399       -1119.771          45.000  
G12  22227950.149   116808664.030         -64.217          46.000    22227953.640    91019751.739         -49.979          41.000  
G17  23008231.777   120909076.859       -3064.633          39.000    23008240.006    94214897.210       -2387.952          33.000  
G19  20976040.147   110229831.716       -2224.457          45.000                                                                  
G20  20544286.801   107960958.306        -907.531          42.000                                                                  
G05  22496008.983   118217326.849        1407.343          41.000    22496013.569    92117416.240        1096.518          38.000  
G09  23680526.914   124442004.198       -2084.556          35.000    23680537.658    96967821.836       -1624.151          34.000  
G22  23441617.817   123186536.765       -4545.373          40.000                                                                  
G13  25119483.210   132003778.753        1465.502          37.000                                                                  
> 2025 04 04 08 36 01.0000000  0 10                     
G06  22368775.025   117548704.676       -2444.557          45.000    22368778.592    91596408.943       -1904.751          40.000  
G11  21870691.386   114931260.452       -1434.259          44.000    21870692.425    89556829.678       -1117.624          45.000  
G12  22227962.802   116808730.603         -61.872          46.000    22227966.241    91019803.627         -48.437          41.000  
G17  23008815.365   120912143.683       -3061.984          40.000    23008823.706    94217286.927       -2385.556          33.000  
G19  20976463.858   110232058.238       -2221.533          45.000                                                                  
G20  20544459.896   107961867.896        -904.611          43.000                                                                  
G05  22495741.510   118215921.679        1409.897          41.000    22495746.177    92116321.279        1098.902          38.000  
G09  23680923.874   124444090.871       -2081.934          36.000    23680934.877    96969447.797       -1621.726          34.000  
G22  23442483.078   123191083.988       -4541.864          41.000                                                                  
G13  25119204.673   132002315.011        1469.152          37.000                                                                  
> 2025 04 04 08 36 02.0000000  0 10                     
G06  22369240.482   117551150.990       -2446.292          45.000    22369244.139    91598315.149       -1906.065          40.000  
G11  21870964.496   114932696.292       -1435.782          44.000    21870965.566    89557948.515       -1118.745          44.000  
G12  22227974.788   116808794.613         -64.469          46.000    22227978.369    91019853.475         -49.778          40.000  
G17  23009398.397   120915207.684       -3064.261          40.000    23009406.811    94219674.439       -2386.615          33.000  
G19  20976886.983   110234282.083       -2224.750          45.000                                                                  
G20  20544632.410   107962774.862        -907.647          43.000                                                                  
G05  22495473.603   118214513.706        1407.789          41.000    22495478.345    92115224.162        1097.373          38.000  
G09  23681320.295   124446174.961       -2084.874          35.000    23681331.404    96971071.762       -1624.057          34.000  
G22  23443347.823   123195628.204       -4544.708          41.000                                                                  
G13  25118925.452   132000847.865        1467.442          37.000                                                                  
> 2025 04 04 08 36 03.0000000  0 10                     
G06  22369705.904   117553596.741       -2446.118          45.000    22369709.635    91600220.941       -1905.936          40.000  
G11  21871237.642   114934131.680       -1435.983          44.000    21871238.852    89559067.005       -1119.049          45.000  
G12  22227987.055   116808858.711         -65.028          46.000    22227990.581    91019903.443         -50.724          41.000  
G17  23009981.458   120918271.490       -3064.516          40.000    23009989.832    94222061.834       -2387.949          33.000  
G19  20977310.163   110236505.782       -2224.561          45.000                                                                  
G20  20544804.965   107963681.745        -907.739          42.000                                                                  
G05  22495205.716   118213105.616        1407.080          41.000    22495210.325    92114126.962        1096.391          38.000  
G09  23681716.896   124448258.969       -2085.135          35.000    23681728.023    96972695.747       -1625.446          34.000  
G22  23444212.557   123200171.954       -4544.416          41.000                                                                  
G13  25118646.104   131999379.912        1467.331          37.000                                                                  
> 2025 04 04 08 36 04.0000000  0 10                     
G06  22370171.670   117556043.816       -2450.199          45.000    22370175.395    91602127.744       -1909.415          40.000  
G11  21871511.044   114935568.464       -1439.908          44.000    21871512.216    89560186.560       -1121.900          45.000  
G12  22227999.542   116808924.761         -69.570          46.000    22228003.122    91019954.908         -54.035          41.000  
G17  23010564.819   120921336.978       -3068.873          41.000    23010572.954    94224450.526       -2390.514          33.000  
G19  20977733.659   110238731.301       -2229.181          44.000                                                                  
G20  20544977.750   107964590.507        -912.590          42.000                                                                  
G05  22494938.121   118211699.255        1403.014          41.000    22494942.655    92113031.093        1093.388          38.000  
G09  23682113.655   124450344.931       -2089.293          35.000    23682125.091    96974321.105       -1628.477          34.000  
G22  23445077.496   123204717.188       -4548.672          41.000                                                                  
G13  25118367.085   131997912.973        1464.111          37.000                                                                  
> 2025 04 04 08 36 05.0000000  0 10                     
G06  22370637.467   117558491.815       -2448.851          45.000    22370641.258    91604035.268       -1908.009          40.000  
G11  21871784.602   114937006.280       -1438.711          44.000    21871785.758    89561306.941       -1121.081          44.000  
G12  22228012.411   116808992.409         -68.803          46.000    22228016.018    91020007.623         -53.564          40.000  
G17  23011148.346   120924403.787       -3067.761          40.000    23011156.425    94226840.282       -2391.292          33.000  
G19  20978157.477   110240958.216       -2227.942          45.000                                                                  
G20  20545150.998   107965500.719        -911.326          42.000                                                                  
G05  22494670.771   118210294.276        1403.853          41.000    22494675.318    92111936.307        1094.031          38.000  
G09  23682510.958   124452432.351       -2088.246          35.000    23682522.437    96975947.677       -1627.551          34.000  
G22  23445942.534   123209263.484       -4547.171          41.000                                                                  
G13  25118088.111   131996446.772        1465.461          38.000                                                                  
> 2025 04 04 08 36 06.0000000  0 10                     
G06  22371103.393   117560940.005       -2447.778          45.000    22371107.130    91605942.963       -1907.608          40.000  
G11  21872058.227   114938444.346       -1437.621          44.000    21872059.475    89562427.519       -1120.151          45.000  
G12  22228025.499   116809060.886         -68.362          46.000    22228029.013    91020060.978         -53.102          40.000  
G17  23011732.058   120927471.145       -3066.999          40.000    23011740.029    94229230.433       -2390.365          33.000  
G19  20978581.302   110243185.782       -2227.393          45.000                                                                  
G20  20545324.250   107966411.638        -910.718          42.000                                                                  
G05  22494403.456   118208889.869        1404.512          42.000    22494408.059    92110841.967        1094.413          38.000  
G09  23682908.362   124454520.556       -2087.801          35.000    23682919.868    96977574.840       -1627.114          34.000  
G22  23446807.664   123213810.115       -4546.628          41.000                                                                  
G13  25117809.042   131994980.458        1466.645          38.000                                                                  
> 2025 04 04 08 36 07.0000000  0 10                     
G06  22371569.160   117563387.600       -2447.563          45.000    22371572.804    91607850.163       -1907.037          40.000  
G11  21872331.682   114939881.932       -1437.626          44.000    21872332.988    89563547.705       -1120.106          44.000  
G12  22228038.574   116809129.442         -68.985          46.000    22228042.072    91020114.386         -53.613          40.000  
G17  23012315.669   120930538.287       -3067.182          39.000    23012323.670    94231620.375       -2390.039          33.000  
G19  20979005.127   110245413.262       -2227.856          45.000                                                                  
G20  20545497.518   107967322.528        -911.344          42.000                                                                  
G05  22494136.239   118207485.305        1404.364          42.000    22494140.794    92109747.515        1094.269          38.000  
G09  23683305.679   124456608.701       -2088.497          35.000    23683317.461    96979202.015       -1627.350          33.000  
G22  23447672.746   123218356.270       -4546.106          41.000                                                                  
G13  25117529.857   131993513.291        1467.638          37.000                                                                  
> 2025 04 04 08 36 08.0000000  0 10                     
G06  22372034.952   117565835.076       -2447.371          45.000    22372038.606    91609757.286       -1906.795          40.000  
G11  21872605.219   114941319.466       -1437.222          45.000    21872606.420    89564667.875       -1120.077          45.000  
G12  22228051.629   116809198.489         -69.026          46.000    22228055.228    91020168.204         -53.771          40.000  
G17  23012899.351   120933605.694       -3067.428          40.000    23012907.375    94234010.559       -2389.601          33.000  
G19  20979429.009   110247641.093       -2227.679          45.000                                                                  
G20  20545670.984   107968233.811        -911.354          42.000                                                                  
G05  22493869.037   118206081.048        1404.362          42.000    22493873.542    92108653.284        1094.438          38.000  
G09  23683703.032   124458697.351       -2088.372          35.000    23683714.836    96980829.483       -1626.953          34.000  
G22  23448537.837   123222902.469       -4545.891          41.000                                                                  
G13  25117250.675   131992045.793        1467.917          37.000                                                                  
> 2025 04 04 08 36 09.0000000  0 11                     
G06  22372500.714   117568282.382       -2446.879          45.000    22372504.319    91611664.265       -1906.273          40.000  
G11  21872878.895   114942756.933       -1437.052          45.000    21872880.056    89565787.975       -1119.674          45.000  
G12  22228064.971   116809268.034         -69.351          46.000    22228068.529    91020222.393         -54.008          41.000  
G17  23013483.116   120936673.299       -3067.267          40.000    23013491.064    94236400.903       -2390.031          33.000  
G19  20979852.946   110249869.232       -2227.716          45.000                                                                  
G20  20545844.506   107969145.451        -911.605          42.000                                                                  
G05  22493601.929   118204677.058        1404.131          41.000    22493606.244    92107559.254        1094.280          38.000  
G09  23684100.493   124460786.392       -2088.757          35.000    23684112.253    96982457.300       -1627.368          33.000  
G14  25155456.207                       -4869.102          19.000                                                                  
G22  23449402.938   123227448.631       -4545.750          41.000                                                                  
G13  25116971.446   131990577.846        1468.537          37.000                                                                  
> 2025 04 04 08 36 10.0000000  0 11                     
G06  22372966.361   117570729.734       -2447.294          45.000    22372970.043    91613571.320       -1907.350          40.000  
G11  21873152.517   114944194.535       -1437.654          45.000    21873153.654    89566908.178       -1120.113          45.000  
G12  22228078.305   116809338.290         -70.586          46.000    22228081.971    91020277.128         -54.997          41.000  
G17  23014066.937   120939741.319       -3067.888          40.000    23014074.900    94238791.595       -2391.084          33.000  
G19  20980277.124   110252097.900       -2228.741          45.000                                                                  
G20  20546017.972   107970057.661        -912.441          42.000                                                                  
G05  22493334.813   118203273.501        1403.703          40.000    22493339.262    92106465.617        1093.378          38.000  
G09  23684498.214   124462876.023       -2089.868          35.000    23684509.922    96984085.592       -1628.229          34.000  
G14  25156382.385                       -4869.102          18.000                                                                  
G22  23450268.050   123231994.991       -4546.062          41.000                                                                  
G13  25116692.027   131989109.695        1468.160          37.000                                                                  
> 2025 04 04 08 36 11.0000000  0 11                     
G06  22373432.115   117573176.624       -2446.892          45.000    22373435.729    91615477.975       -1906.719          40.000  
G11  21873426.091   114945631.751       -1437.230          44.000    21873427.194    89568028.082       -1119.719          44.000  
G12  22228091.637   116809408.706         -70.793          46.000    22228095.382    91020332.002         -55.029          40.000  
G17  23014650.726   120942809.257       -3067.990          40.000    23014658.545    94241182.197       -2391.079          33.000  
G19  20980701.261   110254326.577       -2228.943          45.000                                                                  
G20  20546191.542   107970969.947        -912.583          42.000                                                                  
G05  22493067.709   118201869.940        1403.288          41.000    22493072.116    92105371.943        1093.279          38.000  
G09  23684895.960   124464965.743       -2089.764          35.000    23684907.687    96985713.983       -1629.077          34.000  
G14  25157315.940                       -4869.102          17.000                                                                  
G22  23451133.004   123236541.040       -4546.138          41.000                                                                  
G13  25116412.529   131987640.836        1468.964          37.000                                                                  
> 2025 04 04 08 36 12.0000000  0 11                     
G06  22373897.695   117575623.178       -2446.180          45.000    22373901.240    91617384.362       -1905.973          40.000  
G11  21873699.502   114947068.732       -1436.714          44.000    21873700.693    89569147.811       -1119.470          45.000  
G12  22228105.115   116809479.460         -70.830          46.000    22228108.784    91020387.137         -55.261          41.000  
G17  23015234.523   120945877.251       -3068.076          40.000    23015242.320    94243572.821       -2391.135          33.000  
G19  20981125.456   110256555.399       -2228.632          45.000                                                                  
G20  20546365.290   107971882.441        -912.439          42.000                                                                  
G05  22492800.718   118200466.473        1403.657          41.000    22492805.049    92104278.310        1093.589          38.000  
G09  23685293.623   124467055.743       -2090.076          35.000    23685305.466    96987342.545       -1628.778          34.000  
G14  25158236.976                       -4869.102          17.000                                                                  
G22  23451997.919   123241086.910       -4545.585          40.000                                                                  
G13  25116132.850   131986171.399        1469.777          37.000                                                                  
> 2025 04 04 08 36 13.0000000  0 11                     
G06  22374363.393   117578069.631       -2446.871          45.000    22374366.755    91619290.697       -1906.689          40.000  
G11  21873972.910   114948505.688       -1437.450          45.000    21873974.063    89570267.519       -1120.038          45.000  
G12  22228118.674   116809550.739         -71.914          46.000    22228122.401    91020442.662         -56.030          40.000  
G17  23015818.444   120948945.507       -3069.013          40.000    23015826.080    94245963.605       -2390.321          33.000  
G19  20981549.688   110258784.577       -2229.785          45.000                                                                  
G20  20546539.044   107972795.351        -913.652          42.000                                                                  
G05  22492533.640   118199063.314        1402.752          41.000    22492538.001    92103184.948        1092.942          38.000  
G09  23685691.335   124469146.172       -2090.808          35.000    23685703.503    96988971.475       -1629.449          34.000  
G14  25159168.422                       -4869.102          16.000                                                                  
G22  23452862.916   123245632.784       -4546.200          40.000                                                                  
G13  25115853.208   131984701.573        1469.549          37.000                                                                  
> 2025 04 04 08 36 14.0000000  0 11                     
G06  22374828.967   117580516.292       -2446.545          45.000    22374832.413    91621197.175       -1906.442          40.000  
G11  21874246.422   114949942.943       -1437.091          44.000    21874247.733    89571387.468       -1119.836          44.000  
G12  22228132.358   116809622.884         -72.368          46.000    22228136.149    91020498.883         -56.387          41.000  
G17  23016402.407   120952014.334       -3068.772          40.000    23016410.147    94248354.937       -2391.237          33.000  
G19  20981973.945   110261014.454       -2230.066          45.000                                                                  
G20  20546712.885   107973708.996        -913.745          42.000                                                                  
G05  22492266.821   118197660.776        1402.581          41.000    22492271.158    92102092.084        1092.751          38.000  
G09  23686089.268   124471237.409       -2091.467          35.000    23686101.707    96990601.013       -1629.895          34.000  
G14  25160097.646                       -4869.102          16.000                                                                  
G22  23453727.946   123250179.034       -4545.902          40.000                                                                  
G13  25115573.459   131983231.715        1470.209          37.000                                                                  
> 2025 04 04 08 36 15.0000000  0 12                     
G06  22375294.599   117582963.077       -2447.149          45.000    22375298.116    91623103.762       -1906.892          40.000  
G11  21874520.008   114951380.402       -1437.700          44.000    21874521.220    89572507.573       -1120.509          44.000  
G12  22228146.344   116809695.792         -73.557          46.000    22228150.036    91020555.696         -57.060          41.000  
G17  23016986.536   120955083.680       -3070.135          40.000    23016994.036    94250746.597       -2392.065          33.000  
G19  20982398.381   110263244.912       -2231.067          45.000                                                                  
G20  20546886.885   107974623.298        -915.037          42.000                                                                  
G05  22492000.065   118196258.803        1401.724          41.000    22492004.276    92100999.618        1092.265          38.000  
G09  23686487.194   124473329.332       -2092.798          35.000    23686499.941    96992231.061       -1630.481          34.000  
G25  24536817.516                        1144.180          15.000                                                                  
G14  25161025.622                       -4869.102          17.000                                                                  
G22  23454593.097   123254725.555       -4546.882          39.000                                                                  
G13  25115293.609   131981761.730        1469.778          38.000                                                                  
> 2025 04 04 08 36 16.0000000  0 11                     
G06  22375760.060   117585409.274       -2445.488          45.000    22375763.674    91625009.880       -1905.647          40.000  
G11  21874793.406   114952817.374       -1436.162          45.000    21874794.625    89573627.284       -1119.189          45.000  
G12  22228160.224   116809768.777         -72.644          46.000    22228163.941    91020612.564         -56.418          40.000  
G17  23017570.610   120958152.781       -3068.836          40.000    23017578.165    94253138.119       -2391.141          33.000  
G19  20982822.811   110265475.271       -2229.822          45.000                                                                  
G20  20547060.834   107975537.544        -913.728          42.000                                                                  
G05  22491733.223   118194856.661        1402.686          41.000    22491737.388    92099907.052        1092.874          38.000  
G09  23686885.221   124475421.203       -2091.235          35.000    23686898.238    96993861.118       -1629.865          34.000  
G25  24536611.686                        1144.180          15.000                                                                  
G22  23455458.115   123259271.623       -4545.469          39.000                                                                  
G13  25115013.637   131980290.889        1471.727          38.000                                                                  
> 2025 04 04 08 36 17.0000000  0 11                     
G06  22376225.574   117587855.431       -2446.861          45.000    22376229.114    91626915.982       -1906.733          40.000  
G11  21875066.805   114954254.394       -1437.713          44.000    21875068.006    89574747.035       -1120.299          45.000  
G12  22228174.316   116809842.359         -74.560          46.000    22228177.996    91020669.897         -57.966          41.000  
G17  23018154.795   120961222.215       -3070.084          40.000    23018162.360    94255529.900       -2392.327          33.000  
G19  20983247.296   110267706.058       -2231.622          45.000                                                                  
G20  20547234.847   107976452.273        -915.426          42.000                                                                  
G05  22491466.392   118193454.913        1400.679          41.000    22491470.645    92098814.791        1091.575          38.000  
G09  23687283.431   124477513.631       -2093.011          35.000    23687296.579    96995491.593       -1631.458          34.000  
G25  24536386.151                        1144.180          15.000                                                                  
G22  23456323.257   123263817.807       -4547.015          40.000                                                                  
G13  25114733.757   131978819.771        1470.576          38.000                                                                  
> 2025 04 04 08 36 18.0000000  0 11                     
G06  22376691.265   117590302.040       -2446.861          45.000    22376694.591    91628822.424       -1906.719          40.000  
G11  21875340.341   114955691.940       -1437.847          45.000    21875341.467    89575867.196       -1120.240          45.000  
G12  22228188.399   116809917.043         -75.320          46.000    22228192.278    91020728.106         -59.009          41.000  
G17  23018739.084   120964292.506       -3070.872          40.000    23018746.581    94257922.322       -2392.799          34.000  
G19  20983671.920   110269937.782       -2232.086          45.000                                                                  
G20  20547409.134   107977368.002        -916.248          42.000                                                                  
G05  22491199.871   118192054.002        1400.570          41.000    22491203.972    92097723.180        1091.141          38.000  
G09  23687681.822   124479607.100       -2094.409          35.000    23687695.157    96997122.844       -1631.329          34.000  
G25  24536170.888                        1144.180          16.000                                                                  
G22  23457188.442   123268364.569       -4547.052          40.000                                                                  
G13  25114453.847   131977348.827        1470.855          38.000                                                                  
> 2025 04 04 08 36 19.0000000  0 11                     
G06  22377156.954   117592749.361       -2447.602          45.000    22377160.316    91630729.416       -1906.807          40.000  
G11  21875614.037   114957130.304       -1438.714          44.000    21875615.117    89576988.014       -1121.145          45.000  
G12  22228202.857   116809993.084         -76.515          46.000    22228206.714    91020787.359         -59.706          40.000  
G17  23019323.553   120967363.874       -3071.713          40.000    23019330.994    94260315.583       -2393.289          33.000  
G19  20984096.843   110272170.691       -2233.234          45.000                                                                  
G20  20547583.597   107978284.959        -917.286          42.000                                                                  
G05  22490933.478   118190654.252        1399.240          41.000    22490937.656    92096632.485        1090.232          38.000  
G09  23688080.395   124481701.817       -2095.477          35.000    23688093.712    96998755.103       -1632.202          34.000  
G25  24535953.721                        1144.180          17.000                                                                  
G22  23458053.778   123272912.188       -4547.922          40.000                                                                  
G13  25114174.055   131975878.362        1470.697          38.000                                                                  
> 2025 04 04 08 36 20.0000000  0 11                     
G06  22377622.860   117595197.529       -2448.126          45.000    22377626.267    91632637.090       -1907.857          40.000  
G11  21875888.029   114958569.577       -1439.207          45.000    21875889.049    89578109.527       -1121.602          45.000  
G12  22228217.648   116810070.624         -77.902          46.000    22228221.475    91020847.769         -60.673          41.000  
G17  23019908.198   120970436.466       -3072.454          40.000    23019915.686    94262709.808       -2394.164          34.000  
G19  20984521.926   110274404.932       -2234.460          45.000                                                                  
G20  20547758.238   107979203.310        -918.648          42.000                                                                  
G05  22490667.510   118189255.766        1398.408          41.000    22490671.508    92095542.720        1089.984          38.000  
G09  23688479.353   124483797.967       -2096.478          35.000    23688492.669    97000388.509       -1634.320          34.000  
G25  24535735.037                        1144.180          18.000                                                                  
G22  23458919.387   123277460.790       -4548.653          40.000                                                                  
G13  25113894.385   131974408.491        1469.911          38.000                                                                  
> 2025 04 04 08 36 21.0000000  0 11                     
G06  22378088.819   117597646.074       -2447.860          45.000    22378092.220    91634545.039       -1907.389          40.000  
G11  21876161.889   114960009.334       -1439.069          45.000    21876162.951    89579231.417       -1121.379          45.000  
G12  22228232.632   116810149.184         -78.236          45.000    22228236.374    91020908.982         -60.794          40.000  
G17  23020493.049   120973509.809       -3072.819          40.000    23020500.645    94265104.652       -2394.771          33.000  
G19  20984947.221   110276640.029       -2234.821          45.000                                                                  
G20  20547933.206   107980122.562        -918.993          42.000                                                                  
G05  22490401.482   118187858.082        1398.232          41.000    22490405.518    92094453.639        1089.436          38.000  
G09  23688878.400   124485895.058       -2096.796          35.000    23688891.804    97002022.595       -1633.929          33.000  
G25  24535522.191                        1144.180          17.000                                                                  
G22  23459785.040   123282009.930       -4548.625          40.000                                                                  
G13  25113614.760   131972938.758        1470.630          38.000                                                                  
> 2025 04 04 08 36 22.0000000  0 10                     
G06  22378555.046   117600095.604       -2453.005          45.000    22378558.335    91636453.752       -1911.291          40.000  
G11  21876436.071   114961450.170       -1444.455          44.000    21876437.202    89580354.139       -1125.440          45.000  
G12  22228247.907   116810229.380         -83.854          46.000    22228251.596    91020971.486         -65.693          40.000  
G17  23021078.297   120976584.529       -3078.770          40.000    23021085.738    94267500.481       -2398.119          33.000  
G19  20985372.798   110278876.567       -2239.960          45.000                                                                  
G20  20548108.477   107981043.312        -924.294          42.000                                                                  
G05  22490135.756   118186461.812        1392.470          41.000    22490139.801    92093365.649        1084.888          38.000  
G09  23689277.847   124487993.705       -2102.496          35.000    23689291.177    97003657.897       -1638.440          33.000  
G22  23460650.939   123286560.188       -4553.799          40.000                                                                  
G13  25113335.226   131971469.741        1465.754          38.000                                                                  
> 2025 04 04 08 36 23.0000000  0 10                     
G06  22379021.337   117602545.215       -2452.410          45.000    22379024.534    91638362.536       -1910.866          40.000  
G11  21876710.338   114962891.145       -1443.546          45.000    21876711.459    89581476.978       -1124.934          45.000  
G12  22228263.336   116810310.302         -83.915          46.000    22228266.958    91021034.517         -65.173          41.000  
G17  23021663.570   120979659.656       -3077.834          41.000    23021670.996    94269896.717       -2398.684          33.000  
G19  20985798.425   110281113.685       -2239.951          45.000                                                                  
G20  20548283.911   107981964.692        -924.314          42.000                                                                  
G05  22489870.171   118185066.029        1392.771          41.000    22489874.201    92092278.004        1085.720          38.000  
G09  23689677.354   124490092.999       -2102.008          35.000    23689690.641    97005293.714       -1638.287          33.000  
G22  23461516.929   123291110.671       -4553.349          40.000                                                                  
G13  25113055.644   131970000.540        1466.819          38.000                                                                  
> 2025 04 04 08 36 24.0000000  0 10                     
G06  22379487.418   117604994.403       -2449.222          45.000    22379490.667    91640270.995       -1908.482          40.000  
G11  21876984.488   114964331.813       -1440.807          45.000    21876985.681    89582599.591       -1122.866          45.000  
G12  22228278.800   116810391.458         -81.571          46.000    22228282.479    91021097.765         -63.615          40.000  
G17  23022248.782   120982734.809       -3075.788          41.000    23022256.150    94272292.905       -2396.423          33.000  
G19  20986224.225   110283350.867       -2237.524          45.000                                                                  
G20  20548459.256   107982886.184        -921.931          42.000                                                                  
G05  22489604.581   118183670.280        1395.494          41.000    22489608.570    92091190.426        1087.507          38.000  
G09  23690076.746   124492192.461       -2099.817          35.000    23690090.205    97006929.657       -1636.255          33.000  
G22  23462382.777   123295660.887       -4550.444          40.000                                                                  
G13  25112775.995   131968530.701        1469.810          37.000                                                                  
> 2025 04 04 08 36 25.0000000  0 10                     
G06  22379953.635   117607444.316       -2449.362          45.000    22379956.749    91642180.023       -1908.404          41.000  
G11  21877258.818   114965773.292       -1440.939          45.000    21877259.997    89583722.802       -1122.811          45.000  
G12  22228294.547   116810473.974         -82.168          46.000    22228298.214    91021162.065         -64.193          41.000  
G17  23022834.169   120985810.989       -3075.866          41.000    23022841.613    94274689.932       -2396.024          34.000  
G19  20986650.227   110285589.215       -2238.124          45.000                                                                  
G20  20548634.867   107983808.916        -922.352          42.000                                                                  
G05  22489339.251   118182275.669        1394.750          41.000    22489343.098    92090103.714        1087.022          39.000  
G09  23690476.537   124494293.133       -2100.555          35.000    23690489.843    97008566.536       -1636.084          32.000  
G22  23463248.868   123300211.912       -4550.448          40.000                                                                  
G13  25112496.266   131967061.272        1470.070          37.000                                                                  
> 2025 04 04 08 36 26.0000000  0 10                     
G06  22380419.804   117609893.670       -2449.618          45.000    22380422.836    91644088.613       -1908.846          40.000  
G11  21877533.062   114967214.284       -1441.723          45.000    21877534.301    89584845.652       -1123.062          45.000  
G12  22228310.311   116810556.586         -83.416          46.000    22228313.958    91021226.429         -64.746          41.000  
G17  23023419.546   120988887.036       -3076.694          41.000    23023427.034    94277086.846       -2397.269          35.000  
G19  20987076.157   110287827.486       -2238.888          45.000                                                                  
G20  20548810.578   107984731.631        -923.180          42.000                                                                  
G05  22489073.845   118180880.916        1393.986          41.000    22489077.770    92089016.908        1086.216          39.000  
G09  23690876.257   124496393.858       -2101.288          34.000    23690889.686    97010203.464       -1637.109          33.000  
G22  23464114.867   123304762.562       -4551.039          40.000                                                                  
G13  25112216.437   131965591.090        1469.875          36.000                                                                  
> 2025 04 04 08 36 27.0000000  0 10                     
G06  22380885.934   117612343.651       -2450.532          44.000    22380889.052    91645997.692       -1909.542          41.000  
G11  21877807.471   114968655.994       -1442.420          45.000    21877808.622    89585969.075       -1124.086          45.000  
G12  22228326.258   116810640.492         -84.900          46.000    22228329.883    91021291.805         -66.094          40.000  
G17  23024005.096   120991964.060       -3077.814          42.000    23024012.637    94279484.546       -2398.719          35.000  
G19  20987502.257   110290066.883       -2240.058          44.000                                                                  
G20  20548986.384   107985655.502        -924.537          42.000                                                                  
G05  22488808.691   118179487.206        1392.889          41.000    22488812.542    92087930.897        1085.356          38.000  
G09  23691276.182   124498495.771       -2102.753          37.000    23691289.704    97011841.350       -1638.763          34.000  
G22  23464980.958   123309313.982       -4551.967          40.000                                                                  
G13  25111936.670   131964121.233        1469.792          36.000                                                                  
> 2025 04 04 08 36 28.0000000  0 10                     
G06  22381352.495   117614794.766       -2452.152          44.000    22381355.555    91647907.631       -1910.400          41.000  
G11  21878082.131   114970098.927       -1444.155          45.000    21878083.245    89587093.428       -1125.168          45.000  
G12  22228342.716   116810726.148         -87.264          46.000    22228346.139    91021358.539         -67.568          41.000  
G17  23024590.923   120995042.578       -3079.676          41.000    23024598.724    94281883.401       -2400.055          34.000  
G19  20987928.699   110292307.875       -2242.190          45.000                                                                  
G20  20549162.540   107986581.055        -927.098          42.000                                                                  
G05  22488543.746   118178095.060        1390.872          41.000    22488547.726    92086846.117        1083.624          38.000  
G09  23691676.365   124500599.426       -2104.956          36.000    23691689.934    97013480.556       -1640.277          34.000  
G22  23465847.277   123313866.688       -4554.261          40.000                                                                  
G13  25111657.124   131962652.268        1468.180          37.000                                                                  
> 2025 04 04 08 36 29.0000000  0 10                     
G06  22381818.925   117617245.202       -2451.981          44.000    22381821.939    91649817.071       -1910.518          41.000  
G11  21878356.568   114971541.261       -1443.712          45.000    21878357.667    89588217.342       -1125.338          45.000  
G12  22228359.034   116810811.767         -87.148          46.000    22228362.514    91021425.277         -67.790          41.000  
G17  23025176.738   120998120.797       -3079.530          41.000    23025184.559    94284282.027       -2400.227          35.000  
G19  20988355.191   110294548.686       -2242.544          45.000                                                                  
G20  20549338.661   107987506.412        -926.551          43.000                                                                  
G05  22488278.653   118176702.669        1390.836          41.000    22488282.793    92085761.133        1084.000          39.000  
G09  23692076.562   124502702.983       -2105.554          36.000    23692090.128    97015119.715       -1640.454          35.000  
G22  23466713.609   123318418.796       -4553.060          40.000                                                                  
G13  25111377.427   131961182.426        1468.355          37.000                                                                  
> 2025 04 04 08 36 30.0000000  0 10                     
G06  22382285.137   117619695.072       -2448.231          44.000    22382288.183    91651726.059       -1907.772          41.000  
G11  21878630.889   114972983.126       -1440.266          45.000    21878632.054    89589340.864       -1122.181          45.000  
G12  22228375.399   116810897.494         -84.312          46.000    22228378.863    91021492.094         -66.153          41.000  
G17  23025762.475   121001198.864       -3076.673          41.000    23025770.234    94286680.493       -2397.562          35.000  
G19  20988781.606   110296789.363       -2239.145          44.000                                                                  
G20  20549514.656   107988431.786        -924.022          43.000                                                                  
G05  22488013.616   118175310.142        1394.103          41.000    22488017.739    92084676.062        1086.419          39.000  
G09  23692476.813   124504806.560       -2102.631          36.000    23692490.339    97016758.817       -1637.518          35.000  
G22  23467579.879   123322970.542       -4550.032          41.000                                                                  
G13  25111097.557   131959711.721        1472.852          37.000                                                                  
> 2025 04 04 08 36 31.0000000  0 10                     
G06  22382751.095   117622144.004       -2449.273          44.000    22382754.303    91653634.309       -1908.340          41.000  
G11  21878905.079   114974424.148       -1441.333          45.000    21878906.289    89590463.738       -1123.099          45.000  
G12  22228391.590   116810982.935         -86.009          46.000    22228395.143    91021558.659         -67.086          40.000  
G17  23026348.147   121004276.340       -3078.000          41.000    23026355.910    94289078.513       -2398.220          35.000  
G19  20989207.856   110299029.603       -2240.534          44.000                                                                  
G20  20549690.557   107989356.729        -925.456          42.000                                                                  
G05  22487748.482   118173917.100        1392.633          41.000    22487752.588    92083590.598        1084.871          38.000  
G09  23692877.029   124506909.730       -2103.381          36.000    23692890.476    97018397.678       -1639.124          35.000  
G22  23468445.950   123327521.478       -4551.139          40.000                                                                  
G13  25110817.444   131958239.845        1471.899          37.000                                                                  
> 2025 04 04 08 36 32.0000000  0 10                     
G06  22383217.332   117624593.968       -2449.453          44.000    22383220.559    91655543.366       -1908.468          41.000  
G11  21879179.401   114975866.295       -1442.074          45.000    21879180.781    89591587.486       -1123.580          45.000  
G12  22228408.151   116811070.034         -86.886          46.000    22228411.669    91021626.560         -68.618          41.000  
G17  23026934.055   121007355.206       -3078.541          41.000    23026941.793    94291477.648       -2398.663          35.000  
G19  20989634.404   110301271.368       -2241.617          44.000                                                                  
G20  20549866.860   107990283.227        -926.253          42.000                                                                  
G05  22487483.696   118172525.518        1391.861          41.000    22487487.781    92082506.231        1084.448          38.000  
G09  23693277.573   124509014.467       -2103.790          36.000    23693290.865    97020037.779       -1640.417          35.000  
G22  23469312.216   123332073.570       -4551.415          40.000                                                                  
G13  25110537.504   131956768.744        1472.146          36.000                                                                  
> 2025 04 04 08 36 33.0000000  0 10                     
G06  22383683.424   117627043.089       -2449.974          44.000    22383686.686    91657451.766       -1908.871          41.000  
G11  21879453.647   114977307.653       -1442.047          44.000    21879455.047    89592710.620       -1123.680          45.000  
G12  22228424.585   116811156.940         -87.808          46.000    22228428.163    91021694.250         -68.671          40.000  
G17  23027519.899   121010433.615       -3079.216          41.000    23027527.583    94293876.397       -2399.317          35.000  
G19  20990060.912   110303512.745       -2242.289          44.000                                                                  
G20  20550043.126   107991209.407        -926.960          42.000                                                                  
G05  22487218.846   118171133.520        1390.929          41.000    22487222.949    92081421.554        1083.989          38.000  
G09  23693678.051   124511118.978       -2105.688          36.000    23693691.251    97021677.653       -1640.863          35.000  
G22  23470178.332   123336625.000       -4552.168          41.000                                                                  
G13  25110257.271   131955296.560        1471.347          36.000                                                                  
> 2025 04 04 08 36 34.0000000  0 10                     
G06  22384149.749   117629493.543       -2450.562          44.000    22384153.074    91659361.235       -1909.999          40.000  
G11  21879728.116   114978750.480       -1443.408          44.000    21879729.559    89593834.915       -1125.053          45.000  
G12  22228441.604   116811245.873         -89.662          46.000    22228445.042    91021763.526         -69.537          40.000  
G17  23028106.118   121013513.747       -3080.238          41.000    23028113.653    94296276.506       -2400.267          35.000  
G19  20990487.841   110305755.986       -2244.099          45.000                                                                  
G20  20550219.659   107992137.474        -927.829          42.000                                                                  
G05  22486954.289   118169743.277        1389.827          41.000    22486958.432    92080338.275        1082.848          39.000  
G09  23694078.801   124513225.381       -2106.812          36.000    23694092.006    97023319.025       -1641.620          35.000  
G22  23471044.655   123341177.873       -4552.802          41.000                                                                  
G13  25109977.290   131953825.476        1470.481          36.000                                                                  
> 2025 04 04 08 36 35.0000000  0 10                     
G06  22384615.438   117631941.247       -2446.763          44.000    22384618.856    91661268.529       -1906.501          40.000  
G11  21880002.097   114980190.590       -1439.097          45.000    21880003.403    89594957.070       -1121.500          45.000  
G12  22228458.037   116811332.651         -86.282          47.000    22228461.572    91021831.149         -67.023          40.000  
G17  23028691.811   121016591.493       -3077.032          42.000    23028699.288    94298674.767       -2397.763          35.000  
G19  20990914.182   110307996.883       -2240.306          44.000                                                                  
G20  20550395.780   107993063.333        -925.439          42.000                                                                  
G05  22486689.290   118168350.686        1392.974          41.000    22486693.304    92079253.130        1085.801          39.000  
G09  23694479.143   124515329.659       -2104.626          37.000    23694492.331    97024958.651       -1639.392          35.000  
G22  23471910.571   123345728.147       -4549.650          40.000                                                                  
G13  25109696.748   131952351.349        1474.560          36.000                                                                  
> 2025 04 04 08 36 36.0000000  0 11                     
G06  22385081.112   117634388.719       -2447.196          44.000    22385084.605    91663175.661       -1907.054          40.000  
G11  21880276.199   114981630.592       -1439.749          45.000    21880277.524    89596079.149       -1121.870          45.000  
G12  22228474.631   116811419.870         -87.249          47.000    22228478.151    91021899.111         -67.771          40.000  
G17  23029277.550   121019669.379       -3077.735          41.000    23029285.005    94301073.120       -2398.462          35.000  
G19  20991340.632   110310238.065       -2241.182          44.000                                                                  
G20  20550572.022   107993989.474        -926.129          42.000                                                                  
G05  22486424.346   118166958.305        1392.588          41.000    22486428.322    92078168.159        1085.189          39.000  
G09  23694879.681   124517434.187       -2104.907          37.000    23694892.684    97026598.556       -1639.813          35.000  
G25  24532243.119                        1138.792          15.000                                                                  
G22  23472776.484   123350278.314       -4550.018          41.000                                                                  
G13  25109416.209   131950876.728        1475.120          36.000                                                                  
> 2025 04 04 08 36 37.0000000  0 11                     
G06  22385547.023   117636836.984       -2449.668          44.000    22385550.557    91665083.359       -1908.618          40.000  
G11  21880550.454   114983071.451       -1442.084          45.000    21880551.632    89597201.909       -1123.988          45.000  
G12  22228491.566   116811508.530         -90.336          47.000    22228495.017    91021968.211         -70.441          40.000  
G17  23029863.419   121022748.436       -3080.522          41.000    23029871.008    94303472.365       -2400.268          35.000  
G19  20991767.323   110312480.511       -2244.250          44.000                                                                  
G20  20550748.549   107994916.929        -929.185          42.000                                                                  
G05  22486159.524   118165567.143        1389.512          41.000    22486163.629    92077084.153        1082.648          39.000  
G09  23695280.444   124519540.138       -2108.160          37.000    23695293.425    97028239.546       -1642.596          35.000  
G25  24532013.658                        1138.792          16.000                                                                  
G22  23473642.597   123354829.418       -4552.748          40.000                                                                  
G13  25109135.716   131949402.682        1472.433          36.000                                                                  
> 2025 04 04 08 36 38.0000000  0 11                     
G06  22386013.019   117639286.054       -2449.316          44.000    22386016.609    91666991.747       -1908.408          40.000  
G11  21880824.872   114984513.239       -1442.198          45.000    21880826.104    89598325.366       -1123.799          45.000  
G12  22228508.642   116811598.663         -90.813          47.000    22228512.185    91022038.430         -70.644          40.000  
G17  23030449.558   121025828.692       -3080.605          41.000    23030457.188    94305872.574       -2400.287          35.000  
G19  20992194.326   110314724.240       -2244.288          44.000                                                                  
G20  20550925.244   107995845.724        -929.262          42.000                                                                  
G05  22485895.086   118164177.244        1389.247          41.000    22485899.095    92076001.073        1082.844          39.000  
G09  23695681.381   124521647.396       -2107.794          37.000    23695694.362    97029881.605       -1641.937          35.000  
G25  24531794.421                        1138.792          15.000                                                                  
G22  23474508.914   123359381.468       -4552.210          41.000                                                                  
G13  25108855.355   131947929.209        1473.247          36.000                                                                  
> 2025 04 04 08 36 39.0000000  0 11                     
G06  22386479.121   117641735.605       -2447.770          44.000    22386482.729    91668900.493       -1907.509          40.000  
G11  21881099.391   114985955.567       -1440.844          44.000    21881100.506    89599449.264       -1122.720          45.000  
G12  22228526.009   116811689.914         -90.060          47.000    22228529.609    91022109.540         -70.217          40.000  
G17  23031035.882   121028909.811       -3079.697          41.000    23031043.421    94308273.398       -2399.341          36.000  
G19  20992621.510   110316968.933       -2243.325          44.000                                                                  
G20  20551102.280   107996775.559        -928.440          43.000                                                                  
G05  22485630.680   118162788.192        1390.325          41.000    22485634.767    92074918.748        1083.267          39.000  
G09  23696082.649   124523755.774       -2106.647          37.000    23696095.488    97031524.475       -1641.449          35.000  
G25  24531569.837                        1138.792          16.000                                                                  
G22  23475375.156   123363934.148       -4551.058          41.000                                                                  
G13  25108575.045   131946455.914        1475.277          35.000                                                                  
> 2025 04 04 08 36 40.0000000  0 11                     
G06  22386945.310   117644185.518       -2447.968          44.000    22386949.012    91670809.519       -1907.786          40.000  
G11  21881373.931   114987398.340       -1440.957          44.000    21881375.053    89600573.512       -1122.916          45.000  
G12  22228543.613   116811782.157         -90.755          47.000    22228547.186    91022181.419         -70.827          40.000  
G17  23031622.387   121031991.620       -3080.198          41.000    23031629.996    94310674.855       -2400.595          35.000  
G19  20993048.862   110319214.454       -2244.075          44.000                                                                  
G20  20551279.318   107997706.241        -929.077          43.000                                                                  
G05  22485366.583   118161399.962        1389.631          41.000    22485370.697    92073837.012        1082.817          39.000  
G09  23696483.936   124525865.053       -2107.672          37.000    23696496.901    97033168.094       -1641.730          35.000  
G25  24531349.945                        1138.792          16.000                                                                  
G22  23476241.576   123368487.311       -4551.306          41.000                                                                  
G13  25108294.724   131944982.746        1475.332          35.000                                                                  
> 2025 04 04 08 36 41.0000000  0 11                     
G06  22387411.228   117646634.579       -2449.973          44.000    22387415.164    91672717.843       -1908.672          40.000  
G11  21881648.254   114988840.347       -1442.865          44.000    21881649.431    89601697.139       -1124.291          44.000  
G12  22228561.204   116811874.205         -93.271          47.000    22228564.638    91022253.135         -72.614          40.000  
G17  23032208.683   121035072.986       -3082.307          41.000    23032216.315    94313075.907       -2402.062          35.000  
G19  20993476.167   110321459.611       -2246.343          44.000                                                                  
G20  20551456.366   107998636.619        -931.483          43.000                                                                  
G05  22485102.386   118160011.278        1387.489          41.000    22485106.498    92072754.934        1080.958          39.000  
G09  23696885.235   124527974.036       -2110.254          37.000    23696898.188    97034811.492       -1644.885          34.000  
G25  24531130.250                        1138.792          15.000                                                                  
G22  23477107.895   123373039.785       -4553.487          41.000                                                                  
G13  25108014.134   131943508.489        1473.809          35.000                                                                  
> 2025 04 04 08 36 42.0000000  0 11                     
G06  22387877.417   117649085.101       -2449.381          44.000    22387881.520    91674627.359       -1908.810          40.000  
G11  21881922.966   114990283.903       -1442.167          44.000    21881924.223    89602821.997       -1123.994          44.000  
G12  22228579.070   116811968.360         -93.193          47.000    22228582.498    91022326.506         -72.622          40.000  
G17  23032795.350   121038156.177       -3082.218          41.000    23032802.953    94315478.387       -2402.040          35.000  
G19  20993903.813   110323706.684       -2246.010          44.000                                                                  
G20  20551633.894   107999568.994        -931.494          43.000                                                                  
G05  22484838.456   118158624.496        1387.402          41.000    22484842.636    92071674.319        1081.395          39.000  
G09  23697286.829   124530085.059       -2110.327          37.000    23697299.770    97036456.421       -1644.086          35.000  
G25  24530912.267                        1138.792          16.000                                                                  
G22  23477974.564   123377593.852       -4552.836          42.000                                                                  
G13  25107733.873   131942035.434        1474.358          35.000                                                                  
> 2025 04 04 08 36 43.0000000  0 10                     
G06  22388343.765   117651535.160       -2448.315          44.000    22388347.745    91676536.474       -1907.394          40.000  
G11  21882197.562   114991727.110       -1441.549          44.000    21882198.836    89603946.556       -1122.936          44.000  
G12  22228597.120   116812062.704         -92.794          47.000    22228600.321    91022400.016         -72.005          40.000  
G17  23033382.042   121041239.288       -3081.631          41.000    23033389.736    94317880.812       -2401.211          35.000  
G19  20994331.574   110325953.786       -2245.294          44.000                                                                  
G20  20551811.362   108000501.440        -931.154          43.000                                                                  
G05  22484574.665   118157237.681        1388.195          41.000    22484578.711    92070593.692        1081.906          39.000  
G09  23697688.659   124532196.211       -2109.613          37.000    23697701.361    97038101.498       -1644.348          34.000  
G22  23478841.266   123382147.597       -4552.206          42.000                                                                  
G13  25107453.501   131940561.653        1475.649          35.000                                                                  
> 2025 04 04 08 36 44.0000000  0 10                     
G06  22388810.220   117653985.472       -2449.633          44.000    22388813.981    91678445.813       -1908.940          40.000  
G11  21882472.318   114993170.642       -1443.064          44.000    21882473.450    89605071.383       -1124.173          44.000  
G12  22228615.248   116812157.960         -94.867          47.000    22228618.466    91022474.246         -73.759          40.000  
G17  23033968.856   121044323.015       -3083.032          41.000    23033976.621    94320283.727       -2402.659          35.000  
G19  20994759.287   110328201.629       -2247.389          44.000                                                                  
G20  20551988.899   108001434.657        -932.642          42.000                                                                  
G05  22484310.924   118155851.519        1386.786          41.000    22484314.888    92069513.583        1080.319          39.000  
G09  23698090.668   124534308.176       -2111.499          37.000    23698103.149    97039747.183       -1645.300          35.000  
G22  23479707.938   123386701.729       -4553.251          42.000                                                                  
G13  25107173.053   131939087.899        1474.443          35.000                                                                  
> 2025 04 04 08 36 45.0000000  0 10                     
G06  22389276.352   117656435.900       -2448.313          44.000    22389280.177    91680355.236       -1907.953          40.000  
G11  21882747.056   114994614.374       -1441.915          44.000    21882748.318    89606196.373       -1123.286          44.000  
G12  22228633.470   116812253.983         -94.360          47.000    22228636.771    91022549.069         -73.590          40.000  
G17  23034555.708   121047407.257       -3082.328          42.000    23034563.499    94322687.022       -2402.292          35.000  
G19  20995187.207   110330450.062       -2246.566          44.000                                                                  
G20  20552166.492   108002368.549        -932.006          42.000                                                                  
G05  22484047.219   118154465.913        1387.496          41.000    22484051.134    92068433.898        1081.045          39.000  
G09  23698492.566   124536420.841       -2110.870          37.000    23698505.246    97041393.417       -1645.410          35.000  
G22  23480574.696   123391256.162       -4552.792          42.000                                                                  
G13  25106892.485   131937613.995        1476.220          35.000                                                                  
> 2025 04 04 08 36 46.0000000  0 10                     
G06  22389742.626   117658886.232       -2450.662          44.000    22389746.413    91682264.594       -1909.614          40.000  
G11  21883021.811   114996058.103       -1444.113          44.000    21883022.978    89607321.372       -1125.368          44.000  
G12  22228651.914   116812350.549         -97.211          47.000    22228655.118    91022624.319         -76.025          40.000  
G17  23035142.670   121050491.760       -3084.857          41.000    23035150.474    94325090.517       -2403.717          35.000  
G19  20995615.288   110332698.882       -2249.425          44.000                                                                  
G20  20552344.259   108003302.852        -934.871          42.000                                                                  
G05  22483783.561   118153080.664        1384.589          41.000    22483787.537    92067354.471        1078.809          39.000  
G09  23698894.864   124538533.961       -2113.812          37.000    23698907.374    97043040.008       -1647.022          35.000  
G22  23481441.550   123395810.600       -4554.681          42.000                                                                  
G13  25106611.930   131936139.749        1474.339          35.000                                                                  
> 2025 04 04 08 36 47.0000000  0 12                     
G06  22390208.903   117661336.270       -2451.173          44.000    22390212.615    91684173.710       -1909.942          40.000  
G11  21883296.544   114997501.623       -1444.942          44.000    21883297.709    89608446.189       -1125.801          44.000  
G12  22228670.332   116812447.468         -98.383          47.000    22228673.584    91022699.814         -76.360          40.000  
G17  23035729.690   121053576.376       -3085.911          42.000    23035737.498    94327494.111       -2404.853          35.000  
G19  20996043.235   110334947.891       -2250.633          43.000                                                                  
G20  20552522.146   108004237.390        -935.883          42.000                                                                  
G05  22483519.946   118151695.519        1383.685          41.000    22483523.933    92066275.148        1078.175          39.000  
G09  23699297.043   124540647.346       -2114.557          37.000    23699309.511    97044686.802       -1647.644          35.000  
G25  24529656.558                        1139.164          20.000                                                                  
G14  25190714.561                       -4869.667          22.000                                                                  
G22  23482308.293   123400364.893       -4555.464          42.000                                                                  
G13  25106331.260   131934664.952        1473.799          36.000                                                                  
> 2025 04 04 08 36 48.0000000  0 11                     
G06  22390675.170   117663786.668       -2448.508          44.000    22390678.815    91686083.089       -1907.843          40.000  
G11  21883571.343   114998945.577       -1441.933          45.000    21883572.490    89609571.337       -1123.496          44.000  
G12  22228689.110   116812545.395         -96.342          47.000    22228692.223    91022776.131         -74.974          40.000  
G17  23036316.802   121056661.711       -3083.703          41.000    23036324.535    94329898.259       -2402.503          35.000  
G19  20996471.506   110337197.699       -2248.004          43.000                                                                  
G20  20552700.099   108005172.810        -933.779          43.000                                                                  
G05  22483256.509   118150311.162        1386.185          41.000    22483260.508    92065196.405        1080.626          39.000  
G09  23699699.516   124542761.663       -2112.268          37.000    23699711.793    97046334.325       -1646.124          36.000  
G25  24529438.985                        1139.164          20.000                                                                  
G22  23483175.073   123404919.682       -4552.900          42.000                                                                  
G13  25106050.596   131933190.276        1476.523          36.000                                                                  
> 2025 04 04 08 36 49.0000000  0 11                     
G06  22391141.455   117666237.040       -2451.176          44.000    22391145.123    91687992.476       -1909.555          40.000  
G11  21883846.098   115000389.614       -1444.913          45.000    21883847.266    89610696.567       -1125.654          45.000  
G12  22228707.802   116812643.967         -99.523          47.000    22228710.903    91022852.938         -77.550          40.000  
G17  23036904.038   121059747.404       -3086.401          41.000    23036911.744    94332302.706       -2405.433          35.000  
G19  20996899.806   110339448.003       -2251.449          43.000                                                                  
G20  20552878.235   108006108.753        -936.978          43.000                                                                  
G05  22482993.113   118148927.211        1383.102          42.000    22482997.189    92064118.033        1077.659          39.000  
G09  23700102.057   124544876.555       -2116.003          37.000    23700114.193    97047982.308       -1648.901          35.000  
G25  24529221.046                        1139.164          20.000                                                                  
G22  23484041.876   123409474.586       -4555.703          42.000                                                                  
G13  25105769.937   131931715.292        1474.811          36.000                                                                  
> 2025 04 04 08 36 50.0000000  0 11                     
G06  22391607.942   117668688.292       -2451.615          44.000    22391611.617    91689902.540       -1910.451          40.000  
G11  21884121.056   115001834.600       -1445.640          45.000    21884122.169    89611822.544       -1126.587          45.000  
G12  22228726.960   116812744.051        -100.938          48.000    22228729.883    91022930.933         -78.695          40.000  
G17  23037491.495   121062834.348       -3087.554          41.000    23037499.139    94334708.110       -2406.153          35.000  
G19  20997328.214   110341699.641       -2252.460          43.000                                                                  
G20  20553056.668   108007046.088        -938.241          43.000                                                                  
G05  22482729.971   118147544.581        1381.586          41.000    22482734.010    92063040.659        1076.439          39.000  
G09  23700504.942   124546992.878       -2117.316          37.000    23700516.832    97049631.377       -1649.579          35.000  
G25  24528999.757                        1139.164          21.000                                                                  
G22  23484909.006   123414030.508       -4556.556          42.000                                                                  
G13  25105489.427   131930240.981        1473.710          36.000                                                                  
> 2025 04 04 08 36 51.0000000  0 11                     
G06  22392074.523   117671140.838       -2450.453          44.000    22392078.362    91691813.625       -1909.653          40.000  
G11  21884396.253   115003280.957       -1443.938          45.000    21884397.385    89612949.552       -1125.174          45.000  
G12  22228746.470   116812846.081        -100.260          47.000    22228749.219    91023010.423         -78.057          40.000  
G17  23038079.337   121065922.967       -3086.615          41.000    23038086.799    94337114.796       -2405.290          35.000  
G19  20997756.940   110343953.050       -2251.421          44.000                                                                  
G20  20553235.362   108007985.255        -937.327          43.000                                                                  
G05  22482467.241   118146163.647        1382.965          41.000    22482471.287    92061964.601        1077.528          39.000  
G09  23700907.998   124549111.049       -2116.418          37.000    23700919.878    97051281.913       -1649.097          35.000  
G25  24528783.939                        1139.164          21.000                                                                  
G22  23485776.240   123418587.844       -4555.196          42.000                                                                  
G13  25105209.023   131928767.723        1475.186          36.000                                                                  
> 2025 04 04 08 36 52.0000000  0 11                     
G06  22392541.135   117673593.163       -2449.133          44.000    22392545.003    91693724.505       -1908.376          40.000  
G11  21884671.471   115004727.200       -1443.046          45.000    21884672.672    89614076.506       -1124.445          45.000  
G12  22228765.905   116812948.542         -99.695          47.000    22228768.710    91023090.264         -77.582          40.000  
G17  23038667.182   121069011.757       -3085.904          42.000    23038674.470    94339521.644       -2404.663          35.000  
G19  20998185.818   110346206.731       -2250.756          44.000                                                                  
G20  20553414.147   108008924.741        -936.784          43.000                                                                  
G05  22482204.457   118144782.916        1383.642          41.000    22482208.537    92060888.716        1078.004          39.000  
G09  23701311.112   124551229.619       -2116.132          37.000    23701322.936    97052932.708       -1647.931          35.000  
G25  24528568.095                        1139.164          20.000                                                                  
G22  23486643.415   123423145.144       -4554.280          42.000                                                                  
G13  25104928.615   131927293.953        1476.689          36.000                                                                  
> 2025 04 04 08 36 53.0000000  0 11                     
G06  22393007.682   117676044.938       -2451.887          43.000    22393011.617    91695634.973       -1910.648          40.000  
G11  21884946.636   115006172.973       -1445.616          45.000    21884947.615    89615203.079       -1126.611          45.000  
G12  22228785.470   116813051.102        -102.860          47.000    22228788.243    91023170.168         -80.048          40.000  
G17  23039254.954   121072100.314       -3088.601          42.000    23039262.180    94341928.304       -2406.336          35.000  
G19  20998614.588   110348460.337       -2254.037          43.000                                                                  
G20  20553592.928   108009864.193        -939.826          43.000                                                                  
G05  22481941.681   118143402.054        1380.662          41.000    22481945.742    92059812.731        1075.864          39.000  
G09  23701714.318   124553348.137       -2118.500          37.000    23701726.059    97054583.566       -1651.154          35.000  
G25  24528351.597                        1139.164          20.000                                                                  
G22  23487510.581   123427701.999       -4556.891          42.000                                                                  
G13  25104648.011   131925819.383        1474.396          36.000                                                                  
> 2025 04 04 08 36 54.0000000  0 11                     
G06  22393474.331   117678497.016       -2451.775          44.000    22393478.246    91697545.704       -1910.927          40.000  
G11  21885221.770   115007619.168       -1446.274          45.000    21885222.777    89616329.971       -1126.842          44.000  
G12  22228805.230   116813154.619        -103.760          47.000    22228807.913    91023250.844         -80.962          40.000  
G17  23039842.838   121075189.620       -3089.690          42.000    23039849.951    94344335.544       -2406.945          35.000  
G19  20999043.529   110350714.705       -2254.258          43.000                                                                  
G20  20553771.906   108010804.489        -940.671          43.000                                                                  
G05  22481679.080   118142021.995        1379.594          41.000    22481683.112    92058737.319        1075.392          39.000  
G09  23702117.734   124555467.596       -2119.946          38.000    23702129.481    97056235.097       -1651.825          35.000  
G25  24528132.733                        1139.164          20.000                                                                  
G22  23488377.907   123432259.326       -4557.511          42.000                                                                  
G13  25104367.336   131924344.880        1474.611          36.000                                                                  
> 2025 04 04 08 36 55.0000000  0 10                     
G06  22393940.749   117680948.154       -2450.350          44.000    22393944.601    91699455.673       -1909.659          40.000  
G11  21885496.878   115009064.461       -1444.297          45.000    21885497.816    89617456.200       -1125.596          44.000  
G12  22228824.809   116813257.835        -102.467          47.000    22228827.534    91023331.272         -79.912          40.000  
G17  23040430.663   121078278.300       -3087.758          42.000    23040437.592    94346742.312       -2406.240          34.000  
G19  20999472.417   110352968.648       -2253.180          43.000                                                                  
G20  20553950.746   108011744.353        -939.072          43.000                                                                  
G05  22481416.436   118140641.345        1381.309          41.000    22481420.478    92057661.526        1076.645          39.000  
G09  23702520.946   124557586.613       -2118.066          38.000    23702532.774    97057886.268       -1650.330          36.000  
G22  23489245.045   123436815.827       -4555.779          42.000                                                                  
G13  25104086.442   131922869.184        1476.856          36.000                                                                  
> 2025 04 04 08 36 56.0000000  0 11                     
G06  22394407.014   117683398.143       -2452.201          44.000    22394410.788    91701364.741       -1910.732          40.000  
G11  21885771.732   115010508.723       -1446.354          45.000    21885772.696    89618581.594       -1127.141          44.000  
G12  22228844.388   116813360.562        -105.057          47.000    22228847.054    91023411.322         -82.118          40.000  
G17  23041018.283   121081366.226       -3090.293          42.000    23041025.215    94349148.522       -2408.381          34.000  
G19  20999901.205   110355221.904       -2255.502          43.000                                                                  
G20  20554129.504   108012683.630        -941.428          43.000                                                                  
G05  22481153.601   118139260.014        1379.060          41.000    22481157.571    92056585.174        1074.485          39.000  
G09  23702923.994   124559705.095       -2120.752          38.000    23702935.966    97059537.043       -1652.356          36.000  
G25  24527703.369                        1128.704          22.000                                                                  
G22  23490111.927   123441371.303       -4557.746          42.000                                                                  
G13  25103805.360   131921392.059        1475.521          36.000                                                                  
> 2025 04 04 08 36 57.0000000  0 11                     
G06  22394873.198   117685848.045       -2448.098          43.000    22394877.038    91703273.778       -1907.783          40.000  
G11  21886046.564   115011952.984       -1442.467          45.000    21886047.409    89619706.990       -1123.980          44.000  
G12  22228864.037   116813463.866        -101.833          47.000    22228866.800    91023491.802         -79.296          40.000  
G17  23041606.035   121084454.434       -3086.289          43.000    23041612.831    94351554.892       -2404.897          34.000  
G19  21000330.077   110357475.582       -2252.251          43.000                                                                  
G20  20554308.324   108013623.363        -938.089          42.000                                                                  
G05  22480890.677   118137879.030        1382.502          42.000    22480894.800    92055509.087        1077.135          39.000  
G09  23703327.191   124561824.083       -2117.535          38.000    23703339.172    97061188.235       -1650.452          36.000  
G25  24527486.234                        1128.704          22.000                                                                  
G22  23490978.695   123445926.866       -4553.719          41.000                                                                  
G13  25103524.220   131919914.663        1479.158          36.000                                                                  
> 2025 04 04 08 36 58.0000000  0 10                     
G06  22395339.021   117688296.687       -2447.740          44.000    22395342.924    91705181.780       -1907.266          40.000  
G11  21886321.061   115013396.059       -1442.197          44.000    21886321.965    89620831.458       -1123.789          44.000  
G12  22228883.584   116813566.535        -102.077          47.000    22228886.364    91023571.809         -79.338          40.000  
G17  23042193.515   121087541.774       -3086.495          42.000    23042200.345    94353960.608       -2404.792          34.000  
G19  21000758.758   110359728.437       -2252.088          43.000                                                                  
G20  20554487.021   108014562.349        -938.394          42.000                                                                  
G05  22480627.652   118136497.200        1382.424          42.000    22480631.828    92054432.340        1077.214          39.000  
G09  23703730.392   124563942.374       -2118.018          39.000    23703742.298    97062838.814       -1650.415          36.000  
G22  23491845.370   123450481.284       -4553.555          41.000                                                                  
G13  25103242.755   131918435.698        1480.268          36.000                                                                  
> 2025 04 04 08 36 59.0000000  0 10                     
G06  22395805.245   117690746.695       -2445.291          43.000    22395809.066    91707090.885       -1905.415          40.000  
G11  21886596.086   115014840.590       -1439.975          45.000    21886596.905    89621957.071       -1121.940          44.000  
G12  22228903.550   116813671.230        -100.305          47.000    22228906.321    91023653.395         -78.145          40.000  
G17  23042781.220   121090630.828       -3084.714          42.000    23042788.133    94356367.661       -2403.241          34.000  
G19  21001187.811   110361983.162       -2250.544          43.000                                                                  
G20  20554666.070   108015503.218        -936.474          42.000                                                                  
G05  22480365.065   118135117.166        1384.347          42.000    22480369.145    92053356.986        1078.695          39.000  
G09  23704133.785   124566062.550       -2115.717          38.000    23704145.796    97064490.933       -1648.816          36.000  
G22  23492712.270   123455037.212       -4551.373          41.000                                                                  
G13  25102961.477   131916957.912        1481.982          36.000                                                                  
> 2025 04 04 08 37 00.0000000  0 10                     
G06  22396270.787   117693197.0263      -2446.023          43.000    22396274.610    91708997.487       -1905.758          40.000  
G11  21886870.464   115016280.0273      -1440.359          45.000    21886871.229    89623080.271       -1122.441          44.000  
G12  22228923.148   116813779.3933       -101.515          47.000    22228925.899    91023732.991         -79.002          40.000  
G17  23043368.613   121093718.5933      -3085.481          42.000    23043375.379    94358772.573       -2404.271          34.000  
G19  21001616.400   110364235.163       -2251.097          43.000                                                                  
G20  20554844.599   108016441.438        -937.283          42.000                                                                  
G05  22480101.978   118133734.378        1383.494          42.000    22480105.940    92052279.509        1077.973          39.000  
G09  23704536.780   124568180.6643      -2116.467          38.000    23704548.806    97066141.004       -1649.011          36.000  
G22  23493578.707   123459590.115       -4552.167          41.000                                                                  
G13  25102679.563   131915470.6213       1482.917          36.000                                                                  
> 2025 04 04 08 37 01.0000000  0 10                     
G06  22396736.071   117695641.9191      -2444.534          43.000    22396739.830    91710902.995       -1904.582          39.000  
G11  21887144.470   115017720.088       -1438.650          45.000    21887145.269    89624202.405       -1121.150          44.000  
G12  22228942.476   116813880.759        -100.471          47.000    22228945.238    91023811.986         -78.537          40.000  
G17  23043955.745   121096803.2951      -3084.183          42.000    23043962.327    94361176.622       -2403.512          34.000  
G19  21002044.728   110366486.200       -2249.781          43.000                                                                  
G20  20555022.982   108017378.760        -936.372          42.000                                                                  
G05  22479838.709   118132350.547        1384.785          42.000    22479842.619    92051201.193        1079.153          39.000  
G09  23704939.680   124570296.9091      -2116.193          38.000    23704951.551    97067790.385       -1648.462          36.000  
G22  23494444.870   123464141.689       -4550.465          43.000                                                                  
G13  25102397.280   131913987.710        1484.246          35.000                                                                  
> 2025 04 04 08 37 02.0000000  0 11                     
G06  22397201.147   117698086.366       -2445.797          44.000    22397204.912    91712807.737       -1905.574          39.000  
G11  21887418.282   115019159.355       -1440.490          45.000    21887419.247    89625323.906       -1122.593          44.000  
G12  22228961.794   116813981.843        -102.689          47.000    22228964.532    91023890.740         -79.833          40.000  
G17  23044542.677   121099887.939       -3086.191          41.000    23044549.325    94363580.190       -2404.362          34.000  
G19  21002472.885   110368736.811       -2252.132          44.000                                                                  
G20  20555201.330   108018315.663        -938.199          42.000                                                                  
G05  22479575.198   118130966.222        1383.057          42.000    22479579.282    92050122.514        1077.656          39.000  
G09  23705342.356   124572413.268       -2117.889          37.000    23705354.258    97069439.505       -1650.220          35.000  
G25  24526407.734                        1125.042          23.000                                                                  
G22  23495310.941   123468692.476       -4551.963          42.000                                                                  
G13  25102114.746   131912503.575        1482.898          35.000                                                                  
> 2025 04 04 08 37 03.0000000  0 11                     
G06  22397666.196   117700530.073       -2443.664          44.000    22397669.866    91714711.916       -1903.871          40.000  
G11  21887691.999   115020597.924       -1438.615          44.000    21887692.961    89626444.872       -1120.924          44.000  
G12  22228980.914   116814082.825        -101.196          47.000    22228983.751    91023969.429         -78.646          40.000  
G17  23045129.717   121102972.208       -3084.425          42.000    23045136.179    94365983.549       -2403.890          34.000  
G19  21002901.094   110370987.146       -2250.832          44.000                                                                  
G20  20555379.577   108019252.370        -936.919          42.000                                                                  
G05  22479311.724   118129581.610        1384.426          41.000    22479315.939    92049043.617        1078.361          39.000  
G09  23705745.014   124574529.413       -2116.058          37.000    23705757.072    97071088.502       -1649.231          34.000  
G25  24526192.088                        1125.042          22.000                                                                  
G22  23496176.812   123473242.672       -4550.150          42.000                                                                  
G13  25101832.179   131911018.452        1485.401          35.000                                                                  
> 2025 04 04 08 37 04.0000000  0 11                     
G06  22398130.869   117702972.192       -2441.386          44.000    22398134.585    91716614.865       -1902.113          40.000  
G11  21887965.432   115022035.000       -1436.174          45.000    21887966.384    89627564.661       -1119.078          44.000  
G12  22228999.931   116814182.879         -99.484          47.000    22229002.804    91024047.391         -77.501          40.000  
G17  23045716.430   121106055.257       -3082.302          42.000    23045722.857    94368385.919       -2401.971          33.000  
G19  21003329.036   110373236.341       -2248.710          44.000                                                                  
G20  20555557.591   108020187.994        -934.941          42.000                                                                  
G05  22479048.006   118128195.799        1386.515          42.000    22479052.299    92047963.759        1080.244          39.000  
G09  23706147.508   124576644.615       -2114.642          37.000    23706159.670    97072736.704       -1647.534          34.000  
G25  24525976.274                        1125.042          22.000                                                                  
G22  23497042.408   123477791.391       -4547.935          42.000                                                                  
G13  25101549.220   131909531.486        1487.939          35.000                                                                  
> 2025 04 04 08 37 05.0000000  0 11                     
G06  22398595.434   117705413.270       -2440.641          43.000    22398599.113    91718517.023       -1901.818          40.000  
G11  21888238.713   115023471.150       -1435.964          45.000    21888239.676    89628683.737       -1118.691          44.000  
G12  22229018.910   116814282.571         -99.641          47.000    22229021.708    91024125.066         -77.631          40.000  
G17  23046302.950   121109137.661       -3082.092          41.000    23046309.312    94370787.801       -2402.265          34.000  
G19  21003756.920   110375485.036       -2248.798          44.000                                                                  
G20  20555735.553   108021123.149        -935.041          43.000                                                                  
G05  22478784.140   118126809.416        1386.304          41.000    22478788.519    92046883.459        1080.453          39.000  
G09  23706549.985   124578759.320       -2114.703          38.000    23706562.027    97074384.512       -1647.479          33.000  
G25  24525761.120                        1125.042          22.000                                                                  
G22  23497907.895   123482339.236       -4547.571          42.000                                                                  
G13  25101266.084   131908043.245        1488.701          35.000                                                                  
> 2025 04 04 08 37 06.0000000  0 11                     
G06  22399059.798   117707853.971       -2440.871          43.000    22399063.663    91720418.851       -1901.790          40.000  
G11  21888511.997   115024906.982       -1435.871          45.000    21888512.909    89629802.586       -1118.906          44.000  
G12  22229037.997   116814382.511        -100.220          47.000    22229040.828    91024202.937         -78.067          41.000  
G17  23046889.362   121112220.040       -3082.740          41.000    23046895.835    94373189.622       -2401.762          34.000  
G19  21004184.826   110377733.747       -2248.967          44.000                                                                  
G20  20555913.463   108022058.445        -935.598          42.000                                                                  
G05  22478520.299   118125423.046        1386.185          41.000    22478524.720    92045803.196        1079.925          39.000  
G09  23706952.425   124580874.190       -2115.228          37.000    23706964.478    97076032.496       -1648.438          34.000  
G25  24525546.321                        1125.042          22.000                                                                  
G22  23498773.251   123486886.811       -4547.500          42.000                                                                  
G13  25100982.767   131906554.358        1489.101          36.000                                                                  
> 2025 04 04 08 37 07.0000000  0 11                     
G06  22399524.112   117710294.369       -2439.690          43.000    22399528.122    91722320.489       -1901.214          40.000  
G11  21888785.130   115026342.615       -1435.388          45.000    21888786.084    89630921.257       -1118.399          45.000  
G12  22229057.002   116814482.831        -100.251          47.000    22229059.966    91024281.126         -78.444          41.000  
G17  23047475.830   121115302.534       -3082.085          43.000    23047482.331    94375591.580       -2401.433          34.000  
G19  21004612.803   110379982.726       -2249.053          44.000                                                                  
G20  20556091.554   108022993.963        -935.404          42.000                                                                  
G05  22478256.409   118124036.849        1386.217          41.000    22478260.944    92044723.044        1080.190          39.000  
G09  23707354.967   124582989.402       -2115.131          39.000    23707367.022    97077680.677       -1648.114          35.000  
G25  24525333.558                        1125.042          22.000                                                                  
G22  23499638.481   123491434.275       -4547.229          42.000                                                                  
G13  25100699.320   131905064.976        1489.862          35.000                                                                  
> 2025 04 04 08 37 08.0000000  0 10                     
G06  22399988.462   117712734.572       -2440.453          44.000    22399992.390    91724221.911       -1901.210          40.000  
G11  21889058.270   115027778.118       -1435.646          45.000    21889059.230    89632039.828       -1118.800          45.000  
G12  22229076.182   116814583.548        -101.141          47.000    22229079.078    91024359.604         -79.009          41.000  
G17  23048062.536   121118385.124       -3082.817          42.000    23048068.883    94377993.612       -2402.102          34.000  
G19  21005040.913   110382231.918       -2249.580          43.000                                                                  
G20  20556269.636   108023929.782        -936.104          43.000                                                                  
G05  22477992.553   118122650.860        1385.508          41.000    22477997.198    92043643.058        1079.680          39.000  
G09  23707757.525   124585104.933       -2115.625          39.000    23707769.491    97079329.150       -1648.822          37.000  
G22  23500503.759   123495981.620       -4547.568          42.000                                                                  
G13  25100415.866   131903575.105        1489.704          35.000                                                                  
> 2025 04 04 08 37 09.0000000  0 10                     
G06  22400452.930   117715175.220       -2441.097          44.000    22400456.872    91726123.750       -1902.313          40.000  
G11  21889331.565   115029214.198       -1436.945          45.000    21889332.528    89633158.831       -1119.469          44.000  
G12  22229095.494   116814685.397        -102.592          47.000    22229098.506    91024438.962         -79.826          41.000  
G17  23048649.244   121121468.627       -3083.994          42.000    23048655.615    94380396.364       -2403.653          34.000  
G19  21005469.163   110384482.071       -2250.827          44.000                                                                  
G20  20556447.952   108024866.620        -937.550          43.000                                                                  
G05  22477728.935   118121265.761        1384.331          41.000    22477733.547    92042563.778        1078.448          40.000  
G09  23708160.244   124587221.495       -2117.212          39.000    23708172.256    97080978.415       -1649.524          37.000  
G22  23501369.254   123500529.596       -4548.425          41.000                                                                  
G13  25100132.431   131902085.458        1489.182          35.000                                                                  
> 2025 04 04 08 37 10.0000000  0 10                     
G06  22400917.551   117717616.524       -2441.360          44.000    22400921.454    91728026.035       -1902.392          40.000  
G11  21889604.889   115030650.947       -1436.867          45.000    21889605.877    89634278.387       -1119.700          44.000  
G12  22229115.124   116814788.522        -103.282          47.000    22229118.179    91024519.310         -80.377          41.000  
G17  23049236.179   121124553.082       -3084.818          42.000    23049242.477    94382799.786       -2403.413          34.000  
G19  21005897.565   110386733.318       -2251.741          44.000                                                                  
G20  20556626.558   108025804.607        -938.429          43.000                                                                  
G05  22477465.507   118119881.700        1383.976          41.000    22477470.175    92041485.288        1078.316          40.000  
G09  23708563.406   124589339.274       -2118.402          39.000    23708575.248    97082628.647       -1650.586          37.000  
G22  23502234.805   123505078.326       -4548.619          42.000                                                                  
G13  25099849.067   131900596.171        1489.209          35.000                                                                  
> 2025 04 04 08 37 11.0000000  0 10                     
G06  22401382.242   117720058.387       -2443.303          44.000    22401386.155    91729928.793       -1903.840          40.000  
G11  21889878.381   115032088.364       -1438.672          45.000    21889879.412    89635398.436       -1120.765          44.000  
G12  22229135.033   116814892.881        -105.901          47.000    22229138.061    91024600.625         -82.378          41.000  
G17  23049823.405   121127638.488       -3086.972          42.000    23049829.563    94385204.007       -2404.778          34.000  
G19  21006326.224   110388985.600       -2253.753          44.000                                                                  
G20  20556805.359   108026743.672        -940.633          43.000                                                                  
G05  22477202.319   118118498.650        1382.020          41.000    22477206.922    92040407.590        1076.572          40.000  
G09  23708966.649   124591458.141       -2120.410          39.000    23708978.400    97084279.720       -1652.338          37.000  
G22  23503100.518   123509627.779       -4550.783          42.000                                                                  
G13  25099565.620   131899107.206        1487.904          35.000                                                                  
> 2025 04 04 08 37 12.0000000  0 10                     
G06  22401846.959   117722500.492       -2442.068          44.000    22401850.878    91731831.718       -1903.252          39.000  
G11  21890152.028   115033526.129       -1437.840          45.000    21890153.079    89636518.786       -1120.326          44.000  
G12  22229155.006   116814998.136        -105.698          47.000    22229158.119    91024682.649         -82.330          41.000  
G17  23050410.663   121130724.545       -3086.419          42.000    23050416.724    94387608.665       -2403.877          34.000  
G19  21006754.917   110391238.622       -2253.104          44.000                                                                  
G20  20556984.135   108027683.536        -940.025          43.000                                                                  
G05  22476939.208   118117116.271        1382.231          41.000    22476943.854    92039330.443        1076.577          39.000  
G09  23709369.973   124593577.886       -2120.325          37.000    23709381.795    97085931.498       -1652.454          37.000  
G22  23503966.308   123514177.609       -4550.055          42.000                                                                  
G13  25099282.203   131897618.238        1489.021          36.000                                                                  
> 2025 04 04 08 37 13.0000000  0 11                     
G06  22402311.797   117724943.109       -2444.460          44.000    22402315.749    91733735.039       -1904.867          40.000  
G11  21890425.776   115034964.475       -1440.306          45.000    21890426.808    89637639.573       -1122.292          44.000  
G12  22229175.288   116815104.504        -108.299          47.000    22229178.299    91024765.552         -84.850          40.000  
G17  23050998.029   121133811.450       -3089.015          41.000    23051004.251    94390014.071       -2406.794          34.000  
G19  21007183.770   110393492.608       -2256.093          44.000                                                                  
G20  20557163.192   108028624.415        -942.834          43.000                                                                  
G05  22476676.317   118115734.816        1379.331          41.000    22476680.925    92038253.959        1075.126          39.000  
G09  23709773.623   124595698.711       -2122.614          38.000    23709785.521    97087584.078       -1654.541          36.000  
G25  24524068.344                        1126.291          25.000                                                                  
G22  23504832.213   123518728.055       -4552.171          42.000                                                                  
G13  25098998.874   131896129.513        1487.014          36.000                                                                  
> 2025 04 04 08 37 14.0000000  0 11                     
G06  22402776.711   117727386.133       -2443.556          44.000    22402780.634    91735638.680       -1903.917          40.000  
G11  21890699.711   115036403.325       -1439.726          45.000    21890700.561    89638760.763       -1121.686          44.000  
G12  22229195.750   116815211.997        -108.431          47.000    22229198.762    91024849.278         -84.315          41.000  
G17  23051585.560   121136899.156       -3088.378          41.000    23051591.788    94392420.110       -2407.064          33.000  
G19  21007612.854   110395747.519       -2255.655          44.000                                                                  
G20  20557342.451   108029566.264        -942.798          43.000                                                                  
G05  22476413.599   118114354.204        1379.982          41.000    22476418.212    92037178.161        1075.323          39.000  
G09  23710177.533   124597820.506       -2122.693          38.000    23710189.233    97089237.394       -1654.327          35.000  
G25  24523857.697                        1126.934          24.000                                                                  
G22  23505698.244   123523279.102       -4551.480          41.000                                                                  
G13  25098715.597   131894640.984        1487.943          36.000                                                                  
> 2025 04 04 08 37 15.0000000  0 11                     
G06  22403241.755   117729829.534       -2444.678          44.000    22403245.590    91737542.633       -1904.962          40.000  
G11  21890973.605   115037842.626       -1440.536          45.000    21890974.412    89639882.302       -1122.532          44.000  
G12  22229216.423   116815320.475        -109.985          47.000    22229219.392    91024933.827         -85.666          41.000  
G17  23052173.312   121139987.629       -3090.081          41.000    23052179.569    94394826.708       -2407.959          33.000  
G19  21008042.131   110398003.265       -2257.056          44.000                                                                  
G20  20557521.911   108030508.990        -944.246          43.000                                                                  
G05  22476151.041   118112974.400        1378.381          41.000    22476155.578    92036103.018        1073.798          39.000  
G09  23710581.382   124599943.222       -2124.573          38.000    23710593.165    97090891.457       -1655.176          35.000  
G25  24523642.720                        1125.906          25.000                                                                  
G22  23506564.299   123527830.635       -4552.938          41.000                                                                  
G13  25098432.282   131893152.550        1487.500          35.000                                                                  
> 2025 04 04 08 37 16.0000000  0 11                     
G06  22403706.754   117732272.581       -2443.400          45.000    22403710.479    91739446.285       -1903.647          40.000  
G11  21891247.442   115039281.663       -1439.229          45.000    21891248.173    89641003.625       -1121.429          44.000  
G12  22229237.190   116815429.269        -109.480          47.000    22229240.019    91025018.595         -85.372          40.000  
G17  23052761.068   121143076.104       -3088.854          41.000    23052767.190    94397233.261       -2406.818          33.000  
G19  21008471.375   110400259.134       -2256.231          44.000                                                                  
G20  20557701.340   108031451.906        -943.478          43.000                                                                  
G05  22475888.510   118111594.671        1379.508          40.000    22475893.024    92035027.882        1074.816          39.000  
G09  23710985.434   124602066.137       -2123.682          38.000    23710997.284    97092545.709       -1654.724          35.000  
G25  24523428.723                        1125.550          25.000                                                                  
G22  23507430.415   123532381.956       -4551.933          41.000                                                                  
G13  25098148.916   131891663.551        1488.742          36.000                                                                  
> 2025 04 04 08 37 17.0000000  0 11                     
G06  22404171.789   117734716.318       -2444.025          44.000    22404175.511    91741350.516       -1904.398          40.000  
G11  21891521.524   115040721.481       -1439.957          45.000    21891522.293    89642125.568       -1122.059          44.000  
G12  22229258.108   116815539.401        -110.600          47.000    22229260.941    91025104.405         -85.951          40.000  
G17  23053349.010   121146165.643       -3089.588          41.000    23053355.111    94399640.703       -2407.315          33.000  
G19  21008901.015   110402516.207       -2257.359          44.000                                                                  
G20  20557881.020   108032396.040        -944.591          43.000                                                                  
G05  22475626.138   118110216.045        1378.367          41.000    22475630.653    92033953.647        1074.137          39.000  
G09  23711389.708   124604190.313       -2124.231          37.000    23711401.579    97094200.908       -1655.646          35.000  
G25  24523213.455                        1124.662          24.000                                                                  
G22  23508296.732   123536934.081       -4552.162          41.000                                                                  
G13  25097865.715   131890174.981        1488.344          36.000                                                                  
> 2025 04 04 08 37 18.0000000  0 11                     
G06  22404636.642   117737159.571       -2442.719          44.000    22404640.387    91743254.340       -1903.424          40.000  
G11  21891795.449   115042160.913       -1438.913          45.000    21891796.290    89643247.211       -1121.311          44.000  
G12  22229279.032   116815649.707        -110.002          47.000    22229281.874    91025190.363         -85.854          40.000  
G17  23053937.012   121149255.085       -3088.759          40.000    23053943.124    94402048.061       -2406.513          33.000  
G19  21009330.474   110404773.257       -2256.920          44.000                                                                  
G20  20558060.661   108033340.231        -943.890          43.000                                                                  
G05  22475363.744   118108837.392        1379.056          40.000    22475368.308    92032879.365        1074.967          39.000  
G09  23711794.000   124606314.643       -2123.938          38.000    23711805.762    97095856.232       -1655.261          35.000  
G25  24522999.759                        1125.628          25.000                                                                  
G22  23509163.000   123541485.879       -4551.269          41.000                                                                  
G13  25097582.379   131888685.661        1490.002          36.000                                                                  
> 2025 04 04 08 37 19.0000000  0 11                     
G06  22405101.624   117739602.774       -2443.641          44.000    22405105.276    91745158.118       -1903.757          40.000  
G11  21892069.292   115043600.370       -1439.642          45.000    21892070.280    89644368.856       -1121.910          44.000  
G12  22229300.130   116815760.600        -111.387          47.000    22229302.965    91025276.780         -87.184          40.000  
G17  23054525.042   121152344.839       -3090.081          41.000    23054531.112    94404455.698       -2408.112          33.000  
G19  21009759.940   110407030.724       -2258.183          44.000                                                                  
G20  20558240.475   108034284.887        -945.365          43.000                                                                  
G05  22475101.478   118107459.092        1377.766          41.000    22475106.084    92031805.374        1073.855          40.000  
G09  23712198.354   124608439.411       -2125.024          38.000    23712210.068    97097511.898       -1655.859          35.000  
G25  24522783.323                        1122.882          24.000                                                                  
G22  23510029.165   123546037.736       -4552.286          41.000                                                                  
G13  25097298.799   131887196.077        1489.254          36.000                                                                  
> 2025 04 04 08 37 20.0000000  0 11                     
G06  22405566.710   117742046.553       -2444.087          44.000    22405570.384    91747062.362       -1904.148          40.000  
G11  21892343.409   115045040.491       -1440.188          45.000    21892344.230    89645491.024       -1122.286          44.000  
G12  22229321.381   116815872.730        -112.479          47.000    22229324.257    91025364.139         -87.783          40.000  
G17  23055113.173   121155435.563       -3091.002          41.000    23055119.142    94406864.026       -2408.939          33.000  
G19  21010189.713   110409289.245       -2258.622          43.000                                                                  
G20  20558420.459   108035230.661        -946.362          43.000                                                                  
G05  22474839.434   118106081.825        1376.974          41.000    22474843.970    92030732.182        1072.544          40.000  
G09  23712602.875   124610565.390       -2126.410          38.000    23712614.661    97099168.483       -1656.946          35.000  
G25  24522569.325                        1119.794          24.000                                                                  
G22  23510895.351   123550590.337       -4553.009          41.000                                                                  
G13  25097015.465   131885706.787        1488.990          36.000                                                                  
> 2025 04 04 08 37 21.0000000  0 11                     
G06  22406032.005   117744491.202       -2444.128          44.000    22406035.675    91748967.290       -1904.599          40.000  
G11  21892617.699   115046481.568       -1440.203          45.000    21892618.501    89646613.943       -1122.479          44.000  
G12  22229342.999   116815986.356        -113.191          47.000    22229345.942    91025452.684         -88.428          40.000  
G17  23055701.475   121158527.489       -3091.505          41.000    23055707.451    94409273.329       -2409.340          33.000  
G19  21010619.774   110411549.115       -2259.537          43.000                                                                  
G20  20558600.677   108036177.793        -946.691          43.000                                                                  
G05  22474577.562   118104705.836        1376.514          41.000    22474582.152    92029659.977        1072.425          40.000  
G09  23713007.818   124612692.760       -2127.002          38.000    23713019.519    97100826.195       -1657.184          35.000  
G25  24522352.664                        1121.967          23.000                                                                  
G22  23511761.870   123555143.920       -4553.266          41.000                                                                  
G13  25096732.119   131884218.166        1488.695          36.000                                                                  
> 2025 04 04 08 37 22.0000000  0 10                     
G06  22406496.996   117746934.795       -2443.859          44.000    22406500.767    91750871.387       -1904.343          40.000  
G11  21892891.686   115047921.686       -1440.561          45.000    21892892.625    89647736.104       -1122.541          44.000  
G12  22229364.607   116816099.604        -114.036          47.000    22229367.480    91025540.926         -88.902          41.000  
G17  23056289.669   121161618.767       -3091.515          42.000    23056295.594    94411682.147       -2409.826          33.000  
G19  21011049.676   110413808.402       -2259.647          44.000                                                                  
G20  20558780.815   108037124.433        -947.288          43.000                                                                  
G05  22474315.606   118103329.203        1376.285          41.000    22474320.206    92028587.297        1072.250          40.000  
G09  23713412.471   124614819.636       -2127.747          38.000    23713424.328    97102483.471       -1657.556          35.000  
G22  23512628.067   123559696.601       -4553.120          41.000                                                                  
G13  25096448.571   131882728.143        1489.749          36.000                                                                  
> 2025 04 04 08 37 23.0000000  0 11                     
G06  22406961.839   117749377.724       -2442.550          44.000    22406965.672    91752774.983       -1903.562          40.000  
G11  21893165.503   115049361.212       -1439.561          45.000    21893166.563    89648857.814       -1121.593          44.000  
G12  22229386.164   116816212.844        -113.529          47.000    22229389.093    91025629.141         -88.127          40.000  
G17  23056877.890   121164709.771       -3091.144          41.000    23056883.801    94414090.691       -2409.193          33.000  
G19  21011479.635   110416067.505       -2258.840          44.000                                                                  
G20  20558960.976   108038070.937        -946.558          43.000                                                                  
G05  22474053.664   118101952.359        1376.884          41.000    22474058.256    92027514.430        1072.847          40.000  
G09  23713817.217   124616946.443       -2126.611          38.000    23713829.036    97104140.779       -1657.587          35.000  
G14  25224217.689                       -4866.445          20.000                                                                  
G22  23513494.327   123564248.748       -4552.138          41.000                                                                  
G13  25096164.951   131881237.311        1491.183          36.000                                                                  
> 2025 04 04 08 37 24.0000000  0 10                     
G06  22407426.725   117751820.482       -2442.741          44.000    22407430.491    91754678.415       -1903.493          40.000  
G11  21893439.493   115050800.638       -1439.172          45.000    21893440.573    89649979.446       -1121.547          44.000  
G12  22229407.864   116816326.522        -113.684          47.000    22229410.703    91025717.752         -88.735          40.000  
G17  23057466.059   121167800.944       -3091.287          41.000    23057471.974    94416499.387       -2408.800          33.000  
G19  21011909.685   110418326.931       -2259.338          43.000                                                                  
G20  20559141.068   108039017.780        -946.820          43.000                                                                  
G05  22473791.699   118100575.762        1376.603          42.000    22473796.277    92026441.769        1072.538          40.000  
G09  23714222.011   124619073.643       -2127.350          38.000    23714233.870    97105798.329       -1657.898          35.000  
G22  23514360.551   123568800.854       -4551.891          41.000                                                                  
G13  25095881.338   131879746.003        1491.808          37.000                                                                  
> 2025 04 04 08 37 25.0000000  0 10                     
G06  22407891.519   117754263.157       -2442.195          43.000    22407895.347    91756581.807       -1903.049          40.000  
G11  21893713.415   115052240.108       -1439.271          45.000    21893714.443    89651101.109       -1121.516          44.000  
G12  22229429.702   116816440.818        -114.340          47.000    22229432.404    91025806.800         -89.053          40.000  
G17  23058054.352   121170892.430       -3091.256          41.000    23058060.295    94418908.391       -2408.908          33.000  
G19  21012339.750   110420586.769       -2259.775          44.000                                                                  
G20  20559321.447   108039965.097        -947.295          43.000                                                                  
G05  22473529.779   118099199.537        1376.496          41.000    22473534.482    92025369.392        1072.241          40.000  
G09  23714626.906   124621201.357       -2127.893          38.000    23714638.832    97107456.231       -1657.837          35.000  
G22  23515226.729   123573353.032       -4551.921          41.000                                                                  
G13  25095597.509   131878254.397        1492.129          36.000                                                                  
> 2025 04 04 08 37 26.0000000  0 10                     
G06  22408356.409   117756706.065       -2442.934          44.000    22408360.414    91758485.361       -1903.485          40.000  
G11  21893987.393   115053679.862       -1439.888          44.000    21893988.480    89652222.996       -1121.936          44.000  
G12  22229451.598   116816555.969        -115.480          47.000    22229454.364    91025896.518         -90.032          40.000  
G17  23058642.730   121173984.519       -3092.265          41.000    23058648.670    94421317.770       -2409.652          34.000  
G19  21012769.900   110422847.306       -2260.847          44.000                                                                  
G20  20559501.797   108040913.154        -948.341          43.000                                                                  
G05  22473268.088   118097823.940        1375.500          41.000    22473272.747    92024297.492        1071.538          40.000  
G09  23715032.012   124623329.853       -2128.796          39.000    23715043.890    97109114.838       -1658.997          35.000  
G22  23516093.027   123577905.573       -4552.469          40.000                                                                  
G13  25095313.765   131876762.739        1491.882          36.000                                                                  
> 2025 04 04 08 37 27.0000000  0 10                     
G06  22408821.173   117759148.867       -2442.796          44.000    22408825.270    91760388.840       -1903.451          40.000  
G11  21894261.320   115055119.629       -1439.663          44.000    21894262.503    89653344.887       -1122.064          44.000  
G12  22229473.568   116816671.690        -116.182          47.000    22229476.403    91025986.690         -90.350          40.000  
G17  23059231.184   121177076.896       -3092.535          41.000    23059237.023    94423727.414       -2409.520          33.000  
G19  21013200.139   110425108.230       -2261.409          42.000                                                                  
G20  20559682.317   108041861.661        -948.739          43.000                                                                  
G05  22473006.392   118096448.672        1375.292          41.000    22473011.008    92023225.871        1071.296          40.000  
G09  23715437.165   124625458.818       -2128.815          38.000    23715449.103    97110773.796       -1659.369          36.000  
G22  23516959.448   123582458.175       -4552.625          41.000                                                                  
G13  25095030.162   131875270.750        1492.542          36.000                                                                  
> 2025 04 04 08 37 28.0000000  0 10                     
G06  22409285.981   117761591.460       -2442.706          44.000    22409290.058    91762292.191       -1903.365          40.000  
G11  21894535.206   115056559.245       -1439.416          45.000    21894536.476    89654466.671       -1121.784          45.000  
G12  22229495.583   116816787.845        -116.490          47.000    22229498.448    91026077.199         -90.571          40.000  
G17  23059819.657   121180169.415       -3092.774          41.000    23059825.505    94426137.160       -2409.875          33.000  
G19  21013630.490   110427369.395       -2261.360          43.000                                                                  
G20  20559862.811   108042810.477        -949.166          43.000                                                                  
G05  22472744.661   118095073.615        1374.743          41.000    22472749.423    92022154.403        1071.281          40.000  
G09  23715842.402   124627588.199       -2130.109          38.000    23715854.372    97112433.067       -1659.613          35.000  
G22  23517825.746   123587010.682       -4552.532          41.000                                                                  
G13  25094746.195   131873778.321        1492.173          36.000                                                                  
> 2025 04 04 08 37 29.0000000  0 10                     
G06  22409750.829   117764034.313       -2443.083          44.000    22409754.954    91764195.677       -1903.665          40.000  
G11  21894809.346   115057999.198       -1440.125          45.000    21894810.535    89655588.704       -1122.117          45.000  
G12  22229517.868   116816904.861        -117.247          47.000    22229520.731    91026168.413         -91.758          40.000  
G17  23060408.205   121183262.553       -3093.634          42.000    23060414.147    94428547.405       -2410.430          33.000  
G19  21014060.849   110429631.260       -2262.006          43.000                                                                  
G20  20560043.504   108043760.048        -949.989          43.000                                                                  
G05  22472483.174   118093699.232        1374.014          42.000    22472487.898    92021083.448        1070.790          40.000  
G09  23716247.731   124629718.298       -2130.383          38.000    23716259.755    97114092.837       -1659.613          36.000  
G22  23518692.145   123591563.540       -4553.150          41.000                                                                  
G13  25094462.168   131872285.859        1492.367          37.000                                                                  
> 2025 04 04 08 37 30.0000000  0 10                     
G06  22410215.642   117766477.425       -2446.014          43.000    22410219.857    91766099.403       -1905.937          40.000  
G11  21895083.436   115059439.516       -1443.373          44.000    21895084.654    89656711.039       -1124.895          45.000  
G12  22229540.298   116817022.854        -121.201          47.000    22229543.211    91026260.343         -94.845          40.000  
G17  23060996.941   121186356.355       -3097.085          42.000    23061002.891    94430958.195       -2413.762          34.000  
G19  21014491.436   110431893.969       -2266.009          43.000                                                                  
G20  20560224.306   108044710.439        -953.462          43.000                                                                  
G05  22472221.771   118092325.554        1370.551          42.000    22472226.526    92020013.047        1068.229          40.000  
G09  23716653.203   124631849.274       -2133.875          39.000    23716665.275    97115753.408       -1663.245          38.000  
G22  23519558.559   123596116.843       -4556.055          41.000                                                                  
G13  25094178.295   131870793.449        1489.834          36.000                                                                  
> 2025 04 04 08 37 31.0000000  0 10                     
G06  22410680.410   117768919.935       -2440.904          43.000    22410684.645    91768002.658       -1902.084          40.000  
G11  21895357.421   115060879.317       -1438.204          45.000    21895358.570    89657832.953       -1120.601          45.000  
G12  22229562.849   116817140.883        -116.848          47.000    22229565.649    91026352.306         -91.078          40.000  
G17  23061585.579   121189449.928       -3092.431          42.000    23061591.563    94433368.723       -2409.007          34.000  
G19  21014921.880   110434156.471       -2261.520          43.000                                                                  
G20  20560404.984   108045660.761        -949.008          43.000                                                                  
G05  22471960.321   118090951.713        1375.111          42.000    22471965.101    92018942.525        1072.016          40.000  
G09  23717058.694   124633980.230       -2129.553          39.000    23717070.824    97117413.906       -1659.979          37.000  
G22  23520424.907   123600669.638       -4550.920          41.000                                                                  
G13  25093894.203   131869300.147        1495.006          38.000                                                                  
> 2025 04 04 08 37 32.0000000  0 10                     
G06  22411145.197   117771362.253       -2444.058          43.000    22411149.358    91769905.753       -1904.752          40.000  
G11  21895631.390   115062319.010       -1441.659          44.000    21895632.550    89658954.787       -1123.340          45.000  
G12  22229585.326   116817259.337        -120.441          47.000    22229588.164    91026444.599         -93.826          40.000  
G17  23062174.260   121192543.675       -3095.611          42.000    23062180.284    94435779.429       -2411.789          33.000  
G19  21015352.408   110436419.294       -2264.883          43.000                                                                  
G20  20560585.871   108046611.386        -952.845          43.000                                                                  
G05  22471698.890   118089578.095        1371.753          42.000    22471703.739    92017872.162        1068.947          40.000  
G09  23717464.361   124636111.566       -2133.386          39.000    23717476.342    97119074.632       -1662.250          37.000  
G22  23521291.283   123605222.402       -4554.698          40.000                                                                  
G13  25093609.968   131867806.490        1491.555          32.000                                                                  
> 2025 04 04 08 37 33.0000000  0 10                     
G06  22411609.800   117773804.261       -2442.094          43.000    22411614.053    91771808.592       -1902.616          40.000  
G11  21895905.246   115063758.480       -1439.709          45.000    21895906.405    89660076.456       -1121.803          45.000  
G12  22229607.939   116817378.176        -119.362          47.000    22229610.783    91026537.209         -93.044          40.000  
G17  23062762.904   121195637.488       -3093.770          41.000    23062768.994    94438190.194       -2410.930          33.000  
G19  21015783.019   110438682.282       -2263.214          43.000                                                                  
G20  20560766.846   108047562.258        -951.038          43.000                                                                  
G05  22471437.593   118088204.597        1373.173          42.000    22471442.328    92016801.924        1070.073          40.000  
G09  23717869.982   124638243.174       -2131.995          39.000    23717881.889    97120735.647       -1661.328          37.000  
G22  23522157.519   123609774.994       -4552.668          39.000                                                                  
G13  25093325.628   131866312.245        1494.500          32.000                                                                  
> 2025 04 04 08 37 34.0000000  0 10                     
G06  22412074.642   117776246.648       -2443.137          43.000    22412078.928    91773711.770       -1904.010          40.000  
G11  21896179.133   115065198.407       -1440.523          44.000    21896180.260    89661198.470       -1122.353          44.000  
G12  22229630.749   116817498.015        -120.506          47.000    22229633.551    91026630.598         -94.299          40.000  
G17  23063351.829   121198732.074       -3095.486          41.000    23063357.865    94440601.585       -2412.260          33.000  
G19  21016213.863   110440946.129       -2264.582          42.000                                                                  
G20  20560947.919   108048514.044        -952.523          43.000                                                                  
G05  22471176.422   118086831.900        1372.092          42.000    22471181.084    92015732.301        1068.960          40.000  
G09  23718275.710   124640375.700       -2132.904          39.000    23718287.863    97122397.371       -1662.598          37.000  
G22  23523023.938   123614328.092       -4553.597          39.000                                                                  
G13  25093041.442   131864818.010        1494.298          33.000                                                                  
> 2025 04 04 08 37 35.0000000  0 10                     
G06  22412539.564   117778689.747       -2443.837          43.000    22412543.816    91775615.465       -1904.205          40.000  
G11  21896453.274   115066639.132       -1441.207          44.000    21896454.392    89662321.133       -1123.290          44.000  
G12  22229653.842   116817619.242        -122.155          47.000    22229656.564    91026725.045         -95.010          40.000  
G17  23063940.859   121201827.729       -3096.360          41.000    23063946.916    94443013.771       -2413.162          33.000  
G19  21016644.855   110443211.171       -2265.931          43.000                                                                  
G20  20561129.119   108049467.065        -953.892          43.000                                                                  
G05  22470915.430   118085460.329        1370.996          42.000    22470920.082    92014663.550        1068.214          40.000  
G09  23718681.716   124642509.499       -2134.094          39.000    23718693.946    97124060.106       -1663.538          37.000  
G22  23523890.612   123618882.046       -4554.550          41.000                                                                  
G13  25092757.195   131863324.332        1493.556          33.000                                                                  
> 2025 04 04 08 37 36.0000000  0 10                     
G06  22413004.577   117781133.604       -2444.483          43.000    22413008.919    91777519.764       -1904.683          40.000  
G11  21896727.589   115068080.718       -1442.097          44.000    21896728.696    89663444.440       -1123.818          44.000  
G12  22229677.109   116817741.878        -123.475          47.000    22229679.849    91026820.594         -95.972          40.000  
G17  23064530.136   121204924.533       -3097.255          41.000    23064536.246    94445426.840       -2413.208          34.000  
G19  21017076.069   110445477.435       -2266.805          43.000                                                                  
G20  20561310.712   108050421.385        -955.204          43.000                                                                  
G05  22470654.807   118084089.992        1369.817          42.000    22470659.185    92013595.742        1067.435          40.000  
G09  23719087.987   124644644.675       -2135.535          39.000    23719100.247    97125723.837       -1664.105          37.000  
G22  23524757.368   123623436.849       -4555.265          38.000                                                                  
G13  25092473.140   131861831.253        1492.301          36.000                                                                  
> 2025 04 04 08 37 37.0000000  0 10                     
G06  22413469.856   117783578.409       -2445.349          43.000    22413474.067    91779424.822       -1905.363          40.000  
G11  21897002.195   115069523.348       -1443.192          45.000    21897003.136    89664568.555       -1124.436          44.000  
G12  22229700.735   116817866.126        -125.079          47.000    22229703.533    91026917.428         -97.482          40.000  
G17  23065119.691   121208022.673       -3099.058          41.000    23065125.763    94447840.993       -2414.520          33.000  
G19  21017507.645   110447745.157       -2268.329          43.000                                                                  
G20  20561492.573   108051377.172        -956.596          42.000                                                                  
G05  22470394.406   118082721.001        1368.545          42.000    22470398.760    92012529.029        1066.156          40.000  
G09  23719494.543   124646781.376       -2137.433          39.000    23719506.754    97127388.799       -1665.411          37.000  
G22  23525624.324   123627992.769       -4556.494          39.000                                                                  
G13  25092189.167   131860338.793        1492.101          37.000                                                                  
> 2025 04 04 08 37 38.0000000  0 10                     
G06  22413935.243   117786024.114       -2446.441          43.000    22413939.491    91781330.566       -1906.545          40.000  
G11  21897276.885   115070966.949       -1444.849          45.000    21897277.903    89665693.449       -1125.769          44.000  
G12  22229724.681   116817991.905        -126.972          47.000    22229727.447    91027015.453         -99.471          40.000  
G17  23065709.417   121211122.101       -3100.680          40.000    23065715.597    94450256.135       -2416.175          32.000  
G19  21017939.473   110450014.259       -2270.464          42.000                                                                  
G20  20561674.709   108052334.392        -958.487          42.000                                                                  
G05  22470134.225   118081353.342        1366.428          43.000    22470138.446    92011463.314        1064.864          40.000  
G09  23719901.297   124648919.534       -2139.246          39.000    23719913.605    97129054.906       -1666.858          37.000  
G22  23526491.544   123632549.822       -4558.091          42.000                                                                  
G13  25091905.353   131858846.993        1491.336          37.000                                                                  
> 2025 04 04 08 37 39.0000000  0 10                     
G06  22414400.957   117788471.242       -2445.722          44.000    22414405.166    91783237.401       -1905.899          40.000  
G11  21897551.932   115072412.024       -1443.554          45.000    21897552.932    89666819.486       -1124.999          44.000  
G12  22229749.000   116818119.744        -126.836          47.000    22229751.726    91027115.062         -99.059          40.000  
G17  23066299.566   121214223.250       -3100.044          40.000    23066305.764    94452672.607       -2415.476          33.000  
G19  21018371.657   110452285.230       -2270.105          42.000                                                                  
G20  20561857.229   108053293.525        -958.092          42.000                                                                  
G05  22469874.352   118079987.511        1367.226          42.000    22469878.570    92010399.048        1065.176          40.000  
G09  23720308.461   124651059.641       -2139.111          39.000    23720320.814    97130722.547       -1667.145          37.000  
G22  23527358.919   123637108.323       -4556.644          42.000                                                                  
G13  25091621.777   131857356.305        1492.488          37.000                                                                  
> 2025 04 04 08 37 40.0000000  0 10                     
G06  22414866.336   117790916.990       -2445.542          43.000    22414870.641    91785143.172       -1905.608          40.000  
G11  21897826.689   115073855.852       -1443.576          45.000    21897827.717    89667944.535       -1124.730          44.000  
G12  22229773.080   116818246.871        -127.200          47.000    22229775.892    91027214.112         -99.308          40.000  
G17  23066889.433   121217323.467       -3100.158          40.000    23066895.695    94455088.393       -2415.747          34.000  
G19  21018803.703   110454555.347       -2270.379          42.000                                                                  
G20  20562039.655   108054251.837        -958.388          42.000                                                                  
G05  22469614.298   118078620.768        1367.023          42.000    22469618.454    92009334.042        1065.259          40.000  
G09  23720715.527   124653199.012       -2139.746          39.000    23720727.898    97132389.565       -1666.992          37.000  
G22  23528226.088   123641665.610       -4557.125          41.000                                                                  
G13  25091337.936   131855864.089        1492.484          37.000                                                                  
> 2025 04 04 08 37 41.0000000  0 10                     
G06  22415331.753   117793362.754       -2443.048          43.000    22415336.130    91787048.965       -1903.746          40.000  
G11  21898101.550   115075299.762       -1441.395          44.000    21898102.462    89669069.674       -1123.134          44.000  
G12  22229797.436   116818374.654        -125.440          47.000    22229800.200    91027313.686         -97.856          40.000  
G17  23067479.358   121220424.033       -3097.961          40.000    23067485.760    94457504.384       -2413.656          33.000  
G19  21019235.796   110456825.922       -2268.365          42.000                                                                  
G20  20562222.169   108055210.686        -956.404          42.000                                                                  
G05  22469354.354   118077254.476        1368.815          43.000    22469358.433    92008269.424        1066.448          40.000  
G09  23721122.714   124655338.884       -2137.378          40.000    23721135.132    97134057.030       -1665.747          38.000  
G22  23529093.378   123646223.062       -4554.964          41.000                                                                  
G13  25091053.895   131854371.613        1495.335          38.000                                                                  
> 2025 04 04 08 37 42.0000000  0 10                     
G06  22415796.926   117795807.553       -2445.086          44.000    22415801.497    91788954.003       -1905.290          40.000  
G11  21898376.189   115076742.789       -1443.242          45.000    21898377.073    89670194.110       -1124.675          44.000  
G12  22229821.668   116818502.139        -128.005          47.000    22229824.315    91027413.016         -99.921          40.000  
G17  23068069.192   121223524.065       -3100.616          41.000    23068075.724    94459919.915       -2414.545          34.000  
G19  21019667.665   110459095.987       -2270.458          43.000                                                                  
G20  20562404.559   108056169.108        -958.690          42.000                                                                  
G05  22469094.288   118075887.629        1366.525          43.000    22469098.323    92007204.344        1064.591          40.000  
G09  23721529.780   124657478.385       -2139.783          40.000    23721542.294    97135724.182       -1667.578          38.000  
G22  23529960.451   123650779.652       -4556.946          41.000                                                                  
G13  25090769.643   131852877.950        1493.278          38.000                                                                  
> 2025 04 04 08 37 43.0000000  0 10                     
G06  22416262.203   117798252.460       -2446.057          43.000    22416266.707    91790859.108       -1906.131          40.000  
G11  21898650.775   115078186.017       -1444.724          44.000    21898651.817    89671318.707       -1125.614          44.000  
G12  22229846.001   116818630.379        -129.867          47.000    22229848.680    91027512.943        -101.412          40.000  
G17  23068659.239   121226624.529       -3102.153          41.000    23068665.730    94462335.906       -2416.809          33.000  
G19  21020099.739   110461366.686       -2272.298          44.000                                                                  
G20  20562586.967   108057128.159        -960.741          42.000                                                                  
G05  22468834.304   118074521.325        1364.797          43.000    22468838.381    92006139.697        1063.276          40.000  
G09  23721937.068   124659618.600       -2141.772          39.000    23721949.450    97137391.867       -1668.939          37.000  
G22  23530827.616   123655336.506       -4558.575          41.000                                                                  
G13  25090485.339   131851384.095        1492.665          38.000                                                                  
> 2025 04 04 08 37 44.0000000  0 10                     
G06  22416727.485   117800697.649       -2445.516          43.000    22416732.001    91792764.464       -1905.732          40.000  
G11  21898925.456   115079629.635       -1443.864          45.000    21898926.525    89672443.601       -1125.163          44.000  
G12  22229870.573   116818759.573        -129.957          47.000    22229873.147    91027613.604        -101.425          40.000  
G17  23069249.346   121229725.685       -3101.815          41.000    23069255.986    94464752.390       -2416.906          33.000  
G19  21020531.912   110463638.148       -2271.935          43.000                                                                  
G20  20562769.652   108058088.033        -960.412          42.000                                                                  
G05  22468574.455   118073155.746        1365.050          43.000    22468578.512    92005075.612        1063.737          40.000  
G09  23722344.406   124661759.641       -2141.156          39.000    23722356.833    97139060.207       -1668.384          37.000  
G22  23531694.944   123659893.768       -4557.591          42.000                                                                  
G13  25090201.043   131849890.308        1493.481          38.000                                                                  
> 2025 04 04 08 37 45.0000000  0 10                     
G06  22417192.781   117803143.076       -2444.325          43.000    22417197.378    91794669.961       -1904.482          40.000  
G11  21899200.296   115081073.543       -1442.623          45.000    21899201.308    89673568.727       -1124.100          44.000  
G12  22229895.394   116818889.630        -129.189          47.000    22229897.913    91027714.941        -100.638          40.000  
G17  23069839.646   121232827.424       -3100.707          42.000    23069846.245    94467169.349       -2416.507          33.000  
G19  21020964.256   110465910.310       -2271.167          44.000                                                                  
G20  20562952.513   108059048.661        -959.523          42.000                                                                  
G05  22468314.746   118071790.834        1365.930          43.000    22468318.769    92004012.037        1064.308          40.000  
G09  23722751.961   124663901.537       -2140.985          39.000    23722764.323    97140729.208       -1668.506          37.000  
G22  23532562.191   123664451.420       -4556.571          41.000                                                                  
G13  25089916.752   131848396.494        1495.149          38.000                                                                  
> 2025 04 04 08 37 46.0000000  0 10                     
G06  22417657.991   117805587.868       -2443.256          43.000    22417662.558    91796574.997       -1904.034          40.000  
G11  21899474.959   115082516.936       -1442.289          45.000    21899476.063    89674693.439       -1123.836          45.000  
G12  22229920.197   116819019.721        -129.202          47.000    22229922.720    91027816.314        -100.934          40.000  
G17  23070429.875   121235928.933       -3100.602          41.000    23070436.451    94469586.126       -2416.389          33.000  
G19  21021396.674   110468182.325       -2270.959          44.000                                                                  
G20  20563135.359   108060009.204        -959.598          42.000                                                                  
G05  22468055.027   118070425.715        1365.933          42.000    22468058.928    92002948.299        1064.876          40.000  
G09  23723159.489   124666043.318       -2140.741          39.000    23723171.871    97142398.163       -1668.616          37.000  
G22  23533429.439   123669008.551       -4555.943          41.000                                                                  
G13  25089632.389   131846901.831        1495.867          37.000                                                                  
> 2025 04 04 08 37 47.0000000  0 10                     
G06  22418123.231   117808032.684       -2450.038          43.000    22418127.780    91798480.035       -1908.916          40.000  
G11  21899749.684   115083960.416       -1448.811          45.000    21899750.687    89675818.219       -1128.609          45.000  
G12  22229945.080   116819150.486        -136.438          47.000    22229947.587    91027918.194        -106.186          40.000  
G17  23071020.181   121239030.826       -3107.289          41.000    23071026.756    94472003.113       -2420.560          33.000  
G19  21021829.102   110470454.846       -2277.964          44.000                                                                  
G20  20563318.347   108060970.280        -966.598          43.000                                                                  
G05  22467795.354   118069061.025        1359.329          43.000    22467799.217    92001884.900        1059.695          40.000  
G09  23723567.185   124668185.722       -2148.199          39.000    23723579.439    97144067.551       -1673.761          37.000  
G22  23534296.704   123673565.838       -4562.505          41.000                                                                  
G13  25089347.834   131845406.922        1489.646          37.000                                                                  
> 2025 04 04 08 37 48.0000000  0 10                     
G06  22418588.323   117810477.069       -2445.373          43.000    22418592.888    91800384.744       -1905.216          40.000  
G11  21900024.288   115085403.559       -1444.236          45.000    21900025.335    89676942.760       -1125.363          45.000  
G12  22229970.118   116819281.483        -132.405          47.000    22229972.599    91028020.260        -102.982          40.000  
G17  23071610.430   121242132.672       -3103.109          41.000    23071617.100    94474420.201       -2418.721          32.000  
G19  21022261.534   110472727.431       -2273.980          44.000                                                                  
G20  20563501.161   108061931.482        -962.466          43.000                                                                  
G05  22467535.659   118067696.376        1363.370          42.000    22467539.431    92000821.547        1062.431          40.000  
G09  23723974.831   124670328.274       -2143.591          39.000    23723987.113    97145737.058       -1670.557          37.000  
G22  23535163.858   123678122.842       -4557.977          41.000                                                                  
G13  25089063.255   131843911.378        1494.234          36.000                                                                  
> 2025 04 04 08 37 49.0000000  0 10                     
G06  22419053.290   117812920.967       -2446.478          43.000    22419057.939    91802289.070       -1906.151          40.000  
G11  21900298.742   115086846.297       -1445.394          44.000    21900299.851    89678066.976       -1126.262          45.000  
G12  22229994.975   116819412.615        -134.048          47.000    22229997.616    91028122.458        -104.594          40.000  
G17  23072200.689   121245234.402       -3104.549          41.000    23072207.353    94476837.107       -2418.983          33.000  
G19  21022694.009   110474999.979       -2275.543          43.000                                                                  
G20  20563684.100   108062892.686        -964.074          43.000                                                                  
G05  22467275.969   118066331.614        1362.031          42.000    22467279.751    91999758.115        1061.522          40.000  
G09  23724382.511   124672470.851       -2145.142          39.000    23724394.838    97147406.629       -1671.967          37.000  
G22  23536031.033   123682679.475       -4559.337          41.000                                                                  
G13  25088778.516   131842415.029        1493.649          37.000                                                                  
> 2025 04 04 08 37 50.0000000  0 10                     
G06  22419518.261   117815364.480       -2443.476          43.000    22419522.956    91804193.115       -1903.854          40.000  
G11  21900573.286   115088288.748       -1442.451          45.000    21900574.381    89679190.955       -1124.055          45.000  
G12  22230019.872   116819544.033        -131.637          47.000    22230022.624    91028224.835        -102.149          40.000  
G17  23072790.839   121248336.126       -3101.761          41.000    23072797.626    94479253.999       -2416.882          33.000  
G19  21023126.400   110477272.622       -2272.622          43.000                                                                  
G20  20563867.083   108063854.066        -961.667          43.000                                                                  
G05  22467016.180   118064966.899        1364.700          43.000    22467020.055    91998694.717        1063.322          40.000  
G09  23724790.314   124674613.675       -2142.633          39.000    23724802.609    97149076.342       -1670.007          37.000  
G22  23536898.092   123687235.875       -4556.515          41.000                                                                  
G13  25088493.477   131840918.055        1497.408          37.000                                                                  
> 2025 04 04 08 37 51.0000000  0 10                     
G06  22419983.155   117817807.317       -2441.396          43.000    22419987.763    91806096.601       -1902.165          40.000  
G11  21900847.669   115089730.575       -1440.374          45.000    21900848.635    89680314.467       -1122.280          45.000  
G12  22230044.851   116819675.416        -130.184          47.000    22230047.575    91028327.226        -101.372          40.000  
G17  23073381.048   121251437.550       -3100.357          42.000    23073387.768    94481670.696       -2415.294          33.000  
G19  21023558.833   110479545.092       -2271.505          43.000                                                                  
G20  20564050.026   108064815.264        -959.976          42.000                                                                  
G05  22466756.581   118063601.976        1366.232          43.000    22466760.409    91997631.136        1064.391          40.000  
G09  23725198.013   124676756.356       -2141.364          39.000    23725210.413    97150745.972       -1668.689          37.000  
G22  23537765.126   123691791.718       -4554.600          42.000                                                                  
G13  25088208.391   131839420.187        1499.401          37.000                                                                  
> 2025 04 04 08 37 52.0000000  0 10                     
G06  22420447.917   117820249.470       -2441.536          43.000    22420452.464    91807999.582       -1902.280          40.000  
G11  21901121.921   115091171.846       -1440.511          45.000    21901122.975    89681437.519       -1122.428          45.000  
G12  22230069.791   116819806.778        -130.854          47.000    22230072.557    91028429.586        -102.013          40.000  
G17  23073971.227   121254538.652       -3100.470          42.000    23073977.882    94484087.165       -2416.214          33.000  
G19  21023991.387   110481817.336       -2271.928          43.000                                                                  
G20  20564232.952   108065776.332        -960.409          43.000                                                                  
G05  22466496.843   118062236.783        1365.649          43.000    22466500.647    91996567.332        1064.426          40.000  
G09  23725605.797   124678898.938       -2141.772          39.000    23725618.117    97152415.520       -1668.994          37.000  
G22  23538632.106   123696347.023       -4554.564          42.000                                                                  
G13  25087923.228   131837921.417        1499.813          37.000                                                                  
> 2025 04 04 08 37 53.0000000  0 10                     
G06  22420912.377   117822690.192       -2439.073          44.000    22420916.869    91809901.447       -1900.661          40.000  
G11  21901395.985   115092611.747       -1438.251          45.000    21901396.860    89682559.518       -1120.699          45.000  
G12  22230094.533   116819937.358        -129.162          47.000    22230097.487    91028531.348        -100.649          40.000  
G17  23074561.081   121257638.726       -3098.756          42.000    23074567.798    94486502.755       -2414.690          33.000  
G19  21024423.580   110484088.638       -2269.775          44.000                                                                  
G20  20564415.717   108066736.502        -959.063          43.000                                                                  
G05  22466236.868   118060870.588        1367.475          43.000    22466240.724    91995502.801        1065.246          40.000  
G09  23726013.398   124681040.667       -2140.765          39.000    23726025.658    97154084.389       -1667.950          37.000  
G22  23539498.635   123700901.032       -4552.654          42.000                                                                  
G13  25087637.755   131836420.957        1502.153          38.000                                                                  
> 2025 04 04 08 37 54.0000000  0 10                     
G06  22421377.055   117825132.254       -2437.804          44.000    22421381.583    91811804.346       -1899.559          40.000  
G11  21901670.263   115094053.110       -1437.351          45.000    21901671.179    89683682.650       -1119.901          45.000  
G12  22230119.769   116820069.969        -128.852          47.000    22230122.726    91028634.660        -100.331          41.000  
G17  23075151.358   121260740.500       -3097.536          42.000    23075157.986    94488919.738       -2413.683          33.000  
G19  21024856.093   110486361.800       -2269.365          44.000                                                                  
G20  20564598.762   108067698.522        -957.907          43.000                                                                  
G05  22465977.264   118059506.158        1368.463          43.000    22465981.144    91994439.608        1066.185          40.000  
G09  23726421.351   124683184.316       -2139.508          38.000    23726433.555    97155754.782       -1667.694          37.000  
G22  23540365.486   123705456.508       -4551.052          42.000                                                                  
G13  25087352.441   131834921.597        1503.669          37.000                                                                  
> 2025 04 04 08 37 55.0000000  0 10                     
G06  22421840.925   117827569.666       -2435.112          44.000    22421845.397    91813703.621       -1897.288          40.000  
G11  21901943.673   115095489.859       -1434.565          45.000    21901944.542    89684802.208       -1117.773          45.000  
G12  22230144.197   116820198.528        -126.604          47.000    22230147.262    91028734.839         -98.640          41.000  
G17  23075740.827   121263838.019       -3095.307          41.000    23075747.458    94491333.350       -2411.301          34.000  
G19  21025287.898   110488630.739       -2267.086          44.000                                                                  
G20  20564781.029   108068656.437        -955.947          43.000                                                                  
G05  22465716.765   118058137.501        1370.978          43.000    22465720.602    91993373.118        1068.349          40.000  
G09  23726828.512   124685323.859       -2137.805          38.000    23726840.717    97157421.968       -1665.729          37.000  
G22  23541231.536   123710007.465       -4548.807          42.000                                                                  
G13  25087066.220   131833417.319        1506.646          37.000                                                                  
> 2025 04 04 08 37 56.0000000  0 11                     
G06  22422304.881   117830007.290       -2435.964          44.000    22422309.241    91815603.060       -1897.721          40.000  
G11  21902217.044   115096926.918       -1435.305          45.000    21902218.127    89685921.990       -1118.227          45.000  
G12  22230168.883   116820327.970        -128.014          47.000    22230171.964    91028835.696         -99.630          41.000  
G17  23076330.385   121266936.102       -3096.703          41.000    23076337.041    94493747.421       -2412.307          33.000  
G19  21025719.753   110490900.351       -2267.766          44.000                                                                  
G20  20564963.515   108069615.072        -957.087          43.000                                                                  
G05  22465456.486   118056769.486        1369.659          43.000    22465460.204    91992307.140        1067.295          40.000  
G09  23727235.849   124687464.219       -2139.392          38.000    23727248.081    97159089.765       -1666.602          37.000  
G14  25254506.250                       -4854.277          19.000                                                                  
G22  23542097.630   123714558.773       -4549.438          42.000                                                                  
G13  25086780.136   131831913.025        1506.300          38.000                                                                  
> 2025 04 04 08 37 57.0000000  0 11                     
G06  22422768.854   117832445.456       -2440.294          44.000    22422773.257    91817502.941       -1901.600          40.000  
G11  21902490.702   115098364.606       -1440.033          45.000    21902491.700    89687042.270       -1121.942          45.000  
G12  22230193.976   116820458.616        -133.157          47.000    22230196.872    91028937.492        -103.595          40.000  
G17  23076920.312   121270035.091       -3101.302          41.000    23076926.833    94496162.226       -2416.068          34.000  
G19  21026151.996   110493171.066       -2273.217          44.000                                                                  
G20  20565146.133   108070574.777        -962.004          43.000                                                                  
G05  22465196.257   118055402.471        1364.845          43.000    22465200.050    91991241.937        1063.240          40.000  
G09  23727643.354   124689605.646       -2143.781          37.000    23727655.618    97160758.422       -1670.508          38.000  
G14  25255417.851                       -4854.277          19.000                                                                  
G22  23542963.823   123719110.766       -4554.206          42.000                                                                  
G13  25086493.858   131830409.024        1501.779          38.000                                                                  
> 2025 04 04 08 37 58.0000000  0 11                     
G06  22423232.572   117834882.672       -2437.716          43.000    22423237.066    91819402.058       -1899.395          40.000  
G11  21902764.114   115099801.454       -1437.535          45.000    21902765.232    89688161.903       -1120.357          45.000  
G12  22230218.783   116820588.971        -131.280          47.000    22230221.623    91029039.088        -102.596          41.000  
G17  23077509.935   121273133.538       -3099.433          41.000    23077516.384    94498576.584       -2414.105          34.000  
G19  21026584.010   110495441.309       -2271.409          44.000                                                                  
G20  20565328.738   108071534.078        -959.986          43.000                                                                  
G05  22464936.013   118054034.925        1366.772          43.000    22464939.758    91990176.352        1064.603          40.000  
G09  23728050.855   124691746.754       -2142.029          38.000    23728063.100    97162426.805       -1669.067          38.000  
G14  25256352.610                       -4854.277          18.000                                                                  
G22  23543829.908   123723661.945       -4551.562          42.000                                                                  
G13  25086207.328   131828903.839        1504.632          38.000                                                                  
> 2025 04 04 08 37 59.0000000  0 11                     
G06  22423696.076   117837318.178       -2433.357          43.000    22423700.560    91821299.865       -1896.258          40.000  
G11  21903037.338   115101236.645       -1433.032          45.000    21903038.337    89689280.227       -1116.560          45.000  
G12  22230243.398   116820718.269        -127.413          46.000    22230246.161    91029139.825         -99.230          40.000  
G17  23078099.392   121276230.638       -3095.391          41.000    23078105.720    94500989.918       -2411.458          33.000  
G19  21027015.828   110497710.270       -2267.036          44.000                                                                  
G20  20565511.028   108072492.199        -956.125          43.000                                                                  
G05  22464675.469   118052666.100        1370.692          43.000    22464679.265    91989109.701        1068.438          40.000  
G09  23728458.180   124693886.657       -2138.239          38.000    23728470.229    97164094.298       -1666.174          38.000  
G14  25257271.035                       -4854.277          18.000                                                                  
G22  23544695.690   123728211.524       -4547.476          42.000                                                                  
G13  25085920.604   131827396.693        1508.998          38.000                                                                  
> 2025 04 04 08 38 00.0000000  0 11                     
G06  22424159.315   117839752.204       -2434.142          44.000    22424163.800    91823196.488       -1896.576          41.000  
G11  21903310.253   115102670.447       -1434.027          46.000    21903311.151    89690397.484       -1117.448          44.000  
G12  22230267.898   116820846.740        -129.192          47.000    22230270.556    91029239.916        -100.481          40.000  
G17  23078688.514   121279326.615       -3096.316          41.000    23078694.882    94503402.393       -2412.423          34.000  
G19  21027447.367   110499978.233       -2268.270          44.000                                                                  
G20  20565693.195   108073449.377        -957.761          43.000                                                                  
G05  22464414.879   118051296.212        1369.401          44.000    22464418.651    91988042.262        1067.421          40.000  
G09  23728865.189   124696025.664       -2139.435          38.000    23728877.277    97165761.041       -1667.072          38.000  
G14  25258192.980                       -4854.277          16.000                                                                  
G22  23545561.239   123732759.773       -4548.409          43.000                                                                  
G13  25085633.480   131825887.778        1509.206          37.000                                                                  
> 2025 04 04 08 38 01.0000000  0 11                     
G06  22424622.844   117842187.938       -2436.474          44.000    22424627.365    91825094.477       -1898.477          41.000  
G11  21903583.428   115104106.069       -1436.654          45.000    21903584.384    89691516.157       -1119.460          45.000  
G12  22230292.856   116820977.561        -132.146          46.000    22230295.470    91029341.879        -102.792          40.000  
G17  23079278.072   121282424.703       -3099.052          41.000    23079284.512    94505816.488       -2414.982          34.000  
G19  21027879.433   110502248.422       -2271.463          44.000                                                                  
G20  20565875.832   108074408.774        -960.519          43.000                                                                  
G05  22464154.554   118049928.488        1366.546          44.000    22464158.391    91986976.540        1064.571          40.000  
G09  23729272.483   124698166.971       -2142.322          39.000    23729284.794    97167429.622       -1669.330          38.000  
G14  25259115.090                       -4854.277          15.000                                                                  
G22  23546427.151   123737309.873       -4550.792          43.000                                                                  
G13  25085346.642   131824380.413        1506.500          38.000                                                                  
> 2025 04 04 08 38 02.0000000  0 11                     
G06  22425085.506   117844619.376       -2432.153          44.000    22425090.038    91826989.105       -1895.325          41.000  
G11  21903855.854   115105537.470       -1432.308          45.000    21903856.709    89692631.520       -1116.145          44.000  
G12  22230317.036   116821104.729        -128.228          46.000    22230319.772    91029440.985        -100.179          41.000  
G17  23079866.876   121285518.850       -3095.029          41.000    23079873.307    94508227.505       -2411.398          34.000  
G19  21028310.696   110504514.774       -2267.740          44.000                                                                  
G20  20566057.742   108075364.421        -956.722          43.000                                                                  
G05  22463893.533   118048556.859        1370.728          43.000    22463897.331    91985907.734        1068.087          40.000  
G09  23729679.237   124700304.539       -2138.501          39.000    23729691.598    97169095.273       -1666.339          38.000  
G14  25260039.588                       -4854.277          15.000                                                                  
G22  23547292.246   123741855.803       -4546.768          43.000                                                                  
G13  25085058.814   131822868.442        1511.074          38.000                                                                  
> 2025 04 04 08 38 03.0000000  0 11                     
G06  22425548.355   117847052.131       -2433.138          43.000    22425552.960    91828884.745       -1895.791          40.000  
G11  21904128.365   115106970.255       -1433.068          44.000    21904129.380    89693747.967       -1116.602          44.000  
G12  22230341.553   116821233.854        -129.515          47.000    22230344.375    91029541.576        -100.791          41.000  
G17  23080456.046   121288614.704       -3096.584          41.000    23080462.451    94510639.862       -2413.057          34.000  
G19  21028742.365   110506782.904       -2268.651          44.000                                                                  
G20  20566239.994   108076321.868        -957.888          43.000                                                                  
G05  22463632.965   118047186.974        1369.424          43.000    22463636.661    91984840.297        1066.942          40.000  
G09  23730086.337   124702443.985       -2139.764          39.000    23730098.733    97170762.378       -1667.700          38.000  
G14  25260964.406                       -4854.277          15.000                                                                  
G22  23548157.614   123746403.179       -4547.861          43.000                                                                  
G13  25084771.464   131821357.526        1511.264          37.000                                                                  
> 2025 04 04 08 38 04.0000000  0 10                     
G06  22426011.347   117849485.754       -2434.078          43.000    22426016.042    91830781.087       -1896.996          40.000  
G11  21904401.223   115108404.044       -1434.840          44.000    21904402.136    89694865.208       -1118.018          45.000  
G12  22230366.409   116821364.555        -131.915          47.000    22230369.311    91029643.430        -102.663          41.000  
G17  23081045.347   121291711.826       -3098.115          41.000    23081051.785    94513053.194       -2413.999          33.000  
G19  21029174.298   110509052.422       -2270.566          44.000                                                                  
G20  20566422.492   108077280.769        -959.797          43.000                                                                  
G05  22463372.602   118045818.457        1367.458          44.000    22463376.293    91983773.909        1065.898          40.000  
G09  23730493.831   124704584.921       -2141.821          38.000    23730506.139    97172430.619       -1668.842          38.000  
G22  23549023.240   123750951.576       -4549.406          42.000                                                                  
G13  25084484.099   131819847.297        1509.818          37.000                                                                  
> 2025 04 04 08 38 05.0000000  0 10                     
G06  22426474.610   117851920.389       -2434.333          43.000    22426479.346    91832678.196       -1896.923          40.000  
G11  21904674.313   115109838.863       -1434.619          44.000    21904675.144    89695983.259       -1118.065          45.000  
G12  22230391.573   116821496.883        -132.494          47.000    22230394.522    91029746.545        -103.470          41.000  
G17  23081634.901   121294810.270       -3098.220          41.000    23081641.446    94515467.581       -2414.096          34.000  
G19  21029606.508   110511323.397       -2270.885          44.000                                                                  
G20  20566605.224   108078241.161        -960.375          43.000                                                                  
G05  22463112.471   118044451.313        1367.322          44.000    22463116.004    91982708.632        1065.069          40.000  
G09  23730901.638   124706727.414       -2142.694          38.000    23730913.879    97174100.097       -1669.177          37.000  
G22  23549888.969   123755501.076       -4549.222          42.000                                                                  
G13  25084196.808   131818337.823        1509.500          37.000                                                                  
> 2025 04 04 08 38 06.0000000  0 10                     
G06  22426937.762   117854354.304       -2434.116          43.000    22426942.562    91834574.729       -1896.813          40.000  
G11  21904947.356   115111273.054       -1434.623          44.000    21904947.979    89697100.798       -1117.768          44.000  
G12  22230416.757   116821629.112        -132.799          47.000    22230419.668    91029849.583        -103.740          41.000  
G17  23082224.455   121297908.406       -3098.601          41.000    23082230.970    94517881.752       -2414.795          34.000  
G19  21030038.626   110513594.125       -2271.517          44.000                                                                  
G20  20566788.001   108079201.369        -960.750          43.000                                                                  
G05  22462852.175   118043083.898        1366.886          43.000    22462855.731    91981643.100        1065.241          40.000  
G09  23731309.265   124708869.703       -2142.877          39.000    23731321.490    97175769.435       -1669.519          37.000  
G22  23550754.559   123760050.004       -4549.386          43.000                                                                  
G13  25083909.347   131816827.344        1510.139          37.000                                                                  
> 2025 04 04 08 38 07.0000000  0 10                     
G06  22427400.814   117856787.862       -2433.837          43.000    22427405.575    91836471.011       -1896.517          40.000  
G11  21905220.273   115112706.996       -1434.252          44.000    21905220.869    89698218.160       -1117.699          45.000  
G12  22230442.002   116821761.671        -133.215          47.000    22230444.873    91029952.863        -103.775          40.000  
G17  23082813.997   121301006.547       -3098.552          41.000    23082820.531    94520295.896       -2415.394          34.000  
G19  21030470.738   110515864.989       -2271.435          44.000                                                                  
G20  20566970.617   108080161.755        -961.021          43.000                                                                  
G05  22462591.892   118041716.551        1366.865          43.000    22462595.508    91980577.640        1064.866          40.000  
G09  23731716.931   124711012.259       -2143.396          39.000    23731729.237    97177438.966       -1669.910          38.000  
G22  23551620.269   123764598.713       -4549.118          43.000                                                                  
G13  25083621.743   131815316.267        1510.697          37.000                                                                  
> 2025 04 04 08 38 08.0000000  0 10                     
G06  22427864.211   117859222.158       -2434.396          44.000    22427868.782    91838367.840       -1896.806          40.000  
G11  21905493.233   115114141.775       -1435.240          45.000    21905493.916    89699336.157       -1118.221          45.000  
G12  22230467.471   116821895.605        -134.454          47.000    22230470.436    91030057.247        -104.937          40.000  
G17  23083403.654   121304105.835       -3099.735          41.000    23083410.294    94522710.884       -2415.038          34.000  
G19  21030903.138   110518137.070       -2272.531          44.000                                                                  
G20  20567153.612   108081123.408        -962.190          43.000                                                                  
G05  22462331.850   118040350.381        1365.563          43.000    22462335.493    91979513.099        1064.102          40.000  
G09  23732125.011   124713156.138       -2144.360          39.000    23732137.231    97179109.491       -1670.569          38.000  
G22  23552486.070   123769148.298       -4549.964          43.000                                                                  
G13  25083334.243   131813805.698        1510.290          37.000                                                                  
> 2025 04 04 08 38 09.0000000  0 10                     
G06  22428327.706   117861657.570       -2435.926          44.000    22428332.219    91840265.588       -1898.454          40.000  
G11  21905766.510   115115577.733       -1436.806          45.000    21905767.190    89700455.091       -1119.498          45.000  
G12  22230493.397   116822031.327        -136.755          47.000    22230496.373    91030162.991        -106.622          41.000  
G17  23083993.787   121307206.603       -3101.631          41.000    23084000.379    94525127.047       -2416.355          34.000  
G19  21031335.893   110520410.767       -2274.692          44.000                                                                  
G20  20567336.925   108082086.706        -964.216          44.000                                                                  
G05  22462072.080   118038985.766        1363.627          44.000    22462075.807    91978449.759        1062.865          40.000  
G09  23732533.275   124715301.661       -2146.429          39.000    23732545.553    97180781.358       -1672.498          37.000  
G22  23553352.146   123773699.136       -4551.629          43.000                                                                  
G13  25083046.965   131812296.002        1509.026          37.000                                                                  
> 2025 04 04 08 38 10.0000000  0 10                     
G06  22428791.080   117864092.011       -2436.177          44.000    22428795.552    91842162.536       -1898.404          41.000  
G11  21906039.693   115117012.801       -1436.896          45.000    21906040.389    89701573.339       -1119.786          45.000  
G12  22230519.160   116822166.724        -137.613          47.000    22230522.184    91030268.467        -106.927          41.000  
G17  23084583.673   121310306.743       -3102.051          41.000    23084590.352    94527542.780       -2417.397          34.000  
G19  21031768.466   110522683.951       -2275.040          44.000                                                                  
G20  20567520.164   108083049.542        -964.786          43.000                                                                  
G05  22461812.385   118037620.599        1363.306          44.000    22461816.007    91977385.998        1062.172          40.000  
G09  23732941.403   124717446.809       -2147.192          38.000    23732953.735    97182452.908       -1673.145          37.000  
G22  23554217.944   123778249.108       -4551.989          42.000                                                                  
G13  25082759.438   131810785.079        1508.965          36.000                                                                  
> 2025 04 04 08 38 11.0000000  0 10                     
G06  22429254.129   117866525.108       -2433.738          44.000    22429258.556    91844058.454       -1896.471          41.000  
G11  21906312.603   115118446.607       -1434.527          45.000    21906313.198    89702690.595       -1117.838          45.000  
G12  22230544.780   116822301.418        -135.933          47.000    22230547.740    91030373.439        -105.665          41.000  
G17  23085173.459   121313405.969       -3100.235          41.000    23085180.134    94529957.756       -2415.869          34.000  
G19  21032200.911   110524956.305       -2273.582          43.000                                                                  
G20  20567703.267   108084011.605        -963.382          43.000                                                                  
G05  22461552.495   118036254.533        1364.922          43.000    22461555.918    91976321.532        1063.660          40.000  
G09  23733349.326   124719591.161       -2145.038          39.000    23733361.683    97184123.825       -1671.900          38.000  
G22  23555083.447   123782797.909       -4549.646          42.000                                                                  
G13  25082471.690   131809272.588        1511.403          37.000                                                                  
> 2025 04 04 08 38 12.0000000  0 10                     
G06  22429717.751   117868960.873       -2435.416          44.000    22429722.038    91845956.444       -1897.720          40.000  
G11  21906585.962   115119883.193       -1436.317          45.000    21906586.572    89703810.003       -1119.150          45.000  
G12  22230571.210   116822439.458        -138.094          47.000    22230574.050    91030481.021        -107.879          41.000  
G17  23085763.808   121316508.218       -3102.270          41.000    23085770.483    94532375.091       -2417.042          34.000  
G19  21032633.971   110527231.766       -2275.308          43.000                                                                  
G20  20567886.919   108084976.841        -965.305          43.000                                                                  
G05  22461293.031   118034891.574        1363.019          43.000    22461296.479    91975259.490        1062.392          40.000  
G09  23733757.981   124721738.791       -2147.546          38.000    23733770.418    97185797.307       -1673.804          38.000  
G22  23555949.607   123787349.485       -4551.469          43.000                                                                  
G13  25082184.444   131807762.503        1510.388          37.000                                                                  
> 2025 04 04 08 38 13.0000000  0 10                     
G06  22430181.144   117871396.065       -2435.186          44.000    22430185.448    91847853.970       -1897.104          40.000  
G11  21906859.183   115121319.293       -1435.952          44.000    21906859.936    89704929.025       -1118.724          45.000  
G12  22230597.408   116822577.557        -138.112          46.000    22230600.359    91030588.595        -107.430          41.000  
G17  23086354.045   121319610.251       -3101.947          41.000    23086360.754    94534792.253       -2417.026          34.000  
G19  21033067.028   110529507.149       -2275.505          43.000                                                                  
G20  20568070.583   108085942.023        -965.179          43.000                                                                  
G05  22461033.608   118033528.481        1363.029          43.000    22461037.159    91974197.341        1062.448          40.000  
G09  23734166.528   124723886.367       -2147.430          38.000    23734179.026    97187470.764       -1673.718          38.000  
G22  23556815.663   123791900.598       -4550.978          43.000                                                                  
G13  25081897.014   131806251.615        1511.407          37.000                                                                  
> 2025 04 04 08 38 14.0000000  0 10                     
G06  22430644.525   117873831.555       -2434.451          44.000    22430648.924    91849751.762       -1897.069          40.000  
G11  21907132.540   115122755.768       -1435.470          45.000    21907133.219    89706048.365       -1118.515          45.000  
G12  22230623.844   116822716.604        -138.106          46.000    22230626.857    91030696.958        -107.677          41.000  
G17  23086944.477   121322712.985       -3101.881          41.000    23086951.207    94537209.949       -2416.627          35.000  
G19  21033500.144   110531783.353       -2275.698          43.000                                                                  
G20  20568254.422   108086908.040        -965.084          44.000                                                                  
G05  22460774.345   118032166.094        1363.137          43.000    22460777.912    91973135.758        1062.138          40.000  
G09  23734575.417   124726034.862       -2147.339          38.000    23734587.809    97189144.908       -1673.572          38.000  
G22  23557681.912   123796452.182       -4550.337          43.000                                                                  
G13  25081609.624   131804740.805        1511.975          38.000                                                                  
> 2025 04 04 08 38 15.0000000  0 10                     
G06  22431107.866   117876266.228       -2433.699          44.000    22431112.294    91851648.919       -1896.511          40.000  
G11  21907405.720   115124191.499       -1434.957          45.000    21907406.498    89707167.126       -1118.036          45.000  
G12  22230650.300   116822855.509        -138.287          46.000    22230653.257    91030805.200        -108.170          41.000  
G17  23087534.770   121325815.261       -3101.971          41.000    23087541.622    94539627.337       -2416.886          35.000  
G19  21033933.198   110534059.167       -2275.091          44.000                                                                  
G20  20568438.030   108087873.789        -965.074          43.000                                                                  
G05  22460514.953   118030803.341        1363.416          43.000    22460518.528    91972073.866        1062.764          40.000  
G09  23734984.152   124728183.091       -2147.455          38.000    23734996.618    97190818.810       -1672.876          38.000  
G22  23558547.772   123801003.079       -4550.096          43.000                                                                  
G13  25081321.854   131803228.921        1512.406          37.000                                                                  
> 2025 04 04 08 38 16.0000000  0 10                     
G06  22431571.260   117878701.313       -2436.514          44.000    22431575.625    91853546.384       -1898.770          41.000  
G11  21907679.059   115125627.764       -1437.968          45.000    21907679.789    89708286.284       -1120.482          45.000  
G12  22230676.839   116822995.483        -141.741          46.000    22230679.839    91030914.270        -110.728          41.000  
G17  23088125.136   121328918.362       -3104.782          41.000    23088132.052    94542045.311       -2418.990          35.000  
G19  21034366.430   110536335.900       -2278.114          43.000                                                                  
G20  20568621.986   108088840.476        -968.755          43.000                                                                  
G05  22460255.781   118029441.418        1360.066          43.000    22460259.332    91971012.649        1059.849          40.000  
G09  23735393.069   124730332.303       -2150.836          38.000    23735405.587    97192493.575       -1676.251          37.000  
G22  23559413.835   123805554.535       -4553.287          42.000                                                                  
G13  25081034.268   131801717.218        1510.329          37.000                                                                  
> 2025 04 04 08 38 17.0000000  0 10                     
G06  22432034.483   117881135.330       -2434.596          44.000    22432038.739    91855443.020       -1897.289          40.000  
G11  21907952.272   115127063.017       -1436.013          45.000    21907953.005    89709404.641       -1118.688          45.000  
G12  22230703.503   116823135.011        -140.419          47.000    22230706.433    91031022.990        -109.657          41.000  
G17  23088715.498   121332020.746       -3103.525          41.000    23088722.388    94544462.750       -2418.237          35.000  
G19  21034799.659   110538612.029       -2276.742          43.000                                                                  
G20  20568805.855   108089806.605        -967.444          44.000                                                                  
G05  22459996.378   118028078.856        1361.628          43.000    22460000.110    91969950.934        1060.657          40.000  
G09  23735801.952   124732481.072       -2150.403          38.000    23735814.491    97194167.922       -1675.861          37.000  
G22  23560279.761   123810105.026       -4551.561          42.000                                                                  
G13  25080746.487   131800204.205        1512.234          38.000                                                                  
> 2025 04 04 08 38 18.0000000  0 10                     
G06  22432497.255   117883567.074       -2431.148          44.000    22432501.574    91857337.890       -1894.917          40.000  
G11  21908224.932   115128496.082       -1432.522          45.000    21908225.756    89710521.336       -1116.235          45.000  
G12  22230729.707   116823272.943        -137.698          47.000    22230732.680    91031130.471        -107.397          41.000  
G17  23089305.498   121335121.221       -3100.096          41.000    23089312.364    94546878.715       -2415.681          34.000  
G19  21035232.286   110540886.393       -2274.178          43.000                                                                  
G20  20568989.414   108090770.983        -964.034          44.000                                                                  
G05  22459736.827   118026714.468        1364.608          43.000    22459740.526    91968887.766        1063.560          40.000  
G09  23736210.473   124734628.059       -2146.887          39.000    23736223.120    97195840.916       -1673.029          37.000  
G22  23561145.303   123814653.372       -4547.958          43.000                                                                  
G13  25080458.084   131798688.660        1515.837          38.000                                                                  
> 2025 04 04 08 38 19.0000000  0 10                     
G06  22432959.887   117885998.514       -2431.160          44.000    22432964.273    91859232.510       -1894.315          40.000  
G11  21908497.514   115129928.937       -1432.432          45.000    21908498.356    89711637.836       -1116.149          45.000  
G12  22230756.245   116823411.219        -138.128          47.000    22230759.016    91031238.200        -107.290          40.000  
G17  23089895.492   121338221.791       -3100.237          41.000    23089902.401    94549294.775       -2416.572          34.000  
G19  21035664.986   110543160.918       -2274.659          43.000                                                                  
G20  20569173.004   108091735.601        -964.410          44.000                                                                  
G05  22459477.185   118025350.222        1364.510          43.000    22459480.904    91967824.725        1062.916          40.000  
G09  23736619.080   124736775.341       -2147.528          38.000    23736631.686    97197514.115       -1672.778          38.000  
G22  23562010.851   123819201.526       -4547.877          42.000                                                                  
G13  25080169.682   131797172.546        1516.760          37.000                                                                  
> 2025 04 04 08 38 20.0000000  0 10                     
G06  22433422.368   117888429.202       -2430.084          44.000    22433426.862    91861126.541       -1893.820          40.000  
G11  21908770.025   115131361.123       -1431.661          45.000    21908771.008    89712753.839       -1115.631          45.000  
G12  22230782.479   116823549.401        -137.878          47.000    22230785.327    91031345.875        -107.205          41.000  
G17  23090485.502   121341321.961       -3099.630          41.000    23090492.342    94551710.464       -2415.449          34.000  
G19  21036097.737   110545435.168       -2274.110          43.000                                                                  
G20  20569356.430   108092699.990        -963.819          44.000                                                                  
G05  22459217.532   118023985.641        1365.096          43.000    22459221.260    91966761.411        1063.782          40.000  
G09  23737027.592   124738922.441       -2146.552          38.000    23737040.230    97199187.169       -1672.388          38.000  
G22  23562876.063   123823749.081       -4546.907          43.000                                                                  
G13  25079880.974   131795655.466        1517.635          36.000                                                                  
> 2025 04 04 08 38 21.0000000  0 10                     
G06  22433884.850   117890859.988       -2430.492          44.000    22433889.427    91863020.636       -1893.746          40.000  
G11  21909042.564   115132793.486       -1432.405          44.000    21909043.547    89713869.953       -1116.072          45.000  
G12  22230808.940   116823688.326        -139.139          47.000    22230811.771    91031454.137        -108.550          41.000  
G17  23091075.518   121344422.626       -3100.812          41.000    23091082.379    94554126.565       -2416.081          34.000  
G19  21036530.612   110547709.998       -2275.126          44.000                                                                  
G20  20569540.134   108093665.015        -965.170          44.000                                                                  
G05  22458958.155   118022621.590        1364.150          43.000    22458961.672    91965698.512        1063.024          40.000  
G09  23737436.331   124741070.211       -2147.852          38.000    23737448.834    97200860.761       -1673.370          38.000  
G22  23563741.553   123828296.859       -4547.652          42.000                                                                  
G13  25079592.254   131794138.254        1517.212          36.000                                                                  
> 2025 04 04 08 38 22.0000000  0 10                     
G06  22434347.299   117893289.906       -2429.244          44.000    22434351.866    91864914.083       -1892.838          40.000  
G11  21909314.913   115134225.058       -1431.098          45.000    21909316.056    89714985.467       -1115.105          45.000  
G12  22230835.348   116823827.027        -138.509          47.000    22230838.147    91031562.212        -107.935          41.000  
G17  23091665.476   121347522.783       -3099.647          41.000    23091672.311    94556542.285       -2415.333          34.000  
G19  21036963.275   110549984.441       -2274.062          44.000                                                                  
G20  20569723.706   108094629.676        -964.191          44.000                                                                  
G05  22458698.487   118021257.104        1364.812          44.000    22458701.972    91964635.299        1063.394          40.000  
G09  23737844.988   124743217.666       -2146.960          38.000    23737857.540    97202534.130       -1673.199          38.000  
G22  23564606.723   123832843.905       -4546.596          42.000                                                                  
G13  25079303.142   131792619.886        1519.220          35.000                                                                  
> 2025 04 04 08 38 23.0000000  0 10                     
G06  22434809.583   117895719.527       -2430.682          44.000    22434814.211    91866807.304       -1893.809          40.000  
G11  21909587.256   115135656.453       -1432.691          44.000    21909588.463    89716100.843       -1116.522          45.000  
G12  22230861.751   116823966.122        -140.754          47.000    22230864.563    91031670.595        -109.746          41.000  
G17  23092255.386   121350623.068       -3101.907          41.000    23092262.340    94558958.091       -2416.952          34.000  
G19  21037396.128   110552259.086       -2275.945          44.000                                                                  
G20  20569907.346   108095594.633        -966.661          44.000                                                                  
G05  22458438.795   118019892.781        1362.819          43.000    22458442.395    91963572.193        1062.022          40.000  
G09  23738253.624   124745365.454       -2149.426          38.000    23738266.229    97204207.729       -1675.360          38.000  
G22  23565472.025   123837390.831       -4548.561          42.000                                                                  
G13  25079014.173   131791101.027        1517.979          36.000                                                                  
> 2025 04 04 08 38 24.0000000  0 10                     
G06  22435272.192   117898150.339       -2427.228          44.000    22435276.760    91868701.429       -1891.294          40.000  
G11  21909859.840   115137089.092       -1429.132          44.000    21909861.131    89717217.176       -1113.365          45.000  
G12  22230888.655   116824107.026        -137.489          46.000    22230891.442    91031780.385        -107.189          41.000  
G17  23092845.472   121353724.865       -3098.407          41.000    23092852.675    94561375.060       -2414.382          34.000  
G19  21037829.253   110554535.382       -2272.669          44.000                                                                  
G20  20570091.307   108096561.243        -963.353          44.000                                                                  
G05  22458179.514   118018530.042        1366.117          44.000    22458183.032    91962510.318        1064.749          40.000  
G09  23738662.566   124747514.940       -2146.368          38.000    23738675.267    97205882.628       -1672.083          38.000  
G22  23566337.406   123841939.011       -4544.484          42.000                                                                  
G13  25078725.306   131789583.113        1521.556          35.000                                                                  
> 2025 04 04 08 38 25.0000000  0 10                     
G06  22435734.212   117900578.310       -2428.381          44.000    22435738.773    91870593.361       -1892.305          40.000  
G11  21910132.021   115138518.963       -1430.055          45.000    21910133.177    89718331.369       -1114.492          45.000  
G12  22230915.034   116824245.722        -138.943          47.000    22230917.882    91031888.469        -108.300          41.000  
G17  23093435.266   121356824.187       -3099.773          41.000    23093442.431    94563790.112       -2415.597          34.000  
G19  21038262.008   110556809.299       -2274.333          44.000                                                                  
G20  20570274.757   108097525.526        -964.602          44.000                                                                  
G05  22457919.794   118017164.867        1364.883          44.000    22457923.173    91961446.568        1063.307          40.000  
G09  23739071.185   124749662.155       -2147.882          39.000    23739083.925    97207555.792       -1673.523          38.000  
G22  23567202.366   123846484.484       -4545.837          42.000                                                                  
G13  25078435.846   131788062.016        1520.667          36.000                                                                  
> 2025 04 04 08 38 26.0000000  0 10                     
G06  22436196.703   117903008.102       -2432.235          44.000    22436201.144    91872486.708       -1895.153          40.000  
G11  21910404.472   115139950.763       -1434.214          45.000    21910405.641    89719447.062       -1117.722          45.000  
G12  22230941.974   116824386.944        -144.035          47.000    22230944.736    91031998.500        -112.131          41.000  
G17  23094025.563   121359925.743       -3104.406          41.000    23094032.627    94566206.882       -2419.054          34.000  
G19  21038695.156   110559085.549       -2278.704          44.000                                                                  
G20  20570458.736   108098492.219        -969.403          43.000                                                                  
G05  22457660.527   118015801.984        1360.382          44.000    22457663.769    91960384.580        1060.098          40.000  
G09  23739480.201   124751811.802       -2152.283          39.000    23739493.076    97209230.850       -1677.106          37.000  
G22  23568067.794   123851031.961       -4550.011          42.000                                                                  
G13  25078146.750   131786542.580        1517.179          37.000                                                                  
> 2025 04 04 08 38 27.0000000  0 10                     
G06  22436658.941   117905437.729       -2428.661          44.000    22436663.504    91874379.914       -1892.604          40.000  
G11  21910676.919   115141382.496       -1431.150          45.000    21910678.170    89720562.684       -1115.162          45.000  
G12  22230968.962   116824528.636        -141.274          47.000    22230971.771    91032108.897        -109.947          41.000  
G17  23094615.795   121363027.483       -3100.949          41.000    23094622.909    94568623.876       -2417.306          34.000  
G19  21039128.386   110561362.146       -2276.421          44.000                                                                  
G20  20570642.657   108099459.214        -966.190          43.000                                                                  
G05  22457401.218   118014439.375        1363.301          44.000    22457404.474    91959322.806        1062.299          40.000  
G09  23739889.231   124753961.837       -2149.438          38.000    23739902.190    97210906.204       -1675.208          38.000  
G22  23568933.151   123855579.370       -4546.514          42.000                                                                  
G13  25077857.441   131785022.748        1520.647          37.000                                                                  
> 2025 04 04 08 38 28.0000000  0 10                     
G06  22437121.181   117907866.482       -2428.255          45.000    22437125.675    91876272.425       -1891.673          40.000  
G11  21910949.252   115142813.408       -1430.490          45.000    21910950.423    89721677.677       -1114.431          45.000  
G12  22230996.048   116824670.087        -141.324          47.000    22230998.669    91032219.134        -109.925          41.000  
G17  23095205.863   121366128.728       -3101.190          41.000    23095213.134    94571040.369       -2416.085          34.000  
G19  21039561.598   110563638.288       -2275.738          44.000                                                                  
G20  20570826.598   108100425.913        -966.708          43.000                                                                  
G05  22457141.775   118013076.311        1363.351          44.000    22457145.061    91958260.684        1062.586          39.000  
G09  23740298.363   124756111.570       -2150.006          38.000    23740311.179    97212581.307       -1674.902          38.000  
G22  23569798.188   123860126.037       -4546.394          42.000                                                                  
G13  25077568.083   131783501.765        1521.373          36.000                                                                  
> 2025 04 04 08 38 29.0000000  0 10                     
G06  22437583.563   117910296.175       -2430.031          45.000    22437588.021    91878165.700       -1893.416          40.000  
G11  21911221.763   115144245.351       -1432.128          45.000    21911223.014    89722793.501       -1116.243          45.000  
G12  22231023.352   116824813.165        -143.782          47.000    22231025.846    91032330.610        -111.733          40.000  
G17  23095796.195   121369231.294       -3102.887          41.000    23095803.508    94573457.940       -2417.436          34.000  
G19  21039995.051   110565915.890       -2278.157          44.000                                                                  
G20  20571010.789   108101394.065        -968.783          43.000                                                                  
G05  22456882.721   118011714.636        1361.109          43.000    22456885.851    91957199.639        1060.949          40.000  
G09  23740707.663   124758262.784       -2151.099          38.000    23740720.544    97214257.609       -1676.849          39.000  
G22  23570663.644   123864673.771       -4547.871          42.000                                                                  
G13  25077278.718   131781981.458        1520.132          37.000                                                                  
> 2025 04 04 08 38 30.0000000  0 10                     
G06  22438046.377   117912727.846       -2431.746          45.000    22438050.709    91880060.516       -1895.051          40.000  
G11  21911494.654   115145679.397       -1434.401          45.000    21911495.881    89723910.937       -1117.988          45.000  
G12  22231051.044   116824958.861        -146.258          47.000    22231053.642    91032444.161        -114.442          40.000  
G17  23096387.067   121372336.211       -3104.928          41.000    23096394.283    94575877.385       -2419.464          33.000  
G19  21040428.952   110568195.954       -2280.679          44.000                                                                  
G20  20571195.569   108102364.707        -970.738          44.000                                                                  
G05  22456624.050   118010355.370        1358.896          43.000    22456627.144    91956140.494        1058.716          39.000  
G09  23741117.494   124760416.547       -2153.400          37.000    23741130.469    97215935.872       -1678.607          38.000  
G22  23571529.600   123869223.628       -4549.668          43.000                                                                  
G13  25076989.737   131780462.949        1518.191          37.000                                                                  
> 2025 04 04 08 38 31.0000000  0 10                     
G06  22438508.942   117915158.561       -2432.221          45.000    22438513.236    91881954.561       -1895.261          40.000  
G11  21911767.343   115147112.510       -1434.725          45.000    21911768.645    89725027.640       -1117.866          45.000  
G12  22231078.714   116825104.232        -147.267          47.000    22231081.192    91032557.434        -114.686          40.000  
G17  23096977.910   121375440.564       -3106.228          41.000    23096984.955    94578296.381       -2420.554          33.000  
G19  21040862.677   110570475.491       -2281.274          44.000                                                                  
G20  20571380.276   108103334.937        -972.019          44.000                                                                  
G05  22456365.245   118008995.552        1358.199          43.000    22456368.339    91955080.907        1058.166          40.000  
G09  23741527.262   124762569.961       -2155.157          38.000    23741540.256    97217613.829       -1679.108          38.000  
G22  23572395.136   123873772.642       -4550.409          43.000                                                                  
G13  25076700.527   131778943.168        1518.303          37.000                                                                  
> 2025 04 04 08 38 32.0000000  0 10                     
G06  22438970.979   117917586.281       -2429.379          45.000    22438975.238    91883846.284       -1892.816          40.000  
G11  21912039.643   115148542.763       -1432.183          45.000    21912040.894    89726142.120       -1115.787          45.000  
G12  22231105.776   116825247.293        -145.181          47.000    22231108.292    91032668.907        -113.009          41.000  
G17  23097568.196   121378542.286       -3103.739          41.000    23097575.202    94580713.258       -2417.436          33.000  
G19  21041295.934   110572752.582       -2279.083          44.000                                                                  
G20  20571564.429   108104302.691        -969.594          44.000                                                                  
G05  22456106.072   118007633.210        1360.468          43.000    22456109.177    91954019.328        1060.232          39.000  
G09  23741936.586   124764720.985       -2153.387          38.000    23741949.549    97219289.948       -1677.600          38.000  
G22  23573260.153   123878318.811       -4547.902          43.000                                                                  
G13  25076410.779   131777420.219        1521.025          37.000                                                                  
> 2025 04 04 08 38 33.0000000  0 10                     
G06  22439432.752   117920012.845       -2427.487          44.000    22439436.973    91885737.107       -1891.343          40.000  
G11  21912311.723   115149971.913       -1429.736          45.000    21912312.766    89727255.748       -1114.037          45.000  
G12  22231132.962   116825389.857        -143.768          47.000    22231135.400    91032779.993        -112.034          41.000  
G17  23098158.198   121381643.243       -3102.146          41.000    23098165.230    94583129.610       -2416.749          33.000  
G19  21041729.198   110575028.968       -2277.352          44.000                                                                  
G20  20571748.482   108105269.832        -968.047          43.000                                                                  
G05  22455846.651   118006270.100        1362.188          43.000    22455849.704    91952957.185        1061.161          40.000  
G09  23742345.746   124766871.361       -2150.702          38.000    23742358.734    97220965.610       -1676.459          38.000  
G22  23574125.055   123882863.933       -4545.756          43.000                                                                  
G13  25076120.690   131775895.816        1523.674          37.000                                                                  
> 2025 04 04 08 38 34.0000000  0 10                     
G06  22439894.760   117922440.362       -2428.264          44.000    22439898.926    91887628.706       -1892.236          40.000  
G11  21912583.840   115151402.135       -1431.051          45.000    21912584.819    89728370.222       -1115.301          45.000  
G12  22231160.320   116825534.025        -145.369          46.000    22231162.891    91032892.330        -113.201          41.000  
G17  23098748.643   121384745.533       -3103.525          41.000    23098755.584    94585546.957       -2417.523          33.000  
G19  21042162.758   110577306.817       -2279.273          45.000                                                                  
G20  20571932.834   108106238.460        -969.823          44.000                                                                  
G05  22455587.534   118004908.424        1360.708          43.000    22455590.586    91951896.117        1060.436          40.000  
G09  23742755.156   124769023.326       -2153.174          38.000    23742768.169    97222642.437       -1677.619          38.000  
G22  23574990.153   123887410.194       -4547.240          42.000                                                                  
G13  25075830.624   131774372.171        1522.971          38.000                                                                  
> 2025 04 04 08 38 35.0000000  0 10                     
G06  22440356.834   117924868.234       -2427.728          44.000    22440360.993    91889520.539       -1891.839          40.000  
G11  21912856.109   115152832.790       -1430.979          45.000    21912857.084    89729484.995       -1114.700          45.000  
G12  22231187.871   116825679.198        -145.470          47.000    22231190.452    91033005.437        -113.310          41.000  
G17  23099339.102   121387848.555       -3103.361          41.000    23099346.040    94587964.930       -2418.327          33.000  
G19  21042596.340   110579585.485       -2278.921          45.000                                                                  
G20  20572117.521   108107207.957        -969.770          44.000                                                                  
G05  22455328.489   118003547.522        1360.776          44.000    22455331.621    91950835.673        1060.287          40.000  
G09  23743164.691   124771176.139       -2153.033          38.000    23743177.811    97224320.002       -1677.966          38.000  
G22  23575855.311   123891956.874       -4546.630          42.000                                                                  
G13  25075540.717   131772848.632        1523.553          38.000                                                                  
> 2025 04 04 08 38 36.0000000  0 10                     
G06  22440818.947   117927296.334       -2428.393          44.000    22440823.000    91891412.546       -1892.191          40.000  
G11  21913128.421   115154263.733       -1431.340          45.000    21913129.342    89730600.017       -1115.025          45.000  
G12  22231215.713   116825825.240        -146.269          46.000    22231218.213    91033119.255        -114.243          40.000  
G17  23099929.736   121390952.151       -3103.746          41.000    23099936.714    94590383.306       -2418.544          33.000  
G19  21043030.052   110581864.850       -2279.629          45.000                                                                  
G20  20572302.212   108108178.176        -970.514          43.000                                                                  
G05  22455069.628   118002187.261        1359.907          43.000    22455072.744    91949775.755        1059.337          40.000  
G09  23743574.534   124773329.755       -2153.699          37.000    23743587.589    97225998.143       -1678.607          38.000  
G22  23576720.654   123896503.913       -4547.130          42.000                                                                  
G13  25075250.822   131771325.064        1523.259          37.000                                                                  
> 2025 04 04 08 38 37.0000000  0 10                     
G06  22441281.002   117929724.972       -2428.846          44.000    22441285.173    91893304.995       -1892.552          40.000  
G11  21913400.855   115155695.312       -1431.681          45.000    21913401.772    89731715.541       -1115.750          45.000  
G12  22231243.767   116825972.500        -147.614          46.000    22231246.288    91033233.994        -115.167          40.000  
G17  23100520.620   121394056.689       -3104.908          41.000    23100527.506    94592802.397       -2418.554          33.000  
G19  21043463.997   110584145.235       -2280.271          46.000                                                                  
G20  20572487.112   108109149.512        -971.545          44.000                                                                  
G05  22454811.038   118000827.989        1358.905          44.000    22454814.113    91948716.567        1059.132          40.000  
G09  23743984.500   124775484.507       -2154.407          38.000    23743997.620    97227677.164       -1678.961          38.000  
G22  23577586.073   123901051.652       -4547.845          42.000                                                                  
G13  25074960.918   131769801.776        1523.347          37.000                                                                  
> 2025 04 04 08 38 38.0000000  0 10                     
G06  22441743.260   117932154.078       -2429.732          44.000    22441747.414    91895197.805       -1893.097          40.000  
G11  21913673.379   115157127.452       -1432.741          45.000    21913674.275    89732831.500       -1116.625          45.000  
G12  22231271.930   116826120.862        -149.204          46.000    22231274.563    91033349.589        -115.981          40.000  
G17  23101111.586   121397162.058       -3106.186          41.000    23101118.412    94595222.203       -2420.330          33.000  
G19  21043898.303   110586426.622       -2282.348          45.000                                                                  
G20  20572672.231   108110121.846        -973.272          44.000                                                                  
G05  22454552.610   117999469.617        1357.496          44.000    22454555.697    91947658.095        1058.031          40.000  
G09  23744394.709   124777640.350       -2156.805          38.000    23744407.886    97229357.037       -1680.914          38.000  
G22  23578451.685   123905599.992       -4549.071          41.000                                                                  
G13  25074671.075   131768278.713        1522.662          37.000                                                                  
> 2025 04 04 08 38 39.0000000  0 10                     
G06  22442205.763   117934583.912       -2430.401          44.000    22442209.788    91897091.162       -1893.687          41.000  
G11  21913946.068   115158560.365       -1433.179          45.000    21913947.020    89733948.054       -1116.944          45.000  
G12  22231300.342   116826270.595        -150.405          46.000    22231303.033    91033466.284        -117.293          40.000  
G17  23101702.678   121400268.499       -3106.770          41.000    23101709.516    94597642.805       -2420.509          33.000  
G19  21044332.572   110588709.151       -2282.994          45.000                                                                  
G20  20572857.549   108111095.381        -974.099          44.000                                                                  
G05  22454294.184   117998112.384        1356.616          43.000    22454297.413    91946600.530        1057.190          40.000  
G09  23744805.152   124779797.411       -2158.044          38.000    23744818.380    97231037.866       -1681.055          38.000  
G22  23579317.313   123910149.155       -4549.470          41.000                                                                  
G13  25074381.281   131766756.110        1523.036          37.000                                                                  
> 2025 04 04 08 38 40.0000000  0 10                     
G06  22442668.200   117937014.084       -2429.256          44.000    22442672.243    91898984.813       -1893.031          40.000  
G11  21914218.903   115159993.754       -1432.577          45.000    21914219.771    89735064.969       -1116.174          45.000  
G12  22231328.974   116826421.356        -150.172          46.000    22231331.684    91033583.761        -117.268          40.000  
G17  23102293.994   121403375.729       -3106.600          41.000    23102300.846    94600064.010       -2420.805          34.000  
G19  21044767.152   110590992.543       -2282.598          45.000                                                                  
G20  20573042.946   108112069.836        -973.898          44.000                                                                  
G05  22454036.059   117996755.975        1356.975          44.000    22454039.320    91945543.587        1057.648          40.000  
G09  23745215.693   124781955.436       -2157.660          37.000    23745228.987    97232719.460       -1680.957          37.000  
G22  23580183.009   123914698.831       -4548.897          41.000                                                                  
G13  25074091.624   131765233.664        1523.628          37.000                                                                  
> 2025 04 04 08 38 41.0000000  0 10                     
G06  22443130.726   117939444.194       -2430.265          44.000    22443134.704    91900878.386       -1893.756          40.000  
G11  21914491.629   115161427.136       -1433.657          45.000    21914492.599    89736181.892       -1117.196          45.000  
G12  22231357.843   116826572.686        -151.939          46.000    22231360.425    91033701.674        -118.451          40.000  
G17  23102885.361   121406483.221       -3107.880          41.000    23102892.139    94602485.428       -2421.813          33.000  
G19  21045201.739   110593276.333       -2284.094          45.000                                                                  
G20  20573228.506   108113044.731        -975.545          44.000                                                                  
G05  22453778.050   117995399.903        1355.619          44.000    22453781.329    91944486.918        1056.367          40.000  
G09  23745626.333   124784113.938       -2159.143          38.000    23745639.778    97234401.407       -1682.410          37.000  
G22  23581048.724   123919248.548       -4550.087          41.000                                                                  
G13  25073801.800   131763710.914        1522.118          37.000                                                                  
> 2025 04 04 08 38 42.0000000  0 10                     
G06  22443593.224   117941874.787       -2431.078          44.000    22443597.302    91902772.366       -1894.335          40.000  
G11  21914764.460   115162861.100       -1434.346          45.000    21914765.524    89737299.269       -1117.704          45.000  
G12  22231386.780   116826725.159        -153.130          46.000    22231389.430    91033820.480        -119.421          40.000  
G17  23103476.831   121409591.598       -3108.795          41.000    23103483.603    94604907.559       -2422.495          33.000  
G19  21045636.565   110595561.087       -2285.116          45.000                                                                  
G20  20573414.251   108114020.633        -976.392          44.000                                                                  
G05  22453520.203   117994044.761        1354.643          44.000    22453523.496    91943430.982        1055.443          40.000  
G09  23746037.299   124786273.490       -2159.882          38.000    23746050.623    97236084.175       -1683.258          37.000  
G22  23581914.597   123923798.871       -4550.631          41.000                                                                  
G13  25073512.061   131762188.358        1522.015          36.000                                                                  
> 2025 04 04 08 38 43.0000000  0 10                     
G06  22444055.926   117944305.851       -2431.149          44.000    22444059.925    91904666.690       -1894.530          40.000  
G11  21915037.373   115164295.605       -1434.525          45.000    21915038.548    89738417.059       -1117.842          45.000  
G12  22231415.988   116826878.757        -154.004          46.000    22231418.568    91033940.157        -120.007          40.000  
G17  23104068.533   121412700.789       -3109.306          41.000    23104075.318    94607330.297       -2422.476          33.000  
G19  21046071.497   110597846.814       -2286.144          45.000                                                                  
G20  20573600.166   108114997.543        -977.383          44.000                                                                  
G05  22453262.538   117992690.524        1353.956          44.000    22453265.749    91942375.742        1054.827          40.000  
G09  23746448.460   124788434.086       -2160.901          38.000    23746461.827    97237767.779       -1683.868          37.000  
G22  23582780.536   123928349.824       -4551.366          41.000                                                                  
G13  25073222.208   131760666.077        1522.155          36.000                                                                  
> 2025 04 04 08 38 44.0000000  0 10                     
G06  22444518.871   117946737.728       -2431.367          44.000    22444522.683    91906561.639       -1894.400          40.000  
G11  21915310.527   115165731.030       -1435.239          45.000    21915311.778    89739535.564       -1118.281          45.000  
G12  22231445.440   116827033.823        -155.020          46.000    22231448.083    91034060.990        -120.757          40.000  
G17  23104660.512   121415811.201       -3110.112          41.000    23104667.108    94609753.965       -2423.165          33.000  
G19  21046506.752   110600133.819       -2286.851          45.000                                                                  
G20  20573786.215   108115975.789        -978.085          44.000                                                                  
G05  22453005.078   117991337.542        1353.190          44.000    22453008.293    91941321.463        1054.301          40.000  
G09  23746859.778   124790596.100       -2161.694          38.000    23746873.147    97239452.468       -1684.943          37.000  
G22  23583646.641   123932901.708       -4551.638          41.000                                                                  
G13  25072932.609   131759144.333        1522.247          36.000                                                                  
> 2025 04 04 08 38 45.0000000  0 10                     
G06  22444981.700   117949170.125       -2432.522          44.000    22444985.576    91908457.015       -1895.198          40.000  
G11  21915583.755   115167167.020       -1436.046          45.000    21915585.034    89740654.537       -1119.208          45.000  
G12  22231475.180   116827190.068        -156.843          46.000    22231477.797    91034182.733        -122.169          40.000  
G17  23105252.573   121418922.501       -3111.667          41.000    23105259.136    94612178.356       -2424.664          33.000  
G19  21046942.077   110602421.834       -2288.420          44.000                                                                  
G20  20573972.587   108116955.091        -980.010          44.000                                                                  
G05  22452747.701   117989985.499        1351.646          44.000    22452751.058    91940267.919        1053.242          40.000  
G09  23747271.505   124792759.179       -2163.599          38.000    23747284.662    97241137.987       -1686.127          37.000  
G22  23584512.963   123937454.208       -4552.618          41.000                                                                  
G13  25072643.187   131757622.913        1521.009          36.000                                                                  
> 2025 04 04 08 38 46.0000000  0 10                     
G06  22445444.653   117951602.861       -2432.940          44.000    22445448.518    91910352.661       -1895.921          40.000  
G11  21915857.199   115168603.453       -1436.221          45.000    21915858.405    89741773.828       -1119.080          44.000  
G12  22231505.079   116827347.285        -157.449          46.000    22231507.785    91034305.244        -122.569          40.000  
G17  23105844.581   121422034.497       -3111.899          41.000    23105851.327    94614603.314       -2425.310          33.000  
G19  21047377.534   110604710.660       -2288.957          44.000                                                                  
G20  20574159.185   108117935.244        -980.490          44.000                                                                  
G05  22452490.445   117988634.238        1351.117          44.000    22452493.867    91939214.992        1052.904          40.000  
G09  23747683.242   124794923.158       -2164.294          38.000    23747696.347    97242824.177       -1686.182          37.000  
G22  23585379.425   123942007.216       -4553.091          41.000                                                                  
G13  25072353.703   131756101.555        1521.223          36.000                                                                  
> 2025 04 04 08 38 47.0000000  0 10                     
G06  22445907.620   117954035.665       -2433.107          44.000    22445911.491    91912248.350       -1895.995          40.000  
G11  21916130.623   115170040.060       -1436.684          45.000    21916131.731    89742893.259       -1119.736          45.000  
G12  22231535.023   116827505.258        -158.515          46.000    22231537.850    91034428.335        -123.723          40.000  
G17  23106436.910   121425146.962       -3112.770          41.000    23106443.591    94617028.566       -2425.547          33.000  
G19  21047813.247   110607000.041       -2290.204          44.000                                                                  
G20  20574345.750   108118916.005        -981.247          44.000                                                                  
G05  22452233.432   117987283.490        1350.267          44.000    22452236.883    91938162.478        1052.218          40.000  
G09  23748095.103   124797087.821       -2165.369          38.000    23748108.248    97244510.933       -1687.061          37.000  
G22  23586245.911   123946560.411       -4553.592          41.000                                                                  
G13  25072064.243   131754580.037        1521.323          35.000                                                                  
> 2025 04 04 08 38 48.0000000  0 10                     
G06  22446370.806   117956469.081       -2433.269          44.000    22446374.504    91914144.517       -1896.285          40.000  
G11  21916404.085   115171477.349       -1437.139          45.000    21916405.297    89744013.226       -1120.020          45.000  
G12  22231565.289   116827664.501        -159.568          46.000    22231568.140    91034552.423        -124.648          40.000  
G17  23107029.346   121428260.414       -3113.595          41.000    23107036.073    94619454.632       -2425.835          33.000  
G19  21048248.969   110609290.525       -2290.901          44.000                                                                  
G20  20574532.683   108119897.912        -982.245          44.000                                                                  
G05  22451976.622   117985933.776        1349.497          44.000    22451980.101    91937110.751        1051.485          40.000  
G09  23748507.241   124799253.631       -2166.187          38.000    23748520.318    97246198.640       -1688.763          37.000  
G22  23587112.481   123951114.367       -4554.331          41.000                                                                  
G13  25071774.790   131753058.884        1521.715          35.000                                                                  
> 2025 04 04 08 38 49.0000000  0 10                     
G06  22446833.700   117958902.542       -2432.909          44.000    22446837.540    91916040.714       -1895.662          40.000  
G11  21916677.648   115172914.774       -1436.731          45.000    21916678.810    89745133.302       -1119.666          45.000  
G12  22231595.695   116827824.428        -159.282          46.000    22231598.493    91034677.037        -124.420          40.000  
G17  23107621.940   121431374.283       -3113.461          41.000    23107628.557    94621881.080       -2426.553          33.000  
G19  21048684.894   110611581.511       -2290.582          44.000                                                                  
G20  20574719.633   108120880.372        -982.106          44.000                                                                  
G05  22451719.830   117984584.539        1349.699          44.000    22451723.363    91936059.422        1051.310          40.000  
G09  23748919.489   124801420.046       -2166.077          38.000    23748932.507    97247886.730       -1688.092          37.000  
G22  23587979.128   123955668.460       -4553.491          42.000                                                                  
G13  25071485.288   131751537.541        1522.246          36.000                                                                  
> 2025 04 04 08 38 50.0000000  0 10                     
G06  22447296.943   117961336.751       -2432.466          44.000    22447300.730    91917937.489       -1895.407          40.000  
G11  21916951.384   115174353.017       -1436.497          45.000    21916952.420    89746254.004       -1119.365          44.000  
G12  22231626.428   116827985.756        -159.921          46.000    22231629.229    91034802.746        -124.655          40.000  
G17  23108214.908   121434489.281       -3113.500          41.000    23108221.336    94624308.327       -2426.576          33.000  
G19  21049121.097   110613873.734       -2290.792          44.000                                                                  
G20  20574906.851   108121864.118        -982.184          44.000                                                                  
G05  22451463.177   117983236.474        1349.594          44.000    22451466.889    91935008.965        1051.765          40.000  
G09  23749331.978   124803587.809       -2166.528          38.000    23749345.080    97249575.889       -1688.159          36.000  
G22  23588845.986   123960223.437       -4553.216          42.000                                                                  
G13  25071195.881   131750016.693        1522.526          36.000                                                                  
> 2025 04 04 08 38 51.0000000  0 10                     
G06  22447760.174   117963770.459       -2432.381          44.000    22447763.846    91919833.894       -1895.464          40.000  
G11  21917225.013   115175790.874       -1436.871          45.000    21917225.844    89747374.386       -1119.313          44.000  
G12  22231657.207   116828147.254        -160.535          46.000    22231659.941    91034928.581        -125.237          40.000  
G17  23108807.731   121437604.150       -3113.949          41.000    23108814.049    94626735.507       -2427.140          33.000  
G19  21049557.370   110616165.944       -2291.015          44.000                                                                  
G20  20575094.231   108122847.889        -982.707          44.000                                                                  
G05  22451206.703   117981888.340        1349.348          44.000    22451210.278    91933958.494        1051.207          40.000  
G09  23749744.553   124805755.637       -2167.377          39.000    23749757.540    97251265.095       -1688.599          36.000  
G22  23589712.722   123964778.053       -4553.502          41.000                                                                  
G13  25070906.422   131748495.105        1522.592          38.000                                                                  
> 2025 04 04 08 38 52.0000000  0 10                     
G06  22448223.197   117966203.910       -2433.066          44.000    22448226.900    91921730.070       -1895.955          40.000  
G11  21917498.613   115177228.518       -1437.534          45.000    21917499.349    89748494.652       -1120.182          44.000  
G12  22231688.022   116828309.140        -161.877          46.000    22231690.751    91035054.713        -126.163          40.000  
G17  23109400.455   121440719.136       -3114.858          41.000    23109406.667    94629162.744       -2427.852          32.000  
G19  21049993.668   110618458.395       -2292.626          44.000                                                                  
G20  20575281.575   108123831.909        -983.965          44.000                                                                  
G05  22450950.185   117980540.381        1348.042          44.000    22450953.706    91932908.144        1050.346          40.000  
G09  23750157.162   124807923.738       -2167.792          38.000    23750170.107    97252954.528       -1688.904          36.000  
G22  23590579.406   123969332.547       -4554.546          41.000                                                                  
G13  25070616.712   131746973.006        1522.134          36.000                                                                  
> 2025 04 04 08 38 53.0000000  0 10                     
G06  22448686.221   117968636.822       -2428.893          44.000    22448689.729    91923625.850       -1892.385          39.000  
G11  21917772.060   115178665.701       -1432.721          45.000    21917772.846    89749614.548       -1116.666          44.000  
G12  22231718.815   116828471.135        -158.026          46.000    22231721.556    91035180.956        -123.088          41.000  
G17  23109993.193   121443833.978       -3111.128          41.000    23109999.261    94631589.879       -2424.262          32.000  
G19  21050429.831   110620750.753       -2288.424          44.000                                                                  
G20  20575468.781   108124815.950        -980.408          44.000                                                                  
G05  22450693.570   117979192.315        1352.055          44.000    22450697.129    91931857.720        1053.494          39.000  
G09  23750569.691   124810091.924       -2164.636          38.000    23750582.642    97254644.040       -1686.249          36.000  
G22  23591446.077   123973886.587       -4549.642          41.000                                                                  
G13  25070326.909   131745450.104        1527.916          36.000                                                                  
> 2025 04 04 08 38 54.0000000  0 10                     
G06  22449149.099   117971069.427       -2437.090          44.000    22449152.603    91925521.377       -1899.001          40.000  
G11  21918045.519   115180102.703       -1441.339          45.000    21918046.316    89750734.274       -1123.163          45.000  
G12  22231749.876   116828633.491        -166.864          46.000    22231752.580    91035307.469        -130.277          41.000  
G17  23110585.856   121446948.844       -3119.264          40.000    23110592.063    94634017.028       -2430.282          32.000  
G19  21050865.943   110623043.338       -2297.285          43.000                                                                  
G20  20575655.971   108125800.193        -989.064          44.000                                                                  
G05  22450437.079   117977844.412        1343.241          44.000    22450440.642    91930807.378        1046.992          40.000  
G09  23750982.353   124812260.342       -2172.980          39.000    23750995.214    97256333.682       -1692.627          36.000  
G22  23592312.585   123978440.469       -4558.127          41.000                                                                  
G13  25070036.998   131743926.752        1519.394          35.000                                                                  
> 2025 04 04 08 38 55.0000000  0 10                     
G06  22449611.833   117973501.173       -2431.851          44.000    22449615.221    91927416.245       -1895.035          40.000  
G11  21918318.835   115181538.911       -1436.128          45.000    21918319.646    89751853.402       -1118.994          44.000  
G12  22231780.644   116828795.654        -162.126          46.000    22231783.422    91035433.817        -126.396          41.000  
G17  23111178.515   121450063.269       -3114.455          41.000    23111184.675    94636443.891       -2427.101          32.000  
G19  21051302.022   110625335.498       -2291.966          44.000                                                                  
G20  20575843.281   108126784.115        -984.210          44.000                                                                  
G05  22450180.442   117976496.033        1348.324          44.000    22450183.978    91929756.732        1050.323          40.000  
G09  23751395.002   124814428.491       -2168.268          38.000    23751407.875    97258023.186       -1689.783          37.000  
G22  23593178.975   123982993.635       -4553.125          41.000                                                                  
G13  25069746.866   131742402.270        1524.723          31.000                                                                  
> 2025 04 04 08 38 56.0000000  0 10                     
G06  22450074.526   117975933.330       -2432.742          44.000    22450078.076    91929311.433       -1895.647          40.000  
G11  21918592.322   115182975.648       -1437.295          45.000    21918593.044    89752972.937       -1120.138          44.000  
G12  22231811.851   116828958.903        -164.115          46.000    22231814.375    91035561.047        -128.218          40.000  
G17  23111771.319   121453178.492       -3115.920          41.000    23111777.526    94638871.298       -2427.692          32.000  
G19  21051738.438   110627628.619       -2293.786          44.000                                                                  
G20  20576030.604   108127768.984        -985.596          44.000                                                                  
G05  22449923.982   117975148.535        1346.805          44.000    22449927.576    91928706.726        1049.447          40.000  
G09  23751807.742   124816597.669       -2169.897          38.000    23751820.650    97259713.461       -1690.680          34.000  
G22  23594045.513   123987547.365       -4554.489          41.000                                                                  
G13  25069456.780   131740877.970        1524.012          35.000                                                                  
> 2025 04 04 08 38 57.0000000  0 10                     
G06  22450537.328   117978365.773       -2427.813          45.000    22450541.036    91931206.858       -1891.941          40.000  
G11  21918865.680   115184412.744       -1432.865          45.000    21918866.387    89754092.725       -1116.037          44.000  
G12  22231843.085   116829123.075        -160.209          46.000    22231845.584    91035688.979        -125.073          40.000  
G17  23112364.246   121456294.368       -3111.767          41.000    23112370.456    94641299.199       -2424.616          32.000  
G19  21052174.877   110629922.437       -2288.738          44.000                                                                  
G20  20576218.121   108128754.702        -982.226          44.000                                                                  
G05  22449667.670   117973801.740        1351.268          44.000    22449671.306    91927657.244        1053.608          40.000  
G09  23752220.668   124818767.664       -2166.132          37.000    23752233.604    97261404.392       -1688.013          33.000  
G22  23594912.226   123992101.522       -4549.888          41.000                                                                  
G13  25069166.540   131739353.668        1529.110          35.000                                                                  
> 2025 04 04 08 38 58.0000000  0 10                     
G06  22451000.028   117980797.281       -2433.660          45.000    22451003.819    91933101.534       -1896.379          40.000  
G11  21919139.109   115185848.941       -1438.367          45.000    21919139.748    89755211.868       -1120.954          45.000  
G12  22231874.280   116829286.952        -166.576          46.000    22231876.804    91035816.646        -129.690          41.000  
G17  23112957.035   121459409.628       -3117.638          42.000    23112963.299    94643726.698       -2429.684          32.000  
G19  21052611.272   110632215.832       -2295.659          44.000                                                                  
G20  20576405.691   108129739.895        -987.409          44.000                                                                  
G05  22449411.276   117972454.429        1345.134          44.000    22449414.961    91926607.436        1047.990          40.000  
G09  23752633.653   124820937.251       -2172.144          37.000    23752646.476    97263094.942       -1692.975          34.000  
G22  23595778.708   123996654.779       -4555.205          41.000                                                                  
G13  25068876.181   131737828.212        1523.187          35.000                                                                  
> 2025 04 04 08 38 59.0000000  0 10                     
G06  22451462.222   117983226.678       -2427.722          44.000    22451466.078    91934994.555       -1891.412          39.000  
G11  21919411.991   115187283.159       -1432.482          45.000    21919412.635    89756329.421       -1116.164          45.000  
G12  22231905.207   116829449.385        -161.039          46.000    22231907.643    91035943.219        -125.388          41.000  
G17  23113549.602   121462523.204       -3111.996          42.000    23113555.739    94646152.851       -2425.317          33.000  
G19  21053047.311   110634507.582       -2289.914          45.000                                                                  
G20  20576592.849   108130723.573        -981.877          44.000                                                                  
G05  22449154.662   117971105.460        1350.433          44.000    22449158.285    91925556.291        1052.431          40.000  
G09  23753046.188   124823105.315       -2165.887          37.000    23753059.060    97264784.351       -1688.232          33.000  
G22  23596644.845   124001206.127       -4549.623          41.000                                                                  
G13  25068585.362   131736300.395        1529.539          34.000                                                                  
> 2025 04 04 08 39 00.0000000  0 10                     
G06  22451924.704   117985656.879       -2429.765          44.000    22451928.450    91936888.222       -1893.467          39.000  
G11  21919685.084   115188718.243       -1434.893          45.000    21919685.725    89757447.667       -1117.984          45.000  
G12  22231936.486   116829613.285        -164.130          46.000    22231938.831    91036070.941        -127.803          40.000  
G17  23114142.417   121465637.933       -3114.723          42.000    23114148.518    94648579.936       -2426.565          33.000  
G19  21053483.539   110636800.678       -2293.057          44.000                                                                  
G20  20576780.397   108131708.601        -984.879          44.000                                                                  
G05  22448898.166   117969757.720        1347.829          44.000    22448901.725    91924506.096        1050.229          40.000  
G09  23753459.110   124825274.762       -2169.635          39.000    23753471.813    97266474.845       -1690.399          36.000  
G22  23597510.984   124005758.357       -4552.019          43.000                                                                  
G13  25068294.419   131734773.111        1529.594          30.000                                                                  
> 2025 04 04 08 39 01.0000000  0 11                     
G06  22452387.250   117988087.409       -2432.745          45.000    22452391.007    91938782.127       -1895.237          40.000  
G11  21919958.232   115190153.742       -1437.801          45.000    21919958.828    89758566.231       -1120.293          45.000  
G12  22231967.869   116829778.163        -167.464          47.000    22231970.113    91036199.383        -130.020          40.000  
G17  23114735.213   121468753.422       -3117.881          42.000    23114741.352    94651007.506       -2428.847          34.000  
G19  21053919.990   110639094.499       -2296.001          44.000                                                                  
G20  20576967.927   108132694.470        -988.449          44.000                                                                  
G05  22448641.797   117968410.748        1344.559          44.000    22448645.484    91923456.520        1047.457          40.000  
G09  23753872.172   124827445.091       -2172.241          39.000    23753884.770    97268166.026       -1692.822          37.000  
G25  24501279.706                        1086.813          22.000                                                                  
G22  23598377.415   124010311.157       -4554.701          38.000                                                                  
G13  25068003.706   131733245.779        1527.923          30.000                                                                  
> 2025 04 04 08 39 02.0000000  0 11                     
G06  22452849.702   117990517.892       -2429.344          45.000    22452853.636    91940676.029       -1892.908          40.000  
G11  21920231.441   115191589.273       -1434.507          45.000    21920231.983    89759684.822       -1117.473          44.000  
G12  22231999.308   116829943.625        -164.474          46.000    22232001.647    91036328.342        -128.184          40.000  
G17  23115328.052   121471869.198       -3115.118          40.000    23115334.270    94653435.476       -2427.165          33.000  
G19  21054356.571   110641388.822       -2293.493          45.000                                                                  
G20  20577155.602   108133680.822        -985.493          43.000                                                                  
G05  22448385.498   117967064.128        1347.705          43.000    22448389.261    91922407.237        1050.194          39.000  
G09  23754285.227   124829616.047       -2170.551          37.000    23754297.788    97269857.619       -1690.802          36.000  
G25  24501072.237                        1086.813          23.000                                                                  
G22  23599243.902   124014864.144       -4552.206          33.000                                                                  
G13  25067713.164   131731718.663        1526.960          31.000                                                                  
> 2025 04 04 08 39 03.0000000  0 11                     
G06  22453312.080   117992947.396       -2431.436          44.000    22453315.962    91942569.149       -1894.371          40.000  
G11  21920504.496   115193023.900       -1436.373          45.000    21920504.965    89760802.756       -1119.558          44.000  
G12  22232030.755   116830108.793        -167.393          47.000    22232033.050    91036457.031        -130.247          40.000  
G17  23115920.930   121474984.352       -3117.093          41.000    23115927.102    94655862.912       -2428.508          31.000  
G19  21054793.152   110643682.658       -2296.071          44.000                                                                  
G20  20577343.273   108134666.718        -987.972          44.000                                                                  
G05  22448129.233   117965716.998        1344.901          43.000    22448132.867    91921357.509        1048.391          39.000  
G09  23754698.379   124831786.472       -2172.003          38.000    23754710.779    97271548.880       -1692.474          36.000  
G25  24500863.017                        1086.813          24.000                                                                  
G22  23600110.428   124019416.079       -4553.973          32.000                                                                  
G13  25067422.708   131730194.5103       1524.999          31.000                                                                  
> 2025 04 04 08 39 04.0000000  0 11                     
G06  22453774.279   117995376.281       -2427.856          45.000    22453778.131    91944461.792       -1892.143          40.000  
G11  21920777.333   115194458.022       -1433.304          45.000    21920777.837    89761920.219       -1116.773          44.000  
G12  22232062.111   116830273.986        -164.668          47.000    22232064.427    91036585.745        -128.210          40.000  
G17  23116513.722   121478099.298       -3114.349          41.000    23116519.805    94658290.110       -2425.795          30.000  
G19  21055229.559   110645976.300       -2292.767          44.000                                                                  
G20  20577530.840   108135652.507        -984.893          44.000                                                                  
G05  22447872.758   117964369.665        1348.204          44.000    22447876.540    91920307.655        1050.435          39.000  
G09  23755111.357   124833956.919       -2169.849          38.000    23755123.735    97273240.140       -1690.631          37.000  
G25  24500662.048                        1086.813          23.000                                                                  
G22  23600976.972   124023967.491       -4551.118          30.000                                                                  
G13  25067132.306   131728664.8992       1530.675          30.000                                                                  
> 2025 04 04 08 39 05.0000000  0 10                     
G06  22454236.488   117997808.2663      -2430.408          45.000    22454240.268    91946354.459       -1893.549          40.000  
G11  21921050.264   115195895.8283      -1435.834          45.000    21921050.855    89763037.856       -1118.518          44.000  
G12  22232093.678   116830439.9273       -167.517          46.000    22232096.085    91036715.042        -130.346          40.000  
G17  23117106.716   121481215.6913      -3116.889          41.000    23117109.838                       -2429.500          30.000  
G19  21055666.174   110648272.5263      -2295.020          46.000                                                                  
G20  20577718.658   108136640.9193       -988.257          44.000                                                                  
G05  22447616.366                        1345.101          44.000    22447620.284    91919258.246        1048.253          39.000  
G09  23755524.451                       -2174.756          38.000    23755536.945    97274931.919       -1693.286          37.000  
G22  23601843.366   124028523.4703      -4553.653          31.000                                                                  
G13  25066841.396   131727139.6453       1529.248          32.000                                                                  
> 2025 04 04 08 39 06.0000000  0 10                     
G06  22454698.687                       -2426.514          44.000    22454702.421                       -1891.348          40.000  
G11  21921323.236                       -1431.299          44.000    21921323.707                       -1116.421          44.000  
G12  22232125.335                        -164.063          47.000    22232127.616                        -129.250          40.000  
G17  23117699.950                       -3114.551          42.000    23117703.603                       -2427.454          33.000  
G19  21056103.042                       -2291.406          45.000                                                                  
G20  20577906.556                        -985.645          44.000                                                                  
G05  22447360.141                        1348.584          43.000    22447363.994                        1050.323          39.000  
G09  23755937.758                       -2172.021          38.000    23755950.135                       -1692.407          36.000  
G22  23602710.002                       -4549.902          37.000                                                                  
G13  25066553.244                        1530.517          31.000                                                                  
> 2025 04 04 08 39 07.0000000  0 10                     
G06  22455160.760   118002666.2303      -2432.089          45.000    22455164.550    91950139.1231      -1895.480          40.000  
G11  21921595.936   115198763.6813      -1437.878          45.000    21921596.522    89765272.5501      -1119.998          44.000  
G12  22232156.859   116830772.7793       -170.531          47.000    22232159.281    91036974.4221       -132.869          40.000  
G17  23118292.734   121487447.6013      -3119.986          43.000    23118296.815    94665558.8891      -2430.603          33.000  
G19  21056539.606   110652862.4253      -2298.343          45.000                                                                  
G20  20578094.153   108138614.3483       -991.190          44.000                                                                  
G05  22447103.789   117960326.0653       1342.319          43.000    22447107.731    91917159.5271       1046.419          39.000  
G09  23756350.904   124840465.8813      -2176.123          39.000    23756363.384    97278315.9831      -1695.746          36.000  
G22  23603575.793   124037627.6073      -4555.733          42.000                                                                  
G13  25066262.281   131724097.0093       1526.837          34.000                                                                  
> 2025 04 04 08 39 08.0000000  0 10                     
G06  22455623.007   118005095.0133      -2425.521          45.000    22455626.756    91952031.663       -1889.848          40.000  
G11  21921868.885   115200198.0032      -1431.017          45.000    21921869.551    89766390.218       -1114.945          44.000  
G12  22232188.800   116830940.4632       -164.196          47.000    22232191.206    91037105.141        -128.869          40.000  
G17  23118885.610                       -3112.511          41.000    23118889.515    94667987.194       -2425.155          32.000  
G19  21056976.402                       -2292.420          45.000                                                                  
G20  20578282.150   108139602.1012       -984.235          44.000                                                                  
G05  22446847.685   117958980.3772       1348.691          43.000    22446851.662    91916110.966        1050.777          39.000  
G09  23756764.249                       -2169.373          39.000    23756776.810    97280008.923       -1690.747          36.000  
G22  23604441.685   124042179.4512      -4548.243          42.000                                                                  
G13  25065971.366   131722567.8963       1534.579          34.000                                                                  
> 2025 04 04 08 39 09.0000000  0 10                     
G06  22456084.087   118007518.4912      -2421.289          45.000    22456087.811    91953920.079       -1886.714          39.000  
G11  21922140.647   115201627.1202      -1426.842          45.000    21922141.368    89767503.814       -1111.484          44.000  
G12  22232219.900   116831103.5452       -161.000          47.000    22232222.212    91037232.162        -125.592          40.000  
G17  23119477.655   121493675.3313      -3109.697          40.000    23119479.343    94670411.666       -2422.825          32.000  
G19  21057412.392   110657448.6123      -2288.517          45.000                                                                  
G20  20578469.192   108140585.1462       -981.180          44.000                                                                  
G05  22446590.755   117957629.8452       1352.750          43.000    22446594.665    91915058.594        1053.950          39.000  
G09  23757176.711   124844806.3323      -2166.284          39.000    23757189.344    97281698.156       -1687.952          37.000  
G22  23605306.833   124046726.1822      -4544.774          42.000                                                                  
G13  25065678.122   131721031.7952       1538.095          31.000                                                                  
> 2025 04 04 08 39 10.0000000  0 10                     
G06  22456545.282   118009942.3102      -2422.469          44.000    22456548.953    91955808.788       -1888.063          40.000  
G11  21922412.720   115203056.7162      -1428.553          45.000    21922413.390    89768617.772       -1113.060          44.000  
G12  22232251.174   116831267.6232       -163.107          46.000    22232253.518    91037360.020        -127.271          40.000  
G17  23120069.943   121496787.4972      -3111.005          43.000    23120072.272    94672836.796       -2424.765          33.000  
G19  21057848.555   110659740.1632      -2290.556          45.000                                                                  
G20  20578656.563   108141569.0582       -982.917          43.000                                                                  
G05  22446333.918   117956280.0932       1350.541          42.000    22446337.890    91914006.847        1052.585          39.000  
G09  23757589.499   124846975.1402      -2167.896          37.000    23757602.131    97283388.140       -1689.838          37.000  
G22  23606171.973   124051273.3222      -4545.758          41.000                                                                  
G13  25065385.941   131719495.7862       1537.280          33.000                                                                  
> 2025 04 04 08 39 11.0000000  0 10                     
G06  22457006.241   118012364.9192      -2424.559          44.000    22457010.020    91957696.531       -1889.432          40.000  
G11  21922684.598   115204485.1302      -1430.613          45.000    21922685.254    89769730.830       -1114.676          44.000  
G12  22232282.277   116831431.1372       -166.084          46.000    22232284.731    91037487.406        -129.141          40.000  
G17  23120661.952   121499898.7632      -3113.309          42.000    23120665.489    94675261.137       -2426.854          33.000  
G19  21058284.529   110662030.9132      -2293.191          43.000                                                                  
G20  20578843.627   108142552.2612       -985.572          43.000                                                                  
G05  22446076.948   117954929.5212       1348.270          42.000    22446080.821    91912954.451        1050.959          40.000  
G09  23758002.048   124849143.3362      -2171.381          37.000    23758014.813    97285077.684       -1691.583          35.000  
G22  23607036.922   124055819.4322      -4548.081          41.000                                                                  
G13  25065092.959   131717958.2842       1535.332          33.000                                                                  
> 2025 04 04 08 39 12.0000000  0 10                     
G06  22457468.089   118014792.2092      -2432.005          44.000    22457471.881    91959587.951       -1895.665          40.000  
G11  21922957.370   115205918.3132      -1437.830          45.000    21922957.968    89770847.611       -1120.468          44.000  
G12  22232314.464   116831599.9622       -173.848          46.000    22232316.953    91037618.971        -135.326          40.000  
G17  23121255.038   121503015.1502      -3121.349          42.000    23121259.028    94677689.473       -2431.837          33.000  
G19  21058721.403   110664326.8622      -2301.100          45.000                                                                  
G20  20579031.670   108143540.6662       -993.198          44.000                                                                  
G05  22445820.964   117953584.1142       1340.292          42.000    22445824.716    91911906.090        1044.331          39.000  
G09  23758415.661   124851316.7322      -2178.516          36.000    23758428.457    97286771.209       -1697.375          34.000  
G22  23607902.863   124060370.3102      -4555.551          41.000                                                                  
G13  25064800.995   131716425.2682       1528.889          32.000                                                                  
> 2025 04 04 08 39 13.0000000  0 10                     
G06  22457929.935   118017219.832       -2425.001          44.000    22457933.817    91961479.570       -1889.711          41.000  
G11  21923230.158   115207351.4341      -1431.473          45.000    21923230.652    89771964.705       -1115.428          44.000  
G12  22232346.779   116831769.774        -167.707          46.000    22232349.212    91037751.286        -130.532          40.000  
G17  23121848.118   121506132.201       -3114.885          41.000    23121852.142    94680118.328       -2427.235          32.000  
G19  21059158.429   110666623.605       -2294.711          44.000                                                                  
G20  20579219.881   108144529.955        -987.020          44.000                                                                  
G05  22445565.139   117952238.9601       1346.949          42.000    22445568.789    91910858.315        1049.468          39.000  
G09  23758829.382   124853490.989       -2172.290          40.000    23758842.185    97288465.430       -1692.755          37.000  
G22  23608768.837   124064921.659       -4549.117          41.000                                                                  
G13  25064509.288   131714892.255        1536.432          32.000                                                                  
> 2025 04 04 08 39 14.0000000  0 10                     
G06  22458390.304   118019639.269       -2420.261          44.000    22458394.174    91963364.835       -1885.822          41.000  
G11  21923501.358   115208776.903       -1426.006          45.000    21923501.822    89773075.446       -1110.917          44.000  
G12  22232377.751   116831932.028        -163.069          46.000    22232380.117    91037877.719        -126.776          40.000  
G17  23122439.807   121509241.426       -3109.861          41.000    23122443.769    94682541.127       -2423.703          32.000  
G19  21059594.109   110668912.593       -2289.375          44.000                                                                  
G20  20579406.584   108145511.549        -982.244          44.000                                                                  
G05  22445307.865   117950886.548        1351.377          42.000    22445311.394    91909804.472        1053.291          39.000  
G09  23759241.709   124855657.651       -2167.389          40.000    23759254.449    97290153.784       -1689.203          38.000  
G22  23609633.341   124069464.925       -4543.804          41.000                                                                  
G13  25064216.007   131713350.962        1540.754          34.000                                                                  
> 2025 04 04 08 39 15.0000000  0 10                     
G06  22458851.034   118022060.454       -2423.221          44.000    22458854.930    91965251.496       -1888.386          41.000  
G11  21923772.919   115210204.266       -1429.672          44.000    21923773.481    89774187.685       -1113.851          44.000  
G12  22232409.229   116832096.757        -167.106          46.000    22232411.432    91038006.064        -129.946          40.000  
G17  23123032.001   121512352.883       -3113.869          41.000    23123036.009    94684965.566       -2425.965          34.000  
G19  21060030.154   110671203.928       -2293.882          45.000                                                                  
G20  20579593.884   108146495.471        -986.393          44.000                                                                  
G05  22445050.807   117949536.308        1347.839          43.000    22445054.474    91908752.375        1050.267          39.000  
G09  23759654.342   124857826.680       -2171.014          38.000    23759667.079    97291843.938       -1691.840          38.000  
G22  23610498.156   124074010.090       -4547.359          41.000                                                                  
G13  25063923.010   131711811.082        1537.962          35.000                                                                  
> 2025 04 04 08 39 16.0000000  0 10                     
G06  22459312.503   118024485.041       -2424.389          44.000    22459316.368    91967140.764       -1889.156          41.000  
G11  21924045.203   115211635.088       -1430.676          45.000    21924045.817    89775302.618       -1114.926          44.000  
G12  22232441.402   116832265.502        -168.855          46.000    22232443.549    91038137.569        -131.523          40.000  
G17  23123624.717   121515468.010       -3115.247          41.000    23123628.645    94687392.997       -2427.703          32.000  
G19  21060467.018   110673499.080       -2295.181          45.000                                                                  
G20  20579781.867   108147483.292        -987.946          44.000                                                                  
G05  22444794.528   117948189.911        1346.298          43.000    22444798.364    91907703.242        1049.091          39.000  
G09  23760067.929   124859999.699       -2173.438          38.000    23760080.645    97293537.155       -1693.109          38.000  
G22  23611363.656   124078558.785       -4548.688          41.000                                                                  
G13  25063630.244   131710274.426        1537.391          34.000                                                                  
> 2025 04 04 08 39 17.0000000  0 10                     
G06  22459773.738   118026909.171       -2424.092          44.000    22459777.589    91969029.674       -1888.674          41.000  
G11  21924317.341   115213065.538       -1430.907          45.000    21924317.954    89776417.261       -1114.752          44.000  
G12  22232473.490   116832434.443        -169.124          46.000    22232475.654    91038269.213        -131.834          40.000  
G17  23124217.517   121518583.093       -3115.597          41.000    23124221.412    94689820.328       -2427.292          32.000  
G19  21060903.899   110675794.288       -2295.752          44.000                                                                  
G20  20579969.849   108148471.176        -988.110          44.000                                                                  
G05  22444538.290   117946843.483        1346.166          42.000    22444542.178    91906654.097        1048.734          39.000  
G09  23760481.318   124862172.768       -2173.926          38.000    23760494.236    97295230.495       -1694.006          38.000  
G22  23612229.174   124083107.151       -4548.634          42.000                                                                  
G13  25063337.286   131708737.016        1537.541          34.000                                                                  
> 2025 04 04 08 39 18.0000000  0 10                     
G06  22460234.984   118029333.579       -2424.581          44.000    22460238.972    91970918.838       -1889.399          41.000  
G11  21924589.515   115214496.354       -1431.069          45.000    21924590.207    89777532.173       -1115.021          44.000  
G12  22232505.840   116832604.332        -170.365          46.000    22232507.979    91038401.584        -132.702          41.000  
G17  23124810.329   121521698.827       -3116.093          40.000    23124814.423    94692248.191       -2428.287          33.000  
G19  21061340.724   110678090.251       -2296.721          43.000                                                                  
G20  20580157.933   108149459.870        -988.911          44.000                                                                  
G05  22444282.236   117945497.797        1345.345          42.000    22444286.080    91905605.505        1048.314          39.000  
G09  23760894.961   124864346.687       -2174.115          38.000    23760907.868    97296924.455       -1693.939          37.000  
G22  23613094.737   124087655.885       -4548.652          42.000                                                                  
G13  25063044.420   131707199.701        1537.122          34.000                                                                  
> 2025 04 04 08 39 19.0000000  0 10                     
G06  22460696.038   118031757.018       -2423.415          44.000    22460700.133    91972807.223       -1888.163          41.000  
G11  21924861.662   115215926.278       -1430.099          45.000    21924862.194    89778646.398       -1114.147          44.000  
G12  22232538.172   116832773.901        -169.891          46.000    22232540.357    91038533.731        -132.385          41.000  
G17  23125403.050   121524814.002       -3115.598          40.000    23125407.388    94694675.593       -2428.051          33.000  
G19  21061777.426   110680385.707       -2296.010          44.000                                                                  
G20  20580345.966   108150448.137        -988.610          44.000                                                                  
G05  22444025.993   117944151.593        1345.929          43.000    22444029.881    91904556.505        1048.939          39.000  
G09  23761308.567   124866520.291       -2174.133          39.000    23761321.529    97298618.163       -1694.031          37.000  
G22  23613960.128   124092203.813       -4548.132          42.000                                                                  
G13  25062751.447   131705661.134        1539.275          34.000                                                                  
> 2025 04 04 08 39 20.0000000  0 10                     
G06  22461157.342   118034181.401       -2424.060          44.000    22461161.403    91974696.356       -1888.974          41.000  
G11  21925134.037   115217357.253       -1430.930          45.000    21925134.451    89779761.425       -1114.802          44.000  
G12  22232570.635   116832945.105        -171.349          46.000    22232572.986    91038667.130        -133.611          40.000  
G17  23125996.061   121527930.479       -3116.317          40.000    23126000.691    94697104.013       -2428.382          33.000  
G19  21062214.464   110682682.605       -2296.656          44.000                                                                  
G20  20580534.305   108151437.874        -989.933          44.000                                                                  
G05  22443770.038   117942806.767        1344.931          42.000    22443773.963    91903508.621        1047.468          39.000  
G09  23761722.467   124868695.308       -2175.110          38.000    23761735.444    97300313.017       -1695.007          37.000  
G22  23614825.756   124096752.824       -4548.996          42.000                                                                  
G13  25062458.511   131704123.333        1537.913          34.000                                                                  
