     3.02           OBSERVATION DATA    M (MIXED)           RINEX VERSION / TYPE
NetR9 5.54          Receiver Operator   20250313 085056 UTC PGM / RUN BY / DATE
JNAV00VNM                                                   MARKER NAME
JNAV00VNM                                                   MARKER NUMBER
GEODETIC                                                    MARKER TYPE         
NAVIS               HUST                                    OBSERVER / AGENCY   
5426R48968          TRIMBLE NETR9       5.54                REC # / TYPE / VERS
                    TRM57971.00     NONE                    ANT # / TYPE
 -1626584.7059  5730519.4577  2271864.3917                  APPROX POSITION XYZ
        0.0000        0.0000        0.0000                  ANTENNA: DELTA H/E/N
G   12 C1C L1C S1C C2W L2W S2W C2X L2X S2X C5X L5X S5X      SYS / # / OBS TYPES
     1.000                                                  INTERVAL
  2025     3    13     8    50   56.0000000     GPS         TIME OF FIRST OBS
G L2X -0.25000                                              SYS / PHASE SHIFT   
R L1P  0.25000                                              SYS / PHASE SHIFT   
R L2C -0.25000                                              SYS / PHASE SHIFT   
J L2X  0.25000                                              SYS / PHASE SHIFT   
DBHZ                                                        SIGNAL STRENGTH UNIT
                                                            GLONASS COD/PHS/BIS 
                                                            END OF HEADER       
> 2025  3 13  8 50 56.0000000  0 12       -.000263294000
G24  25429814.867 5 133634565.30115        30.300    25429848.719 2 104130945.70312        17.800    25429848.801 5 104130979.70115        32.300    25429855.035 6  99792041.19316        38.300
G22  20994834.719 7 110328596.36417        47.600    20994851.477 6  85970006.27016        37.300
G20  21660009.031 7 113824138.65617        45.400    21660029.063 5  88694666.35115        32.900
G19  20756541.984 7 109076370.92617        47.700    20756554.828 6  84994408.74116        38.500
G17  21925309.945 7 115218277.90117        44.200    21925328.527 6  89780242.20516        40.200    21925327.875 7  89780521.19217        44.000
G14  21985515.211 7 115534651.59617        42.400    21985537.309 4  90026858.36914        29.800    21985537.133 7  90026802.35417        45.600    21985544.469 7  86275673.86817        47.700
G12  24087911.578 6 126582840.63516        37.400    24087931.547 4  98636071.42614        26.400    24087932.129 6  98636128.43816        36.100
G11  21841121.609 7 114775884.99217        45.800    21841138.887 5  89435976.40915        35.500    21841138.563 7  89436042.42217        47.500    21841144.660 8  85709417.87018        49.900
G09  23817042.742 5 125159447.05915        34.400    23817074.676 4  97526965.32514        28.500    23817074.074 6  97526881.33416        38.000    23817079.492 6  93463241.31216        41.500
G06  21225094.984 7 111538638.39217        46.800    21225112.422 7  86913362.19517        47.800    21225112.836 8  86913310.18718        48.200    21225115.105 8  83291921.63118        51.600
G05  25101089.789 5 131907118.94215        34.500    25101115.465 4 102784895.20814        24.700    25101116.055 5 102784811.14415        34.700
G04  25127959.367 5 132048346.80015        30.700                                                    25127986.727 6 102894936.49816        36.100    25127993.906 6  98607630.51116        38.000
> 2025  3 13  8 50 57.0000000  0 12       -.000263294000
G24  25430037.750 4 133635739.824 4        29.600    25430072.258 2 104131860.893 2        17.800    25430072.699 5 104131894.912 5        32.700    25430078.449 6  99792918.286 6        38.100
G22  20995174.602 7 110330380.800 7        47.900    20995191.098 6  85971396.739 6        37.100
G20  21659519.367 7 113821561.742 7        44.900    21659538.559 5  88692658.374 5        33.100
G19  20756427.813 7 109075770.843 7        47.500    20756440.730 6  84993941.142 6        38.400
G17  21925396.008 7 115218732.565 7        44.000    21925415.000 6  89780596.491 6        40.400    21925414.465 7  89780875.489 7        43.900
G14  21986124.969 7 115537855.416 7        42.400    21986146.953 4  90029354.849 4        29.700    21986146.930 7  90029298.850 7        45.400    21986154.199 7  86278066.329 7        47.800
G12  24087287.227 6 126579557.157 6        37.100    24087306.754 4  98633512.878 4        27.000    24087307.277 6  98633569.882 6        36.000
G11  21841014.852 7 114775323.158 7        45.900    21841031.988 5  89435538.628 5        35.200    21841031.555 7  89435604.629 7        47.300    21841037.754 8  85708998.323 8        50.000
G09  23816815.141 5 125158251.827 5        34.600    23816847.348 4  97526033.994 4        27.300    23816846.941 6  97525949.994 6        38.100    23816852.078 6  93462348.780 6        41.300
G06  21225267.547 7 111539545.066 7        46.800    21225285.066 7  86914068.697 7        47.800    21225285.344 8  86914016.691 8        48.200    21225287.660 8  83292598.695 8        51.600
G05  25100384.313 5 131903409.103 5        34.400    25100409.492 3 102782004.433 3        23.900    25100410.180 5 102781920.440 5        34.700
G04  25127910.086 5 132048084.985 5        31.200                                                    25127936.520 6 102894732.484 6        36.000    25127944.113 6  98607434.975 6        38.300
> 2025  3 13  8 50 58.0000000  0 12       -.000263296000
G24  25430261.031 5 133636914.533 5        30.500    25430295.832 3 104132776.248 3        18.300    25430296.590 5 104132810.275 5        32.900    25430301.969 6  99793795.503 6        38.400
G22  20995514.359 7 110332165.725 7        47.800    20995530.859 6  85972787.586 6        37.400
G20  21659028.805 7 113818985.224 7        44.900    21659048.328 5  88690650.710 5        32.700
G19  20756313.633 7 109075170.932 7        47.300    20756326.723 6  84993473.684 6        38.100
G17  21925482.508 7 115219187.428 7        44.200    21925501.551 6  89780950.928 6        40.400    21925501.055 7  89781229.926 7        43.900
G14  21986734.875 7 115541059.541 7        42.500    21986756.617 4  90031851.573 4        29.600    21986756.586 7  90031795.569 7        45.400    21986763.941 7  86280459.013 7        47.700
G12  24086662.891 6 126576273.916 6        37.200    24086682.113 4  98630954.517 4        26.700    24086682.770 6  98631011.519 6        36.600
G11  21840907.672 7 114774761.565 7        45.800    21840925.145 5  89435101.031 5        35.000    21840924.816 7  89435167.033 7        47.200    21840930.895 8  85708578.962 8        50.000
G09  23816588.086 5 125157056.877 5        34.100    23816619.883 4  97525102.878 4        29.100    23816619.645 6  97525018.875 6        38.300    23816624.586 6  93461456.460 6        40.900
G06  21225440.164 7 111540451.894 7        46.800    21225457.645 7  86914775.318 7        47.700    21225457.859 8  86914723.313 8        48.200    21225460.203 8  83293275.875 8        51.600
G05  25099679.039 5 131899699.327 5        34.500    25099703.586 3 102779113.699 3        22.600    25099704.262 5 102779029.706 5        33.900
G04  25127860.125 5 132047823.512 5        30.100                                                    25127886.789 6 102894528.746 6        36.300    25127894.402 6  98607239.732 6        38.300
> 2025  3 13  8 50 59.0000000  0 12       -.000263296000
G24  25430484.148 4 133638089.517 4        29.600    25430519.375 2 104133691.826 2        17.800    25430520.266 5 104133725.773 5        33.400    25430525.730 6  99794672.899 6        38.600
G22  20995853.984 7 110333951.142 7        47.700    20995870.586 6  85974178.819 6        37.400
G20  21658538.516 7 113816409.106 7        44.700    21658558.133 5  88688643.354 5        32.700
G19  20756199.523 7 109074571.208 7        47.300    20756212.398 6  84993006.368 6        37.800
G17  21925569.039 7 115219642.475 7        44.100    21925588.152 6  89781305.507 6        40.100    21925587.590 7  89781584.505 7        44.100
G14  21987344.703 7 115544263.961 7        42.400    21987366.570 5  90034348.518 5        30.500    21987366.086 7  90034292.517 7        45.100    21987373.574 7  86282851.923 7        47.700
G12  24086037.703 6 126572990.923 6        36.600    24086057.262 4  98628396.342 4        26.800    24086058.133 6  98628453.354 6        36.400
G11  21840800.852 7 114774200.225 7        45.700    21840818.203 5  89434663.632 5        35.000    21840817.727 7  89434729.635 7        47.000    21840824.016 8  85708159.790 8        50.000
G09  23816361.656 5 125155862.199 5        34.700    23816392.461 4  97524171.956 4        29.200    23816392.395 6  97524087.974 6        38.400    23816397.262 6  93460564.343 6        41.200
G06  21225612.906 7 111541358.875 7        46.800    21225630.152 7  86915482.058 7        47.900    21225630.535 8  86915430.059 8        48.200    21225632.785 8  83293953.171 8        51.600
G05  25098971.844 5 131895989.578 5        34.100    25098997.695 3 102776223.001 3        23.800    25098998.180 5 102776139.005 5        34.300
G04  25127809.719 4 132047562.414 4        28.900                                                    25127836.766 6 102894325.295 6        36.000    25127844.594 6  98607044.779 6        38.300
> 2025  3 13  8 51  0.0000000  0 12       -.000263296000
G24  25430708.695 5                        30.300    25430743.051 2                        17.800    25430743.863 5 104134641.492 5        33.400    25430749.285 6  99795550.404 6        38.200
G22  20996193.992 7 110335737.079 7        46.900    20996210.480 6  85975570.459 6        37.100
G20  21658048.164 7 113813833.413 7        44.900    21658068.027 5  88686636.329 5        32.800
G19  20756085.328 7 109073971.693 7        47.300    20756098.234 6  84992539.213 6        38.100
G17  21925656.469 7 115220097.736 7        43.900    21925674.625 6  89781660.255 6        40.200    21925674.172 7  89781939.252 7        44.100
G14  21987954.398 6 115547468.700 6        41.700    21987976.316 5  90036845.714 5        30.000    21987975.977 7  90036789.711 7        45.600    21987983.539 7  86285245.068 7        47.900
G12  24085412.734 6 126569708.182 6        36.800    24085432.488 4  98625838.356 4        26.800    24085433.512 6  98625895.390 6        36.400
G11  21840693.898 7 114773639.157 7        46.000    21840711.348 5  89434226.441 5        35.400    21840711.082 7  89434292.445 7        47.000    21840717.273 8  85707740.823 8        49.900
G09  23816133.727 5 125154667.822 5        34.700    23816165.109 4  97523241.299 4        28.400    23816164.867 6  97523157.295 6        38.600    23816170.074 6  93459672.438 6        41.300
G06  21225785.453 7 111542266.031 7        46.800    21225802.898 7  86916188.939 7        47.900    21225803.094 7  86916136.934 7        47.900    21225805.422 8  83294630.595 8        51.800
G05  25098265.445 5 131892279.863 5        33.900    25098291.797 3 102773332.299 3        22.500    25098292.445 5 102773248.321 5        33.800
G04  25127760.000 4                        29.100                                                    25127787.363 5 102894122.174 5        35.800    25127795.035 6  98606850.127 6        38.100
> 2025  3 13  8 51  1.0000000  0 12       -.000263296000
G24  25430931.828 4 133640439.978 4        29.900    25430966.676 2 104135523.317 2        17.800    25430967.492 5 104135557.355 5        33.500    25430972.996 6  99796428.101 6        37.900
G22  20996533.633 7 110337523.506 7        47.000    20996550.398 6  85976962.474 6        37.200
G20  21657558.688 7 113811258.122 7        45.100    21657577.816 5  88684629.620 5        32.400
G19  20755971.414 7 109073372.366 7        47.000    20755984.238 6  84992072.210 6        37.900
G17  21925742.555 7 115220553.186 7        43.800    21925761.371 6  89782015.147 6        40.300    21925760.738 7  89782294.145 7        43.900
G14  21988564.367 6 115550673.741 6        41.800    21988586.258 5  90039343.146 5        30.100    21988585.918 7  90039287.141 7        45.800    21988593.352 8  86287638.438 8        48.000
G12  24084787.875 6 126566425.689 6        36.700    24084807.926 4  98623280.599 4        26.100    24084808.590 6  98623337.612 6        36.500
G11  21840587.195 7 114773078.341 7        46.300    21840604.574 5  89433789.457 5        35.300    21840604.301 7  89433855.457 7        47.300    21840610.512 8  85707322.042 8        50.000
G09  23815906.484 5 125153473.718 5        34.700    23815937.977 5  97522310.828 5        30.000    23815937.645 6  97522226.834 6        38.500    23815942.746 6  93458780.749 6        41.500
G06  21225958.102 7 111543173.334 7        46.800    21225975.422 7  86916895.932 7        47.900    21225975.594 8  86916843.929 8        48.200    21225978.066 8  83295308.132 8        51.900
G05  25097560.203 5 131888570.209 5        34.300    25097585.859 3 102770441.688 3        23.000    25097586.480 5 102770357.681 5        34.100
G04  25127709.352 4 132047041.393 4        29.400                                                    25127737.984 5 102893919.341 5        35.400    25127745.406 6  98606655.738 6        38.000
> 2025  3 13  8 51  2.0000000  0 12       -.000263296000
G24  25431155.766 5 133641615.550 5        30.700    25431190.445 3 104136439.356 3        18.600    25431191.273 5 104136473.366 5        33.100    25431196.680 6  99797305.947 6        38.000
G22  20996873.742 7 110339310.419 7        46.800    20996890.379 6  85978354.873 6        37.700
G20  21657068.445 7 113808683.236 7        45.100    21657087.691 5  88682623.224 5        31.800
G19  20755857.063 7 109072773.228 7        46.500    20755870.230 6  84991605.351 6        37.900
G17  21925830.023 7 115221008.828 7        44.100    21925848.105 6  89782370.188 6        40.900    21925847.563 7  89782649.188 7        43.900
G14  21989173.906 6 115553879.084 6        41.900    21989196.191 4  90041840.806 4        29.500    21989195.879 7  90041784.804 7        46.000    21989203.359 8  86290032.032 8        48.200
G12  24084163.258 6 126563143.441 6        36.100    24084183.426 4  98620723.007 4        25.800    24084184.066 6  98620780.017 6        37.000
G11  21840480.461 7 114772517.784 7        46.100    21840497.863 5  89433352.661 5        35.200    21840497.566 7  89433418.666 7        47.300    21840503.859 8  85706903.452 8        50.200
G09  23815679.023 5 125152279.905 5        34.800    23815710.895 4  97521380.585 4        28.600    23815710.414 6  97521296.588 6        38.800    23815715.578 6  93457889.266 6        41.700
G06  21226130.547 7 111544080.794 7        46.700    21226148.078 8  86917603.047 8        48.000    21226148.406 8  86917551.042 8        48.100    21226150.711 8  83295985.785 8        51.900
G05  25096854.625 5 131884860.564 5        33.600    25096880.160 3 102767551.062 3        23.800    25096880.391 5 102767467.077 5        34.100
G04  25127659.367 4 132046781.444 4        29.400                                                    25127688.887 5 102893716.814 5        35.400    25127695.973 6  98606461.654 6        37.900
> 2025  3 13  8 51  3.0000000  0 12       -.000263296000
G24  25431380.273 5 133642791.262 5        31.000    25431414.156 3 104137355.490 3        18.300    25431414.695 5 104137389.492 5        33.100    25431420.488 6  99798183.908 6        38.500
G22  20997214.219 7 110341097.783 7        46.900    20997230.320 6  85979747.618 6        37.900
G20  21656578.188 7 113806108.704 7        44.600    21656597.832 5  88680617.106 5        31.900
G19  20755743.141 7 109072174.240 7        46.800    20755756.277 6  84991138.608 6        37.500
G17  21925916.805 7 115221464.610 7        44.400    21925934.840 6  89782725.342 6        41.200    21925934.668 7  89783004.345 7        44.100
G14  21989784.453 6 115557084.678 6        41.800    21989806.234 5  90044338.669 5        30.300    21989805.926 7  90044282.666 7        46.000    21989813.410 8  86292425.814 8        48.000
G12  24083538.781 6 126559861.403 6        36.200    24083558.902 4  98618165.594 4        24.200    24083559.422 6  98618222.601 6        36.700
G11  21840374.133 7 114771957.430 7        46.300    21840391.316 5  89432916.033 5        35.200    21840390.918 7  89432982.035 7        47.500    21840397.191 8  85706485.016 8        50.000
G09  23815452.375 5 125151086.293 5        35.000    23815483.801 4  97520450.515 4        29.100    23815483.707 6  97520366.519 6        38.900    23815488.477 6  93456997.945 6        41.400
G06  21226303.227 7 111544988.365 7        46.700    21226320.840 7  86918310.249 7        47.700    21226321.172 7  86918258.242 7        47.900    21226323.496 8  83296663.520 8        51.600
G05  25096147.961 5 131881150.925 5        34.100    25096174.340 3 102764660.452 3        21.800    25096174.188 5 102764576.455 5        33.800
G04  25127610.164 4 132046521.845 4        28.300                                                    25127639.434 5 102893514.536 5        35.000    25127646.512 6  98606267.806 6        37.500
> 2025  3 13  8 51  4.0000000  0 12       -.000263296000
G24  25431603.117 5 133643967.208 5        30.300    25431637.797 3 104138271.800 3        18.300    25431638.262 5 104138305.797 5        32.700    25431644.305 6  99799062.031 6        38.700
G22  20997554.359 7 110342885.654 7        47.000    20997570.660 6  85981140.761 6        37.900
G20  21656088.750 7 113803534.592 7        45.100    21656107.887 5  88678611.313 5        32.300
G19  20755629.453 7 109071575.452 7        47.300    20755642.371 6  84990672.020 6        38.200
G17  21926004.078 7 115221920.590 7        44.300    21926021.699 6  89783080.648 6        41.400    21926021.676 7  89783359.649 7        44.200
G14  21990394.398 7 115560290.581 7        42.400    21990416.367 4  90046836.779 4        29.300    21990416.102 7  90046780.769 7        45.700    21990423.461 8  86294819.828 8        48.100
G12  24082913.273 5 126556579.607 5        35.400    24082934.371 4  98615608.355 4        24.200    24082934.828 6  98615665.368 6        36.500
G11  21840267.625 7 114771397.342 7        46.600    21840284.668 5  89432479.614 5        35.800    21840284.484 7  89432545.610 7        47.600    21840290.578 8  85706066.778 8        49.600
G09  23815225.820 5 125149892.986 5        34.800    23815256.707 4  97519520.680 4        29.300    23815256.527 6  97519436.669 6        38.600    23815261.336 6  93456106.848 6        41.400
G06  21226476.063 7 111545896.107 7        46.600    21226493.547 7  86919017.581 7        47.900    21226493.910 7  86918965.575 7        47.900    21226496.172 8  83297341.382 8        51.500
G05  25095442.227 5 131877441.328 5        33.700    25095468.520 3 102761769.879 3        21.800    25095468.379 5 102761685.867 5        33.800
G04  25127562.211 4 132046262.614 4        28.900                                                    25127589.676 5 102893312.578 5        34.900    25127596.996 6  98606074.256 6        37.200
> 2025  3 13  8 51  5.0000000  0 12       -.000263296000
G24  25431826.430 5 133645143.430 5        31.900    25431861.500 3 104139188.293 3        18.600    25431861.504 5 104139222.342 5        33.700    25431868.172 6  99799940.374 6        38.400
G22  20997894.797 7 110344674.101 7        47.400    20997911.117 6  85982534.357 6        37.900
G20  21655598.992 7 113800960.971 7        45.200    21655618.137 5  88676605.903 5        33.100
G19  20755515.211 7 109070976.947 7        47.300    20755528.441 6  84990205.656 6        37.900
G17  21926090.766 7 115222376.853 7        44.600    21926108.492 6  89783436.176 6        40.900    21926108.270 7  89783715.178 7        44.300
G14  21991004.188 7 115563496.875 7        42.100    21991026.453 4  90049335.190 4        29.700    21991025.988 7  90049279.175 7        46.000    21991033.574 8  86297214.134 8        48.000
G12  24082289.492 5 126553298.164 5        35.600    24082309.957 4  98613051.401 4        25.800    24082310.141 6  98613108.404 6        36.400
G11  21840161.156 7 114770837.595 7        46.500    21840178.145 5  89432043.452 5        35.800    21840178.105 7  89432109.452 7        47.600    21840184.012 8  85705648.796 8        49.700
G09  23814997.609 5 125148700.028 5        34.700    23815029.781 4  97518591.099 4        28.200    23815029.113 6  97518507.114 6        38.600    23815034.277 6  93455216.023 6        41.500
G06  21226648.703 7 111546804.084 7        46.600    21226666.383 7  86919725.097 7        47.800    21226666.609 7  86919673.093 7        47.900    21226668.957 8  83298019.419 8        51.700
G05  25094735.555 5 131873731.837 5        33.600    25094762.609 3 102758879.363 3        22.000    25094762.871 5 102758795.37815        34.000
G04  25127512.305 4 132046003.891 4        28.300                                                    25127540.000 5 102893110.983 5        34.700    25127547.688 6  98605881.067 6        37.000
> 2025  3 13  8 51  6.0000000  0 12       -.000263296000
G24  25432049.883 5 133646319.888 5        30.100    25432085.430 3 104140104.999 3        18.600    25432085.160 5 104140139.045 5        33.400    25432092.184 6  99800818.884 6        38.600
G22  20998235.281 7 110346463.059 7        47.400    20998251.566 6  85983928.347 6        38.000
G20  21655109.297 7 113798387.776 7        45.000    21655128.547 5  88674600.819 5        33.200
G19  20755401.578 7 109070378.639 7        46.600    20755414.555 6  84989739.444 6        38.400
G17  21926177.281 7 115222833.314 7        44.600    21926195.375 6  89783791.857 6        41.300    21926195.250 7  89784070.859 7        44.000
G14  21991614.336 7 115566703.480 7        42.400    21991636.637 4  90051833.832 4        29.600    21991636.242 7  90051777.826 7        45.600    21991643.766 8  86299608.673 8        48.000
G12  24081665.023 5 126550016.975 5        35.800    24081685.680 4  98610494.637 4        26.200    24081686.422 6  98610551.649 6        36.500
G11  21840054.586 7 114770278.116 7        46.900    21840071.762 5  89431607.503 5        35.600    21840071.730 7  89431673.503 7        47.600    21840077.559 8  85705231.011 8        50.000
G09  23814770.133 5 125147507.391 5        34.400    23814802.863 4  97517661.792 4        28.200    23814802.348 6  97517577.779 6        39.100    23814807.285 6  93454325.416 6        41.300
G06  21226821.406 7 111547712.233 7        46.700    21226839.172 7  86920432.750 7        47.600    21226839.551 7  86920380.747 7        47.600    21226841.750 8  83298697.588 8        51.900
G05  25094029.430 5 131870022.400 5        34.100    25094056.746 3 102755988.900 3        21.800    25094056.492 5 102755904.921 5        33.800
G04  25127462.414 4 132045745.552 4        27.600                                                    25127490.984 5 102892909.684 5        34.600    25127498.535 6  98605688.157 6        37.100
> 2025  3 13  8 51  7.0000000  0 12       -.000263298000
G24  25432274.766 5 133647496.514 5        30.700    25432309.441 3 104141021.866 3        18.600    25432309.258 5 104141055.881 5        33.700    25432316.078 6  99801697.511 6        38.600
G22  20998575.750 7 110348252.469 7        47.300    20998592.035 6  85985322.691 6        38.100
G20  21654619.484 7 113795814.938 7        45.300    21654638.852 5  88672596.021 5        33.100
G19  20755287.695 7 109069780.477 7        46.400    20755300.711 6  84989273.344 6        38.100
G17  21926264.734 7 115223289.927 7        44.600    21926282.148 6  89784147.657 6        41.200    21926282.055 7  89784426.657 7        44.000
G14  21992224.813 7 115569910.348 7        42.500    21992246.922 4  90054332.685 4        29.000    21992246.500 7  90054276.681 7        45.500    21992254.039 7  86302003.407 7        47.900
G12  24081041.352 6 126546735.996 6        36.600    24081061.371 4  98607938.046 4        25.900    24081062.219 6  98607995.058 6        36.200
G11  21839948.102 7 114769718.851 7        47.000    21839965.500 6  89431171.718 6        36.100    21839965.125 7  89431237.719 7        47.400    21839971.184 8  85704813.391 8        50.000
G09  23814543.367 5 125146314.954 5        34.200    23814575.941 4  97516732.618 4        29.000    23814575.113 6  97516648.631 6        38.900    23814580.379 6  93453434.983 6        41.300
G06  21226994.266 7 111548620.494 7        46.700    21227011.945 7  86921140.488 7        47.700    21227012.305 8  86921088.482 8        48.000    21227014.633 8  83299375.834 8        51.900
G05  25093324.477 5 131866312.969 5        33.800    25093350.770 3 102753098.441 3        21.800    25093350.602 5 102753014.450 5        33.200
G04  25127413.656 4 132045487.535 4        28.300                                                    25127442.012 5 102892708.655 5        34.500    25127449.438 6  98605495.521 6        37.100
> 2025  3 13  8 51  8.0000000  0 12       -.000263298000
G24  25432498.664 5 133648673.322 5        30.500    25432533.477 3 104141938.858 3        19.300    25432533.418 5 104141972.860 5        33.900    25432540.109 6  99802576.299 6        39.000
G22  20998915.891 7 110350042.377 7        46.700    20998932.477 6  85986717.420 6        37.900
G20  21654129.398 7 113793242.509 7        44.900    21654149.316 5  88670591.544 5        33.100
G19  20755173.992 7 109069182.518 7        46.100    20755186.895 6  84988807.407 6        38.000
G17  21926351.445 7 115223746.731 7        45.100    21926369.152 6  89784503.610 6        41.100    21926368.977 7  89784782.605 7        44.100
G14  21992835.109 7 115573117.516 7        42.600    21992857.121 4  90056831.767 4        29.200    21992856.879 7  90056775.775 7        45.500    21992864.355 7  86304398.371 7        47.800
G12  24080416.805 5 126543455.273 5        35.800    24080437.051 4  98605381.630 4        25.000    24080437.598 6  98605438.652 6        36.200
G11  21839842.078 7 114769159.846 7        47.000    21839859.156 6  89430736.138 6        36.200    21839858.617 7  89430802.136 7        47.400    21839864.734 8  85704395.960 8        50.300
G09  23814316.289 5 125145122.815 5        34.400    23814349.035 4  97515803.697 4        27.900    23814348.699 6  97515719.702 6        39.000    23814353.434 6  93452544.757 6        41.500
G06  21227167.539 7 111549528.916 7        46.600    21227184.813 7  86921848.352 7        47.900    21227185.148 8  86921796.348 8        48.400    21227187.457 8  83300054.209 8        51.800
G05  25092618.445 5 131862603.566 5        33.700    25092644.922 3 102750208.005 3        21.800    25092644.457 5 102750124.019 5        33.100
G04  25127365.141 4 132045229.911 4        28.000                                                    25127393.004 5 102892507.936 5        34.400    25127400.211 6  98605303.160 6        36.700
> 2025  3 13  8 51  9.0000000  0 12       -.000263298000
G24  25432724.352 5 133649850.395 5        30.700    25432757.555 3 104142856.047 3        19.000    25432758.070 5 104142890.051 5        33.700    25432764.152 6  99803455.250 6        38.700
G22  20999257.094 7 110351832.811 7        47.200    20999273.398 6  85988112.564 6        38.000
G20  21653640.039 7 113790670.514 7        44.700    21653659.887 5  88668587.397 5        32.100
G19  20755059.953 7 109068584.774 7        46.200    20755073.180 6  84988341.634 6        38.100
G17  21926438.281 7 115224203.756 7        44.800    21926456.098 6  89784859.731 6        40.800    21926455.730 7  89785138.728 7        44.100
G14  21993445.844 7 115576325.017 7        42.300    21993467.586 4  90059331.127 4        29.700    21993467.234 7  90059275.124 7        45.600    21993474.773 7  86306793.576 7        47.900
G12  24079792.500 5 126540174.825 5        35.700    24079812.809 4  98602825.463 4        26.200    24079812.965 5  98602882.471 5        35.900
G11  21839735.336 7 114768601.126 7        47.100    21839752.688 5  89430300.780 5        34.900    21839752.227 7  89430366.780 7        47.400    21839758.492 8  85703978.741 8        50.000
G09  23814088.797 5 125143930.976 5        34.300    23814122.203 4  97514875.007 4        28.600    23814121.910 6  97514791.014 6        38.800    23814126.633 6  93451654.768 6        41.300
G06  21227340.305 7 111550437.523 7        46.600    21227357.746 7  86922556.363 7        47.600    21227357.906 8  86922504.357 8        48.300    21227360.324 8  83300732.718 8        51.500
G05  25091912.859 5 131858894.244 5        33.700    25091939.063 3 102747317.638 3        21.800    25091938.621 5 102747233.638 5        32.700
G04  25127316.070 4 132044972.713 4        27.600                                                    25127344.180 5 102892307.534 5        34.300    25127351.113 6  98605111.107 6        36.500
> 2025  3 13  8 51 10.0000000  0 12       -.000263298000
G24  25432947.445 5                        30.500    25432981.602 3                        19.600    25432982.469 5 104143807.406 5        33.400    25432988.258 6  99804334.356 6        39.200
G22  20999597.773 7 110353623.717 7        47.100    20999614.316 6  85989508.072 6        38.100
G20  21653151.102 7 113788098.912 7        44.700    21653170.480 5  88666583.564 5        32.600
G19  20754946.695 7 109067987.213 7        46.300    20754959.574 6  84987876.005 6        37.900
G17  21926525.078 7 115224660.957 7        44.900    21926543.180 6  89785215.986 6        41.200    21926543.016 7  89785494.981 7        43.900
G14  21994056.039 7 115579532.811 7        42.200    21994078.109 4  90061830.703 4        29.800    21994077.828 7  90061774.696 7        46.000    21994085.184 8  86309189.000 8        48.000
G12  24079168.602 6 126536894.606 6        36.300    24079188.344 4  98600269.463 4        25.600    24079188.684 6  98600326.466 6        36.400
G11  21839628.852 7 114768042.644 7        47.100    21839646.289 5  89429865.605 5        34.900    21839646.180 7  89429931.604 7        47.700    21839652.082 8  85703561.701 8        50.000
G09  23813863.836 5 125142739.426 5        34.400    23813895.395 4  97513946.538 4        29.400    23813895.215 6  97513862.543 6        39.000    23813899.961 6  93450764.987 6        41.400
G06  21227513.453 7 111551346.275 7        46.800    21227530.723 7  86923264.485 7        47.800    21227530.961 8  86923212.476 8        48.500    21227533.289 8  83301411.334 8        51.700
G05  25091207.023 5 131855184.952 5        33.400    25091233.070 3 102744427.290 3        21.700    25091233.195 5 102744343.269 5        33.100
G04  25127267.633 4 132044715.891 4        28.300                                                    25127294.484 5 102892107.405 5        34.000    25127302.328 6  98604919.334 6        36.100
> 2025  3 13  8 51 11.0000000  0 12       -.000263300000
G24  25433169.492 5 133652205.031 5        30.100    25433205.664 3 104144690.779 3        18.600    25433206.652 5 104144724.812 5        33.500    25433212.273 6  99805213.575 6        39.200
G22  20999938.734 7 110355415.050 7        47.000    20999955.262 6  85990903.911 6        37.600
G20  21652661.945 7 113785527.656 7        44.700    21652681.215 5  88664579.998 5        32.300
G19  20754832.820 7 109067389.780 7        46.200    20754845.801 6  84987410.475 6        38.100
G17  21926611.766 7 115225118.287 7        44.900    21926630.152 6  89785572.345 6        41.100    21926629.945 7  89785851.346 7        44.100
G14  21994666.070 7 115582740.833 7        42.300    21994688.504 4  90064330.456 4        28.900    21994688.191 7  90064274.450 7        45.700    21994695.641 8  86311584.600 8        48.200
G12  24078544.477 6 126533614.592 6        36.400    24078564.191 4  98597713.619 4        26.800    24078564.531 6  98597770.603 6        36.300
G11  21839522.375 7 114767484.348 7        46.900    21839540.035 5  89429430.578 5        34.500    21839539.684 7  89429496.579 7        47.800    21839545.887 8  85703144.803 8        49.600
G09  23813637.578 5 125141548.093 5        34.300    23813668.605 4  97513018.238 4        29.400    23813668.652 6  97512934.235 6        38.900    23813673.285 6  93449875.353 6        41.300
G06  21227686.492 7 111552255.114 7        46.700    21227703.586 8  86923972.675 8        48.000    21227704.035 8  86923920.669 8        48.500    21227706.285 8  83302090.017 8        51.600
G05  25090499.359 5 131851475.628 5        33.400    25090527.156 3 102741536.901 3        21.800    25090527.395 5 102741452.905 5        32.800
G04  25127219.578 4 132044459.378 4        28.300                                                    25127245.574 5 102891907.536 5        33.600    25127253.270 6  98604727.795 6        36.100
> 2025  3 13  8 51 12.0000000  0 12       -.000263298000
G24  25433393.617 5 133653382.643 5        30.300    25433429.957 3 104145608.397 3        18.300    25433430.758 5 104145642.412 5        33.500    25433436.461 6  99806092.935 6        39.200
G22  21000279.500 7 110357206.886 7        46.800    21000295.992 6  85992300.150 6        37.200
G20  21652172.398 7 113782956.812 7        45.000    21652192.184 5  88662576.749 5        32.200
G19  20754719.391 7 109066792.547 7        46.300    20754732.125 6  84986945.098 6        38.700
G17  21926698.750 7 115225575.815 7        44.700    21926717.141 6  89785928.860 6        41.200    21926717.051 7  89786207.857 7        44.200
G14  21995277.508 7 115585949.162 7        42.100    21995299.027 5  90066830.442 5        30.200    21995298.355 7  90066774.446 7        45.200    21995306.172 8  86313980.429 8        48.200
G12  24077920.570 6 126530334.823 6        36.900    24077939.938 4  98595157.948 4        26.800    24077940.141 6  98595214.961 6        36.800
G11  21839416.344 7 114766926.318 7        47.100    21839433.879 5  89428995.754 5        35.000    21839433.520 7  89429061.755 7        47.800    21839439.758 8  85702728.102 8        49.700
G09  23813410.547 5 125140357.038 5        34.600    23813441.934 4  97512090.148 4        28.800    23813441.875 6  97512006.154 6        39.500    23813446.629 6  93448985.939 6        41.800
G06  21227859.164 7 111553164.117 7        46.700    21227876.621 7  86924680.994 7        47.600    21227876.855 8  86924628.987 8        48.600    21227879.207 8  83302768.822 8        51.800
G05  25089794.438 5 131847766.336 5        33.500    25089821.516 3 102738646.556 3        21.300    25089820.988 5 102738562.562 5        32.400
G04  25127170.539 4 132044203.251 4        28.000                                                    25127196.742 5 102891707.972 5        32.900    25127204.457 6  98604536.557 6        36.400
> 2025  3 13  8 51 13.0000000  0 12       -.000263298000
G24  25433618.648 4 133654560.523 4        29.600    25433654.063 3 104146526.229 3        19.000    25433654.625 5 104146560.251 5        33.800    25433660.590 6  99806972.525 6        39.300
G22  21000620.539 7 110358999.309 7        46.800    21000637.098 6  85993696.841 6        37.300
G20  21651683.164 7 113780386.469 7        45.200    21651703.051 5  88660573.898 5        32.200
G19  20754605.797 7 109066195.598 7        46.300    20754618.438 6  84986479.948 6        38.400
G17  21926785.828 7 115226033.642 7        44.600    21926804.402 6  89786285.605 6        41.000    21926804.191 7  89786564.598 7        43.900
G14  21995887.781 7 115589157.891 7        42.300    21995909.617 4  90069330.757 4        29.300    21995909.332 7  90069274.751 7        45.200    21995916.820 8  86316376.553 8        48.400
G12  24077295.602 6 126527055.418 6        37.100    24077315.785 4  98592602.570 4        24.700    24077316.484 6  98592659.578 6        36.900
G11  21839310.313 7 114766368.636 7        46.900    21839327.746 5  89428561.206 5        35.600    21839327.414 8  89428627.210 8        48.100    21839333.539 8  85702311.660 8        49.900
G09  23813183.648 5 125139166.367 5        34.800    23813215.430 4  97511162.360 4        28.900    23813215.445 6  97511078.362 6        39.200    23813220.063 6  93448096.815 6        41.800
G06  21228032.313 7 111554073.373 7        46.700    21228049.633 7  86925389.507 7        47.900    21228049.785 8  86925337.504 8        48.800    21228052.238 8  83303447.819 8        51.700
G05  25089088.555 5 131844057.179 5        33.000    25089115.582 3 102735756.308 3        21.800    25089115.246 5 102735672.309 5        33.100
G04  25127122.078 4 132043947.608 4        28.300                                                    25127147.734 5 102891508.782 5        32.900    25127155.594 6  98604345.668 6        36.300
> 2025  3 13  8 51 14.0000000  0 12       -.000263300000
G24  25433842.750 4 133655738.649 4        29.900    25433878.281 3 104147444.255 3        19.300    25433879.109 5 104147478.247 5        33.800    25433884.707 6  99807852.266 6        39.100
G22  21000961.422 7 110360792.235 7        46.900    21000978.234 6  85995093.919 6        37.400
G20  21651194.359 7 113777816.541 7        45.000    21651213.859 5  88658571.364 5        33.300
G19  20754492.188 7 109065598.850 7        46.100    20754504.863 6  84986014.948 6        38.300
G17  21926873.000 7 115226491.647 7        44.300    21926891.605 6  89786642.489 6        40.700    21926891.215 7  89786921.490 7        44.200
G14  21996498.555 7 115592366.925 7        42.100    21996520.215 4  90071831.294 4        29.300    21996519.813 7  90071775.292 7        45.500    21996527.496 8  86318772.907 8        48.100
G12  24076672.828 6 126523776.254 6        37.100    24076691.719 4  98590047.389 4        25.600    24076692.223 6  98590104.396 6        37.200
G11  21839203.984 7 114765811.215 7        46.700    21839221.641 5  89428126.860 5        35.300    21839221.285 8  89428192.864 8        48.500    21839227.539 8  85701895.414 8        49.900
G09  23812958.023 5 125137975.963 5        34.800    23812988.910 4  97510234.780 4        28.600    23812988.375 6  97510150.786 6        38.700    23812993.633 7  93447207.894 7        42.000
G06  21228205.406 7 111554982.793 7        46.800    21228222.648 7  86926098.149 7        47.800    21228223.016 8  86926046.143 8        48.700    21228225.293 8  83304126.931 8        51.700
G05  25088382.125 5 131840348.082 5        33.300    25088409.773 3 102732866.105 3        20.600    25088409.578 5 102732782.111 5        32.400
G04  25127073.555 4 132043692.345 4        28.900                                                    25127098.828 5 102891309.919 5        32.900    25127107.059 6  98604155.061 6        36.000
> 2025  3 13  8 51 15.0000000  0 12       -.000263300000
G24  25434066.297 4 133656916.926 4        29.600    25434102.594 3 104148362.364 3        19.900    25434103.625 5 104148396.328 5        33.800    25434109.070 6  99808732.121 6        39.200
G22  21001302.992 7 110362585.606 7        47.400    21001319.547 6  85996491.346 6        37.900
G20  21650705.578 7 113775246.970 7        45.200    21650724.957 5  88656569.111 5        32.700
G19  20754378.508 7 109065002.243 7        46.100    20754391.254 6  84985550.064 6        38.100
G17  21926960.141 7 115226949.801 7        44.500    21926978.820 6  89786999.492 6        40.600    21926978.309 7  89787278.490 7        44.100
G14  21997109.063 7 115595576.213 7        42.300    21997130.832 4  90074332.041 4        28.200    21997130.465 7  90074276.034 7        45.300    21997138.164 8  86321169.448 8        48.200
G12  24076047.625 6 126520497.275 6        36.700    24076067.824 3  98587492.347 3        23.900    24076068.457 6  98587549.364 6        37.200
G11  21839097.961 7 114765253.996 7        46.300    21839115.738 5  89427692.672 5        35.100    21839115.266 8  89427758.678 8        48.200    21839121.430 8  85701479.319 8        49.900
G09  23812731.680 5 125136785.803 5        34.900    23812762.516 4  97509307.389 4        29.200    23812762.164 6  97509223.394 6        38.800    23812767.121 6  93446319.144 6        41.800
G06  21228378.406 7 111555892.317 7        46.700    21228395.750 7  86926806.873 7        47.900    21228396.117 8  86926754.865 8        48.700    21228398.379 8  83304806.126 8        51.700
G05  25087677.969 5 131836638.962 5        33.800    25087703.887 3 102729975.885 3        20.600    25087703.750 5 102729891.891 5        32.400
G04  25127025.141 4 132043437.44714        27.600                                                    25127050.836 5 102891111.269 5        32.600    25127058.492 6  98603964.719 6        36.000
> 2025  3 13  8 51 16.0000000  0 12       -.000263300000
G24  25434290.125 5                        30.100    25434326.738 3                        19.600    25434328.113 5 104149314.673 5        33.600    25434333.379 6  99809612.172 6        39.600
G22  21001644.773 7 110364379.500 7        47.800    21001661.004 6  85997889.185 6        37.900
G20  21650216.414 7 113772677.831 7        44.700    21650236.070 5  88654567.191 5        32.800
G19  20754264.969 7 109064405.861 7        45.900    20754277.777 6  84985085.351 6        37.800
G17  21927047.367 7 115227408.176 7        45.000    21927065.988 6  89787356.663 6        40.900    21927065.891 7  89787635.664 7        43.900
G14  21997720.008 7 115598785.837 7        42.200    21997741.543 4  90076833.039 4        28.500    21997741.238 7  90076777.029 7        45.300    21997748.926 7  86323566.236 7        47.900
G12  24075423.867 6 126517218.596 6        36.500    24075443.949 4  98584937.553 4        26.300    24075444.426 6  98584994.565 6        37.200
G11  21838992.148 7 114764697.072 7        46.300    21839009.855 5  89427258.713 5        35.800    21839009.383 8  89427324.712 8        48.000    21839015.422 8  85701063.440 8        49.800
G09  23812504.664 5 125135595.941 5        34.900    23812536.004 4  97508380.246 4        28.900    23812535.543 6  97508296.246 6        38.900    23812540.742 6  93445430.629 6        41.600
G06  21228551.391 7 111556802.022 7        46.700    21228568.934 7  86927515.738 7        47.500    21228569.281 8  86927463.731 8        48.200    21228571.457 8  83305485.455 8        52.000
G05  25086971.602 5 131832929.928 5        33.800    25086997.969 3 102727085.739 3        21.300    25086997.719 5 102727001.735 5        32.200
G04  25126976.453 4 132043182.933 4        26.400                                                    25127002.645 5 102890912.999 5        32.100    25127010.102 6  98603774.682 6        36.300
> 2025  3 13  8 51 17.0000000  0 12       -.000263300000
G24  25434514.781 4 133659274.131 4        29.600    25434550.926 3 104150199.121 3        19.900    25434552.102 5 104150233.145 5        33.300    25434557.797 6  99810492.366 6        39.500
G22  21001986.133 7 110366173.880 7        47.300    21002002.492 6  85999287.400 6        37.900
G20  21649727.430 7 113770109.102 7        44.500    21649747.336 5  88652565.594 5        32.400
G19  20754151.266 7 109063809.670 7        45.900    20754164.414 6  84984620.790 6        37.300
G17  21927135.023 7 115227866.747 7        44.900    21927153.336 6  89787713.993 6        41.000    21927153.102 7  89787992.989 7        44.100
G14  21998330.703 7 115601995.753 7        42.100    21998352.398 4  90079334.265 4        29.100    21998352.098 7  90079278.264 7        45.300    21998359.793 8  86325963.251 8        48.100
G12  24074800.430 6 126513940.167 6        36.500    24074819.914 4  98582382.936 4        27.000    24074820.352 6  98582439.958 6        37.300
G11  21838886.141 7 114764140.398 7        46.000    21838903.879 5  89426824.951 5        35.000    21838903.453 7  89426890.949 7        47.900    21838909.465 8  85700647.753 8        49.700
G09  23812277.828 5 125134406.363 5        34.800    23812309.699 4  97507453.309 4        28.200    23812309.004 6  97507369.317 6        39.200    23812314.512 6  93444542.321 6        41.500
G06  21228724.438 7 111557711.885 7        46.700    21228742.039 7  86928224.725 7        47.600    21228742.156 8  86928172.719 8        48.000    21228744.621 8  83306164.906 8        52.000
G05  25086266.273 5 131829220.937 5        33.900    25086292.012 3 102724195.622 3        21.300    25086292.020 5 102724111.624 5        32.700
G04  25126925.852 4                        27.600                                                    25126953.813 5 102890714.971 5        32.100    25126961.805 6  98603584.930 6        36.500
> 2025  3 13  8 51 18.0000000  0 11       -.000263300000
G24  25434738.523 4 133660453.056 4        29.900    25434775.172 3 104151117.766 3        19.300    25434776.082 5 104151151.770 5        33.000    25434782.059 6  99811372.715 6        39.200
G22  21002327.836 7 110367968.751 7        47.300    21002344.141 6  86000686.001 6        38.100
G20  21649238.867 7 113767540.776 7        44.700    21649258.629 5  88650564.311 5        32.800
G19  20754037.906 7 109063213.671 7        46.000    20754050.977 6  84984156.377 6        37.600
G17  21927222.094 7 115228325.505 7        44.900    21927240.582 6  89788071.463 6        40.700    21927240.027 7  89788350.460 7        44.200
G14  21998941.914 6 115605205.966 6        41.800    21998963.293 4  90081835.732 4        29.100    21998962.887 7  90081779.729 7        45.200    21998970.695 7  86328360.484 7        47.800
G12  24074176.984 6 126510661.996 6        36.900    24074195.988 4  98579828.526 4        24.800    24074196.430 6  98579885.545 6        37.000
G11  21838780.398 7 114763583.973 7        46.000    21838797.941 5  89426391.377 5        35.100    21838797.527 7  89426457.378 7        47.800    21838803.652 8  85700232.249 8        49.700
G09  23812052.000 5 125133217.068 5        34.600    23812083.375 4  97506526.595 4        29.600    23812082.965 6  97506442.597 6        38.800    23812088.156 7  93443654.222 7        42.000
G06  21228897.656 7 111558621.905 7        46.600    21228915.152 7  86928933.835 7        47.600    21228915.281 8  86928881.828 8        48.700    21228917.734 8  83306844.466 8        51.900
G05  25085559.883 5 131825511.984 5        34.000    25085586.230 3 102721305.531 3        22.000    25085586.211 5 102721221.531 5        32.900
> 2025  3 13  8 51 19.0000000  0 11       -.000263300000
G24  25434962.797 5 133661632.212 5        30.100    25434999.594 3 104152036.560 3        19.000    25434999.891 5 104152070.575 5        32.700    25435006.352 6  99812253.246 6        39.500
G22  21002669.000 7 110369764.154 7        47.300    21002685.641 6  86002085.013 6        37.500
G20  21648750.508 7 113764972.899 7        45.000    21648769.957 5  88648563.379 5        32.900
G19  20753924.430 7 109062617.895 7        46.000    20753937.676 6  84983692.137 6        37.600
G17  21927309.805 7 115228784.504 7        44.500    21927327.887 6  89788429.125 6        40.600    21927327.531 7  89788708.123 7        44.000
G14  21999552.531 7 115608416.528 7        42.500    21999574.238 4  90084337.457 4        29.200    21999573.875 7  90084281.461 7        45.100    21999581.691 7  86330757.974 7        47.600
G12  24073553.023 6 126507384.117 6        36.700    24073572.223 4  98577274.352 4        26.800    24073572.910 6  98577331.360 6        36.200
G11  21838674.672 7 114763027.847 7        46.200    21838692.020 5  89425958.045 5        35.000    21838691.555 7  89426024.040 7        47.300    21838697.766 8  85699816.971 8        49.800
G09  23811825.063 5 125132028.086 5        34.300    23811857.168 4  97505600.128 4        29.400    23811856.359 6  97505516.132 6        39.200    23811861.906 7  93442766.357 7        42.200
G06  21229070.773 7 111559532.121 7        46.700    21229088.320 7  86929643.093 7        47.700    21229088.664 8  86929591.088 8        48.500    21229090.969 8  83307524.176 8        51.700
G05  25084854.273 5 131821803.087 5        33.700    25084880.551 3 102718415.510 3        21.700    25084880.430 5 102718331.505 5        33.700
> 2025  3 13  8 51 20.0000000  0 11       -.000263300000
G24  25435187.672 5 133662811.611 5        30.300    25435224.098 3 104152955.572 3        18.600    25435224.637 5 104152989.534 5        32.700    25435230.910 6  99813133.935 6        39.700
G22  21003010.656 7 110371560.061 7        47.100    21003027.461 6  86003484.422 6        37.200
G20  21648261.805 7 113762405.437 7        45.300    21648281.156 5  88646562.766 5        33.200
G19  20753811.734 7 109062022.327 7        46.000    20753824.340 6  84983228.060 6        37.500
G17  21927397.508 7 115229243.699 7        44.300    21927415.406 6  89788786.934 6        40.900    21927414.805 7  89789065.935 7        43.700
G14  22000163.313 7 115611627.389 7        42.100    22000185.266 4  90086839.430 4        29.600    22000184.977 7  90086783.431 7        44.900    22000192.633 7  86333155.692 7        47.500
G12  24072929.141 6 126504106.478 6        36.800    24072948.480 4  98574720.346 4        25.700    24072949.098 6  98574777.356 6        36.100
G11  21838569.109 7 114762471.978 7        46.300    21838586.277 5  89425524.905 5        35.100    21838585.773 7  89425590.904 7        47.400    21838591.984 8  85699401.882 8        49.800
G09  23811597.945 5 125130839.410 5        34.600    23811630.922 4  97504673.892 4        28.800    23811630.137 6  97504589.888 6        39.300    23811635.633 7  93441878.709 7        42.300
G06  21229244.211 7 111560442.498 7        46.700    21229261.598 7  86930352.483 7        47.900    21229261.742 8  86930300.477 8        48.300    21229264.168 8  83308204.009 8        51.700
G05  25084148.781 5 131818094.233 5        33.400    25084174.664 3 102715525.503 3        22.200    25084174.492 5 102715441.507 5        33.600
> 2025  3 13  8 51 21.0000000  0 11       -.000263300000
G24  25435413.273 4                        29.600    25435448.578 3                        19.000    25435448.676 5 104153908.641 5        32.700    25435455.449 6  99814014.772 6        39.500
G22  21003352.617 7 110373356.424 7        47.100    21003369.363 6  86004884.183 6        37.600
G20  21647774.023 7 113759838.348 7        44.900    21647792.719 5  88644562.445 5        33.700
G19  20753698.250 7 109061426.907 7        46.100    20753711.121 6  84982764.099 6        37.500
G17  21927485.406 7 115229703.042 7        44.400    21927502.660 6  89789144.863 6        40.900    21927502.539 7  89789423.866 7        43.900
G14  22000774.469 7 115614838.510 7        42.200    22000796.336 4  90089341.602 4        28.900    22000796.023 7  90089285.600 7        45.000    22000803.816 7  86335553.603 7        47.800
G12  24072305.734 6 126500829.072 6        36.700    24072324.879 4  98572166.549 4        25.300    24072325.266 6  98572223.542 6        36.200
G11  21838463.578 7 114761916.325 7        46.000    21838480.539 5  89425091.933 5        35.800    21838480.082 7  89425157.932 7        47.500    21838486.211 8  85698986.955 8        49.900
G09  23811372.500 5 125129650.957 5        34.200    23811404.797 4  97503747.840 4        28.500    23811404.359 6  97503663.832 6        39.500    23811409.344 7  93440991.249 7        42.400
G06  21229417.289 7 111561352.988 7        46.600    21229434.895 7  86931061.961 7        47.500    21229435.043 8  86931009.956 8        48.500    21229437.422 8  83308883.924 8        51.500
G05  25083442.695 5 131814385.392 5        33.200    25083468.953 3 102712635.503 3        22.300    25083468.836 5 102712551.496 5        33.600
> 2025  3 13  8 51 22.0000000  0 11       -.000263300000
G24  25435637.922 4                        29.600    25435673.258 2                        17.800    25435673.293 5 104154827.932 5        33.400    25435680.195 6  99814895.701 6        39.900
G22  21003694.547 7 110375153.282 7        47.300    21003711.328 6  86006284.326 6        36.900
G20  21647285.195 7 113757271.661 7        44.900    21647304.227 5  88642562.433 5        33.300
G19  20753584.820 7 109060831.682 7        46.300    20753597.852 6  84982300.293 6        37.600
G17  21927572.953 7 115230162.581 7        44.300    21927590.074 6  89789502.943 6        40.800    21927589.836 7  89789781.943 7        43.900
G14  22001385.625 6 115618049.930 6        41.700    22001407.438 5  90091844.004 5        30.000    22001407.230 7  90091788.003 7        45.300    22001414.957 7  86337951.740 7        47.500
G12  24071681.836 6 126497551.907 6        37.100    24071701.262 4  98569612.900 4        26.800    24071701.504 6  98569669.905 6        36.100
G11  21838357.633 7 114761360.926 7        45.800    21838374.863 5  89424659.163 5        35.700    21838374.418 7  89424725.159 7        47.300    21838380.488 8  85698572.215 8        49.900
G09  23811146.398 5 125128462.799 5        34.800    23811178.746 4  97502822.001 4        28.700    23811178.270 6  97502737.991 6        39.000    23811183.375 7  93440103.988 7        42.300
G06  21229590.836 7 111562263.640 7        47.200    21229608.207 7  86931771.564 7        47.900    21229608.578 8  86931719.554 8        48.100    21229610.746 8  83309563.958 8        51.800
G05  25082736.039 5 131810676.584 5        32.600    25082763.277 3 102709745.527 3        21.700    25082763.133 5 102709661.526 5        33.800
> 2025  3 13  8 51 23.0000000  0 11       -.000263300000
G24  25435863.336 4 133666350.786 4        29.400    25435897.887 3 104155713.305 3        19.000    25435898.066 5 104155747.355 5        32.800    25435904.781 6  99815776.803 6        40.200
G22  21004036.828 7 110376950.618 7        47.400    21004053.316 6  86007684.844 6        37.600
G20  21646796.641 7 113754705.365 7        45.100    21646815.840 5  88640562.736 5        32.700
G19  20753472.078 7 109060236.642 7        46.300    20753484.516 6  84981836.627 6        38.500
G17  21927660.328 7 115230622.300 7        44.100    21927677.605 6  89789861.164 6        41.100    21927677.480 7  89790140.165 7        43.900
G14  22001997.008 6 115621261.643 6        41.700    22002018.543 5  90094346.628 5        30.200    22002018.539 7  90094290.631 7        45.600    22002026.160 7  86340350.091 7        47.600
G12  24071058.680 6 126494274.991 6        37.100    24071077.563 4  98567059.471 4        26.700    24071077.875 6  98567116.477 6        36.400
G11  21838251.742 7 114760805.769 7        46.000    21838269.199 5  89424226.582 5        35.900    21838269.000 7  89424292.579 7        47.500    21838274.941 8  85698157.657 8        49.900
G09  23810920.555 5 125127274.897 5        34.900    23810952.613 4  97501896.366 4        29.400    23810952.414 6  97501812.372 6        39.000    23810957.355 7  93439216.935 7        42.400
G06  21229763.945 7 111563174.427 7        46.800    21229781.434 7  86932481.268 7        47.900    21229781.836 8  86932429.260 8        48.400    21229784.086 8  83310244.095 8        51.700
G05  25082030.211 5 131806967.799 5        32.800    25082057.504 3 102706855.584 3        21.100    25082056.832 5 102706771.586 5        33.600
> 2025  3 13  8 51 24.0000000  0 11       -.000263302000
G24  25436087.773 4                        29.100    25436122.617 3                        18.600    25436122.574 5 104156666.972 5        33.100    25436129.367 6  99816658.111 6        39.700
G22  21004378.953 7 110378748.508 7        47.200    21004395.309 6  86009085.793 6        37.600
G20  21646307.781 7 113752139.537 7        44.600    21646327.648 5  88638563.401 5        32.300
G19  20753358.648 7 109059641.853 7        46.200    20753371.434 6  84981373.157 6        38.000
G17  21927747.461 7 115231082.269 7        44.200    21927765.211 6  89790219.579 6        40.500    21927765.121 7  89790498.575 7        43.900
G14  22002607.523 6 115624473.711 6        41.700    22002629.910 4  90096849.529 4        28.100    22002630.043 7  90096793.534 7        45.800    22002637.324 7  86342748.710 7        47.700
G12  24070435.047 6 126490998.386 6        37.400    24070454.012 4  98564506.276 4        27.300    24070454.344 6  98564563.281 6        36.300
G11  21838146.313 7 114760250.924 7        46.000    21838163.633 5  89423794.241 5        35.200    21838163.477 7  89423860.238 7        47.500    21838169.320 8  85697743.335 8        49.900
G09  23810694.633 5 125126087.334 5        34.100    23810726.586 4  97500971.011 4        29.500    23810726.738 6  97500887.004 6        38.800    23810731.387 7  93438330.134 7        42.100
G06  21229937.469 7 111564085.424 7        46.700    21229954.828 7  86933191.140 7        47.600    21229954.988 8  86933139.136 8        48.000    21229957.457 8  83310924.390 8        51.900
G05  25081324.383 5 131803259.113 5        33.000    25081351.715 3 102703965.693 3        20.900    25081350.969 5 102703881.715 5        32.600
> 2025  3 13  8 51 25.0000000  0 11       -.000263302000
G24  25436312.227 4                        27.600    25436347.211 3                        18.300    25436347.004 5 104157586.717 5        33.100    25436353.992 6  99817539.559 6        39.900
G22  21004721.055 7 110380546.867 7        47.500    21004737.594 6  86010487.113 6        37.600
G20  21645819.883 7 113749574.091 7        45.200    21645839.441 5  88636564.363 5        32.500
G19  20753245.938 7 109059047.228 7        46.400    20753258.246 6  84980909.812 6        38.400
G17  21927835.727 7 115231542.407 7        44.100    21927852.738 6  89790578.128 6        41.200    21927852.582 7  89790857.123 7        43.900
G14  22003219.297 6 115627686.058 6        41.900    22003241.141 4  90099352.659 4        29.500    22003241.281 7  90099296.659 7        45.200    22003248.625 7  86345147.535 7        47.700
G12  24069811.680 6 126487722.001 6        37.700    24069830.543 4  98561953.270 4        26.200    24069830.844 6  98562010.267 6        36.900
G11  21838040.586 7 114759696.314 7        45.800    21838058.027 5  89423362.082 5        35.200    21838058.023 7  89423428.080 7        47.800    21838063.777 8  85697329.184 8        49.800
G09  23810468.602 5 125124900.032 5        34.700    23810500.719 4  97500045.844 4        29.900    23810500.453 6  97499961.847 6        38.600    23810505.473 7  93437443.519 7        42.200
G06  21230110.984 7 111564996.558 7        46.800    21230128.102 7  86933901.119 7        47.700    21230128.512 8  86933849.112 8        48.000    21230130.824 8  83311604.786 8        51.500
G05  25080618.766 5 131799550.435 5        33.300    25080645.816 3 102701075.835 3        21.500    25080645.074 5 102700991.837 5        32.600
> 2025  3 13  8 51 26.0000000  0 11       -.000263302000
G24  25436534.656 4 133669891.921 4        28.600    25436572.035 3 104158472.624 3        18.300    25436571.969 5 104158506.639 5        33.000    25436578.570 6  99818421.124 6        39.900
G22  21005063.258 7 110382345.711 7        47.500    21005079.875 6  86011888.806 6        37.600
G20  21645331.617 7 113747009.036 7        45.100    21645351.379 5  88634565.628 5        33.000
G19  20753132.313 7 109058452.781 7        46.300    20753145.180 6  84980446.607 6        38.200
G17  21927922.844 7 115232002.724 7        44.300    21927940.367 6  89790936.816 6        40.800    21927940.109 7  89791215.810 7        44.100
G14  22003830.375 6 115630898.688 6        41.400    22003852.500 4  90101856.012 4        29.100    22003852.383 7  90101800.006 7        45.200    22003860.051 7  86347546.573 7        47.700
G12  24069187.859 6 126484445.859 6        38.100    24069207.066 4  98559400.446 4        26.500    24069207.625 6  98559457.441 6        36.800
G11  21837935.195 7 114759141.941 7        45.900    21837952.512 5  89422930.111 5        35.600    21837952.430 7  89422996.109 7        47.900    21837958.293 8  85696915.215 8        49.900
G09  23810243.063 5 125123713.000 5        33.900    23810274.738 5  97499120.892 5        30.000    23810273.875 6  97499036.902 6        38.200    23810279.605 7  93436557.113 7        42.500
G06  21230284.102 7 111565907.834 7        46.800    21230301.684 7  86934611.208 7        47.600    21230301.766 8  86934559.203 8        48.500    21230304.207 8  83312285.287 8        51.600
G05  25079913.477 5 131795841.799 5        33.800    25079940.141 3 102698186.004 3        20.900    25079939.332 5 102698101.986 5        33.000
> 2025  3 13  8 51 27.0000000  0 11       -.000263302000
G24  25436759.953 4 133671072.716 4        28.300    25436796.742 3 104159392.732 3        18.600    25436796.656 5 104159426.730 5        33.400    25436803.328 6  99819302.879 6        39.800
G22  21005405.953 7 110384145.072 7        47.500    21005422.336 6  86013290.905 6        37.900
G20  21644843.570 7 113744444.416 7        45.100    21644863.387 5  88632567.229 5        33.100
G19  20753019.203 7 109057858.554 7        46.100    20753032.055 6  84979983.576 6        37.900
G17  21928009.898 7 115232463.259 7        43.900    21928027.895 6  89791295.673 6        40.500    21928027.609 7  89791574.670 7        44.200
G14  22004441.891 7 115634111.645 7        42.000    22004463.992 4  90104359.603 4        28.700    22004463.719 7  90104303.607 7        45.100    22004471.453 7  86349945.857 7        47.600
G12  24068565.313 6 126481170.007 6        38.000    24068583.621 4  98556847.820 4        25.900    24068584.617 6  98556904.832 6        36.400
G11  21837829.602 7 114758587.846 7        45.800    21837847.051 5  89422498.358 5        35.600    21837847.055 7  89422564.356 7        47.500    21837852.836 8  85696501.450 8        50.300
G09  23810016.344 5 125122526.274 5        34.300    23810049.082 4  97498196.182 4        29.900    23810047.844 6  97498112.186 6        38.100    23810053.695 7  93435670.932 7        42.400
G06  21230457.797 7 111566819.288 7        46.700    21230475.066 7  86935321.434 7        47.800    21230475.305 8  86935269.429 8        48.300    21230477.656 8  83312965.925 8        51.500
G05  25079207.859 5 131792133.201 5        33.300    25079234.434 3 102695296.163 3        21.700    25079233.605 5 102695212.176 5        32.200
> 2025  3 13  8 51 28.0000000  0 11       -.000263302000
G24  25436984.523 4 133672253.707 4        28.600    25437021.313 2 104160312.946 2        17.400    25437021.340 5 104160346.990 5        33.100    25437028.031 6  99820184.780 6        39.200
G22  21005748.531 7 110385944.930 7        47.900    21005764.906 6  86014693.388 6        38.300
G20  21644355.344 7 113741880.206 7        44.800    21644375.281 5  88630569.155 5        32.700
G19  20752906.016 7 109057264.525 7        46.000    20752918.945 6  84979520.699 6        38.800
G17  21928097.227 7 115232923.994 7        44.100    21928115.719 6  89791654.686 6        41.100    21928115.531 7  89791933.682 7        44.100
G14  22005053.430 6 115637324.912 6        41.800    22005075.418 4  90106863.449 4        28.500    22005075.215 7  90106807.443 7        45.200    22005082.891 7  86352345.368 7        47.800
G12  24067942.570 6 126477894.403 6        37.300    24067960.301 4  98554295.410 4        27.400    24067961.191 5  98554352.415 5        35.500
G11  21837724.172 7 114758034.014 7        45.800    21837741.504 5  89422066.805 5        35.400    21837741.484 7  89422132.802 7        47.500    21837747.430 8  85696087.884 8        50.100
G09  23809790.617 5 125121339.834 5        34.800    23809823.293 4  97497271.696 4        28.400    23809822.266 6  97497187.698 6        38.700    23809827.891 7  93434784.968 7        42.400
G06  21230631.305 7 111567730.904 7        46.700    21230648.496 7  86936031.788 7        47.800    21230648.719 8  86935979.785 8        48.400    21230651.125 8  83313646.683 8        51.600
G05  25078502.477 5 131788424.673 5        33.200    25078528.688 3 102692406.405 3        21.500    25078528.184 5 102692322.408 5        32.400
> 2025  3 13  8 51 29.0000000  0 11       -.000263302000
G24  25437208.289 4 133673434.890 4        28.900    25437245.934 2 104161233.361 2        17.400    25437246.324 5 104161267.387 5        33.200    25437252.859 6  99821066.828 6        38.900
G22  21006090.836 7 110387745.268 7        47.500    21006107.492 6  86016096.245 6        38.300
G20  21643867.758 7 113739316.394 7        44.600    21643887.258 5  88628571.389 5        32.800
G19  20752793.188 7 109056670.674 7        46.100    20752805.988 6  84979057.958 6        38.300
G17  21928184.750 7 115233384.905 7        44.000    21928203.332 6  89792013.837 6        41.000    21928203.293 7  89792292.835 7        44.200
G14  22005665.289 6 115640538.459 6        41.700    22005686.832 4  90109367.503 4        29.100    22005686.906 7  90109311.502 7        45.400    22005694.363 7  86354745.090 7        47.600
G12  24067318.813 6 126474619.029 6        37.200    24067336.871 4  98551743.179 4        27.200    24067337.215 5  98551800.192 5        35.800
G11  21837618.828 7 114757480.419 7        45.700    21837636.250 5  89421635.441 5        34.900    21837636.238 7  89421701.439 7        47.500    21837642.051 8  85695674.493 8        50.200
G09  23809566.063 5 125120153.660 5        35.400    23809597.484 4  97496347.419 4        29.700    23809596.813 6  97496263.407 6        39.100    23809602.211 7  93433899.197 7        42.000
G06  21230804.945 7 111568642.661 7        46.700    21230822.078 7  86936742.253 7        47.800    21230822.316 8  86936690.246 8        48.400    21230824.641 8  83314327.542 8        51.900
G05  25077796.391 5 131784716.167 5        33.400    25077823.004 3 102689516.672 3        20.900    25077822.262 5 102689432.658 5        32.200
> 2025  3 13  8 51 30.0000000  0 11       -.000263302000
G24  25437435.258 4 133674616.269 4        28.000    25437470.695 2 104162153.912 2        16.900    25437471.145 5 104162187.930 5        33.200    25437477.770 6  99821949.022 6        38.800
G22  21006433.563 7 110389546.094 7        47.500    21006450.133 6  86017499.484 6        38.200
G20  21643380.117 7 113736752.982 7        44.800    21643399.406 5  88626573.936 5        33.200
G19  20752679.680 7 109056077.009 7        46.100    20752693.074 6  84978595.367 6        37.900
G17  21928272.508 7 115233846.008 7        43.700    21928291.020 6  89792373.138 6        41.000    21928291.000 7  89792652.134 7        44.600
G14  22006276.922 6 115643752.295 6        41.600    22006298.457 4  90111871.789 4        29.200    22006298.516 7  90111815.786 7        45.300    22006306.004 7  86357145.028 7        47.900
G12  24066694.500 6 126471343.906 6        37.300    24066713.504 4  98549191.141 4        26.700    24066714.047 5  98549248.152 5        35.900
G11  21837513.797 7 114756927.071 7        45.700    21837530.941 5  89421204.270 5        35.200    21837530.766 7  89421270.270 7        47.500    21837536.793 8  85695261.288 8        49.800
G09  23809339.914 5 125118967.763 5        34.600    23809371.551 4  97495423.344 4        29.100    23809371.402 6  97495339.350 6        38.700    23809376.543 7  93433013.639 7        42.100
G06  21230978.266 7 111569554.568 7        46.700    21230995.512 7  86937452.833 7        47.700    21230995.820 7  86937400.826 7        47.900    21230998.152 8  83315008.514 8        51.900
G05  25077091.047 5 131781007.710 5        33.500    25077117.355 3 102686626.951 3        20.600    25077116.629 5 102686542.966 5        32.500
> 2025  3 13  8 51 31.0000000  0 11       -.000263304000
G24  25437660.438 4 133675797.87614        28.300                                                    25437696.438 5 104163108.689 5        33.300    25437702.719 6  99822831.394 6        39.200
G22  21006775.961 7 110391347.430 7        47.700    21006792.938 6  86018903.119 6        38.000
G20  21642892.461 7 113734189.989 7        45.300    21642911.738 5  88624576.805 5        33.400
G19  20752566.703 7 109055483.549 7        45.800    20752580.027 6  84978132.935 6        38.100
G17  21928359.758 7 115234307.322 7        43.800    21928378.820 6  89792732.600 6        40.900    21928378.887 7  89793011.596 7        44.600
G14  22006888.242 6 115646966.456 6        41.800    22006910.246 4  90114376.322 4        29.800    22006910.285 7  90114320.320 7        45.700    22006917.688 8  86359545.208 8        48.000
G12  24066072.055 6 126468069.061 6        37.100    24066090.438 4  98546639.314 4        28.000    24066090.977 5  98546696.322 5        35.900
G11  21837408.453 7 114756373.999 7        45.800    21837425.891 5  89420773.312 5        35.400    21837425.539 7  89420839.306 7        47.500    21837431.523 8  85694848.287 8        49.700
G09  23809113.586 5 125117782.159 5        34.800    23809146.016 4  97494499.510 4        28.600    23809145.887 6  97494415.513 6        38.700    23809151.004 6  93432128.294 6        41.800
G06  21231151.609 7 111570466.644 7        46.600    21231169.098 7  86938163.543 7        47.800    21231169.371 8  86938111.539 8        48.200    21231171.715 8  83315689.613 8        51.800
G05  25076385.781 5 131777299.306 5        33.100    25076411.582 3 102683737.291 3        21.500    25076410.770 5 102683653.304 5        32.900
> 2025  3 13  8 51 32.0000000  0 10       -.000263308000
G22  21007118.555 7 110393149.244 7        47.500    21007135.750 6  86020307.131 6        38.000
G20  21642404.617 7 113731627.396 7        45.100    21642424.145 5  88622579.984 5        33.200
G19  20752454.172 7 109054890.273 7        45.900    20752467.160 6  84977670.643 6        37.900
G17  21928447.813 7 115234768.813 7        44.100    21928466.746 6  89793092.201 6        40.800    21928466.785 7  89793371.202 7        44.400
G14  22007500.352 7 115650180.900 7        42.200    22007522.078 4  90116881.084 4        29.100    22007521.770 7  90116825.079 7        45.500    22007529.324 8  86361945.600 8        48.300
G12  24065448.117 6 126464794.434 6        37.300    24065467.422 4  98544087.671 4        26.200    24065467.883 6  98544144.675 6        36.300
G11  21837303.383 7 114755821.167 7        45.800    21837320.664 5  89420342.538 5        35.700    21837320.113 7  89420408.533 7        47.300    21837326.313 8  85694435.465 8        49.500
G09  23808888.070 5 125116596.844 5        34.200    23808920.621 4  97493575.895 4        28.500    23808920.492 6  97493491.887 6        38.800    23808925.480 7  93431243.160 7        42.100
G06  21231325.797 7 111571378.862 7        46.700    21231342.723 7  86938874.364 7        47.900    21231342.910 8  86938822.360 8        48.400    21231345.281 8  83316370.819 8        51.500
G05  25075680.086 5 131773590.937 5        32.600    25075705.887 3 102680847.658 3        21.500    25075705.422 5 102680763.655 5        33.600
> 2025  3 13  8 51 33.0000000  0 10       -.000263306000
G22  21007462.031 7 110394951.596 7        46.800    21007478.832 6  86021711.556 6        38.500
G20  21641917.172 7 113729065.255 7        45.100    21641936.508 5  88620583.521 5        32.900
G19  20752341.359 7 109054297.237 7        46.000    20752354.277 6  84977208.541 6        37.500
G17  21928535.656 7 115235230.541 7        44.700    21928554.563 6  89793451.987 6        40.800    21928554.270 7  89793730.984 7        44.400
G14  22008111.813 6 115653395.685 6        41.900    22008133.645 4  90119386.107 4        29.700    22008133.406 7  90119330.104 7        45.400    22008141.055 7  86364346.250 7        47.900
G12  24064826.016 6 126461520.121 6        37.500    24064844.383 4  98541536.272 4        27.500    24064843.832 6  98541593.269 6        36.500
G11  21837198.094 7 114755268.632 7        45.800    21837215.516 5  89419911.995 5        35.100    21837214.906 7  89419977.991 7        47.100    21837221.141 8  85694022.866 8        49.700
G09  23808662.750 5 125115411.832 5        34.600    23808695.059 4  97492652.518 4        27.400    23808695.078 6  97492568.513 6        38.900    23808699.992 7  93430358.261 7        42.100
G06  21231498.875 7 111572291.277 7        46.700    21231516.332 7  86939585.340 7        47.500    21231516.656 8  86939533.336 8        48.300    21231518.895 8  83317052.174 8        51.600
G05  25074973.555 5 131769882.627 5        32.800    25075000.121 3 102677958.091 3        21.100    25074999.777 5 102677874.072 5        33.700
> 2025  3 13  8 51 34.0000000  0 10       -.000263306000
G22  21007805.305 7 110396754.475 7        46.900    21007821.809 6  86023116.392 6        38.100
G20  21641429.758 7 113726503.556 7        44.900    21641449.008 5  88618587.400 5        33.200
G19  20752228.539 7 109053704.425 7        46.100    20752241.492 6  84976746.610 6        37.900
G17  21928623.742 7 115235692.497 7        44.600    21928642.598 6  89793811.953 6        40.500    21928642.090 7  89794090.952 7        44.300
G14  22008723.617 7 115656610.801 7        42.000    22008745.430 4  90121891.386 4        29.600    22008745.184 7  90121835.386 7        45.000    22008752.871 8  86366747.145 8        48.100
G12  24064202.453 6 126458246.085 6        37.500    24064221.328 4  98538985.075 4        28.100    24064221.406 6  98539042.081 6        36.600
G11  21837092.852 7 114754716.385 7        45.700    21837110.250 5  89419481.674 5        35.300    21837110.004 7  89419547.674 7        47.500    21837116.066 8  85693610.480 8        49.900
G09  23808437.555 5 125114227.148 5        34.500    23808469.621 4  97491729.396 4        27.600    23808469.742 6  97491645.395 6        38.800    23808474.594 7  93429473.601 7        42.600
G06  21231672.703 7 111573203.889 7        46.600    21231690.008 7  86940296.470 7        47.800    21231690.262 8  86940244.464 8        48.600    21231692.605 8  83317733.668 8        51.700
G05  25074268.031 5 131766174.398 5        33.400    25074294.629 3 102675068.594 3        20.900    25074294.461 5 102674984.573 5        33.500
> 2025  3 13  8 51 35.0000000  0 10       -.000263306000
G22  21008148.570 7 110398557.813 7        47.100    21008165.090 6  86024521.590 6        38.000
G20  21640942.250 7 113723942.236 7        44.600    21640961.559 5  88616591.574 5        33.200
G19  20752115.648 7 109053111.772 7        46.000    20752128.785 6  84976284.805 6        37.700
G17  21928712.016 7 115236154.617 7        44.300    21928730.520 6  89794172.045 6        40.500    21928730.309 7  89794451.040 7        44.500
G14  22009335.539 7 115659826.185 7        42.000    22009357.277 4  90124396.878 4        28.800    22009357.051 7  90124340.877 7        45.200    22009364.727 8  86369148.237 8        48.000
G12  24063580.031 6 126454972.270 6        37.500    24063598.512 4  98536434.061 4        26.200    24063598.832 6  98536491.062 6        36.600
G11  21836987.922 7 114754164.357 7        45.600    21837005.285 5  89419051.536 5        35.000    21837005.023 7  89419117.529 7        47.500    21837011.047 8  85693198.262 8        50.100
G09  23808211.914 5 125113042.713 5        34.100    23808244.102 4  97490806.464 4        27.900    23808244.422 6  97490722.466 6        38.800    23808249.133 7  93428589.128 7        42.300
G06  21231846.297 7 111574116.615 7        46.800    21231863.539 7  86941007.685 7        47.600    21231864.063 8  86940955.682 8        48.600    21231866.301 8  83318415.253 8        51.600
G05  25073562.313 5 131762466.180 5        33.100    25073588.941 3 102672179.062 3        20.600    25073588.680 5 102672095.053 5        34.300
> 2025  3 13  8 51 36.0000000  0 10       -.000263308000
G22  21008491.891 7 110400361.618 7        47.200    21008508.348 6  86025927.151 6        38.000
G20  21640454.750 7 113721381.307 7        45.000    21640474.320 5  88614596.056 5        33.300
G19  20752003.016 7 109052519.288 7        45.900    20752016.004 6  84975823.129 6        37.700
G17  21928800.469 7 115236616.907 7        43.700    21928818.457 6  89794532.268 6        40.900    21928818.117 7  89794811.268 7        44.300
G14  22009947.328 6 115663041.848 6        41.900    22009969.293 4  90126902.587 4        28.900    22009969.027 7  90126846.589 7        45.200    22009976.660 7  86371549.541 7        47.900
G12  24062956.641 6 126451698.691 6        37.200    24062975.637 4  98533883.223 4        27.300    24062975.875 6  98533940.222 6        36.600
G11  21836882.430 7 114753612.564 7        45.600    21836900.270 5  89418621.574 5        35.200    21836899.961 7  89418687.564 7        47.900    21836905.977 8  85692786.214 8        50.000
G09  23807986.672 5 125111858.524 5        34.400    23808018.676 4  97489883.730 4        29.000    23808019.027 6  97489799.738 6        39.200    23808023.734 7  93427704.848 7        42.200
G06  21232020.141 7 111575029.479 7        46.700    21232037.336 7  86941719.013 7        47.800    21232037.781 8  86941667.007 8        48.300    21232040.020 8  83319096.941 8        51.800
G05  25072856.531 5 131758757.970 5        32.500    25072883.461 3 102669289.561 3        20.900    25072883.840 5 102669205.552 5        33.900
> 2025  3 13  8 51 37.0000000  0 10       -.000263308000
G22  21008835.133 7 110402165.915 7        46.700    21008851.633 6  86027333.093 6        37.800
G20  21639967.719 7 113718820.775 7        45.300    21639987.148 5  88612600.846 5        33.200
G19  20751890.281 7 109051926.987 7        46.100    20751903.469 6  84975361.601 6        38.100
G17  21928888.477 7 115237079.377 7        43.800    21928906.340 6  89794892.633 6        40.800    21928905.793 7  89795171.633 7        44.500
G14  22010558.961 7 115666257.801 7        42.000    22010581.238 4  90129408.519 4        28.900    22010580.840 7  90129352.519 7        44.900    22010588.598 8  86373951.057 8        48.000
G12  24062333.672 6 126448425.349 6        36.900    24062352.746 4  98531332.582 4        26.900    24062352.883 6  98531389.581 6        36.900
G11  21836777.383 7 114753061.014 7        45.600    21836795.320 5  89418191.800 5        34.900    21836795.027 8  89418257.795 8        48.000    21836801.016 8  85692374.350 8        50.000
G09  23807760.688 5 125110674.615 5        34.200    23807793.336 4  97488961.210 4        28.600    23807793.344 6  97488877.226 6        38.900    23807798.418 7  93426820.775 7        42.000
G06  21232194.023 7 111575942.485 7        46.700    21232211.195 7  86942430.448 7        47.800    21232211.691 8  86942378.445 8        48.100    21232213.734 8  83319778.735 8        51.600
G05  25072150.992 5 131755049.791 5        33.000    25072177.797 3 102666400.060 3        21.500    25072178.684 5 102666316.073 5        33.700
> 2025  3 13  8 51 38.0000000  0 10       -.000263308000
G22  21009178.492 7 110403970.717 7        46.800    21009195.102 6  86028739.432 6        37.800
G20  21639480.586 7 113716260.664 7        45.300    21639500.094 5  88610605.963 5        33.500
G19  20751777.813 7 109051334.897 7        46.100    20751790.676 6  84974900.231 6        38.300
G17  21928977.125 7 115237542.056 7        44.400    21928994.301 6  89795253.161 6        41.100    21928994.055 7  89795532.162 7        43.600
G14  22011171.398 7 115669474.066 7        42.300    22011193.305 4  90131914.693 4        29.700    22011192.992 7  90131858.697 7        45.000    22011200.652 7  86376352.811 7        47.600
G12  24061711.148 6 126445152.285 6        37.000    24061729.781 4  98528782.138 4        24.600    24061729.793 6  98528839.147 6        36.800
G11  21836672.695 7 114752509.731 7        45.800    21836690.516 5  89417762.239 5        35.400    21836690.367 7  89417828.231 7        47.900    21836696.164 8  85691962.686 8        49.900
G09  23807535.930 5 125109491.009 5        34.200    23807568.219 4  97488038.943 4        29.100    23807568.152 6  97487954.947 6        38.800    23807573.207 7  93425936.924 7        42.100
G06  21232367.617 7 111576855.661 7        46.900    21232384.859 7  86943142.017 7        47.900    21232385.340 8  86943090.013 8        48.200    21232387.461 8  83320460.657 8        51.700
G05  25071444.688 5 131751341.697 5        33.000    25071472.250 3 102663510.648 3        21.500    25071473.094 5 102663426.664 5        33.500
> 2025  3 13  8 51 39.0000000  0 10       -.000263308000
G22  21009522.086 7 110405776.061 7        47.200    21009538.723 6  86030146.188 6        37.500
G20  21638993.250 7 113713701.016 7        45.000    21639013.078 5  88608611.442 5        33.400
G19  20751665.242 7 109050743.051 7        46.400    20751678.148 6  84974439.054 6        38.600
G17  21929065.180 7 115238004.983 7        44.000    21929082.508 6  89795613.881 6        41.100    21929082.219 7  89795892.880 7        43.900
G14  22011783.172 7 115672690.682 7        42.100    22011805.457 5  90134421.147 5        30.400    22011805.137 7  90134365.149 7        45.100    22011812.805 7  86378754.825 7        47.800
G12  24061088.383 6 126441879.522 6        37.200    24061106.984 4  98526231.940 4        27.300    24061107.035 6  98526288.939 6        36.500
G11  21836567.953 7 114751958.755 7        45.500    21836585.586 5  89417332.909 5        35.600    21836585.355 7  89417398.905 7        47.600    21836591.277 8  85691551.252 8        49.900
G09  23807311.234 5 125108307.730 5        34.800    23807343.012 4  97487116.911 4        28.300    23807342.637 6  97487032.921 6        38.600    23807347.879 6  93425053.324 6        41.900
G06  21232541.219 7 111577769.041 7        46.700    21232558.703 7  86943853.746 7        47.500    21232559.133 8  86943801.742 8        48.100    21232561.316 8  83321142.730 8        51.800
G05  25070739.672 5 131747633.678 5        32.800    25070766.730 3 102660621.323 3        21.100    25070767.684 5 102660537.315 5        33.900
> 2025  3 13  8 51 40.0000000  0 10       -.000263308000
G22  21009865.609 7 110407581.896 7        47.100    21009882.195 6  86031553.332 6        37.800
G20  21638506.227 7 113711141.769 7        44.700    21638525.965 5  88606617.236 5        33.000
G19  20751552.531 7 109050151.391 7        46.100    20751565.523 6  84973978.020 6        38.900
G17  21929153.133 7 115238468.097 7        44.400    21929170.648 6  89795974.749 6        41.300    21929170.109 7  89796253.750 7        44.100
G14  22012395.836 7 115675907.589 7        42.400    22012417.613 4  90136927.829 4        29.600    22012417.570 7  90136871.825 7        45.200    22012424.879 8  86381157.061 8        48.000
G12  24060465.734 6 126438607.005 6        36.800    24060484.230 4  98523681.938 4        26.400    24060484.789 6  98523738.937 6        36.800
G11  21836462.898 7 114751408.030 7        45.600    21836480.672 5  89416903.779 5        35.600    21836480.414 7  89416969.777 7        47.800    21836486.461 8  85691140.005 8        50.000
G09  23807086.211 5 125107124.728 5        34.800    23807117.848 4  97486195.103 4        28.800    23807117.441 6  97486111.116 6        38.500    23807122.816 7  93424169.925 7        42.100
G06  21232715.039 7 111578682.575 7        46.700    21232732.523 7  86944565.597 7        47.700    21232732.703 8  86944513.589 8        48.200    21232735.137 8  83321824.920 8        51.600
G05  25070034.492 5 131743925.695 5        33.400    25070061.023 3 102657731.978 3        20.600    25070061.734 5 102657647.996 5        33.600
> 2025  3 13  8 51 41.0000000  0 10       -.000263308000
G22  21010209.508 7 110409388.199 7        47.200    21010225.922 6  86032960.835 6        37.500
G20  21638019.469 7 113708582.906 7        45.300    21638039.051 5  88604623.327 5        33.300
G19  20751439.945 7 109049559.899 7        46.000    20751452.984 6  84973517.121 6        38.200
G17  21929240.938 7 115238931.382 7        44.300    21929258.895 6  89796335.749 6        40.900    21929258.496 7  89796614.747 7        44.100
G14  22013007.883 7 115679124.771 7        42.000    22013029.746 4  90139434.727 4        29.600    22013029.770 7  90139378.718 7        45.300    22013037.086 7  86383559.497 7        47.700
G12  24059842.141 6 126435334.715 6        36.400    24059861.539 4  98521132.107 4        24.500    24059862.770 6  98521189.119 6        36.500
G11  21836358.289 7 114750857.535 7        45.400    21836376.051 5  89416474.833 5        35.500    21836375.543 7  89416540.825 7        47.400    21836381.691 8  85690728.926 8        50.000
G09  23806861.148 5 125105942.006 5        34.300    23806892.805 4  97485273.501 4        28.200    23806892.242 6  97485189.513 6        38.400    23806897.875 7  93423286.726 7        42.200
G06  21232889.203 7 111579596.239 7        46.600    21232906.406 7  86945277.544 7        47.600    21232906.582 8  86945225.538 8        48.100    21232909.004 8  83322507.202 8        51.600
G05  25069329.570 5 131740217.748 5        33.400    25069355.594 3 102654842.667 3        20.900    25069356.289 5 102654758.696 5        33.100
> 2025  3 13  8 51 42.0000000  0 10       -.000263308000
G22  21010553.414 7 110411194.958 7        47.200    21010569.910 6  86034368.705 6        37.300
G20  21637532.797 7 113706024.422 7        45.000    21637552.113 5  88602629.711 5        33.000
G19  20751327.242 7 109048968.570 7        46.000    20751340.449 6  84973056.349 6        38.200
G17  21929329.039 7 115239394.827 7        44.400    21929347.051 6  89796696.868 6        41.100    21929346.785 7  89796975.871 7        44.300
G14  22013620.375 7 115682342.222 7        42.200    22013641.949 4  90141941.827 4        29.600    22013641.805 7  90141885.815 7        45.300    22013649.367 7  86385962.135 7        47.800
G12  24059219.945 6 126432062.661 6        36.500    24059238.820 4  98518582.474 4        24.700    24059240.563 6  98518639.487 6        37.000
G11  21836253.594 7 114750307.262 7        45.500    21836271.246 5  89416046.054 5        35.400    21836270.883 7  89416112.045 7        47.400    21836277.047 8  85690318.017 8        49.700
G09  23806635.531 5 125104759.534 5        34.300    23806667.809 4  97484352.108 4        28.600    23806667.531 6  97484268.109 6        38.500    23806672.906 7  93422403.716 7        42.100
G06  21233062.891 7 111580510.021 7        46.700    21233080.211 7  86945989.585 7        47.600    21233080.473 8  86945937.579 8        48.300    21233082.883 8  83323189.576 8        51.700
G05  25068624.016 5 131736509.807 5        33.700    25068649.887 3 102651953.378 3        21.500    25068650.504 5 102651869.378 5        32.900
> 2025  3 13  8 51 43.0000000  0 10       -.000263309000
G22  21010897.063 7 110413002.214 7        46.700    21010913.836 6  86035776.948 6        37.500
G20  21637045.836 7 113703466.348 7        44.700    21637065.395 5  88600636.411 5        33.000
G19  20751214.766 7 109048377.436 7        45.800    20751227.863 6  84972595.726 6        37.800
G17  21929417.180 7 115239858.467 7        44.500    21929435.371 6  89797058.146 6        40.600    21929434.977 7  89797337.146 7        44.600
G14  22014231.883 7 115685559.977 7        42.100    22014254.273 4  90144449.159 4        29.700    22014253.805 7  90144393.151 7        44.900    22014261.727 7  86388364.999 7        47.600
G12  24058597.406 6 126428790.868 6        36.600    24058616.063 4  98516033.037 4        26.300    24058617.570 6  98516090.039 6        36.900
G11  21836148.977 7 114749757.245 7        45.600    21836166.605 5  89415617.477 5        35.400    21836166.301 7  89415683.468 7        47.300    21836172.316 8  85689907.299 8        49.500
G09  23806411.547 5 125103577.346 5        34.200    23806442.813 4  97483430.921 4        28.200    23806442.348 6  97483346.927 6        38.300    23806447.891 7  93421520.919 7        42.400
G06  21233236.734 7 111581423.962 7        46.800    21233254.215 7  86946701.749 7        47.600    21233254.395 8  86946649.745 8        48.500    21233256.785 8  83323872.067 8        51.600
G05  25067917.703 5 131732801.909 5        33.500    25067944.285 3 102649064.113 3        21.300    25067944.625 5 102648980.122 5        33.600
> 2025  3 13  8 51 44.0000000  0 10       -.000263309000
G22  21011241.195 7 110414810.010 7        46.800    21011257.844 6  86037185.618 6        37.300
G20  21636559.008 7 113700908.732 7        44.700    21636578.625 5  88598643.469 5        33.300
G19  20751102.281 7 109047786.549 7        46.300    20751115.500 6  84972135.296 6        38.100
G17  21929505.391 7 115240322.339 7        44.600    21929523.547 6  89797419.601 6        41.000    21929523.594 7  89797698.606 7        44.300
G14  22014844.633 7 115688778.068 7        42.300    22014866.637 4  90146956.748 4        29.100    22014866.227 7  90146900.754 7        44.800    22014874.051 7  86390768.113 7        47.800
G12  24057975.445 6 126425519.359 6        36.300    24057993.695 4  98513483.812 4        27.400    24057994.293 6  98513540.819 6        36.400
G11  21836044.086 7 114749207.519 7        45.500    21836061.930 5  89415189.124 5        35.200    21836061.531 7  89415255.121 7        47.600    21836067.746 8  85689496.800 8        49.500
G09  23806186.547 5 125102395.458 5        34.300    23806217.984 4  97482509.971 4        29.000    23806217.367 6  97482425.989 6        38.100    23806222.949 7  93420638.360 7        42.300
G06  21233410.813 7 111582338.101 7        46.600    21233428.172 7  86947414.066 7        47.600    21233428.359 8  86947362.061 8        48.700    21233430.754 8  83324554.705 8        51.600
G05  25067212.336 5 131729094.096 5        33.000    25067238.676 3 102646174.905 3        21.700    25067238.973 5 102646090.923 5        33.900
> 2025  3 13  8 51 45.0000000  0 10       -.000263309000
G22  21011585.375 7 110416618.308 7        47.000    21011601.836 6  86038594.677 6        36.800
G20  21636072.391 7 113698351.528 7        45.000    21636092.090 5  88596650.858 5        33.300
G19  20750989.852 7 109047195.869 7        46.000    20751003.125 6  84971675.029 6        38.000
G17  21929593.719 7 115240786.415 7        44.700    21929611.863 6  89797781.219 6        41.200    21929611.719 7  89798060.221 7        44.500
G14  22015456.914 7 115691996.471 7        42.400    22015479.078 4  90149464.597 4        27.900    22015478.863 7  90149408.594 7        44.900    22015486.543 7  86393171.460 7        47.600
G12  24057352.203 6 126422248.115 6        36.100    24057371.309 4  98510934.799 4        27.100    24057371.559 6  98510991.813 6        36.000
G11  21835939.516 7 114748658.066 7        45.800    21835957.363 5  89414760.985 5        35.100    21835957.137 7  89414826.981 7        47.800    21835963.145 8  85689086.499 8        49.900
G09  23805961.430 5 125101213.885 5        34.100    23805993.055 4  97481589.278 4        27.800    23805992.770 6  97481505.292 6        38.100    23805998.031 6  93419756.022 6        41.700
G06  21233584.914 7 111583252.406 7        46.500    21233602.004 7  86948126.513 7        47.800    21233602.375 8  86948074.509 8        48.800    21233604.730 8  83325237.470 8        51.500
G05  25066506.414 5 131725386.362 5        33.300    25066533.176 3 102643285.765 3        21.700    25066533.336 5 102643201.777 5        33.700
> 2025  3 13  8 51 46.0000000  0 10       -.000263309000
G22  21011929.695 7 110418427.093 7        47.500    21011945.949 6  86040004.119 6        37.000
G20  21635585.859 7 113695794.733 7        44.700    21635605.512 5  88594658.560 5        33.500
G19  20750877.477 7 109046605.382 7        46.000    20750890.742 6  84971214.910 6        37.900
G17  21929681.508 7 115241250.687 7        44.000    21929700.180 6  89798142.988 6        41.100    21929700.344 7  89798421.990 7        44.300
G14  22016069.969 7 115695215.163 7        42.400    22016091.547 4  90151972.662 4        29.200    22016091.215 7  90151916.669 7        44.500    22016099.051 7  86395575.027 7        47.800
G12  24056729.133 6 126418977.132 6        36.500    24056748.789 4  98508385.994 4        26.000    24056748.961 6  98508442.998 6        36.000
G11  21835835.125 7 114748108.858 7        46.000    21835852.781 5  89414333.037 5        35.100    21835852.531 7  89414399.034 7        47.900    21835858.633 8  85688676.387 8        49.600
G09  23805735.445 5 125100032.590 5        34.800    23805768.270 4  97480668.804 4        28.200    23805767.980 6  97480584.797 6        38.100    23805773.355 6  93418873.894 6        41.700
G06  21233758.633 7 111584166.866 7        46.600    21233776.148 7  86948839.085 7        47.500    21233776.605 8  86948787.081 8        48.800    21233778.734 8  83325920.348 8        51.500
G05  25065802.195 5 131721678.635 5        33.200    25065827.734 3 102640396.646 3        21.800    25065828.109 5 102640312.642 5        33.800
> 2025  3 13  8 51 47.0000000  0 10       -.000263309000
G22  21012274.117 7 110420236.419 7        47.300    21012290.191 6  86041413.982 6        37.200
G20  21635099.703 7 113693238.391 7        44.700    21635118.961 5  88592666.617 5        32.700
G19  20750765.484 7 109046015.138 7        45.900    20750778.461 6  84970754.980 6        37.900
G17  21929769.820 7 115241715.196 7        43.700    21929788.613 6  89798504.942 6        40.700    21929788.652 7  89798783.941 7        44.500
G14  22016682.445 6 115698434.203 6        41.800    22016704.129 4  90154481.005 4        29.200    22016704.066 7  90154425.005 7        44.900    22016711.621 7  86397978.850 7        47.800
G12  24056107.711 6 126415706.435 6        36.200    24056126.438 4  98505837.406 4        25.600    24056126.469 5  98505894.415 5        35.900
G11  21835730.664 7 114747559.954 7        45.600    21835748.336 5  89413905.330 5        35.900    21835748.281 8  89413971.323 8        48.000    21835754.207 8  85688266.498 8        49.700
G09  23805511.602 5 125098851.612 5        34.600    23805543.473 4  97479748.569 4        27.300    23805543.047 6  97479664.578 6        38.100    23805548.441 6  93417992.012 6        41.700
G06  21233932.836 7 111585081.520 7        46.700    21233950.145 7  86949551.805 7        47.600    21233950.563 8  86949499.802 8        48.800    21233952.750 8  83326603.373 8        51.600
G05  25065095.688 5 131717971.005 5        33.200    25065122.090 3 102637507.582 3        22.300    25065122.559 5 102637423.593 5        33.900
> 2025  3 13  8 51 48.0000000  0 10       -.000263309000
G22  21012618.453 7 110422046.260 7        47.000    21012634.672 6  86042824.247 6        37.000
G20  21634613.117 7 113690682.487 7        45.000    21634632.543 5  88590675.007 5        33.400
G19  20750652.781 7 109045425.105 7        46.100    20750666.066 6  84970295.215 6        38.000
G17  21929858.273 7 115242179.918 7        43.600    21929877.121 6  89798867.062 6        41.100    21929876.961 7  89799146.060 7        44.300
G14  22017295.250 7 115701653.556 7        42.100    22017316.742 4  90156989.595 4        28.500    22017316.602 7  90156933.593 7        44.700    22017324.305 7  86400382.911 7        47.900
G12  24055484.836 6 126412436.030 6        36.600    24055504.133 4  98503289.053 4        26.900    24055503.996 6  98503346.054 6        36.100
G11  21835626.203 7 114747011.319 7        45.400    21835643.844 5  89413477.827 5        35.400    21835643.891 8  89413543.827 8        48.000    21835649.738 8  85687856.815 8        50.000
G09  23805286.641 5 125097670.938 5        34.400    23805318.793 4  97478828.570 4        28.400    23805317.918 6  97478744.588 6        38.700    23805323.863 6  93417110.358 6        41.800
G06  21234106.672 7 111585996.349 7        46.700    21234124.262 7  86950264.661 7        47.400    21234124.719 8  86950212.658 8        48.800    21234126.871 8  83327286.528 8        51.700
G05  25064388.883 5 131714263.418 5        33.700    25064416.469 3 102634618.552 3        22.500    25064416.969 5 102634534.578 5        33.900
> 2025  3 13  8 51 49.0000000  0 10       -.000263311000
G22  21012962.875 7 110423856.541 7        47.100    21012979.156 6  86044234.855 6        37.200
G20  21634126.359 7 113688126.925 7        45.300    21634146.270 5  88588683.669 5        33.200
G19  20750540.672 7 109044835.205 7        46.000    20750553.828 6  84969835.557 6        37.900
G17  21929946.828 7 115242644.771 7        44.300    21929965.641 6  89799229.282 6        41.300    21929965.785 7  89799508.282 7        44.500
G14  22017907.508 7 115704873.154 7        42.400    22017929.328 4  90159498.366 4        28.900    22017929.359 7  90159442.362 7        45.000    22017937.016 7  86402787.152 7        47.800
G12  24054863.211 6 126409165.812 6        36.500    24054881.824 4  98500740.839 4        26.700    24054881.824 6  98500797.848 6        36.100
G11  21835521.547 7 114746462.885 7        45.800    21835539.484 5  89413050.483 5        35.200    21835539.586 8  89413116.480 8        48.000    21835545.375 8  85687447.278 8        49.900
G09  23805062.336 5 125096490.501 5        34.300    23805094.328 4  97477908.768 4        27.600    23805093.137 6  97477824.777 6        38.700    23805099.160 6  93416228.873 6        41.900
G06  21234280.984 7 111586911.267 7        46.700    21234298.340 7  86950977.588 7        47.600    21234298.691 8  86950925.586 8        48.300    21234300.965 8  83327969.753 8        51.500
G05  25063684.492 5 131710555.851 5        34.200    25063710.996 3 102631729.564 3        22.000    25063711.613 5 102631645.566 5        33.600
> 2025  3 13  8 51 50.0000000  0 10       -.000263311000
G22  21013307.242 7 110425667.310 7        47.200    21013323.703 6  86045645.839 6        37.500
G20  21633640.305 7 113685571.768 7        45.200    21633660.074 5  88586692.653 5        32.500
G19  20750428.570 7 109044245.497 7        46.300    20750441.715 6  84969376.043 6        37.800
G17  21930035.813 7 115243109.810 7        44.800    21930054.000 6  89799591.655 6        41.400    21930054.152 7  89799870.654 7        44.400
G14  22018519.898 6 115708093.041 6        41.800    22018542.074 4  90162007.363 4        28.600    22018542.254 7  90161951.361 7        45.200    22018549.707 7  86405191.607 7        47.900
G12  24054240.914 6 126405895.843 6        36.800    24054259.508 4  98498192.816 4        26.800    24054259.688 6  98498249.815 6        36.100
G11  21835417.461 7 114745914.692 7        45.800    21835435.230 5  89412623.326 5        35.100    21835435.238 7  89412689.323 7        47.600    21835440.984 8  85687037.920 8        50.200
G09  23804839.039 5 125095310.345 5        34.800    23804869.652 4  97476989.182 4        28.700    23804868.820 6  97476905.174 6        38.900    23804874.621 6  93415347.596 6        41.700
G06  21234455.336 7 111587826.341 7        46.700    21234472.477 7  86951690.637 7        47.600    21234472.918 7  86951638.634 7        47.900    21234475.082 8  83328653.089 8        51.600
G05  25062979.328 5 131706848.299 5        34.200    25063005.445 3 102628840.570 3        22.300    25063005.926 5 102628756.569 5        34.100
> 2025  3 13  8 51 51.0000000  0 10       -.000263311000
G22  21013651.828 7 110427478.592 7        47.200    21013668.477 6  86047057.224 6        37.600
G20  21633154.047 7 113683017.040 7        44.600    21633173.875 5  88584701.961 5        33.200
G19  20750316.320 7 109043656.005 7        46.500    20750329.613 6  84968916.700 6        37.800
G17  21930124.398 7 115243575.063 7        44.300    21930142.656 6  89799954.188 6        41.000    21930142.539 7  89800233.185 7        44.600
G14  22019133.164 7 115711313.240 7        42.000    22019154.910 4  90164516.611 4        29.300    22019154.789 7  90164460.602 7        45.100    22019162.465 8  86407596.298 8        48.000
G12  24053618.961 6 126402626.146 6        37.100    24053637.250 4  98495645.002 4        26.000    24053637.445 6  98495702.020 6        36.300
G11  21835312.984 7 114745366.771 7        46.000    21835331.055 5  89412196.387 5        35.300    21835330.906 7  89412262.379 7        47.700    21835336.773 8  85686628.767 8        50.100
G09  23804614.375 5 125094130.483 5        35.000    23804644.969 4  97476069.813 4        28.700    23804644.895 6  97475985.811 6        38.800    23804650.156 7  93414466.538 7        42.100
G06  21234629.164 7 111588741.578 7        46.600    21234646.648 7  86952403.810 7        47.600    21234646.805 8  86952351.810 8        48.200    21234649.254 8  83329336.551 8        51.800
G05  25062273.492 5 131703140.820 5        34.400    25062299.973 3 102625951.638 3        22.300    25062299.750 5 102625867.618 5        33.900
> 2025  3 13  8 51 52.0000000  0 10       -.000263311000
G22  21013996.734 7 110429290.373 7        47.500    21014013.215 6  86048468.994 6        37.500
G20  21632668.531 7 113680462.726 7        44.800    21632687.875 5  88582711.599 5        33.500
G19  20750204.250 7 109043066.710 7        46.000    20750217.527 6  84968457.511 6        37.500
G17  21930213.063 7 115244040.523 7        44.300    21930231.113 6  89800316.880 6        41.000    21930231.262 7  89800595.875 7        44.300
G14  22019746.648 7 115714533.743 7        42.100    22019767.770 4  90167026.081 4        28.900    22019767.477 7  90166970.084 7        44.900    22019775.348 7  86410001.217 7        47.600
G12  24052996.539 6 126399356.715 6        36.900    24053015.074 4  98493097.412 4        26.900    24053015.242 6  98493154.424 6        36.300
G11  21835208.969 7 114744819.112 7        45.800    21835226.762 5  89411769.648 5        35.000    21835226.703 7  89411835.640 7        47.700    21835232.570 8  85686219.811 8        50.000
G09  23804389.586 5 125092950.910 5        34.400    23804420.488 4  97475150.680 4        28.600    23804420.258 6  97475066.666 6        38.800    23804425.633 7  93413585.704 7        42.000
G06  21234803.703 7 111589656.984 7        46.700    21234820.859 7  86953117.117 7        47.800    21234820.855 7  86953065.114 7        47.900    21234823.512 8  83330020.135 8        51.600
G05  25061567.875 5 131699433.369 5        33.900    25061594.434 3 102623062.703 3        22.200    25061594.461 5 102622978.720 5        34.100
> 2025  3 13  8 51 53.0000000  0 10       -.000263311000
G22  21014341.969 7 110431102.662 7        47.500    21014358.203 6  86049881.167 6        38.100
G20  21632182.203 7 113677908.848 7        45.300    21632201.930 5  88580721.575 5        33.100
G19  20750092.086 7 109042477.628 7        46.200    20750105.430 6  84967998.492 6        37.900
G17  21930301.445 7 115244506.191 7        43.700    21930319.855 6  89800679.737 6        41.400    21930320.223 7  89800958.728 7        44.300
G14  22020359.086 7 115717754.562 7        42.100    22020380.621 4  90169535.803 4        28.900    22020380.406 7  90169479.815 7        44.700    22020388.230 7  86412406.369 7        47.700
G12  24052374.695 6 126396087.553 6        37.300    24052393.066 4  98490550.013 4        27.800    24052392.883 5  98490607.014 5        35.700
G11  21835104.555 7 114744271.722 7        45.700    21835122.734 5  89411343.117 5        35.100    21835122.219 7  89411409.109 7        47.500    21835128.445 8  85685811.053 8        50.000
G09  23804164.828 5 125091771.643 5        34.400    23804196.156 4  97474231.772 4        29.100    23804195.906 6  97474147.777 6        39.000    23804201.191 7  93412705.092 7        42.600
G06  21234977.680 7 111590572.550 7        46.800    21234995.102 7  86953830.550 7        47.600    21234995.406 8  86953778.547 8        48.000    21234997.699 8  83330703.842 8        51.600
G05  25060862.383 5 131695725.982 5        34.000    25060888.930 3 102620173.828 3        22.900    25060888.875 5 102620089.856 5        34.300
> 2025  3 13  8 51 54.0000000  0 10       -.000263311000
G22  21014686.820 7 110432915.427 7        47.400    21014703.238 6  86051293.710 6        37.800
G20  21631696.383 7 113675355.365 7        45.300    21631715.949 5  88578731.852 5        32.900
G19  20749980.195 7 109041888.736 7        46.100    20749993.254 6  84967539.613 6        37.800
G17  21930389.977 7 115244972.043 7        43.900    21930408.539 6  89801042.738 6        41.400    21930408.625 7  89801321.734 7        44.900
G14  22020972.094 7 115720975.667 7        42.000    22020993.594 4  90172045.759 4        28.100    22020993.082 7  90171989.768 7        44.500    22021001.246 7  86414811.736 7        47.500
G12  24051752.273 6 126392818.657 6        37.600    24051770.887 4  98488002.828 4        26.700    24051770.902 6  98488059.823 6        36.300
G11  21835000.500 7 114743724.578 7        45.500    21835018.465 5  89410916.776 5        35.400    21835018.250 7  89410982.772 7        47.900    21835024.328 8  85685402.482 8        50.200
G09  23803939.234 5 125090592.656 5        33.900    23803971.828 4  97473313.083 4        27.200    23803971.586 6  97473229.090 6        38.900    23803976.809 7  93411824.681 7        42.700
G06  21235152.172 7 111591488.271 7        46.700    21235169.363 7  86954544.102 7        47.600    21235169.617 8  86954492.098 8        48.100    21235171.914 8  83331387.662 8        51.900
G05  25060157.188 5 131692018.646 5        33.700    25060183.418 3 102617285.012 3        23.000    25060183.426 5 102617201.032 5        34.600
> 2025  3 13  8 51 55.0000000  0 10       -.000263311000
G22  21015031.945 7 110434728.681 7        47.400    21015048.230 6  86052706.636 6        38.000
G20  21631210.609 7 113672802.292 7        45.100    21631230.199 5  88576742.458 5        32.700
G19  20749868.078 7 109041300.026 7        46.100    20749881.039 6  84967080.877 6        37.800
G17  21930478.906 7 115245438.081 7        43.900    21930497.305 6  89801405.885 6        41.500    21930497.355 7  89801684.880 7        44.900
G14  22021584.984 7 115724197.075 7        42.300    22021606.492 4  90174555.951 4        29.100    22021606.496 7  90174499.951 7        44.500    22021614.270 7  86417217.326 7        47.700
G12  24051130.711 6 126389549.998 6        37.200    24051148.863 4  98485455.824 4        26.700    24051149.051 6  98485512.827 6        36.400
G11  21834896.484 7 114743177.686 7        45.600    21834914.340 6  89410490.635 6        36.100    21834914.520 8  89410556.625 8        48.000    21834920.184 8  85684994.094 8        50.200
G09  23803714.852 5 125089413.936 5        34.200    23803747.543 4  97472394.611 4        26.800    23803747.609 6  97472310.617 6        38.700    23803752.598 7  93410944.489 7        42.700
G06  21235326.039 7 111592404.142 7        46.500    21235343.551 7  86955257.770 7        47.500    21235343.922 7  86955205.767 7        47.800    21235346.207 8  83332071.595 8        51.900
G05  25059451.414 5 131688311.331 5        34.300    25059477.996 3 102614396.209 3        22.200    25059478.309 5 102614312.228 5        34.600
> 2025  3 13  8 51 56.0000000  0 10       -.000263313000
G22  21015376.570 7 110436542.450 7        47.100    21015393.297 6  86054119.960 6        37.900
G20  21630724.906 7 113670249.648 7        45.500    21630744.430 5  88574753.394 5        33.500
G19  20749755.836 7 109040711.534 7        46.000    20749769.105 6  84966622.319 6        38.100
G17  21930567.383 7 115245904.340 7        44.000    21930585.844 6  89801769.200 6        41.100    21930585.867 7  89802048.197 7        44.900
G14  22022198.422 6 115727418.790 6        41.800    22022219.660 5  90177066.373 5        30.400    22022219.883 7  90177010.371 7        45.000    22022227.406 7  86419623.152 7        47.500
G12  24050508.164 6 126386281.606 6        36.700    24050526.828 4  98482909.028 4        25.600    24050527.324 6  98482966.039 6        36.400
G11  21834792.586 7 114742631.060 7        45.500    21834810.387 5  89410064.698 5        35.200    21834810.539 7  89410130.695 7        47.900    21834816.203 8  85684585.911 8        50.400
G09  23803491.086 5 125088235.546 5        33.900    23803523.320 4  97471476.399 4        28.700    23803523.387 6  97471392.388 6        38.400    23803528.324 7  93410064.520 7        42.500
G06  21235500.375 7 111593320.183 7        46.600    21235517.949 7  86955971.572 7        47.500    21235518.238 7  86955919.569 7        47.800    21235520.492 8  83332755.656 8        51.700
G05  25058746.031 5 131684604.080 5        34.300    25058772.500 3 102611507.457 3        22.500    25058772.930 5 102611423.464 5        34.200
> 2025  3 13  8 51 57.0000000  0 10       -.000263311000
G22  21015721.836 7 110438356.712 7        47.100    21015738.516 6  86055533.669 6        37.800
G20  21630239.211 7 113667697.413 7        45.800    21630258.637 5  88572764.644 5        33.200
G19  20749643.820 7 109040123.243 7        46.000    20749657.320 6  84966163.915 6        38.200
G17  21930656.750 7 115246370.790 7        44.000    21930674.746 6  89802132.665 6        41.700    21930674.457 7  89802411.662 7        45.100
G14  22022810.648 6 115730640.802 6        41.800    22022832.898 4  90179577.028 4        29.000    22022833.215 7  90179521.030 7        45.200    22022840.551 7  86422029.194 7        47.600
G12  24049886.453 6 126383013.474 6        36.900    24049904.727 4  98480362.448 4        26.400    24049905.309 6  98480419.456 6        36.100
G11  21834688.586 7 114742084.688 7        45.700    21834706.359 5  89409638.961 5        35.400    21834706.422 8  89409704.959 8        48.100    21834712.227 8  85684177.915 8        50.200
G09  23803267.406 5 125087057.417 5        34.800    23803298.883 4  97470558.375 4        28.700    23803298.988 6  97470474.379 6        38.800    23803304.250 7  93409184.764 7        42.400
G06  21235674.641 7 111594236.379 7        46.600    21235692.258 7  86956685.493 7        47.500    21235692.480 7  86956633.489 7        47.600    21235694.813 8  83333439.830 8        51.600
G05  25058040.656 5 131680896.877 5        33.800    25058067.070 3 102608618.748 3        22.800    25058067.082 5 102608534.720 5        34.100
> 2025  3 13  8 51 58.0000000  0 10       -.000263313000
G22  21016067.195 7 110440171.472 7        47.100    21016083.934 6  86056947.765 6        37.700
G20  21629753.992 7 113665145.589 7        45.900    21629773.145 5  88570776.217 5        33.500
G19  20749532.180 7 109039535.150 7        46.100    20749545.363 6  84965705.659 6        38.200
G17  21930745.305 7 115246837.445 7        43.900    21930763.582 6  89802496.289 6        41.500    21930763.098 7  89802775.290 7        45.400
G14  22023423.883 6 115733863.117 6        41.700    22023446.090 4  90182087.920 4        29.200    22023446.168 7  90182031.913 7        45.000    22023453.664 7  86424435.466 7        47.900
G12  24049265.180 6 126379745.601 6        36.700    24049282.801 4  98477816.064 4        27.400    24049283.660 5  98477873.073 5        35.800
G11  21834584.383 7 114741538.576 7        45.900    21834602.531 5  89409213.433 5        34.900    21834602.566 7  89409279.422 7        47.800    21834608.328 8  85683770.111 8        50.100
G09  23803043.172 5 125085879.575 5        34.300    23803074.758 4  97469640.590 4        27.700    23803074.797 6  97469556.589 6        38.400    23803079.957 7  93408305.215 7        42.600
G06  21235848.961 7 111595152.724 7        46.700    21235866.648 7  86957399.530 7        47.300    21235866.793 7  86957347.527 7        47.900    21235869.250 8  83334124.117 8        51.600
G05  25057334.422 5 131677189.699 5        33.700    25057361.641 3 102605730.027 3        22.500    25057361.652 5 102605646.041 5        33.900
> 2025  3 13  8 51 59.0000000  0 10       -.000263313000
G22  21016412.656 7 110441986.752 7        47.100    21016429.387 6  86058362.263 6        37.800
G20  21629267.859 7 113662594.199 7        45.600    21629287.609 5  88568788.127 5        32.800
G19  20749420.391 7 109038947.270 7        46.100    20749433.492 6  84965247.572 6        38.400
G17  21930834.141 7 115247304.313 7        44.100    21930852.359 6  89802860.083 6        41.300    21930852.195 7  89803139.084 7        45.000
G14  22024037.141 7 115737085.752 7        42.000    22024059.336 5  90184599.055 5        30.200    22024059.445 7  90184543.056 7        44.600    22024067.020 7  86426841.972 7        47.900
G12  24048642.711 6 126376478.016 6        36.800    24048660.965 4  98475269.904 4        26.000    24048661.918 5  98475326.906 5        35.900
G11  21834480.469 7 114740992.741 7        46.000    21834498.648 5  89408788.108 5        35.300    21834498.676 8  89408854.103 8        48.200    21834504.441 8  85683362.514 8        50.200
G09  23802819.656 5 125084702.036 5        34.700    23802850.602 4  97468723.041 4        28.200    23802850.570 6  97468639.031 6        38.200    23802855.969 7  93407425.899 7        42.200
G06  21236023.656 7 111596069.251 7        46.700    21236041.094 7  86958113.712 7        47.500    21236041.316 7  86958061.704 7        47.900    21236043.652 8  83334808.542 8        51.500
G05  25056628.984 5 131673482.616 5        33.500    25056656.102 3 102602841.392 3        22.000    25056656.211 5 102602757.420 5        33.600
> 2025  3 13  8 52  0.0000000  0 10       -.000263313000
G22  21016758.531 7 110443802.479 7        47.300    21016774.926 6  86059777.111 6        37.700
G20  21628782.438 7 113660043.173 7        45.300    21628802.160 5  88566800.330 5        33.100
G19  20749308.477 7 109038359.552 7        46.300    20749321.680 6  84964789.614 6        38.100
G17  21930923.094 7 115247771.333 7        44.200    21930941.234 6  89803223.996 6        41.400    21930940.902 7  89803502.992 7        44.700
G14  22024650.641 6 115740308.640 6        41.700    22024672.711 4  90187110.393 4        29.200    22024672.313 7  90187054.399 7        44.500    22024680.238 7  86429248.672 7        47.900
G12  24048021.094 6 126373210.636 6        36.700    24048039.219 4  98472723.896 4        26.000    24048039.680 5  98472780.900 5        35.700
G11  21834376.555 7 114740447.109 7        46.000    21834394.836 5  89408362.950 5        35.200    21834394.793 7  89408428.947 7        47.900    21834400.570 8  85682955.076 8        50.300
G09  23802594.922 5 125083524.756 5        34.100    23802626.430 4  97467805.683 4        27.600    23802626.879 6  97467721.675 6        38.100    23802631.871 7  93406546.766 7        42.400
G06  21236197.984 7 111596985.888 7        46.700    21236215.488 7  86958827.975 7        47.500    21236215.750 8  86958775.972 8        48.100    21236218.082 8  83335493.047 8        51.900
G05  25055923.813 5 131669775.523 5        33.100    25055950.664 3 102599952.771 3        21.800    25055950.141 5 102599868.780 5        33.500
> 2025  3 13  8 52  1.0000000  0 10       -.000263313000
G22  21017104.047 7 110445618.704 7        47.300    21017120.586 6  86061192.354 6        37.500
G20  21628296.891 7 113657492.560 7        44.800    21628316.770 5  88564812.846 5        33.300
G19  20749196.547 7 109037772.026 7        46.300    20749209.715 6  84964331.806 6        37.800
G17  21931011.609 7 115248238.549 7        44.300    21931030.148 6  89803588.060 6        41.100    21931029.559 7  89803867.061 7        44.400
G14  22025264.070 7 115743531.829 7        42.200    22025286.215 4  90189621.969 4        29.700    22025285.621 7  90189565.966 7        44.600    22025293.617 8  86431655.592 8        48.100
G12  24047399.344 6 126369943.523 6        37.200    24047417.465 4  98470178.098 4        25.200    24047418.012 6  98470235.111 6        36.100
G11  21834272.938 7 114739901.745 7        46.400    21834291.027 5  89407937.998 5        35.400    21834290.887 7  89408003.991 7        47.700    21834296.789 8  85682547.829 8        50.300
G09  23802371.531 5 125082347.733 5        33.700    23802402.488 4  97466888.536 4        28.000    23802402.688 6  97466804.551 6        38.400    23802407.934 7  93405667.843 7        42.600
G06  21236372.422 7 111597902.679 7        46.600    21236389.871 7  86959542.362 7        47.500    21236390.164 8  86959490.359 8        48.200    21236392.496 8  83336177.669 8        51.800
G05  25055218.211 5 131666068.480 5        33.200    25055245.191 3 102597064.173 3        22.000    25055244.531 5 102596980.189 5        33.800
> 2025  3 13  8 52  2.0000000  0 10       -.000263315000
G22  21017449.984 7 110447435.412 7        47.300    21017466.223 6  86062607.967 6        37.600
G20  21627811.617 7 113654942.358 7        45.000    21627831.387 5  88562825.690 5        32.800
G19  20749084.789 7 109037184.695 7        46.300    20749097.898 6  84963874.145 6        37.700
G17  21931100.477 7 115248705.956 7        44.300    21931119.066 6  89803952.273 6        41.300    21931118.789 7  89804231.274 7        44.500
G14  22025877.563 7 115746755.312 7        42.400    22025899.680 4  90192133.763 4        29.300    22025898.867 7  90192077.773 7        44.600    22025907.066 7  86434062.737 7        47.700
G12  24046777.188 6 126366676.658 6        37.400    24046795.828 4  98467632.499 4        26.500    24046796.406 6  98467689.507 6        36.300
G11  21834169.344 7 114739356.626 7        46.100    21834187.293 5  89407513.239 5        35.600    21834186.898 7  89407579.232 7        47.900    21834193.035 8  85682140.767 8        50.000
G09  23802147.648 5 125081171.019 5        34.100    23802178.613 4  97465971.623 4        27.600    23802178.824 6  97465887.631 6        38.200    23802184.133 7  93404789.139 7        42.400
G06  21236547.094 7 111598819.628 7        46.600    21236564.406 7  86960256.872 7        47.500    21236564.633 8  86960204.863 8        48.300    21236567.031 8  83336862.406 8        51.900
G05  25054512.680 5 131662361.480 5        34.000    25054539.773 3 102594175.600 3        21.700    25054538.969 5 102594091.628 5        33.400
> 2025  3 13  8 52  3.0000000  0 10       -.000263315000
G22  21017795.563 7 110449252.635 7        47.300    21017811.906 6  86064023.980 6        37.600
G20  21627326.938 7 113652392.593 7        44.900    21627346.121 5  88560838.866 5        33.100
G19  20748973.328 7 109036597.586 7        46.400    20748986.281 6  84963416.661 6        37.700
G17  21931189.344 7 115249173.587 7        43.900    21931208.043 6  89804316.658 6        41.400    21931207.813 7  89804595.662 7        44.500
G14  22026491.094 6 115749979.115 6        41.700    22026513.016 4  90194645.826 4        29.300    22026512.512 7  90194589.825 7        44.500    22026520.465 7  86436470.120 7        47.800
G12  24046155.805 6 126363410.080 6        37.100    24046174.277 4  98465087.123 4        26.800    24046174.613 6  98465144.130 6        36.000
G11  21834065.609 7 114738811.784 7        45.900    21834083.688 5  89407088.689 5        35.700    21834083.422 7  89407154.687 7        47.600    21834089.398 8  85681733.916 8        50.000
G09  23801923.250 5 125079994.620 5        33.600    23801954.871 4  97465054.952 4        28.300    23801955.281 6  97464970.961 6        37.900    23801960.313 7  93403910.666 7        42.300
G06  21236721.602 7 111599736.753 7        46.600    21236738.922 7  86960971.516 7        47.300    21236739.191 8  86960919.510 8        48.400    21236741.523 8  83337547.276 8        51.800
G05  25053807.688 5 131658654.542 5        33.900    25053834.273 3 102591287.092 3        22.000    25053833.707 5 102591203.104 5        33.000
> 2025  3 13  8 52  4.0000000  0 10       -.000263315000
G22  21018141.602 7 110451070.346 7        47.400    21018157.820 6  86065440.378 6        37.700
G20  21626841.398 7 113649843.227 7        45.000    21626861.012 5  88558852.353 5        33.300
G19  20748861.828 7 109036010.665 7        46.100    20748874.625 6  84962959.320 6        38.400
G17  21931278.508 7 115249641.406 7        43.900    21931297.102 6  89804681.190 6        40.700    21931296.977 7  89804960.194 7        44.600
G14  22027104.281 6 115753203.211 6        41.500    22027126.617 4  90197158.103 4        28.500    22027126.090 7  90197102.107 7        44.400    22027134.012 8  86438877.716 8        48.000
G12  24045534.734 6 126360143.767 6        37.500    24045552.668 4  98462541.942 4        27.300    24045552.816 5  98462598.949 5        35.800
G11  21833962.141 7 114738267.190 7        45.900    21833980.016 5  89406664.343 5        35.900    21833979.750 7  89406730.336 7        47.800    21833985.738 8  85681327.247 8        50.000
G09  23801699.469 5 125078818.498 5        33.500    23801731.051 4  97464138.506 4        27.500    23801731.348 6  97464054.513 6        37.900    23801736.520 7  93403032.406 7        42.500
G06  21236896.047 7 111600654.015 7        46.700    21236913.465 7  86961686.271 7        47.500    21236913.594 7  86961634.264 7        47.800    21236916.051 8  83338232.248 8        51.700
G05  25053102.047 5 131654947.644 5        34.000    25053128.762 3 102588398.595 3        21.800    25053127.684 5 102588314.616 5        32.700
> 2025  3 13  8 52  5.0000000  0 10       -.000263315000
G22  21018487.523 7 110452888.535 7        47.100    21018503.762 6  86066857.146 6        37.900
G20  21626356.234 7 113647294.263 7        45.100    21626375.938 5  88556866.160 5        33.600
G19  20748750.008 7 109035423.928 7        46.500    20748762.824 6  84962502.124 6        37.900
G17  21931367.648 7 115250109.416 7        43.800    21931386.203 6  89805045.873 6        41.000    21931385.910 7  89805324.872 7        44.800
G14  22027718.070 6 115756427.597 6        41.700    22027740.129 5  90199670.611 5        30.200    22027739.961 7  90199614.608 7        44.600    22027747.648 8  86441285.530 8        48.000
G12  24044912.500 6 126356877.682 6        37.300    24044931.082 4  98459996.954 4        26.400    24044931.160 5  98460053.946 5        35.400
G11  21833858.977 7 114737722.839 7        46.200    21833876.332 5  89406240.178 5        35.700    21833876.215 7  89406306.174 7        47.900    21833882.195 8  85680920.760 8        49.700
G09  23801474.797 5 125077642.671 5        33.900    23801507.406 4  97463222.281 4        26.900    23801507.195 6  97463138.282 6        37.800    23801512.754 7  93402154.353 7        42.800
G06  21237070.734 7 111601571.431 7        46.700    21237088.016 7  86962401.143 7        47.500    21237088.086 8  86962349.136 8        48.100    21237090.641 8  83338917.334 8        51.800
G05  25052397.461 5 131651240.753 5        34.100    25052423.258 3 102585510.128 3        21.800    25052421.703 5 102585426.126 5        32.800
> 2025  3 13  8 52  6.0000000  0 10       -.000263317000
G22  21018833.461 7 110454707.221 7        47.000    21018849.973 6  86068274.301 6        37.800
G20  21625871.547 7 113644745.718 7        44.600    21625891.027 5  88554880.290 5        33.700
G19  20748638.258 7 109034837.395 7        46.500    20748651.223 6  84962045.089 6        37.600
G17  21931456.727 7 115250577.625 7        43.900    21931475.270 6  89805410.709 6        40.800    21931475.188 7  89805689.709 7        44.600
G14  22028331.891 7 115759652.275 7        42.300    22028353.801 4  90202183.335 4        29.400    22028353.789 7  90202127.339 7        44.700    22028361.273 7  86443693.571 7        47.800
G12  24044291.586 6 126353611.861 6        37.300    24044309.590 4  98457452.156 4        27.600    24044310.305 6  98457509.162 6        36.000
G11  21833754.969 7 114737178.747 7        45.700    21833772.754 6  89405816.217 6        36.300    21833772.598 7  89405882.215 7        47.900    21833778.625 8  85680514.466 8        49.600
G09  23801251.102 5 125076467.097 5        33.600    23801283.719 4  97462306.251 4        27.400    23801283.352 6  97462222.268 6        38.100    23801288.973 7  93401276.513 7        42.400
G06  21237245.789 7 111602488.999 7        46.700    21237262.590 7  86963116.134 7        47.800    21237262.723 8  86963064.131 8        48.300    21237265.258 8  83339602.535 8        52.000
G05  25051692.586 5 131647533.919 5        34.300    25051717.715 3 102582621.680 3        22.000    25051716.723 5 102582537.665 5        32.400
> 2025  3 13  8 52  7.0000000  0 10       -.000263317000
G22  21019179.852 7 110456526.407 7        47.000    21019196.285 6  86069691.848 6        37.600
G20  21625386.391 7 113642197.596 7        44.500    21625406.000 5  88552894.748 5        33.800
G19  20748526.367 7 109034251.061 7        46.400    20748539.934 6  84961588.208 6        37.600
G17  21931545.820 7 115251046.043 7        44.000    21931564.535 6  89805775.708 6        40.900    21931564.359 7  89806054.708 7        44.500
G14  22028945.164 7 115762877.268 7        42.000    22028967.543 4  90204696.316 4        29.500    22028967.602 7  90204640.316 7        45.100    22028974.973 7  86446101.841 7        47.600
G12  24043670.266 6 126350346.323 6        37.400    24043688.281 4  98454907.586 4        25.800    24043688.848 6  98454964.596 6        36.300
G11  21833651.742 7 114736634.925 7        45.700    21833669.398 5  89405392.468 5        35.900    21833669.242 8  89405458.461 8        48.000    21833675.105 8  85680108.372 8        49.800
G09  23801027.602 5 125075291.855 5        34.200    23801060.035 4  97461390.486 4        26.500    23801059.926 6  97461306.489 6        37.900    23801065.430 7  93400398.893 7        42.400
G06  21237420.422 7 111603406.738 7        46.800    21237437.254 7  86963831.260 7        47.700    21237437.484 8  86963779.255 8        48.600    21237439.871 8  83340287.867 8        52.000
G05  25050986.555 5 131643827.140 5        34.500    25051012.117 3 102579733.266 3        21.500    25051011.004 5 102579649.273 5        33.000
> 2025  3 13  8 52  8.0000000  0 10       -.000263317000
G22  21019525.820 7 110458346.126 7        47.100    21019542.457 6  86071109.807 6        37.100
G20  21624902.070 7 113639649.925 7        44.700    21624921.234 5  88550909.561 5        33.300
G19  20748414.945 7 109033664.969 7        46.100    20748428.145 6  84961131.512 6        37.400
G17  21931635.914 7 115251514.694 7        44.100    21931653.645 6  89806140.890 6        41.400    21931653.766 7  89806419.891 7        44.900
G14  22029559.211 7 115766102.591 7        42.400    22029581.277 4  90207209.558 4        29.000    22029580.707 7  90207153.555 7        45.300    22029588.676 7  86448510.361 7        47.800
G12  24043048.813 6 126347081.070 6        37.200    24043066.953 4  98452363.244 4        26.500    24043067.578 6  98452420.257 6        36.100
G11  21833547.711 7 114736091.388 7        45.900    21833565.961 5  89404968.937 5        35.800    21833566.008 8  89405034.936 8        48.100    21833571.656 8  85679702.497 8        49.600
G09  23800805.031 5 125074116.916 5        34.800    23800836.512 4  97460474.954 4        28.500    23800836.121 6  97460390.963 6        38.100    23800841.805 7  93399521.521 7        42.300
G06  21237595.039 7 111604324.671 7        46.800    21237611.961 8  86964546.535 8        48.000    21237612.293 8  86964494.530 8        48.400    21237614.563 8  83340973.336 8        52.100
G05  25050281.320 5 131640120.443 5        33.600    25050306.594 3 102576844.934 3        21.700    25050306.059 5 102576760.945 5        33.500
> 2025  3 13  8 52  9.0000000  0 10       -.000263317000
G22  21019872.133 7 110460166.323 7        46.900    21019888.965 6  86072528.142 6        37.000
G20  21624416.836 7 113637102.648 7        44.700    21624436.512 5  88548924.677 5        33.800
G19  20748303.758 7 109033079.059 7        46.300    20748316.641 6  84960674.961 6        37.800
G17  21931724.250 7 115251983.521 7        44.300    21931742.852 6  89806506.207 6        41.100    21931742.621 7  89806785.207 7        45.000
G14  22030172.875 7 115769328.205 7        42.400    22030195.008 4  90209723.019 4        29.300    22030194.594 7  90209667.014 7        45.300    22030202.500 7  86450919.091 7        47.600
G12  24042427.375 6 126343816.057 6        37.500    24042445.672 4  98449819.091 4        26.500    24042446.406 6  98449876.089 6        36.200
G11  21833444.734 7 114735548.095 7        46.300    21833462.563 5  89404545.603 5        35.900    21833462.402 8  89404611.598 8        48.000    21833468.289 8  85679296.798 8        49.800
G09  23800581.305 5 125072942.257 5        34.200    23800612.977 4  97459559.648 4        28.600    23800612.422 6  97459475.654 6        38.100    23800618.402 7  93398644.346 7        42.300
G06  21237769.375 7 111605242.740 7        46.800    21237786.559 7  86965261.916 7        47.700    21237787.035 8  86965209.912 8        48.400    21237789.270 8  83341658.913 8        51.900
G05  25049575.078 5 131636413.777 5        34.800    25049601.320 3 102573956.623 3        22.000    25049601.184 5 102573872.645 5        34.300
> 2025  3 13  8 52 10.0000000  0 10       -.000263315000
G22  21020218.391 7 110461987.011 7        47.100    21020235.352 6  86073946.856 6        37.300
G20  21623932.141 7 113634555.774 7        45.100    21623951.895 5  88546940.109 5        32.700
G19  20748192.305 7 109032493.343 7        46.100    20748205.246 6  84960218.562 6        38.100
G17  21931813.914 7 115252452.544 7        43.900    21931832.055 6  89806871.677 6        41.600    21931832.059 7  89807150.677 7        45.000
G14  22030786.461 7 115772554.106 7        42.400    22030808.863 4  90212236.699 4        29.100    22030808.301 7  90212180.702 7        45.000    22030816.484 7  86453328.039 7        47.900
G12  24041806.477 6 126340551.306 6        37.200    24041824.344 4  98447275.134 4        27.000    24041824.965 6  98447332.137 6        36.400
G11  21833341.086 7 114735005.048 7        46.400    21833359.141 5  89404122.462 5        35.700    21833359.137 8  89404188.453 8        48.200    21833364.980 8  85678891.285 8        49.500
G09  23800358.570 5 125071767.875 5        33.900    23800389.430 4  97458644.557 4        28.600    23800388.645 6  97458560.554 6        38.100    23800394.969 7  93397767.385 7        42.600
G06  21237944.391 7 111606160.955 7        46.800    21237961.383 7  86965977.413 7        47.700    21237961.652 8  86965925.411 8        48.100    21237963.996 8  83342344.598 8        52.100
G05  25048868.969 5 131632707.150 5        34.400    25048896.227 3 102571068.372 3        21.500    25048896.133 5 102570984.376 5        33.800
> 2025  3 13  8 52 11.0000000  0 10       -.000263317000
G22  21020565.164 7 110463808.150 7        47.000    21020581.828 6  86075365.919 6        37.600
G20  21623447.625 7 113632009.274 7        44.600    21623467.305 5  88544955.832 5        32.600
G19  20748080.641 7 109031907.795 7        46.000    20748093.797 6  84959762.294 6        37.500
G17  21931902.891 7 115252921.729 7        44.500    21931921.375 6  89807237.276 6        41.600    21931921.125 7  89807516.276 7        45.000
G14  22031400.523 7 115775780.277 7        42.500    22031422.668 4  90214750.591 4        29.300    22031422.387 7  90214694.592 7        45.100    22031430.336 8  86455737.184 8        48.000
G12  24041184.742 6 126337286.778 6        36.900    24041203.316 4  98444731.343 4        25.800    24041203.367 6  98444788.352 6        36.100
G11  21833237.797 7 114734462.219 7        46.700    21833255.813 5  89403699.480 5        34.800    21833255.629 8  89403765.481 8        48.300    21833261.672 8  85678485.937 8        49.800
G09  23800135.305 5 125070593.738 5        33.900    23800165.867 4  97457729.658 4        28.300    23800164.914 6  97457645.661 6        37.900    23800171.469 7  93396890.612 7        42.700
G06  21238118.734 7 111607079.297 7        46.600    21238136.184 7  86966693.005 7        47.200    21238136.543 8  86966641.001 8        48.100    21238138.754 8  83343030.374 8        51.900
G05  25048163.961 5 131629000.552 5        34.300    25048190.969 3 102568180.126 3        22.000    25048191.160 5 102568096.128 5        34.300
> 2025  3 13  8 52 12.0000000  0 11       -.000263317000
G22  21020911.820 7 110465629.777 7        46.900    21020928.484 6  86076785.365 6        37.700
G20  21622963.281 7 113629463.170 7        44.900    21622982.723 5  88542971.872 5        32.700
G19  20747969.469 7 109031322.434 7        46.200    20747982.488 6  84959306.170 6        37.900
G17  21931991.711 7 115253391.102 7        44.900    21932010.684 6  89807603.017 6        41.500    21932010.723 7  89807882.014 7        44.700
G14  22032015.383 7 115779006.722 7        42.400    22032036.629 4  90217264.701 4        29.000    22032036.492 7  90217208.706 7        45.200    22032044.281 8  86458146.543 8        48.100
G12  24040563.672 6 126334022.499 6        37.400    24040582.219 4  98442187.754 4        25.600    24040582.125 6  98442244.761 6        36.200
G11  21833134.469 7 114733919.640 7        46.500    21833152.613 5  89403276.700 5        35.400    21833152.539 8  89403342.697 8        48.700    21833158.375 8  85678080.772 8        49.700
G09  23799911.711 5 125069419.888 5        34.400    23799942.484 4  97456814.979 4        28.100    23799941.289 6  97456730.984 6        37.800    23799947.977 7  93396014.050 7        42.700
G06  21238293.414 7 111607997.774 7        46.700    21238310.863 7  86967408.705 7        47.500    21238311.465 8  86967356.701 8        48.400    21238313.508 8  83343716.254 8        51.600
G05  25047459.383 5 131625293.974 5        34.500    25047485.781 3 102565291.898 3        22.800    25047485.188 5 102565207.891 5        34.000
G04  25124382.852 5                        31.600                                                    25124407.633 6 102880291.36816        37.000    25124415.320 6  98593595.78816        38.400
> 2025  3 13  8 52 13.0000000  0 11       -.000263317000
G22  21021259.063 7 110467451.943 7        47.000    21021275.191 6  86078205.233 6        37.900
G20  21622478.820 7 113626917.525 7        45.400    21622498.258 5  88540988.252 5        33.000
G19  20747857.672 7 109030737.320 7        45.900    20747871.090 6  84958850.240 6        37.600
G17  21932081.414 7 115253860.722 7        44.400    21932100.082 6  89807968.952 6        41.300    21932100.008 7  89808247.955 7        44.800
G14  22032628.805 7 115782233.524 7        42.000    22032650.813 4  90219779.091 4        28.900    22032650.563 7  90219723.091 7        45.100    22032658.250 8  86460556.163 8        48.100
G12  24039941.875 6 126330758.521 6        36.900    24039961.125 4  98439644.410 4        26.900    24039961.059 6  98439701.408 6        36.300
G11  21833031.672 7 114733377.366 7        46.700    21833049.418 5  89402854.157 5        35.400    21833049.359 8  89402920.153 8        48.300    21833055.223 8  85677675.837 8        49.700
G09  23799686.352 5 125068246.371 5        33.800    23799719.102 4  97455900.561 4        27.800    23799717.938 6  97455816.573 6        37.700    23799724.695 7  93395137.737 7        42.800
G06  21238468.617 7 111608916.465 7        46.700    21238485.793 7  86968124.572 7        47.300    21238486.117 8  86968072.565 8        48.000    21238488.293 8  83344402.291 8        51.600
G05  25046754.547 5 131621587.518 5        34.600    25046780.516 3 102562403.748 3        22.200    25046779.809 5 102562319.751 5        34.500
G04  25124338.188 5 132029315.781 5        31.500                                                    25124364.051 6 102880110.378 6        36.800    25124371.602 6  98593422.329 6        38.300
> 2025  3 13  8 52 14.0000000  0 11       -.000263317000
G22  21021605.461 7 110469274.630 7        47.000    21021622.070 6  86079625.511 6        37.500
G20  21621993.992 7 113624372.318 7        45.200    21622013.852 5  88539004.984 5        33.300
G19  20747746.633 7 109030152.439 7        46.300    20747759.750 6  84958394.494 6        37.800
G17  21932170.625 7 115254330.566 7        44.100    21932189.457 6  89808335.064 6        41.100    21932189.293 7  89808614.063 7        44.900
G14  22033243.148 6 115785460.650 6        41.500    22033264.934 4  90222293.736 4        29.700    22033264.762 7  90222237.731 7        45.200    22033272.395 7  86462966.026 7        47.800
G12  24039321.016 6 126327494.834 6        36.800    24039339.977 4  98437101.291 4        26.200    24039340.645 6  98437158.281 6        36.000
G11  21832928.617 7 114732835.374 7        46.500    21832946.273 5  89402431.835 5        35.500    21832946.070 8  89402497.831 8        48.300    21832952.094 8  85677271.110 8        49.800
G09  23799464.484 5 125067073.184 5        34.100    23799495.738 4  97454986.398 4        28.000    23799495.266 6  97454902.399 6        37.600    23799501.434 7  93394261.662 7        42.600
G06  21238643.594 7 111609835.334 7        46.600    21238660.582 7  86968840.577 7        47.800    21238660.977 8  86968788.573 8        48.100    21238663.188 8  83345088.467 8        51.600
G05  25046048.586 5 131617881.122 5        34.900    25046075.238 3 102559515.652 3        22.900    25046074.746 5 102559431.662 5        33.700
G04  25124294.156 5 132029083.885 5        30.800                                                    25124320.102 6 102879929.703 6        36.700    25124327.480 6  98593249.172 6        38.600
> 2025  3 13  8 52 15.0000000  0 11       -.000263319000
G22  21021952.102 7 110471097.783 7        46.800    21021969.027 6  86081046.147 6        37.500
G20  21621509.781 7 113621827.493 7        45.300    21621529.570 5  88537022.019 5        33.000
G19  20747635.242 7 109029567.723 7        46.200    20747648.449 6  84957938.872 6        37.800
G17  21932259.961 7 115254800.574 7        44.600    21932278.949 6  89808701.302 6        40.600    21932278.676 7  89808980.301 7        44.900
G14  22033856.977 6 115788688.041 6        41.500    22033879.008 4  90224808.580 4        29.600    22033878.828 7  90224752.579 7        45.200    22033886.598 7  86465376.087 7        47.600
G12  24038700.898 6 126324231.376 6        36.900    24038718.934 4  98434558.334 4        25.600    24038719.574 6  98434615.349 6        36.300
G11  21832825.516 7 114732293.605 7        46.300    21832843.156 5  89402009.683 5        35.800    21832842.938 8  89402075.678 8        48.500    21832848.996 8  85676866.551 8        49.600
G09  23799240.180 5 125065900.246 5        33.700    23799272.590 4  97454072.428 4        27.700    23799271.969 6  97453988.431 6        37.800    23799278.188 7  93393385.778 7        42.700
G06  21238818.281 7 111610754.330 7        46.600    21238835.457 7  86969556.683 7        47.500    21238835.566 8  86969504.679 8        48.100    21238838.043 8  83345774.734 8        51.800
G05  25045342.953 5 131614174.745 5        33.900    25045369.855 3 102556627.586 3        22.500    25045369.367 5 102556543.590 5        33.500
G04  25124249.203 5                        30.800                                                    25124275.551 6 102879749.281 6        36.600    25124283.551 6  98593076.284 6        38.400
> 2025  3 13  8 52 16.0000000  0 11       -.000263319000
G22  21022299.398 7 110472921.406 7        46.700    21022316.082 6  86082467.151 6        37.700
G20  21621025.336 7 113619283.059 7        45.000    21621045.395 5  88535039.348 5        32.900
G19  20747524.234 7 109028983.185 7        46.300    20747537.230 6  84957483.392 6        38.600
G17  21932349.859 7 115255270.759 7        44.700    21932368.262 6  89809067.678 6        41.300    21932368.391 7  89809346.677 7        44.900
G14  22034471.430 7 115791915.712 7        42.000    22034493.078 4  90227323.643 4        29.200    22034492.848 7  90227267.639 7        45.100    22034500.801 7  86467786.354 7        47.600
G12  24038079.039 6 126320968.169 6        37.000    24038097.930 4  98432015.583 4        26.500    24038098.324 6  98432072.598 6        36.400
G11  21832722.219 7 114731752.062 7        46.300    21832740.055 5  89401587.706 5        35.000    21832740.188 8  89401653.707 8        48.500    21832745.891 8  85676462.163 8        49.800
G09  23799017.453 5 125064727.577 5        33.800    23799049.285 4  97453158.665 4        28.500    23799049.191 6  97453074.663 6        38.100    23799055.027 7  93392510.091 7        42.600
G06  21238993.047 7 111611673.454 7        46.700    21239010.387 7  86970272.887 7        47.600    21239010.594 8  86970220.880 8        48.000    21239012.941 8  83346461.096 8        51.600
G05  25044637.250 5 131610468.377 5        33.900    25044664.547 3 102553739.500 3        22.500    25044663.766 5 102553655.514 5        33.900
G04  25124206.047 5 132028621.186 5        31.200                                                    25124232.246 6 102879569.171 6        36.800    25124239.746 6  98592903.686 6        38.500
> 2025  3 13  8 52 17.0000000  0 11       -.000263319000
G22  21022646.516 7 110474745.560 7        46.800    21022663.309 6  86083888.561 6        37.800
G20  21620542.203 7 113616739.074 7        45.000    21620561.305 5  88533057.033 5        33.800
G19  20747413.039 7 109028398.880 7        46.100    20747425.984 6  84957028.089 6        38.300
G17  21932439.461 7 115255741.169 7        45.100    21932457.816 6  89809434.235 6        41.300    21932457.875 7  89809713.233 7        44.900
G14  22035085.031 6 115795143.711 6        41.700    22035107.336 4  90229838.962 4        29.200    22035107.145 7  90229782.956 7        44.800    22035115.000 7  86470196.867 7        47.800
G12  24037458.797 6 126317705.249 6        37.500    24037477.027 4  98429473.053 4        27.500    24037477.047 6  98429530.077 6        36.400
G11  21832619.383 7 114731210.811 7        46.700    21832637.066 5  89401165.965 5        35.100    21832637.004 8  89401231.959 8        48.100    21832642.898 8  85676057.992 8        49.800
G09  23798795.023 5 125063555.226 5        34.300    23798825.996 4  97452245.142 4        27.700    23798825.719 6  97452161.157 6        37.600    23798831.953 7  93391634.642 7        42.700
G06  21239167.930 7 111612592.769 7        46.700    21239185.270 7  86970989.239 7        47.500    21239185.473 8  86970937.233 8        48.100    21239187.898 8  83347147.601 8        51.700
G05  25043932.703 5 131606762.116 5        33.900    25043959.188 3 102550851.526 3        22.200    25043958.547 5 102550767.521 5        33.800
G04  25124160.883 5 132028390.453 5        30.800                                                    25124188.148 6 102879389.392 6        36.500    25124195.789 6  98592731.400 6        38.600
> 2025  3 13  8 52 18.0000000  0 11       -.000263319000
G22  21022993.680 7 110476570.201 7        47.200    21023010.578 6  86085310.356 6        37.900
G20  21620058.281 7 113614195.505 7        45.100    21620077.379 5  88531075.038 5        33.600
G19  20747302.055 7 109027814.770 7        46.100    20747314.766 6  84956572.939 6        38.300
G17  21932529.219 7 115256211.778 7        45.300    21932547.543 6  89809800.942 6        41.200    21932547.465 7  89810079.940 7        44.800
G14  22035699.930 6 115798371.999 6        41.800    22035721.758 4  90232354.509 4        29.600    22035721.238 7  90232298.505 7        44.600    22035729.387 7  86472607.599 7        47.900
G12  24036838.211 6 126314442.607 6        36.900    24036856.195 4  98426930.741 4        26.900    24036856.129 6  98426987.736 6        36.400
G11  21832516.250 7 114730669.815 7        47.000    21832534.199 5  89400744.416 5        35.400    21832533.902 8  89400810.408 8        48.000    21832539.992 8  85675654.007 8        49.900
G09  23798571.359 5 125062383.153 5        34.300    23798602.863 4  97451331.856 4        27.500    23798602.965 6  97451247.857 6        37.900    23798608.836 7  93390759.408 7        42.900
G06  21239342.945 7 111613512.234 7        46.700    21239360.176 7  86971705.708 7        47.500    21239360.453 7  86971653.701 7        47.900    21239362.824 8  83347834.217 8        51.800
G05  25043227.164 5 131603055.871 5        34.100    25043253.754 3 102547963.546 3        22.600    25043253.625 5 102547879.547 5        33.700
G04  25124117.281 5 132028160.095 5        30.100                                                    25124144.262 6 102879209.912 6        36.300    25124151.883 6  98592559.398 6        38.600
> 2025  3 13  8 52 19.0000000  0 11       -.000263321000
G22  21023341.297 7 110478395.293 7        46.800    21023357.754 6  86086732.509 6        38.100
G20  21619574.219 7 113611652.311 7        45.200    21619593.426 5  88529093.334 5        33.500
G19  20747190.844 7 109027230.807 7        46.000    20747203.746 6  84956117.906 6        38.300
G17  21932619.063 7 115256682.546 7        45.000    21932637.082 6  89810167.770 6        41.400    21932636.820 7  89810446.771 7        44.800
G14  22036314.227 6 115801600.554 6        41.600    22036336.137 4  90234870.269 4        28.900    22036335.773 7  90234814.256 7        44.900    22036343.797 8  86475018.526 8        48.000
G12  24036217.039 6 126311180.171 6        36.900    24036235.422 4  98424388.588 4        26.200    24036235.336 6  98424445.604 6        36.600
G11  21832413.516 7 114730129.031 7        47.300    21832431.328 5  89400323.035 5        35.400    21832431.063 7  89400389.027 7        47.900    21832437.117 8  85675250.186 8        50.000
G09  23798348.609 5 125061211.351 5        34.100    23798379.945 4  97450418.781 4        28.200    23798379.797 6  97450334.770 6        37.800    23798385.895 7  93389884.363 7        42.800
G06  21239518.047 7 111614431.811 7        46.500    21239535.223 7  86972422.264 7        47.500    21239535.410 7  86972370.258 7        47.800    21239537.824 8  83348520.919 8        51.800
G05  25042522.063 5 131599349.638 5        34.200    25042548.492 3 102545075.563 3        22.600    25042548.742 5 102544991.585 5        34.100
G04  25124073.328 5 132027930.112 5        30.500                                                    25124100.758 6 102879030.707 6        36.300    25124108.277 6  98592387.665 6        38.500
> 2025  3 13  8 52 20.0000000  0 11       -.000263321000
G22  21023688.609 7 110480220.862 7        46.800    21023705.117 6  86088155.028 6        38.100
G20  21619089.961 7 113609109.513 7        45.300    21619109.516 5  88527111.942 5        33.300
G19  20747079.656 7 109026647.035 7        46.200    20747092.781 6  84955663.018 6        38.200
G17  21932709.070 7 115257153.496 7        44.700    21932726.703 7  89810534.744 7        42.000    21932726.816 7  89810813.744 7        44.600
G14  22036928.820 6 115804829.377 6        41.600    22036950.555 4  90237386.226 4        29.200    22036950.184 7  90237330.222 7        44.700    22036958.188 8  86477429.658 8        48.100
G12  24035595.734 6 126307917.972 6        36.900    24035614.648 4  98421846.627 4        26.200    24035614.500 6  98421903.633 6        36.600
G11  21832310.859 7 114729588.486 7        46.900    21832328.316 5  89399901.838 5        35.200    21832328.203 7  89399967.829 7        47.500    21832334.164 8  85674846.539 8        50.000
G09  23798125.813 5 125060039.818 5        34.100    23798157.066 4  97449505.908 4        28.600    23798156.473 6  97449421.889 6        37.900    23798163.090 7  93389009.529 7        42.800
G06  21239693.070 7 111615351.529 7        46.700    21239710.234 7  86973138.930 7        47.600    21239710.449 7  86973086.926 7        47.600    21239712.871 8  83349207.726 8        51.700
G05  25041816.922 5 131595643.451 5        34.100    25041843.246 3 102542187.623 3        22.800    25041843.328 5 102542103.628 5        33.800
G04  25124029.688 5 132027700.473 5        30.700                                                    25124057.281 6 102878851.791 6        37.000    25124064.582 6  98592216.200 6        38.400
> 2025  3 13  8 52 21.0000000  0 11       -.000263321000
G22  21024035.711 7 110482046.984 7        47.000    21024052.570 6  86089577.976 6        37.700
G20  21618606.109 7 113606567.181 7        45.300    21618625.695 5  88525130.916 5        33.700
G19  20746968.727 7 109026063.521 7        46.000    20746981.602 6  84955208.334 6        38.100
G17  21932798.828 7 115257624.697 7        44.300    21932816.363 7  89810901.914 7        42.000    21932816.414 7  89811180.914 7        44.400
G14  22037543.313 6 115808058.555 6        41.600    22037565.086 4  90239902.464 4        29.400    22037564.906 7  90239846.466 7        44.900    22037572.645 7  86479841.056 7        47.600
G12  24034975.078 6 126304656.094 6        36.800    24034993.938 4  98419304.907 4        26.300    24034993.688 6  98419361.918 6        36.100
G11  21832208.227 7 114729048.245 7        46.700    21832225.477 5  89399480.878 5        35.700    21832225.605 7  89399546.873 7        47.400    21832231.398 8  85674443.124 8        50.200
G09  23797901.664 5 125058868.615 5        34.100    23797934.191 4  97448593.276 4        27.700    23797933.711 6  97448509.279 6        38.100    23797940.203 7  93388134.943 7        42.400
G06  21239868.141 7 111616271.452 7        46.600    21239885.266 7  86973855.758 7        47.800    21239885.617 7  86973803.750 7        47.800    21239887.938 8  83349894.684 8        51.700
G05  25041112.438 5 131591937.344 5        33.800    25041138.039 3 102539299.767 3        22.900    25041137.813 5 102539215.762 5        33.700
G04  25123985.508 5 132027471.296 5        30.300                                                    25124013.672 6 102878673.220 6        37.200    25124020.918 6  98592045.070 6        38.400
> 2025  3 13  8 52 22.0000000  0 11       -.000263321000
G22  21024383.797 7 110483873.652 7        46.900    21024400.293 6  86091001.349 6        37.900
G20  21618122.547 7 113604025.326 7        45.400    21618142.055 5  88523150.261 5        33.000
G19  20746857.758 7 109025480.264 7        46.100    20746870.664 6  84954753.852 6        37.600
G17  21932888.422 7 115258096.162 7        44.300    21932905.914 6  89811269.289 6        41.800    21932905.863 7  89811548.288 7        44.000
G14  22038157.742 7 115811288.089 7        42.000    22038179.578 4  90242418.977 4        29.000    22038179.176 7  90242362.984 7        44.500    22038187.156 7  86482252.717 7        47.600
G12  24034353.969 6 126301394.535 6        36.800    24034373.445 4  98416763.430 4        26.600    24034373.355 5  98416820.445 5        35.800
G11  21832105.172 7 114728508.323 7        47.200    21832122.852 5  89399060.167 5        35.300    21832122.750 7  89399126.160 7        47.800    21832128.641 8  85674039.944 8        50.500
G09  23797679.711 5 125057697.766 5        34.600    23797711.453 4  97447680.938 4        29.100    23797711.063 6  97447596.937 6        38.200    23797717.398 7  93387260.620 7        42.600
G06  21240043.070 7 111617191.590 7        46.700    21240060.309 7  86974572.753 7        47.500    21240060.789 7  86974520.747 7        47.500    21240063.023 8  83350581.805 8        51.600
G05  25040405.859 5 131588231.340 5        33.600    25040432.832 3 102536411.960 3        22.500    25040432.582 5 102536327.992 5        33.800
G04  25123942.109 4                        29.900                                                    25123970.242 6 102878495.006 6        37.300    25123977.547 6  98591874.286 6        38.900
> 2025  3 13  8 52 23.0000000  0 11       -.000263321000
G22  21024731.328 7 110485700.801 7        46.700    21024747.988 6  86092425.102 6        37.600
G20  21617639.094 7 113601483.883 7        45.600    21617658.504 5  88521169.924 5        33.100
G19  20746746.758 7 109024897.191 7        46.000    20746759.820 6  84954299.507 6        37.600
G17  21932977.961 7 115258567.812 7        44.300    21932995.688 6  89811636.807 6        41.400    21932995.473 7  89811915.807 7        44.300
G14  22038772.516 7 115814517.912 7        42.000    22038794.113 4  90244935.722 4        28.900    22038794.125 7  90244879.724 7        44.600    22038801.848 7  86484664.592 7        47.800
G12  24033733.359 6 126298133.230 6        37.300    24033752.848 4  98414222.173 4        25.600    24033752.938 6  98414279.182 6        36.200
G11  21832002.805 7 114727968.641 7        47.400    21832020.176 5  89398639.642 5        35.500    21832019.949 7  89398705.637 7        47.800    21832025.914 8  85673636.944 8        50.500
G09  23797457.188 5 125056527.196 5        34.000    23797488.555 4  97446768.803 4        27.700    23797488.238 6  97446684.810 6        38.100    23797494.477 7  93386386.500 7        42.600
G06  21240217.961 7 111618111.862 7        46.400    21240235.484 7  86975289.850 7        47.200    21240235.785 7  86975237.847 7        47.900    21240238.133 8  83351269.027 8        52.000
G05  25039699.633 5 131584525.377 5        33.700    25039727.680 3 102533524.221 3        22.600    25039727.328 5 102533440.231 5        33.500
G04  25123898.453 5 132027014.207 5        30.800                                                    25123926.523 6 102878317.078 6        37.100    25123934.152 6  98591703.773 6        39.100
> 2025  3 13  8 52 24.0000000  0 11       -.000263321000
G22  21025079.531 7 110487528.357 7        46.700    21025095.789 6  86093849.170 6        37.700
G20  21617155.500 7 113598942.760 7        45.500    21617174.949 5  88519189.836 5        33.600
G19  20746635.898 7 109024314.232 7        46.200    20746648.746 6  84953845.257 6        37.600
G17  21933067.375 7 115259039.575 7        44.700    21933085.480 6  89812004.412 6        41.300    21933085.621 7  89812283.413 7        44.200
G14  22039386.961 6 115817747.947 6        41.600    22039408.789 4  90247452.633 4        29.600    22039408.441 7  90247396.625 7        44.600    22039416.531 7  86487076.626 7        47.600
G12  24033113.125 6 126294872.098 6        36.200    24033132.320 4  98411681.032 4        27.600    24033132.387 6  98411738.039 6        36.200
G11  21831899.430 7 114727429.131 7        46.800    21831917.453 5  89398219.254 5        34.500    21831917.223 7  89398285.246 7        47.900    21831923.234 8  85673234.069 8        50.200
G09  23797234.781 5 125055356.838 5        34.300    23797265.770 4  97445856.849 4        28.600    23797265.703 6  97445772.842 6        38.200    23797271.688 7  93385512.530 7        42.300
G06  21240393.281 7 111619032.211 7        46.500    21240410.652 7  86976007.009 7        47.400    21240410.988 7  86975955.003 7        47.900    21240413.281 8  83351956.299 8        52.200
G05  25038995.891 5 131580819.377 5        33.700    25039022.492 3 102530636.439 3        22.200    25039022.313 5 102530552.454 5        33.700
G04  25123856.023 4 132026786.147 4        29.600                                                    25123882.949 6 102878139.390 6        36.900    25123890.527 6  98591533.494 6        38.900
> 2025  3 13  8 52 25.0000000  0 11       -.000263321000
G22  21025427.188 7 110489356.379 7        47.100    21025443.707 6  86095273.600 6        37.900
G20  21616671.453 7 113596402.031 7        45.500    21616691.383 5  88517210.060 5        33.000
G19  20746524.508 7 109023731.449 7        46.300    20746537.867 6  84953391.146 6        37.800
G17  21933157.398 7 115259511.512 7        44.500    21933175.293 6  89812372.151 6        41.100    21933175.332 7  89812651.152 7        44.300
G14  22040001.930 6 115820978.249 6        41.700    22040023.367 4  90249969.740 4        28.500    22040023.191 7  90249913.741 7        45.100    22040031.242 7  86489488.864 7        47.600
G12  24032492.406 6 126291611.183 6        36.700    24032511.766 4  98409140.070 4        25.600    24032511.785 6  98409197.079 6        36.300
G11  21831797.117 7 114726889.844 7        46.900    21831814.910 5  89397799.040 5        35.500    21831814.578 7  89397865.033 7        47.800    21831820.617 8  85672831.367 8        50.000
G09  23797012.367 5 125054186.734 5        34.900    23797043.172 4  97444945.084 4        27.900    23797043.129 6  97444861.083 6        38.300    23797048.934 7  93384638.764 7        42.600
G06  21240568.477 7 111619952.691 7        46.500    21240585.777 7  86976724.267 7        47.500    21240585.902 7  86976672.263 7        47.800    21240588.434 8  83352643.676 8        51.800
G05  25038290.953 5 131577113.407 5        34.000    25038317.473 3 102527748.689 3        22.300    25038316.820 5 102527664.697 5        34.100
G04  25123812.336 5 132026558.472 5        30.100                                                    25123839.887 6 102877961.992 6        36.600    25123847.164 6  98591363.490 6        39.100
> 2025  3 13  8 52 26.0000000  0 11       -.000263323000
G22  21025774.656 7 110491184.978 7        47.000    21025791.645 6  86096698.481 6        37.400
G20  21616188.438 7 113593861.795 7        45.000    21616208.055 5  88515230.667 5        33.100
G19  20746413.633 7 109023148.945 7        46.300    20746427.000 6  84952937.248 6        37.600
G17  21933246.672 7 115259983.722 7        44.900    21933265.125 6  89812740.105 6        41.200    21933265.441 7  89813019.107 7        44.600
G14  22040616.172 6 115824208.930 6        41.300    22040638.160 4  90252487.157 4        29.300    22040637.945 7  90252431.153 7        44.900    22040646.035 7  86491901.377 7        47.700
G12  24031870.805 6 126288350.621 6        36.800    24031891.246 4  98406599.390 4        26.700    24031890.789 6  98406656.386 6        36.100
G11  21831694.305 7 114726350.899 7        46.700    21831712.324 5  89397379.088 5        35.200    21831711.977 7  89397445.083 7        47.600    21831718.105 8  85672428.914 8        50.100
G09  23796789.859 5 125053016.986 5        34.300    23796820.746 4  97444033.601 4        27.800    23796820.676 6  97443949.606 6        38.600    23796826.340 7  93383765.275 7        42.200
G06  21240743.727 7 111620873.400 7        46.500    21240760.980 7  86977441.707 7        47.500    21240761.195 7  86977389.705 7        47.900    21240763.609 8  83353331.225 8        51.900
G05  25037586.156 5 131573407.583 5        34.200    25037612.254 4 102524861.044 4        24.400    25037611.539 5 102524777.024 5        34.100
G04  25123769.742 4 132026331.325 4        29.900                                                    25123796.418 6 102877784.956 6        37.200    25123804.051 6  98591193.839 6        39.200
> 2025  3 13  8 52 27.0000000  0 11       -.000263321000
G22  21026122.898 7 110493014.103 7        47.000    21026139.676 6  86098123.770 6        37.800
G20  21615705.023 7 113591322.003 7        45.200    21615724.754 5  88513251.617 5        33.200
G19  20746302.688 7 109022566.675 7        45.800    20746316.207 6  84952483.532 6        38.000
G17  21933336.320 7 115260456.166 7        45.200    21933355.090 6  89813108.240 6        41.300    21933355.164 7  89813387.243 7        44.500
G14  22041231.102 6 115827439.934 6        41.900    22041252.973 4  90255004.818 4        28.500    22041252.723 7  90254948.820 7        44.700    22041260.883 7  86494314.141 7        47.800
G12  24031251.844 6 126285090.355 6        37.200    24031270.793 4  98404058.923 4        26.200    24031270.566 6  98404115.930 6        36.000
G11  21831591.984 7 114725812.234 7        47.100    21831609.941 5  89396959.357 5        34.800    21831609.707 7  89397025.354 7        47.900    21831615.582 8  85672026.676 8        50.000
G09  23796567.766 5 125051847.581 5        34.800    23796598.246 4  97443122.383 4        28.700    23796597.887 6  97443038.392 6        38.300    23796603.809 6  93382892.020 6        41.800
G06  21240918.922 7 111621794.304 7        46.700    21240936.152 7  86978159.300 7        47.500    21240936.281 8  86978107.293 8        48.200    21240938.871 8  83354018.912 8        52.000
G05  25036881.438 5 131569701.824 5        34.100    25036907.039 3 102521973.433 3        22.600    25036906.422 5 102521889.434 5        34.600
G04  25123726.234 4                        29.600                                                    25123753.469 6 102877608.241 6        37.300    25123760.844 6  98591024.499 6        39.200
> 2025  3 13  8 52 28.0000000  0 11       -.000263321000
G22  21026471.156 7 110494843.712 7        46.800    21026487.887 6  86099549.438 6        38.100
G20  21615221.516 7 113588782.611 7        45.500    21615241.496 5  88511272.874 5        33.400
G19  20746192.211 7 109021984.591 7        45.900    20746205.512 6  84952029.965 6        38.100
G17  21933426.219 7 115260928.795 7        45.700    21933445.086 6  89813476.524 6        41.600    21933445.258 7  89813755.528 7        44.700
G14  22041846.438 6 115830671.228 6        41.700    22041867.852 4  90257522.702 4        28.900    22041867.828 7  90257466.708 7        44.700    22041875.813 7  86496727.110 7        47.500
G12  24030631.453 6 126281830.342 6        36.900    24030650.395 4  98401518.655 4        26.600    24030650.039 5  98401575.656 5        35.600
G11  21831489.930 7 114725273.809 7        47.200    21831507.441 5  89396539.813 5        34.900    21831507.234 7  89396605.809 7        47.700    21831513.098 8  85671624.618 8        49.800
G09  23796344.523 5 125050678.444 5        34.500    23796375.801 4  97442211.381 4        27.000    23796375.418 6  97442127.391 6        38.100    23796381.375 7  93382018.974 7        42.000
G06  21241094.203 7 111622715.340 7        46.600    21241111.469 7  86978876.991 7        47.700    21241111.793 8  86978824.991 8        48.100    21241114.133 8  83354706.706 8        51.700
G05  25036175.031 5 131565996.117 5        34.000    25036201.898 3 102519085.869 3        22.600    25036201.816 5 102519001.873 5        34.600
G04  25123681.680 5                        30.700                                                    25123710.039 6 102877431.872 6        36.400    25123717.742 6  98590855.433 6        39.500
> 2025  3 13  8 52 29.0000000  0 11       -.000263323000
G22  21026819.789 7 110496673.764 7        46.900    21026836.125 6  86100975.447 6        38.100
G20  21614738.430 7 113586243.594 7        45.600    21614758.238 5  88509294.429 5        33.000
G19  20746081.539 7 109021402.662 7        45.900    20746094.664 6  84951576.514 6        38.200
G17  21933515.852 7 115261401.582 7        45.500    21933535.086 6  89813844.928 6        40.900    21933535.016 7  89814123.926 7        44.100
G14  22042460.656 6 115833902.767 6        41.300    22042482.746 4  90260040.786 4        27.900    22042483.016 7  90259984.792 7        44.700    22042490.766 7  86499140.273 7        47.500
G12  24030010.586 6 126278570.537 6        36.600    24030030.172 4  98398978.563 4        25.600    24030029.938 6  98399035.549 6        36.200
G11  21831387.430 7 114724735.595 7        47.200    21831405.039 5  89396120.431 5        35.500    21831404.895 7  89396186.430 7        47.500    21831410.664 8  85671222.714 8        50.000
G09  23796121.609 5 125049509.548 5        34.500    23796153.422 4  97441300.572 4        27.500    23796152.813 6  97441216.574 6        37.900    23796158.844 7  93381146.110 7        42.300
G06  21241269.820 7 111623636.493 7        46.800    21241286.734 7  86979594.778 7        47.700    21241287.004 8  86979542.772 8        48.400    21241289.453 8  83355394.581 8        51.900
G05  25035470.195 5 131562290.398 5        33.800    25035496.699 3 102516198.313 3        22.300    25035496.547 5 102516114.315 5        34.500
G04  25123639.641 5                        30.500                                                    25123666.965 6 102877255.690 6        36.700    25123674.664 6  98590686.637 6        39.500
> 2025  3 13  8 52 30.0000000  0 11       -.000263323000
G22  21027168.219 7 110498504.287 7        47.000    21027184.543 6  86102401.825 6        37.900
G20  21614255.117 7 113583704.960 7        45.100    21614275.094 5  88507316.280 5        33.100
G19  20745970.492 7 109020820.909 7        45.800    20745983.969 6  84951123.201 6        37.600
G17  21933606.164 7 115261874.542 7        45.600    21933624.992 6  89814213.465 6        41.400    21933624.863 7  89814492.465 7        44.300
G14  22043076.375 6 115837134.584 6        41.700    22043097.625 4  90262559.080 4        29.100    22043097.906 7  90262503.080 7        44.700    22043105.840 7  86501553.635 7        47.900
G12  24029390.148 6 126275310.976 6        37.100    24029409.891 4  98396438.642 4        25.800    24029409.930 6  98396495.646 6        36.200
G11  21831285.109 7 114724197.616 7        46.700    21831302.598 5  89395701.234 5        35.400    21831302.461 7  89395767.235 7        47.900    21831308.316 8  85670820.985 8        49.900
G09  23795900.258 5 125048340.930 5        34.400    23795931.137 4  97440389.966 4        28.700    23795930.398 6  97440305.970 6        37.900    23795936.379 7  93380273.449 7        42.400
G06  21241445.086 7 111624557.769 7        46.600    21241462.070 7  86980312.658 7        47.600    21241462.520 8  86980260.652 8        48.000    21241464.703 8  83356082.552 8        51.600
G05  25034763.563 5 131558584.693 5        33.400    25034791.543 3 102513310.758 3        22.900    25034791.473 5 102513226.771 5        34.700
G04  25123597.609 5 132025426.287 5        31.000                                                    25123624.359 6 102877079.838 6        36.900    25123631.820 6  98590518.117 6        40.100
> 2025  3 13  8 52 31.0000000  0 11       -.000263323000
G22  21027516.930 7 110500335.357 7        47.000    21027533.023 6  86103828.634 6        38.100
G20  21613772.508 7 113581166.797 7        45.100    21613792.090 5  88505338.498 5        33.400
G19  20745860.148 7 109020239.400 7        45.800    20745873.387 6  84950670.082 6        37.500
G17  21933696.539 7 115262347.749 7        45.500    21933715.090 6  89814582.198 6        41.600    21933714.887 7  89814861.200 7        44.500
G14  22043690.977 7 115840366.743 7        42.000    22043712.891 4  90265077.646 4        29.200    22043713.254 7  90265021.644 7        44.500    22043720.871 8  86503967.259 8        48.000
G12  24028770.430 6 126272051.727 6        37.300    24028789.672 4  98393898.987 4        26.400    24028789.832 6  98393955.976 6        36.100
G11  21831182.281 7 114723659.943 7        46.500    21831200.227 5  89395282.281 5        35.400    21831200.063 8  89395348.274 8        48.100    21831205.965 8  85670419.483 8        50.000
G09  23795678.680 5 125047172.643 5        34.300    23795708.637 4  97439479.616 4        28.800    23795707.484 6  97439395.624 6        37.900    23795714.043 7  93379401.044 7        42.300
G06  21241620.391 7 111625479.248 7        46.700    21241637.531 7  86981030.698 7        47.500    21241637.621 7  86980978.692 7        47.900    21241640.051 8  83356770.675 8        51.800
G05  25034059.266 5 131554879.095 5        33.100    25034086.430 3 102510423.289 3        22.300    25034086.387 5 102510339.307 5        34.500
G04  25123554.625 5 132025201.041 5        30.800                                                    25123581.480 6 102876904.334 6        36.900    25123588.973 6  98590349.926 6        40.200
> 2025  3 13  8 52 32.0000000  0 11       -.000263323000
G22  21027865.336 7 110502166.916 7        46.900    21027881.508 6  86105255.822 6        38.300
G20  21613289.375 7 113578629.053 7        45.500    21613309.191 5  88503361.049 5        32.900
G19  20745749.570 7 109019658.104 7        45.900    20745762.707 6  84950217.118 6        37.800
G17  21933786.922 7 115262821.160 7        45.500    21933805.102 6  89814951.089 6        41.300    21933804.820 7  89815230.090 7        44.400
G14  22044306.000 7 115843599.211 7        42.000    22044328.215 4  90267596.441 4        29.000    22044328.121 7  90267540.448 7        44.600    22044336.035 7  86506381.110 7        47.700
G12  24028151.242 6 126268792.744 6        37.200    24028169.430 4  98391359.530 4        26.700    24028169.492 6  98391416.516 6        36.000
G11  21831080.070 7 114723122.523 7        47.000    21831097.887 5  89394863.518 5        35.200    21831097.613 7  89394929.514 7        47.800    21831103.715 8  85670018.174 8        49.800
G09  23795456.031 5 125046004.645 5        34.600    23795486.531 4  97438569.504 4        28.100    23795485.266 6  97438485.519 6        38.200    23795491.605 7  93378528.856 7        42.400
G06  21241795.672 7 111626400.880 7        46.800    21241812.789 7  86981748.856 7        47.500    21241813.148 8  86981696.852 8        48.200    21241815.457 8  83357458.911 8        51.700
G05  25033354.000 5 131551173.540 5        33.600    25033381.340 3 102507535.839 3        22.300    25033381.379 5 102507451.873 5        34.500
G04  25123512.023 5 132024976.190 5        31.200                                                    25123538.773 6 102876729.134 6        37.100    25123546.254 6  98590182.024 6        40.400
> 2025  3 13  8 52 33.0000000  0 11       -.000263323000
G22  21028213.781 7 110503998.992 7        47.200    21028230.148 6  86106683.409 6        37.800
G20  21612806.656 7 113576091.756 7        45.400    21612826.363 5  88501383.944 5        33.300
G19  20745639.297 7 109019077.022 7        46.100    20745652.168 6  84949764.333 6        37.500
G17  21933876.727 7 115263294.787 7        45.600    21933895.379 6  89815320.149 6        40.800    21933894.820 7  89815599.146 7        44.500
G14  22044921.070 7 115846831.996 7        42.000    22044943.410 4  90270115.487 4        28.900    22044943.199 7  90270059.495 7        44.600    22044951.277 8  86508795.197 8        48.100
G12  24027530.789 6 126265534.042 6        37.700    24027549.301 4  98388820.282 4        26.500    24027549.496 6  98388877.277 6        36.100
G11  21830977.766 7 114722585.379 7        46.200    21830995.707 5  89394444.976 5        35.400    21830995.523 8  89394510.968 8        48.000    21831001.492 8  85669617.070 8        49.900
G09  23795232.258 5 125044836.990 5        34.400    23795264.320 4  97437659.646 4        27.800    23795263.281 6  97437575.650 6        38.800    23795269.418 7  93377656.904 7        42.400
G06  21241970.883 7 111627322.696 7        46.600    21241988.246 7  86982467.159 7        47.500    21241988.582 8  86982415.154 8        48.100    21241990.832 8  83358147.285 8        51.500
G05  25032648.250 5 131547468.061 5        33.700    25032676.129 3 102504648.470 3        22.500    25032676.297 5 102504564.495 5        34.500
G04  25123469.523 5 132024751.709 5        32.000                                                    25123495.902 6 102876554.248 6        37.100    25123503.605 6  98590014.433 6        39.800
> 2025  3 13  8 52 34.0000000  0 11       -.000263325000
G22  21028562.063 7 110505831.594 7        46.700    21028578.953 6  86108111.409 6        37.600
G20  21612323.758 7 113573554.887 7        45.000    21612343.684 5  88499407.165 5        32.700
G19  20745528.844 7 109018496.168 7        46.000    20745541.578 6  84949311.719 6        37.800
G17  21933967.117 7 115263768.644 7        45.600    21933985.637 6  89815689.389 6        41.100    21933985.297 7  89815968.387 7        44.600
G14  22045536.500 6 115850065.100 6        41.300    22045558.707 4  90272634.795 4        29.400    22045558.707 7  90272578.793 7        44.800    22045566.434 7  86511209.524 7        47.800
G12  24026911.344 6 126262275.639 6        37.200    24026929.223 4  98386281.268 4        26.500    24026929.641 6  98386338.259 6        36.000
G11  21830875.938 7 114722048.523 7        46.000    21830893.473 5  89394026.654 5        35.600    21830893.539 8  89394092.644 8        48.100    21830899.336 8  85669216.177 8        50.100
G09  23795011.859 5 125043669.627 5        34.300    23795042.195 4  97436750.036 4        28.100    23795041.652 6  97436666.028 6        38.700    23795047.309 7  93376785.184 7        42.600
G06  21242146.555 7 111628244.691 7        46.400    21242163.559 7  86983185.600 7        47.700    21242163.941 8  86983133.592 8        48.000    21242166.273 8  83358835.791 8        51.700
G05  25031943.367 5 131543762.665 5        33.300    25031970.930 3 102501761.163 3        22.000    25031971.402 5 102501677.176 5        34.600
G04  25123426.422 5                        31.500                                                    25123453.109 6 102876379.688 6        37.000    25123460.980 6  98589847.156 6        40.300
> 2025  3 13  8 52 35.0000000  0 11       -.000263323000
G22  21028910.719 7 110507664.624 7        46.900    21028927.738 6  86109539.741 6        38.100
G20  21611841.242 7 113571018.380 7        44.800    21611860.910 5  88497430.683 5        32.700
G19  20745418.305 7 109017915.449 7        45.900    20745431.074 6  84948859.216 6        37.900
G17  21934058.008 7 115264242.635 7        45.400    21934075.602 6  89816058.730 6        41.300    21934075.324 7  89816337.731 7        44.600
G14  22046151.563 6 115853298.437 6        41.700    22046174.020 4  90275154.270 4        28.600    22046173.645 7  90275098.273 7        44.700    22046181.648 7  86513624.025 7        47.800
G12  24026290.484 6 126259017.427 6        37.300    24026309.086 4  98383742.399 4        27.200    24026309.656 5  98383799.407 5        35.800
G11  21830773.734 7 114721511.852 7        46.300    21830791.316 5  89393608.469 5        35.600    21830791.281 8  89393674.465 8        48.200    21830797.129 8  85668815.427 8        49.900
G09  23794788.695 5 125042502.511 5        34.600    23794820.066 4  97435840.594 4        27.400    23794819.844 6  97435756.584 6        38.600    23794825.125 7  93375913.642 7        42.700
G06  21242321.867 7 111629166.778 7        46.600    21242339.047 7  86983904.111 7        47.600    21242339.270 7  86983852.105 7        47.700    21242341.785 8  83359524.365 8        51.700
G05  25031238.734 5 131540057.276 5        34.100    25031265.930 3 102498873.863 3        22.000    25031266.410 5 102498789.863 5        34.800
G04  25123384.766 5                        31.500                                                    25123410.203 6 102876205.396 6        37.200    25123418.391 6  98589680.128 6        40.400
> 2025  3 13  8 52 36.0000000  0 11       -.000263325000
G22  21029259.742 7 110509498.109 7        47.100    21029276.559 6  86110968.431 6        38.400
G20  21611359.109 7 113568482.239 7        44.800    21611378.227 5  88495454.479 5        33.000
G19  20745307.539 7 109017334.888 7        46.000    20745320.668 6  84948406.834 6        38.100
G17  21934148.055 7 115264716.785 7        44.800    21934165.809 6  89816428.197 6        41.500    21934165.629 7  89816707.200 7        44.900
G14  22046767.383 6 115856532.018 6        41.900    22046789.383 4  90277673.939 4        27.900    22046789.043 7  90277617.947 7        44.700    22046797.047 8  86516038.711 8        48.100
G12  24025670.250 6 126255759.428 6        36.700    24025689.023 4  98381203.705 4        25.200    24025689.547 5  98381260.710 5        35.400
G11  21830671.586 7 114720975.392 7        46.400    21830689.297 5  89393190.455 5        35.300    21830689.379 8  89393256.451 8        48.100    21830695.082 8  85668414.832 8        50.000
G09  23794566.398 5 125041335.603 5        34.400    23794597.883 4  97434931.315 4        28.700    23794598.082 6  97434847.329 6        38.500    23794603.121 7  93375042.275 7        42.400
G06  21242497.320 7 111630088.972 7        46.400    21242514.613 7  86984622.706 7        47.400    21242514.852 7  86984570.700 7        47.700    21242517.195 8  83360213.022 8        51.600
G05  25030533.055 5 131536351.875 5        34.000    25030560.805 3 102495986.540 3        22.200    25030560.844 5 102495902.543 5        34.600
G04  25123341.984 5                        31.300                                                    25123367.754 6 102876031.354 6        36.800    25123375.934 6  98589513.340 6        40.500
> 2025  3 13  8 52 37.0000000  0 11       -.000263325000
G22  21029608.648 7 110511332.102 7        46.700    21029625.527 6  86112397.512 6        38.100
G20  21610876.188 7 113565946.548 7        44.700    21610895.703 5  88493478.625 5        32.500
G19  20745197.391 7 109016754.545 7        46.100    20745210.199 6  84947954.621 6        38.000
G17  21934238.328 7 115265191.159 7        44.400    21934256.086 6  89816797.840 6        41.500    21934255.965 7  89817076.839 7        44.300
G14  22047382.203 6 115859765.928 6        41.600    22047404.773 4  90280193.872 4        28.400    22047404.297 7  90280137.875 7        44.600    22047412.453 8  86518453.639 8        48.200
G12  24025050.617 6 126252501.716 6        36.700    24025069.078 4  98378665.244 4        26.400    24025069.551 5  98378722.246 5        35.900
G11  21830569.664 7 114720439.212 7        46.500    21830587.223 5  89392772.660 5        35.800    21830587.285 7  89392838.658 7        47.900    21830593.090 8  85668014.448 8        50.200
G09  23794345.297 5 125040169.053 5        34.600    23794375.965 4  97434022.326 4        28.800    23794376.012 6  97433938.329 6        38.400    23794381.133 7  93374171.148 7        42.400
G06  21242673.039 7 111631011.348 7        46.800    21242690.090 7  86985341.443 7        47.500    21242690.219 7  86985289.440 7        47.800    21242692.762 8  83360901.813 8        51.800
G05  25029829.195 5 131532646.557 5        34.400    25029855.676 3 102493099.271 3        22.500    25029855.605 5 102493015.289 5        35.400
G04  25123298.313 5 132023857.723 5        31.300                                                    25123325.500 6 102875857.676 6        36.500    25123333.496 6  98589346.892 6        40.600
> 2025  3 13  8 52 38.0000000  0 11       -.000263325000
G22  21029958.117 7 110513166.626 7        46.700    21029974.645 6  86113827.008 6        38.500
G20  21610393.508 7 113563411.300 7        45.700    21610413.199 5  88491503.116 5        33.000
G19  20745086.875 7 109016174.442 7        46.100    20745099.715 6  84947502.596 6        37.700
G17  21934329.172 7 115265665.760 7        44.500    21934346.449 6  89817167.658 6        41.700    21934346.160 7  89817446.660 7        44.600
G14  22047997.898 6 115863000.165 6        41.600    22048020.375 4  90282714.053 4        28.600    22048019.906 7  90282658.059 7        44.600    22048027.945 8  86520868.814 8        48.300
G12  24024431.234 6 126249244.303 6        37.100    24024449.207 4  98376127.001 4        26.900    24024449.625 6  98376184.004 6        36.200
G11  21830467.820 7 114719903.319 7        46.300    21830485.195 5  89392355.094 5        35.800    21830485.250 7  89392421.088 7        47.800    21830491.047 8  85667614.278 8        50.000
G09  23794123.484 5 125039002.812 5        34.800    23794154.129 4  97433113.576 4        29.000    23794153.945 6  97433029.583 6        38.300    23794159.105 7  93373300.264 7        42.100
G06  21242848.570 7 111631933.907 7        46.500    21242865.730 7  86986060.325 7        47.500    21242865.836 7  86986008.319 7        47.900    21242868.320 8  83361590.741 8        51.800
G05  25029123.945 5 131528941.312 5        34.600    25029150.570 3 102490212.102 3        22.800    25029150.379 5 102490128.108 5        35.000
G04  25123256.266 5 132023635.215 5        30.500                                                    25123282.828 6 102875684.305 6        36.300    25123291.250 6  98589180.750 6        40.300
> 2025  3 13  8 52 39.0000000  0 11       -.000263325000
G22  21030307.297 7 110515001.665 7        46.800    21030323.742 6  86115256.905 6        37.900
G20  21609911.250 7 113560876.495 7        45.300    21609930.852 5  88489527.950 5        32.400
G19  20744976.195 7 109015594.572 7        46.000    20744989.438 6  84947050.751 6        37.700
G17  21934419.117 7 115266140.596 7        44.900    21934436.809 6  89817537.661 6        41.700    21934436.613 7  89817816.658 7        44.200
G14  22048613.125 6 115866234.729 6        41.100    22048635.793 4  90285234.483 4        27.800    22048635.219 7  90285178.490 7        44.200    22048643.391 8  86523284.228 8        48.300
G12  24023811.148 6 126245987.183 6        37.200    24023829.387 4  98373588.985 4        27.700    24023829.707 6  98373645.996 6        36.300
G11  21830365.828 7 114719367.709 7        46.700    21830383.145 5  89391937.740 5        35.400    21830383.313 8  89392003.736 8        48.000    21830389.152 8  85667214.317 8        49.900
G09  23793900.734 5 125037836.880 5        34.200    23793932.266 4  97432205.066 4        27.100    23793932.063 6  97432121.080 6        37.800    23793937.324 6  93372429.622 6        41.800
G06  21243023.930 7 111632856.654 7        46.600    21243041.262 7  86986779.352 7        47.300    21243041.445 7  86986727.344 7        47.600    21243043.906 8  83362279.804 8        51.600
G05  25028418.938 5 131525236.146 5        34.000    25028445.527 3 102487324.955 3        21.700    25028445.293 5 102487240.944 5        34.700
G04  25123215.063 5 132023413.123 5        31.200                                                    25123240.488 6 102875511.260 6        36.800    25123249.184 6  98589014.919 6        40.500
> 2025  3 13  8 52 40.0000000  0 11       -.000263325000
G22  21030656.367 7 110516837.186 7        46.800    21030673.133 6  86116687.178 6        37.800
G20  21609428.906 7 113558342.092 7        45.200    21609448.559 5  88487553.105 5        33.200
G19  20744865.750 7 109015014.884 7        45.900    20744879.133 6  84946599.047 6        37.700
G17  21934509.523 7 115266615.609 7        45.200    21934527.184 6  89817907.801 6        41.900    21934526.898 7  89818186.798 7        44.000
G14  22049228.656 6 115869469.572 6        41.200    22049251.328 4  90287755.132 4        28.800    22049250.922 7  90287699.145 7        44.400    22049258.953 8  86525699.853 8        48.400
G12  24023191.195 6 126242730.309 6        37.000    24023209.707 4  98371051.165 4        27.000    24023210.074 6  98371108.187 6        36.200
G11  21830264.086 7 114718832.332 7        46.700    21830281.371 5  89391520.575 5        35.600    21830281.473 7  89391586.570 7        47.900    21830287.266 8  85666814.535 8        50.200
G09  23793679.016 5 125036671.239 5        34.300    23793710.453 4  97431296.781 4        27.300    23793710.184 6  97431212.789 6        37.900    23793715.539 7  93371559.180 7        42.100
G06  21243199.820 7 111633779.533 7        46.700    21243216.813 7  86987498.479 7        47.600    21243217.004 7  86987446.476 7        47.400    21243219.555 8  83362968.973 8        51.700
G05  25027713.211 5 131521530.998 5        34.300    25027740.473 3 102484437.815 3        22.200    25027740.758 5 102484353.833 5        34.100
G04  25123171.492 5 132023191.426 5        31.200                                                    25123198.273 6 102875338.508 6        36.600    25123207.000 6  98588849.374 6        40.300
> 2025  3 13  8 52 41.0000000  0 11       -.000263327000
G22  21031006.047 7 110518673.172 7        47.000    21031022.438 6  86118117.811 6        37.500
G20  21608947.086 7 113555808.083 7        45.400    21608966.352 5  88485578.557 5        32.900
G19  20744755.320 7 109014435.375 7        46.000    20744768.914 6  84946147.481 6        37.600
G17  21934600.203 7 115267090.804 7        45.100    21934617.621 7  89818278.079 7        42.000    21934617.508 7  89818557.077 7        43.900
G14  22049844.438 6 115872704.685 6        41.300    22049867.027 4  90290275.999 4        29.100    22049866.895 7  90290220.008 7        44.900    22049874.578 7  86528115.680 7        47.900
G12  24022571.453 6 126239473.680 6        36.900    24022589.949 4  98368513.544 4        26.200    24022590.109 6  98368570.553 6        36.100
G11  21830161.648 7 114718297.192 7        46.500    21830179.520 5  89391103.587 5        35.100    21830179.539 8  89391169.586 8        48.000    21830185.402 8  85666414.926 8        50.200
G09  23793457.945 5 125035505.858 5        34.700    23793488.668 4  97430388.700 4        28.600    23793488.297 6  97430304.708 6        37.700    23793493.672 7  93370688.941 7        42.200
G06  21243375.359 7 111634702.541 7        46.500    21243392.602 7  86988217.712 7        47.300    21243392.688 7  86988165.708 7        47.800    21243395.156 8  83363658.238 8        51.900
G05  25027008.672 5 131517825.891 5        34.200    25027035.379 3 102481550.730 3        22.300    25027035.445 5 102481466.736 5        34.400
G04  25123130.211 5 132022970.08415        30.800                                                    25123155.824 6 102875166.057 6        36.400    25123165.008 6  98588684.104 6        40.100
> 2025  3 13  8 52 42.0000000  0 11       -.000263327000
G22  21031355.859 7 110520509.653 7        47.000    21031371.801 6  86119548.834 6        37.600
G20  21608464.570 7 113553274.495 7        44.700    21608484.129 5  88483604.345 5        33.200
G19  20744645.086 7 109013856.064 7        45.900    20744658.672 6  84945696.071 6        37.100
G17  21934690.320 7 115267566.200 7        45.300    21934708.074 6  89818648.513 6        41.300    21934707.996 7  89818927.516 7        44.100
G14  22050460.188 6 115875940.098 6        41.900    22050482.586 4  90292797.104 4        29.100    22050482.586 7  90292741.096 7        45.200    22050490.348 7  86530531.726 7        47.800
G12  24021951.680 6 126236217.311 6        36.700    24021970.320 4  98365976.115 4        26.600    24021970.090 5  98366033.130 5        35.700
G11  21830060.008 7 114717762.307 7        46.600    21830077.758 5  89390686.805 5        35.100    21830077.867 8  89390752.800 8        48.000    21830083.621 8  85666015.507 8        50.300
G09  23793235.977 5 125034340.788 5        33.500    23793267.066 4  97429480.869 4        27.900    23793266.629 6  97429396.863 6        37.700    23793271.980 7  93369818.917 7        42.100
G06  21243551.016 7 111635625.710 7        46.500    21243568.133 7  86988937.067 7        47.400    21243568.516 7  86988885.060 7        47.700    21243570.836 8  83364347.621 8        51.600
G05  25026303.906 5 131514120.837 5        34.600    25026330.277 3 102478663.694 3        22.600    25026330.531 5 102478579.697 5        34.200
G04  25123087.352 5 132022749.131 5        30.800                                                    25123113.648 6 102874993.899 6        36.400    25123122.848 6  98588519.131 6        40.100
> 2025  3 13  8 52 43.0000000  0 11       -.000263327000
G22  21031705.820 7 110522346.649 7        47.000    21031721.438 6  86120980.260 6        38.300
G20  21607982.492 7 113550741.338 7        44.900    21608002.211 5  88481630.464 5        32.900
G19  20744534.867 7 109013276.977 7        45.900    20744548.445 6  84945244.836 6        37.300
G17  21934780.758 7 115268041.814 7        45.000    21934798.535 6  89819019.121 6        41.500    21934798.375 7  89819298.127 7        44.600
G14  22051076.297 6 115879175.821 6        41.800    22051098.363 4  90295318.441 4        29.100    22051098.410 7  90295262.439 7        45.400    22051106.035 7  86532948.017 7        47.600
G12  24021331.180 6 126232961.225 6        36.500    24021350.629 4  98363438.912 4        26.500    24021350.434 5  98363495.910 5        35.700
G11  21829958.602 7 114717227.697 7        46.600    21829975.977 5  89390270.230 5        35.500    21829976.203 7  89390336.229 7        47.900    21829981.949 8  85665616.293 8        50.100
G09  23793014.242 5 125033176.019 5        33.700    23793045.359 4  97428573.263 4        28.700    23793044.605 6  97428489.253 6        37.800    23793050.246 7  93368949.131 7        42.200
G06  21243726.328 7 111636549.048 7        46.500    21243743.820 7  86989656.554 7        47.300    21243743.777 8  86989604.549 8        48.000    21243746.570 8  83365037.128 8        51.700
G05  25025598.984 5 131510415.857 5        34.800    25025625.203 3 102475776.683 3        23.000    25025625.133 5 102475692.704 5        34.200
G04  25123046.180 5 132022528.576 5        31.000                                                    25123071.398 6 102874822.073 6        36.700    25123080.961 6  98588354.457 6        40.400
> 2025  3 13  8 52 44.0000000  0 11       -.000263327000
G22  21032055.258 7 110524184.100 7        47.100    21032071.234 6  86122412.039 6        37.600
G20  21607500.484 7 113548208.568 7        44.900    21607520.176 5  88479656.882 5        33.000
G19  20744425.039 7 109012698.058 7        45.800    20744438.117 6  84944793.735 6        37.900
G17  21934871.313 7 115268517.597 7        45.200    21934889.203 6  89819389.859 6        41.400    21934889.082 7  89819668.857 7        44.700
G14  22051692.586 6 115882411.807 6        41.800    22051714.215 4  90297839.980 4        29.200    22051713.922 7  90297783.983 7        44.900    22051721.789 7  86535364.495 7        47.900
G12  24020712.086 6 126229705.367 6        36.800    24020731.020 4  98360901.875 4        27.200    24020731.215 6  98360958.885 6        36.000
G11  21829857.047 7 114716693.306 7        47.100    21829874.242 5  89389853.831 5        35.500    21829874.516 7  89389919.826 7        47.900    21829880.219 8  85665217.243 8        50.100
G09  23792791.781 5 125032011.499 5        34.000    23792823.773 4  97427665.848 4        28.600    23792823.176 6  97427581.847 6        38.400    23792828.645 7  93368079.544 7        42.300
G06  21243902.273 7 111637472.504 7        46.600    21243919.594 7  86990376.134 7        47.300    21243919.754 8  86990324.125 8        48.100    21243922.242 8  83365726.724 8        51.800
G05  25024894.617 5 131506710.902 5        34.900    25024920.031 4 102472889.733 4        24.300    25024919.965 5 102472805.738 5        34.600
G04  25123003.367 5                        30.300                                                    25123029.438 6 102874650.514 6        36.200    25123039.352 6  98588190.059 6        40.500
> 2025  3 13  8 52 45.0000000  0 11       -.000263327000
G22  21032404.516 7 110526022.031 7        47.000    21032420.992 6  86123844.190 6        37.700
G20  21607018.602 7 113545676.199 7        44.600    21607038.363 5  88477683.620 5        33.000
G19  20744314.984 7 109012119.331 7        45.800    20744328.090 6  84944342.780 6        37.700
G17  21934961.750 7 115268993.560 7        45.200    21934979.781 6  89819760.736 6        41.100    21934979.547 7  89820039.738 7        45.100
G14  22052307.266 6 115885648.075 6        41.800    22052330.035 4  90300361.741 4        28.700    22052329.480 7  90300305.749 7        45.200    22052337.648 8  86537781.181 8        48.500
G12  24020093.531 6 126226449.761 6        36.900    24020111.543 4  98358365.052 4        26.500    24020112.059 6  98358422.054 6        36.200
G11  21829755.484 7 114716159.153 7        47.200    21829772.535 5  89389437.615 5        35.200    21829773.016 8  89389503.610 8        48.000    21829778.566 8  85664818.371 8        50.000
G09  23792570.781 5 125030847.273 5        34.300    23792602.238 4  97426758.669 4        28.600    23792601.668 6  97426674.653 6        37.800    23792607.105 7  93367210.157 7        42.400
G06  21244078.008 7 111638396.098 7        46.400    21244095.387 7  86991095.818 7        47.300    21244095.582 8  86991043.812 8        48.100    21244097.980 8  83366416.425 8        51.700
G05  25024189.664 5 131503005.994 5        34.700    25024214.930 3 102470002.790 3        23.600    25024214.992 5 102469918.791 5        34.400
G04  25122961.969 5 132022088.605 5        30.300                                                    25122988.133 6 102874479.254 6        36.500    25122997.469 6  98588025.929 6        40.300
> 2025  3 13  8 52 46.0000000  0 11       -.000263327000
G22  21032754.359 7 110527860.533 7        46.900    21032770.805 6  86125276.790 6        37.600
G20  21606536.758 7 113543144.319 7        44.900    21606556.516 5  88475710.734 5        32.700
G19  20744204.805 7 109011540.871 7        46.000    20744218.039 6  84943892.033 6        38.300
G17  21935052.313 7 115269469.801 7        45.100    21935070.359 6  89820131.832 6        41.300    21935070.094 7  89820410.835 7        45.000
G14  22052923.578 6 115888884.713 6        41.800    22052946.063 4  90302883.801 4        28.300    22052945.563 7  90302827.800 7        44.800    22052953.504 8  86540198.149 8        48.200
G12  24019473.648 6 126223194.502 6        37.400    24019492.082 4  98355828.507 4        27.300    24019492.578 6  98355885.498 6        36.300
G11  21829653.680 7 114715625.327 7        47.300    21829670.906 5  89389021.656 5        35.200    21829671.246 8  89389087.649 8        48.000    21829676.945 8  85664419.742 8        50.000
G09  23792348.391 5 125029683.413 5        34.700    23792380.867 4  97425851.768 4        28.400    23792379.785 6  97425767.757 6        37.700    23792385.652 7  93366341.042 7        42.300
G06  21244253.805 7 111639319.915 7        46.400    21244271.145 7  86991815.680 7        47.300    21244271.191 8  86991763.677 8        48.200    21244273.809 8  83367106.295 8        51.900
G05  25023484.500 5 131499301.176 5        35.000    25023509.957 3 102467115.929 3        22.800    25023509.898 5 102467031.930 5        33.800
G04  25122921.805 5 132021869.279 5        31.200                                                    25122946.484 6 102874308.370 6        36.500    25122955.691 6  98587862.162 6        40.100
> 2025  3 13  8 52 47.0000000  0 11       -.000263327000
G22  21033104.117 7 110529699.536 7        46.900    21033120.676 6  86126709.776 6        37.400
G20  21606055.195 7 113540612.865 7        44.600    21606074.699 5  88473738.180 5        33.400
G19  20744095.117 7 109010962.625 7        45.900    20744107.984 6  84943441.455 6        37.900
G17  21935142.805 7 115269946.258 7        45.100    21935161.016 6  89820503.099 6        40.900    21935160.859 7  89820782.098 7        44.800
G14  22053539.102 6 115892121.651 6        41.200    22053561.926 4  90305406.092 4        28.300    22053561.582 7  90305350.090 7        44.700    22053569.461 8  86542615.339 8        48.000
G12  24018853.578 6 126219939.513 6        37.300    24018872.578 4  98353292.152 4        26.200    24018872.750 6  98353349.140 6        36.000
G11  21829552.125 7 114715091.763 7        46.700    21829569.434 5  89388605.895 5        35.500    21829569.461 7  89388671.894 7        47.600    21829575.387 8  85664021.312 8        49.900
G09  23792128.133 5 125028519.832 5        34.400    23792159.449 4  97424945.078 4        28.600    23792158.641 6  97424861.092 6        37.900    23792164.324 7  93365472.157 7        42.100
G06  21244429.344 7 111640243.908 7        46.300    21244446.949 7  86992535.678 7        47.300    21244447.051 8  86992483.672 8        48.100    21244449.613 8  83367796.291 8        51.800
G05  25022778.898 5 131495596.440 5        34.800    25022804.930 3 102464229.129 3        22.600    25022804.961 5 102464145.122 5        34.700
G04  25122879.008 5 132021650.361 5        30.800                                                    25122905.117 6 102874137.790 6        36.200    25122913.973 6  98587698.697 6        40.300
> 2025  3 13  8 52 48.0000000  0 11       -.000263327000
G22  21033454.492 7 110531538.992 7        46.800    21033470.777 6  86128143.115 6        37.800
G20  21605573.281 7 113538081.789 7        44.900    21605593.145 5  88471765.928 5        33.400
G19  20743985.109 7 109010384.537 7        45.800    20743997.922 6  84942990.996 6        38.300
G17  21935233.734 7 115270422.876 7        45.300    21935251.723 6  89820874.489 6        41.200    21935251.703 7  89821153.490 7        45.000
G14  22054155.430 6 115895358.852 6        41.300    22054177.969 4  90307928.578 4        29.100    22054177.516 7  90307872.571 7        44.800    22054185.488 7  86545032.722 7        47.800
G12  24018233.953 6 126216684.737 6        36.600    24018253.129 4  98350755.967 4        25.600    24018253.184 6  98350812.970 6        36.200
G11  21829450.773 7 114714558.416 7        47.200    21829467.898 5  89388190.305 5        35.000    21829468.086 7  89388256.304 7        47.400    21829473.879 8  85663623.041 8        50.100
G09  23791907.008 5 125027356.520 5        34.500    23791938.090 4  97424038.608 4        27.800    23791937.195 6  97423954.622 6        38.000    23791942.938 7  93364603.459 7        42.300
G06  21244604.922 7 111641168.008 7        46.400    21244622.809 7  86993255.756 7        47.000    21244622.863 7  86993203.750 7        47.900    21244625.465 8  83368486.369 8        51.800
G05  25022074.078 5 131491891.701 5        35.000    25022100.125 4 102461342.308 4        24.500    25022099.973 5 102461258.324 5        35.000
G04  25122837.883 5 132021431.785 5        30.800                                                    25122863.613 6 102873967.489 6        36.500    25122872.289 6  98587535.489 6        40.300
> 2025  3 13  8 52 49.0000000  0 11       -.000263329000
G22  21033804.492 7 110533378.878 7        46.900    21033820.707 6  86129576.789 6        38.000
G20  21605091.891 7 113535551.071 7        45.100    21605111.477 5  88469793.942 5        33.200
G19  20743875.164 7 109009806.586 7        46.100    20743888.051 6  84942540.648 6        38.300
G17  21935324.398 7 115270899.636 7        45.000    21935342.504 6  89821245.991 6        41.300    21935342.129 7  89821524.992 7        44.700
G14  22054771.648 6 115898596.280 6        41.800    22054794.008 4  90310451.236 4        28.700    22054793.398 7  90310395.247 7        44.800    22054801.547 7  86547450.280 7        47.800
G12  24017614.391 6 126213430.173 6        36.900    24017633.883 4  98348219.959 4        26.500    24017634.004 6  98348276.957 6        36.300
G11  21829349.188 7 114714025.261 7        47.000    21829366.469 6  89387774.870 6        36.000    21829366.602 7  89387840.869 7        47.200    21829372.438 8  85663224.916 8        50.800
G09  23791684.594 5 125026193.447 5        34.300    23791716.699 4  97423132.335 4        27.500    23791715.934 6  97423048.348 6        38.200    23791721.473 7  93363734.940 7        42.200
G06  21244781.250 7 111642092.204 7        46.400    21244798.750 7  86993975.913 7        47.300    21244798.723 7  86993923.906 7        47.700    21244801.336 8  83369176.515 8        51.900
G05  25021369.602 5 131488186.973 5        35.200    25021395.297 3 102458455.516 3        23.300    25021395.430 5 102458371.532 5        35.600
G04  25122797.555 5 132021213.533 5        30.500                                                    25122822.035 6 102873797.434 6        36.800    25122830.633 6  98587372.528 6        39.900
> 2025  3 13  8 52 50.0000000  0 11       -.000263329000
G22  21034154.477 7 110535219.263 7        47.000    21034170.965 6  86131010.854 6        38.200
G20  21604610.523 7 113533020.774 7        44.900    21604629.883 5  88467822.292 5        33.900
G19  20743764.961 7 109009228.848 7        46.200    20743778.125 6  84942090.464 6        38.300
G17  21935415.477 7 115271376.599 7        45.100    21935433.145 6  89821617.650 6        41.600    21935432.770 7  89821896.653 7        44.700
G14  22055387.992 6 115901834.017 6        41.700    22055410.125 4  90312974.155 4        28.100    22055409.559 7  90312918.150 7        44.900    22055417.652 7  86549868.062 7        47.800
G12  24016995.492 6 126210175.878 6        36.800    24017014.770 4  98345684.149 4        26.700    24017015.109 6  98345741.140 6        36.400
G11  21829247.625 7 114713492.370 7        47.100    21829265.094 5  89387359.639 5        35.600    21829265.289 7  89387425.635 7        47.200    21829271.020 8  85662826.987 8        50.400
G09  23791464.063 5 125025030.671 5        34.700    23791495.531 4  97422226.278 4        28.100    23791494.590 6  97422142.287 6        38.600    23791500.215 7  93362866.638 7        42.400
G06  21244957.430 7 111643016.560 7        46.500    21244974.551 7  86994696.191 7        47.500    21244974.793 7  86994644.185 7        47.800    21244977.246 8  83369866.785 8        51.500
G05  25020664.547 5 131484482.278 5        35.000    25020690.387 3 102455568.752 3        23.600    25020690.691 5 102455484.746 5        35.500
G04  25122755.227 5                        30.300                                                    25122780.555 6 102873627.686 6        36.500    25122789.117 6  98587209.878 6        39.700
> 2025  3 13  8 52 51.0000000  0 11       -.000263329000
G22  21034504.898 7 110537060.246 7        46.700    21034521.434 6  86132445.387 6        37.800
G20  21604129.070 7 113530490.996 7        44.800    21604148.461 5  88465851.046 5        33.300
G19  20743655.227 7 109008651.423 7        46.000    20743668.160 6  84941640.523 6        37.900
G17  21935506.203 7 115271853.878 7        45.100    21935524.031 7  89821989.556 7        42.200    21935523.320 7  89822268.553 7        44.400
G14  22056003.695 6 115905072.149 6        41.300    22056026.191 4  90315497.369 4        28.700    22056025.879 7  90315441.368 7        44.600    22056033.828 7  86552286.148 7        47.600
G12  24016375.477 6 126206921.958 6        36.800    24016395.516 4  98343148.631 4        25.500    24016396.293 6  98343205.627 6        36.800
G11  21829146.391 7 114712959.834 7        47.000    21829163.688 5  89386944.682 5        35.900    21829163.836 7  89387010.676 7        47.200    21829169.703 8  85662429.323 8        50.400
G09  23791243.695 5 125023868.280 5        34.800    23791274.305 4  97421320.521 4        29.100    23791273.750 6  97421236.541 6        38.100    23791279.035 7  93361998.634 7        42.400
G06  21245133.328 7 111643941.170 7        46.500    21245150.563 7  86995416.671 7        47.500    21245150.816 8  86995364.667 8        48.000    21245153.191 8  83370557.248 8        51.600
G05  25019959.992 5 131480777.738 5        34.800    25019985.582 3 102452682.100 3        23.600    25019985.898 5 102452598.113 5        35.300
G04  25122713.430 5 132020778.338 5        31.300                                                    25122739.180 6 102873458.346 6        36.200    25122747.656 6  98587047.581 6        38.800
> 2025  3 13  8 52 52.0000000  0 11       -.000263329000
G22  21034855.078 7 110538901.709 7        46.700    21034871.910 6  86133880.286 6        37.900
G20  21603647.797 7 113527961.621 7        45.000    21603667.289 5  88463880.118 5        33.300
G19  20743545.320 7 109008074.178 7        46.000    20743558.324 6  84941190.727 6        37.300
G17  21935596.898 7 115272331.334 7        45.100    21935614.887 6  89822361.599 6        41.800    21935614.488 7  89822640.598 7        44.800
G14  22056619.797 6 115908310.565 6        41.000    22056642.461 4  90318020.809 4        29.100    22056642.207 7  90317964.802 7        44.800    22056650.063 7  86554704.437 7        47.500
G12  24015756.266 6 126203668.267 6        36.300    24015776.387 4  98340613.287 4        26.800    24015776.730 6  98340670.306 6        36.500
G11  21829045.055 7 114712427.535 7        47.000    21829062.297 5  89386529.911 5        35.400    21829062.719 7  89386595.910 7        47.600    21829068.402 8  85662031.836 8        50.000
G09  23791022.773 5 125022706.185 5        34.500    23791053.090 4  97420415.007 4        29.300    23791052.652 6  97420331.017 6        37.900    23791058.027 7  93361130.840 7        42.200
G06  21245309.398 7 111644865.914 7        46.500    21245326.473 7  86996137.254 7        47.500    21245326.637 8  86996085.248 8        48.500    21245329.129 8  83371247.804 8        51.700
G05  25019254.680 5 131477073.217 5        34.700    25019280.688 3 102449795.469 3        22.300    25019280.711 5 102449711.478 5        34.900
G04  25122671.461 5 132020561.434 5        31.200                                                    25122698.031 6 102873289.279 6        36.100    25122706.383 6  98586885.562 6        39.000
> 2025  3 13  8 52 53.0000000  0 11       -.000263329000
G22  21035205.750 7 110540743.560 7        46.800    21035222.215 6  86135315.491 6        37.900
G20  21603166.641 7 113525432.561 7        44.600    21603186.074 5  88461909.433 5        33.300
G19  20743435.477 7 109007497.038 7        46.000    20743448.664 6  84940741.014 6        37.400
G17  21935688.078 7 115272808.889 7        44.500    21935705.637 7  89822733.719 7        42.200    21935705.035 7  89823012.717 7        44.600
G14  22057236.375 6 115911549.164 6        41.400    22057258.750 4  90320544.389 4        28.200    22057258.402 7  90320488.382 7        44.500    22057266.297 7  86557122.865 7        47.900
G12  24015137.617 6 126200414.760 6        36.700    24015157.320 4  98338078.094 4        26.600    24015157.828 5  98338135.099 5        35.900
G11  21828943.930 7 114711895.388 7        47.300    21828961.141 5  89386115.257 5        35.500    21828961.109 7  89386181.256 7        47.800    21828967.133 8  85661634.458 8        50.100
G09  23790800.836 5 125021544.274 5        34.800    23790831.988 4  97419509.631 4        29.400    23790831.043 6  97419425.627 6        38.300    23790836.871 7  93360263.180 7        42.300
G06  21245485.305 7 111645790.707 7        46.400    21245502.395 7  86996857.875 7        47.300    21245502.723 8  86996805.871 8        48.400    21245505.172 8  83371938.403 8        51.600
G05  25018549.383 5 131473368.650 5        34.700    25018575.680 3 102446908.809 3        22.900    25018575.500 5 102446824.811 5        35.000
G04  25122630.117 5                        30.500                                                    25122655.930 5 102873120.464 5        35.700    25122665.012 6  98586723.781 6        38.800
> 2025  3 13  8 52 54.0000000  0 11       -.000263329000
G22  21035556.430 7 110542585.905 7        47.200    21035572.813 6  86136751.085 6        37.300
G20  21602685.336 7 113522903.917 7        44.700    21602704.969 5  88459939.065 5        33.200
G19  20743325.375 7 109006920.106 7        46.000    20743338.672 6  84940291.456 6        37.600
G17  21935778.859 7 115273286.655 7        44.300    21935796.633 6  89823106.004 6        41.600    21935796.258 7  89823385.000 7        44.700
G14  22057853.383 6 115914788.062 6        41.800    22057875.125 4  90323068.195 4        29.100    22057874.840 7  90323012.195 7        44.600    22057882.668 7  86559541.521 7        47.900
G12  24014518.734 6 126197161.505 6        36.700    24014538.234 4  98335543.097 4        25.800    24014538.723 6  98335600.100 6        36.100
G11  21828842.500 7 114711363.499 7        47.300    21828859.969 5  89385700.806 5        35.700    21828859.938 8  89385766.804 8        48.000    21828865.902 8  85661237.279 8        50.200
G09  23790579.469 5 125020382.642 5        34.800    23790610.770 4  97418604.472 4        28.900    23790610.438 6  97418520.480 6        38.300    23790615.746 7  93359395.747 7        42.200
G06  21245661.680 7 111646715.660 7        46.600    21245678.441 7  86997578.620 7        47.600    21245678.695 7  86997526.613 7        47.900    21245681.129 8  83372629.116 8        51.600
G05  25017844.781 5 131469664.150 5        34.600    25017870.766 3 102444022.203 3        22.600    25017870.637 5 102443938.181 5        35.100
G04  25122589.336 5 132020128.398 5        30.500                                                    25122614.332 5 102872951.947 5        35.500    25122623.602 6  98586562.290 6        38.800
> 2025  3 13  8 52 55.0000000  0 11       -.000263329000
G22  21035907.438 7 110544428.774 7        46.800    21035923.574 6  86138187.083 6        37.500
G20  21602203.805 7 113520375.734 7        44.600    21602223.984 5  88457969.060 5        33.000
G19  20743215.555 7 109006343.411 7        46.300    20743228.949 6  84939842.081 6        37.100
G17  21935869.531 7 115273764.649 7        44.700    21935887.613 6  89823478.464 6        41.300    21935887.398 7  89823757.464 7        44.600
G14  22058469.789 7 115918027.292 7        42.100    22058491.660 4  90325592.264 4        28.700    22058491.414 7  90325536.271 7        44.800    22058499.133 7  86561960.423 7        47.600
G12  24013899.969 6 126193908.551 6        36.800    24013919.180 4  98333008.350 4        26.900    24013919.801 5  98333065.345 5        35.500
G11  21828741.523 7 114710831.903 7        47.200    21828758.871 5  89385286.580 5        35.100    21828758.988 8  89385352.579 8        48.200    21828764.828 8  85660840.316 8        50.200
G09  23790358.883 5 125019221.355 5        35.000    23790389.797 5  97417699.589 5        30.000    23790389.879 6  97417615.585 6        38.000    23790394.781 7  93358528.560 7        42.300
G06  21245837.570 7 111647640.807 7        46.400    21245854.488 7  86998299.516 7        47.400    21245854.719 7  86998247.513 7        47.800    21245857.164 8  83373319.975 8        51.700
G05  25017139.180 5 131465959.734 5        34.800    25017165.793 3 102441135.655 3        22.900    25017165.414 5 102441051.633 5        35.300
G04  25122547.148 4 132019912.548 4        29.400                                                    25122573.570 5 102872783.764 5        35.200    25122582.555 6  98586401.119 6        38.800
> 2025  3 13  8 52 56.0000000  0 11       -.000263329000
G22  21036258.164 7 110546272.183 7        47.000    21036274.496 6  86139623.505 6        37.300
G20  21601722.641 7 113517848.013 7        44.700    21601742.844 5  88455999.419 5        33.100
G19  20743106.000 7 109005766.968 7        45.900    20743119.348 6  84939392.908 6        37.400
G17  21935960.758 7 115274242.895 7        45.200    21935978.613 7  89823851.124 7        42.000    21935978.629 7  89824130.122 7        44.400
G14  22059085.836 6 115921266.866 6        41.800    22059108.156 4  90328116.623 4        28.400    22059107.793 7  90328060.615 7        44.700    22059115.582 7  86564379.583 7        47.700
G12  24013281.305 6 126190655.921 6        37.100    24013300.133 4  98330473.829 4        26.900    24013300.516 5  98330530.829 5        35.900
G11  21828640.531 7 114710300.610 7        47.600    21828657.680 5  89384872.592 5        35.400    21828657.699 8  89384938.592 8        48.500    21828663.684 8  85660443.578 8        50.300
G09  23790137.891 5 125018060.400 5        34.900    23790168.945 4  97416794.956 4        29.300    23790168.637 6  97416710.958 6        38.300    23790173.895 7  93357661.629 7        42.600
G06  21246013.086 7 111648566.154 7        46.500    21246030.672 7  86999020.569 7        47.300    21246030.828 7  86998968.565 7        47.900    21246033.285 8  83374010.985 8        51.900
G05  25016434.359 5 131462255.381 5        34.600    25016460.852 3 102438249.137 3        22.800    25016460.605 5 102438165.154 5        35.200
G04  25122506.102 4 132019697.159 4        29.900                                                    25122532.668 5 102872615.931 5        35.700    25122541.406 6  98586240.279 6        38.900
> 2025  3 13  8 52 57.0000000  0 11       -.000263330000
G22  21036608.750 7 110548116.086 7        47.000    21036625.434 6  86141060.308 6        37.100
G20  21601241.953 7 113515320.714 7        44.700    21601261.820 5  88454030.108 5        33.400
G19  20742996.680 7 109005190.730 7        45.900    20743009.602 6  84938943.895 6        37.700
G17  21936051.516 7 115274721.342 7        45.000    21936069.605 6  89824223.938 6        41.100    21936069.375 7  89824502.938 7        44.300
G14  22059702.477 6 115924506.730 6        41.100    22059724.758 4  90330641.185 4        28.500    22059724.570 7  90330585.188 7        45.200    22059732.102 7  86566798.963 7        47.600
G12  24012662.320 6 126187403.564 6        36.900    24012681.188 4  98327939.520 4        26.800    24012681.320 5  98327996.527 5        35.700
G11  21828539.648 7 114709769.570 7        47.300    21828556.695 5  89384458.801 5        35.300    21828556.844 8  89384524.803 8        48.200    21828562.551 8  85660047.031 8        49.900
G09  23789915.555 5 125016899.758 5        33.900    23789948.215 4  97415890.556 4        27.900    23789947.355 6  97415806.561 6        37.900    23789953.074 7  93356794.919 7        42.300
G06  21246189.391 7 111649491.650 7        46.400    21246206.738 7  86999741.740 7        47.200    21246207.227 7  86999689.733 7        47.600    21246209.383 8  83374702.105 8        51.800
G05  25015729.148 5 131458551.101 5        34.600    25015756.023 3 102435362.695 3        22.000    25015755.699 5 102435278.695 5        34.900
G04  25122464.742 4 132019482.121 4        29.100                                                    25122492.043 5 102872448.394 5        35.500    25122500.559 6  98586079.729 6        38.900
> 2025  3 13  8 52 58.0000000  0 11       -.000263330000
G22  21036959.977 7 110549960.421 7        47.200    21036976.285 6  86142497.453 6        37.700
G20  21600760.930 7 113512793.772 7        44.900    21600780.969 5  88452061.073 5        33.900
G19  20742886.617 7 109004614.630 7        45.900    20742900.004 6  84938494.986 6        38.100
G17  21936142.727 7 115275199.929 7        44.700    21936160.793 6  89824596.861 6        41.400    21936160.891 7  89824875.862 7        44.400
G14  22060318.352 6 115927746.840 6        41.000    22060341.488 4  90333165.936 4        28.400    22060341.188 7  90333109.939 7        45.300    22060348.676 7  86569218.517 7        47.600
G12  24012043.172 6 126184151.408 6        36.400    24012062.344 4  98325405.383 4        25.500    24012062.445 6  98325462.386 6        36.000
G11  21828438.289 7 114709238.723 7        47.300    21828455.605 5  89384045.165 5        35.500    21828455.789 8  89384111.163 8        48.100    21828461.613 8  85659650.628 8        50.200
G09  23789695.047 5 125015739.341 5        33.800    23789727.273 4  97414986.339 4        28.400    23789726.629 6  97414902.359 6        38.000    23789732.168 7  93355928.386 7        42.300
G06  21246365.625 7 111650417.241 7        46.400    21246382.777 7  87000462.981 7        47.300    21246383.121 7  87000410.975 7        47.600    21246385.504 8  83375393.295 8        51.800
G05  25015024.242 5 131454846.838 5        34.600    25015051.051 3 102432476.269 3        22.300    25015050.965 5 102432392.264 5        34.700
G04  25122423.664 4 132019267.439 4        29.600                                                    25122451.277 5 102872281.130 5        35.500    25122459.770 6  98585919.439 6        38.900
> 2025  3 13  8 52 59.0000000  0 11       -.000263330000
G22  21037310.992 7 110551805.247 7        47.200    21037327.336 6  86143934.975 6        37.200
G20  21600280.586 7 113510267.248 7        44.900    21600300.180 5  88450092.362 5        34.800
G19  20742777.367 7 109004038.733 7        46.500    20742790.438 6  84938046.237 6        37.800
G17  21936233.516 7 115275678.719 7        44.900    21936251.797 6  89824969.943 6        41.300    21936251.902 7  89825248.944 7        44.200
G14  22060934.984 6 115930987.247 6        40.900    22060958.012 4  90335690.924 4        27.700    22060957.750 7  90335634.920 7        45.200    22060965.340 7  86571638.293 7        47.500
G12  24011424.398 6 126180899.520 6        36.400    24011443.434 4  98322871.451 4        25.800    24011443.305 5  98322928.454 5        35.800
G11  21828337.602 7 114708708.128 7        46.900    21828354.566 5  89383631.723 5        35.600    21828354.848 7  89383697.724 7        47.800    21828360.648 8  85659254.416 8        50.200
G09  23789474.188 5 125014579.224 5        35.400    23789506.473 4  97414082.364 4        28.100    23789506.027 6  97413998.373 6        38.300    23789511.328 7  93355062.068 7        42.600
G06  21246541.500 7 111651342.987 7        46.400    21246558.965 7  87001184.346 7        47.400    21246559.313 7  87001132.339 7        47.500    21246561.703 8  83376084.605 8        51.900
G05  25014319.344 5 131451142.612 5        35.000    25014346.070 4 102429589.851 4        24.300    25014346.078 5 102429505.855 5        35.300
G04  25122383.195 4 132019053.150 4        29.900                                                    25122411.039 5 102872114.163 5        35.100    25122418.992 6  98585759.439 6        38.600
> 2025  3 13  8 53  0.0000000  0 11       -.000263330000
G22  21037662.102 7 110553650.583 7        46.800    21037678.422 6  86145372.902 6        37.600
G20  21599799.961 7 113507741.166 7        44.500    21599819.434 5  88448123.990 5        33.800
G19  20742667.953 7 109003463.047 7        46.200    20742680.922 6  84937597.652 6        38.100
G17  21936324.547 7 115276157.725 7        45.100    21936343.016 6  89825343.195 6        41.700    21936342.828 7  89825622.194 7        44.200
G14  22061551.563 6 115934227.953 6        41.300    22061574.609 4  90338216.146 4        28.200    22061574.508 7  90338160.138 7        45.200    22061582.043 7  86574058.297 7        47.400
G12  24010805.336 6 126177647.923 6        36.600    24010824.621 4  98320337.740 4        25.900    24010824.293 6  98320394.740 6        36.500
G11  21828236.664 7 114708177.803 7        46.700    21828253.617 5  89383218.490 5        35.400    21828253.785 8  89383284.492 8        48.000    21828259.664 8  85658858.402 8        50.000
G09  23789254.492 5 125013419.407 5        34.700    23789285.793 4  97413178.616 4        28.700    23789285.469 6  97413094.627 6        38.300    23789290.676 7  93354195.990 7        42.200
G06  21246717.844 7 111652268.905 7        46.500    21246735.184 7  87001905.843 7        47.300    21246735.520 7  87001853.834 7        47.800    21246737.895 8  83376776.036 8        51.800
G05  25013613.703 5 131447438.484 5        34.800    25013641.203 3 102426703.518 3        23.300    25013641.258 5 102426619.524 5        35.100
G04  25122343.148 5 132018839.269 5        30.100                                                    25122370.289 5 102871947.520 5        35.200    25122378.223 6  98585599.735 6        38.800
> 2025  3 13  8 53  1.0000000  0 11       -.000263330000
G22  21038013.422 7 110555496.411 7        47.300    21038029.805 6  86146811.203 6        37.800
G20  21599319.258 7 113505215.484 7        44.900    21599338.816 5  88446155.934 5        34.300
G19  20742558.148 7 109002887.560 7        45.900    20742571.309 6  84937149.222 6        37.600
G17  21936415.758 7 115276636.933 7        45.200    21936434.328 6  89825716.600 6        41.900    21936433.773 7  89825995.602 7        44.300
G14  22062168.945 6 115937468.953 6        41.200    22062191.367 4  90340741.589 4        28.900    22062190.910 7  90340685.590 7        45.300    22062198.727 7  86576478.520 7        47.700
G12  24010186.328 6 126174396.593 6        36.400    24010205.922 4  98317804.243 4        26.500    24010205.777 6  98317861.236 6        36.600
G11  21828135.578 7 114707647.733 7        46.900    21828152.836 5  89382805.452 5        35.300    21828152.992 8  89382871.455 8        48.200    21828158.855 8  85658462.577 8        50.000
G09  23789034.164 5 125012259.889 5        34.400    23789065.082 4  97412275.112 4        27.800    23789064.934 6  97412191.115 6        38.700    23789069.980 7  93353330.120 7        42.200
G06  21246893.945 7 111653194.961 7        46.400    21246911.375 7  87002627.446 7        47.200    21246911.715 8  87002575.443 8        48.000    21246914.102 8  83377467.578 8        51.700
G05  25012909.805 5 131443734.369 5        34.300    25012936.371 3 102423817.209 3        23.200    25012936.195 5 102423733.216 5        34.700
G04  25122302.680 4 132018625.784 4        29.900                                                    25122329.113 5 102871781.175 5        34.700    25122337.512 6  98585440.331 6        38.500
> 2025  3 13  8 53  2.0000000  0 11       -.000263330000
G22  21038364.625 7 110557342.779 7        47.000    21038381.055 6  86148249.934 6        37.600
G20  21598838.703 7 113502690.284 7        45.300    21598858.223 5  88444188.261 5        34.100
G19  20742448.930 7 109002312.330 7        46.000    20742461.855 6  84936700.993 6        37.700
G17  21936507.195 7 115277116.394 7        45.300    21936525.527 6  89826090.204 6        41.700    21936525.105 7  89826369.206 7        44.200
G14  22062785.859 6 115940710.302 6        41.300    22062808.180 4  90343267.318 4        28.700    22062807.477 7  90343211.317 7        44.800    22062815.648 7  86578899.004 7        47.600
G12  24009567.461 6 126171145.569 6        36.500    24009587.352 4  98315270.983 4        26.000    24009587.660 6  98315327.982 6        36.300
G11  21828034.852 7 114707117.966 7        46.900    21828051.891 5  89382392.653 5        35.200    21828052.063 7  89382458.660 7        47.800    21828057.969 8  85658066.982 8        50.200
G09  23788812.367 5 125011100.717 5        34.700    23788844.453 4  97411371.862 4        28.600    23788844.191 6  97411287.866 6        39.200    23788849.387 7  93352464.510 7        42.200
G06  21247070.172 7 111654121.234 7        46.400    21247087.684 7  87003349.221 7        47.000    21247088.195 7  87003297.214 7        47.800    21247090.367 8  83378159.276 8        51.500
G05  25012203.969 5 131440030.369 5        34.300    25012231.469 3 102420930.989 3        22.300    25012231.105 5 102420846.998 5        34.700
G04  25122262.188 4 132018412.791 4        29.600                                                    25122288.016 5 102871615.162 5        34.700    25122296.789 6  98585281.255 6        38.100
> 2025  3 13  8 53  3.0000000  0 11       -.000263330000
G22  21038716.227 7 110559189.665 7        46.800    21038732.441 6  86149689.062 6        38.300
G20  21598358.422 7 113500165.519 7        45.500    21598377.715 5  88442220.919 5        33.900
G19  20742339.227 7 109001737.314 7        46.400    20742352.438 6  84936252.930 6        37.700
G17  21936598.352 7 115277596.076 7        44.900    21936616.793 6  89826463.982 6        41.800    21936616.348 7  89826742.980 7        44.100
G14  22063403.156 6 115943951.958 6        41.500    22063424.977 4  90345793.281 4        28.500    22063424.473 7  90345737.284 7        44.500    22063432.508 7  86581319.719 7        47.700
G12  24008948.641 6 126167894.828 6        36.800    24008968.848 4  98312737.950 4        26.500    24008968.895 6  98312794.955 6        36.700
G11  21827933.672 7 114706588.470 7        47.200    21827951.172 5  89381980.068 5        34.900    21827951.148 7  89382046.071 7        47.700    21827957.258 8  85657671.587 8        50.200
G09  23788591.469 5 125009941.853 5        35.000    23788623.844 4  97410468.859 4        27.400    23788623.645 6  97410384.865 6        39.000    23788628.906 6  93351599.135 6        41.800
G06  21247246.398 7 111655047.669 7        46.400    21247263.977 7  87004071.119 7        47.200    21247264.445 8  87004019.116 8        48.000    21247266.637 8  83378851.098 8        51.700
G05  25011499.234 5 131436326.443 5        34.700    25011526.598 3 102418044.824 3        22.800    25011526.551 5 102417960.815 5        35.000
G04  25122221.594 5                        30.100                                                    25122247.527 5 102871449.533 5        34.300    25122256.195 6  98585122.494 6        38.100
> 2025  3 13  8 53  4.0000000  0 11       -.000263332000
G22  21039067.367 7 110561036.962 7        47.200    21039084.027 6  86151128.509 6        38.100
G20  21597877.758 7 113497641.088 7        45.600    21597897.242 5  88440253.844 5        34.000
G19  20742229.773 7 109001162.435 7        45.800    20742243.031 6  84935804.976 6        38.100
G17  21936689.602 7 115278075.883 7        44.900    21936707.957 6  89826837.855 6        41.600    21936707.957 7  89827116.854 7        44.100
G14  22064019.367 6 115947193.828 6        41.300    22064041.754 4  90348319.407 4        28.400    22064041.270 7  90348263.416 7        44.500    22064049.371 7  86583740.594 7        47.800
G12  24008330.570 6 126164644.283 6        36.500    24008350.227 4  98310205.067 4        26.700    24008350.070 6  98310262.063 6        36.300
G11  21827833.047 7 114706059.152 7        47.000    21827850.387 5  89381567.619 5        34.900    21827850.219 7  89381633.622 7        47.600    21827856.473 8  85657276.325 8        50.100
G09  23788371.391 5 125008783.186 5        34.600    23788403.211 4  97409566.016 4        28.400    23788403.016 6  97409482.028 6        38.800    23788408.438 7  93350733.923 7        42.000
G06  21247422.875 7 111655974.183 7        46.400    21247440.203 7  87004793.081 7        47.300    21247440.637 7  87004741.075 7        47.900    21247442.945 8  83379542.978 8        51.600
G05  25010794.617 5 131432622.477 5        34.300    25010821.789 3 102415158.632 3        22.800    25010821.840 5 102415074.622 5        35.000
G04  25122182.250 4                        29.900                                                    25122207.273 5 102871284.099 5        34.400    25122215.707 6  98584963.947 6        37.900
> 2025  3 13  8 53  5.0000000  0 11       -.000263332000
G22  21039419.086 7 110562884.720 7        47.000    21039435.738 6  86152568.317 6        37.600
G20  21597398.023 7 113495117.052 7        45.200    21597417.008 5  88438287.070 5        33.700
G19  20742120.633 7 109000587.728 7        45.800    20742133.676 6  84935357.149 6        37.700
G17  21936781.180 7 115278555.860 7        45.200    21936799.270 6  89827211.861 6        41.500    21936799.035 7  89827490.857 7        44.100
G14  22064636.281 6 115950435.972 6        41.100    22064658.734 4  90350845.751 4        28.600    22064658.113 7  90350789.756 7        44.200    22064666.406 7  86586161.668 7        47.500
G12  24007711.742 6 126161393.972 6        36.200    24007731.707 4  98307672.359 4        26.300    24007731.938 6  98307729.364 6        36.300
G11  21827732.492 7 114705530.059 7        47.100    21827749.844 5  89381155.344 5        35.200    21827749.563 8  89381221.346 8        48.000    21827755.750 8  85656881.229 8        50.200
G09  23788151.633 5 125007624.818 5        34.300    23788182.898 4  97408663.400 4        28.900    23788182.578 6  97408579.405 6        38.900    23788188.020 6  93349868.913 6        41.800
G06  21247599.313 7 111656900.822 7        46.400    21247616.621 7  87005515.140 7        47.300    21247616.949 7  87005463.135 7        47.900    21247619.301 8  83380234.952 8        51.800
G05  25010090.336 5 131428918.517 5        34.500    25010117.109 4 102412272.427 4        24.300    25010117.230 5 102412188.437 5        35.000
G04  25122141.891 5                        30.300                                                    25122166.688 5 102871118.953 5        34.200    25122175.391 6  98584805.722 6        37.800
> 2025  3 13  8 53  6.0000000  0 11       -.000263332000
G22  21039770.703 7 110564733.029 7        46.800    21039787.504 6  86154008.556 6        37.500
G20  21596917.383 7 113492593.488 7        45.500    21596936.824 5  88436320.656 5        33.400
G19  20742011.008 7 109000013.280 7        45.900    20742024.359 6  84934909.532 6        37.700
G17  21936872.531 7 115279036.093 7        44.800    21936890.781 6  89827586.069 6        41.600    21936890.488 7  89827865.062 7        44.300
G14  22065253.688 6 115953678.461 6        41.200    22065275.699 4  90353372.359 4        27.500    22065275.563 7  90353316.368 7        44.200    22065283.441 7  86588583.002 7        47.600
G12  24007094.242 6 126158143.986 6        36.200    24007113.387 4  98305139.913 4        25.500    24007113.539 5  98305196.904 5        35.800
G11  21827631.617 7 114705001.266 7        46.900    21827649.316 5  89380743.306 5        35.400    21827649.422 7  89380809.311 7        47.900    21827655.141 8  85656486.363 8        49.800
G09  23787931.141 5 125006466.777 5        33.900    23787962.574 4  97407761.042 4        28.900    23787962.117 6  97407677.051 6        38.800    23787967.563 6  93349004.157 6        41.800
G06  21247775.617 7 111657827.664 7        46.800    21247792.957 7  87006237.357 7        47.300    21247793.543 7  87006185.348 7        47.800    21247795.648 8  83380927.076 8        52.100
G05  25009384.773 5 131425214.678 5        34.100    25009412.418 4 102409386.333 4        24.700    25009412.844 5 102409302.327 5        35.200
G04  25122101.188 5                        30.100                                                    25122126.613 5 102870954.210 5        33.800    25122135.023 6  98584647.789 6        37.100
> 2025  3 13  8 53  7.0000000  0 11       -.000263334000
G22  21040122.742 7 110566581.813 7        47.200    21040139.238 6  86155449.158 6        37.600
G20  21596436.953 7 113490070.327 7        45.300    21596456.695 5  88434354.564 5        33.100
G19  20741902.109 7 108999439.012 7        45.900    20741915.117 6  84934462.052 6        37.500
G17  21936963.945 7 115279516.510 7        45.200    21936982.223 6  89827960.417 6        41.600    21936981.898 7  89828239.415 7        44.500
G14  22065870.820 6 115956921.227 6        41.700    22065892.906 4  90355899.188 4        29.100    22065892.477 7  90355843.197 7        44.500    22065900.480 7  86591004.545 7        47.500
G12  24006475.523 6 126154894.257 6        36.000    24006494.926 4  98302607.665 4        26.200    24006495.121 6  98302664.657 6        36.300
G11  21827531.125 7 114704472.721 7        47.000    21827548.844 5  89380331.463 5        35.200    21827548.672 7  89380397.460 7        47.800    21827554.570 8  85656091.676 8        50.000
G09  23787709.250 5 125005309.025 5        33.700    23787742.230 4  97406858.902 4        27.400    23787741.852 6  97406774.909 6        38.700    23787747.371 7  93348139.607 7        42.300
G06  21247952.094 7 111658754.638 7        46.500    21247969.305 7  87006959.678 7        47.400    21247969.742 7  87006907.672 7        47.900    21247972.051 8  83381619.303 8        52.000
G05  25008680.023 5 131421510.871 5        34.600    25008707.652 3 102406500.248 3        22.300    25008707.961 5 102406416.262 5        35.200
G04  25122061.414 4 132017353.263 4        29.400                                                    25122086.438 5 102870789.675 5        34.100    25122094.750 6  98584490.161 6        37.100
> 2025  3 13  8 53  8.0000000  0 11       -.000263332000
G22  21040475.164 7 110568431.062 7        47.400    21040491.145 6  86156890.133 6        37.500
G20  21595957.070 7 113487547.560 7        45.100    21595976.574 5  88432388.787 5        33.500
G19  20741792.578 7 108998864.933 7        45.900    20741805.895 6  84934014.719 6        37.700
G17  21937055.523 7 115279997.099 7        44.900    21937073.613 6  89828334.900 6        41.900    21937073.266 7  89828613.899 7        44.500
G14  22066488.094 6 115960164.263 6        41.700    22066510.090 4  90358426.228 4        28.100    22066509.801 7  90358370.232 7        44.400    22066517.668 7  86593426.286 7        47.600
G12  24005856.578 6 126151644.754 6        36.800    24005876.484 4  98300075.579 4        26.200    24005877.078 6  98300132.583 6        37.000
G11  21827430.242 7 114703944.398 7        46.600    21827448.156 5  89379919.788 5        35.500    21827448.383 7  89379985.791 7        47.900    21827454.121 8  85655697.159 8        49.900
G09  23787489.516 5 125004151.555 5        34.200    23787521.867 4  97405956.992 4        28.100    23787521.391 6  97405872.990 6        38.700    23787526.914 7  93347275.263 7        42.300
G06  21248128.742 7 111659681.745 7        46.500    21248145.727 7  87007682.100 7        47.300    21248146.055 7  87007630.099 7        47.700    21248148.453 8  83382311.625 8        51.800
G05  25007975.219 5 131417807.080 5        34.400    25008002.809 3 102403614.190 3        23.000    25008003.070 5 102403530.196 5        34.800
G04  25122021.141 4 132017142.510 4        29.600                                                    25122046.641 5 102870625.459 5        34.000    25122054.637 6  98584332.797 6        37.100
> 2025  3 13  8 53  9.0000000  0 12       -.000263330000
G24  25459885.609 5                        32.400                                                    25459920.336 5 104254112.97815        33.500    25459927.527 6  99910043.70716        41.000
G22  21040826.930 7 110570280.841 7        47.100    21040843.063 6  86158331.519 6        37.300
G20  21595476.664 7 113485025.252 7        45.300    21595496.660 5  88430423.359 5        33.300
G19  20741683.375 7 108998291.096 7        45.900    20741696.625 6  84933567.578 6        37.200
G17  21937147.398 7 115280477.929 7        45.000    21937165.090 7  89828709.572 7        42.000    21937164.574 7  89828988.575 7        44.600
G14  22067105.164 6 115963407.624 6        41.200    22067127.359 4  90360953.518 4        28.700    22067127.121 7  90360897.528 7        44.600    22067134.855 7  86595848.277 7        47.700
G12  24005239.031 6 126148395.565 6        37.200    24005258.191 4  98297543.745 4        27.000    24005258.980 6  98297600.758 6        37.100
G11  21827329.859 7 114703416.369 7        46.700    21827347.719 5  89379508.344 5        35.100    21827347.898 8  89379574.347 8        48.100    21827353.590 8  85655302.862 8        50.000
G09  23787270.734 5 125002994.393 5        34.300    23787301.711 4  97405055.304 4        28.500    23787301.293 6  97404971.315 6        38.400    23787306.703 7  93346411.163 7        42.500
G06  21248305.109 7 111660609.046 7        46.400    21248322.137 7  87008404.678 7        47.500    21248322.500 7  87008352.675 7        47.900    21248324.910 8  83383004.093 8        51.800
G05  25007270.203 5 131414103.388 5        34.500    25007297.910 4 102400728.201 4        24.200    25007298.102 5 102400644.208 5        34.800
G04  25121981.820 4 132016932.162 4        29.600                                                    25122006.313 5 102870461.612 5        34.300    25122014.402 6  98584175.758 6        36.900
> 2025  3 13  8 53 10.0000000  0 12       -.000263330000
G24  25460116.773 5 133793801.556 5        31.200                                                    25460149.594 5 104255049.380 5        33.900    25460156.297 6  99910941.085 6        40.700
G22  21041178.609 7 110572131.140 7        47.100    21041195.219 6  86159773.313 6        36.800
G20  21594997.070 7 113482503.385 7        45.200    21595016.688 5  88428458.278 5        33.700
G19  20741574.844 7 108997717.484 7        45.800    20741587.371 6  84933120.607 6        37.700
G17  21937239.070 7 115280958.992 7        45.400    21937256.676 7  89829084.427 7        42.500    21937256.324 7  89829363.427 7        44.600
G14  22067722.813 6 115966651.312 6        41.400    22067744.664 4  90363481.075 4        28.900    22067744.598 7  90363425.070 7        44.500    22067752.105 7  86598270.508 7        47.600
G12  24004621.273 6 126145146.685 6        37.100    24004640.004 4  98295012.173 4        26.000    24004640.422 6  98295069.161 6        36.600
G11  21827229.680 7 114702888.628 7        46.100    21827247.246 5  89379097.128 5        35.100    21827247.328 7  89379163.126 7        47.900    21827253.082 8  85654908.776 8        50.200
G09  23787049.641 5 125001837.568 5        34.000    23787081.438 4  97404153.894 4        28.100    23787080.848 6  97404069.896 6        38.100    23787086.621 7  93345547.311 7        42.500
G06  21248481.461 7 111661536.531 7        46.500    21248498.719 7  87009127.394 7        47.200    21248498.926 7  87009075.387 7        47.900    21248501.434 8  83383696.696 8        52.000
G05  25006565.781 5 131410399.775 5        34.100    25006593.051 3 102397842.280 3        23.600    25006592.906 5 102397758.277 5        34.900
G04  25121941.625 4                        29.600                                                    25121966.668 5 102870298.056 5        34.700    25121974.270 6  98584019.047 6        36.800
> 2025  3 13  8 53 11.0000000  0 12       -.000263330000
G24  25460345.305 5                        31.800                                                    25460378.496 5 104255985.903 5        34.000    25460384.984 6  99911838.602 6        40.500
G22  21041531.086 7 110573981.903 7        46.700    21041547.375 6  86161215.463 6        37.400
G20  21594517.164 7 113479981.910 7        45.100    21594536.621 5  88426493.506 5        33.300
G19  20741465.000 7 108997144.049 7        45.800    20741478.238 6  84932673.774 6        37.300
G17  21937330.664 7 115281440.229 7        45.700    21937348.250 7  89829459.414 7        42.200    21937348.313 7  89829738.414 7        44.700
G14  22068339.305 6 115969895.268 6        41.100    22068361.902 4  90366008.816 4        28.100    22068362.027 7  90365952.819 7        44.500    22068369.445 7  86600692.936 7        47.900
G12  24004002.469 6 126141898.021 6        36.300    24004021.711 4  98292480.740 4        26.000    24004021.918 6  98292537.740 6        36.500
G11  21827129.313 7 114702361.104 7        46.000    21827146.805 5  89378686.078 5        35.600    21827146.961 8  89378752.077 8        48.000    21827152.707 8  85654514.857 8        50.200
G09  23786829.461 5 125000681.021 5        34.400    23786861.277 4  97403252.693 4        29.000    23786860.824 6  97403168.687 6        38.300    23786866.371 7  93344683.653 7        42.500
G06  21248658.164 7 111662464.134 7        46.400    21248675.219 7  87009850.205 7        47.300    21248675.512 8  87009798.199 8        48.000    21248677.918 8  83384389.392 8        51.900
G05  25005860.828 5 131406696.191 5        33.900    25005888.336 3 102394956.373 3        23.000    25005888.035 5 102394872.376 5        33.900
G04  25121900.086 4 132016512.765 4        28.900                                                    25121926.980 5 102870134.808 5        34.500    25121934.254 6  98583862.590 6        36.500
> 2025  3 13  8 53 12.0000000  0 12       -.000263330000
G24  25460572.766 5 133796205.561 5        30.800                                                    25460607.500 5 104256922.586 5        34.300    25460613.730 6  99912736.248 6        40.900
G22  21041883.188 7 110575833.147 7        46.800    21041899.813 6  86162657.987 6        37.100
G20  21594037.797 7 113477460.840 7        45.200    21594056.934 5  88424529.043 5        33.400
G19  20741355.945 7 108996570.808 7        45.800    20741369.148 6  84932227.098 6        37.200
G17  21937422.492 7 115281921.658 7        45.700    21937439.766 7  89829834.553 7        42.400    21937439.875 7  89830113.554 7        44.700
G14  22068956.742 6 115973139.510 6        41.300    22068979.410 4  90368536.790 4        27.500    22068978.828 7  90368480.793 7        44.500    22068986.785 7  86603115.576 7        47.900
G12  24003384.445 6 126138649.629 6        36.800    24003403.570 4  98289949.531 4        25.600    24003403.637 6  98290006.527 6        36.200
G11  21827028.438 7 114701833.828 7        45.700    21827046.395 5  89378275.217 5        34.600    21827046.598 8  89378341.220 8        48.000    21827052.359 8  85654121.121 8        50.000
G09  23786608.938 5 124999524.738 5        33.400    23786641.234 4  97402351.698 4        27.200    23786640.762 6  97402267.702 6        38.100    23786646.359 7  93343820.208 7        42.600
G06  21248834.336 7 111663391.879 7        46.400    21248851.762 7  87010573.124 7        47.200    21248851.922 8  87010521.121 8        48.000    21248854.441 8  83385082.191 8        51.800
G05  25005156.094 5 131402992.655 5        33.500    25005183.488 3 102392070.494 3        23.300    25005182.941 5 102391986.514 5        33.800
G04  25121860.977 4                        29.100                                                    25121887.184 5 102869971.800 5        34.400    25121894.352 6  98583706.446 6        36.400
> 2025  3 13  8 53 13.0000000  0 12       -.000263332000
G24  25460800.820 5 133797407.797 5        30.500                                                    25460836.418 5 104257859.412 5        34.700    25460842.449 6  99913634.016 6        40.900
G22  21042235.438 7 110577684.845 7        46.800    21042252.148 6  86164100.869 6        37.500
G20  21593557.969 7 113474940.154 7        45.400    21593577.449 5  88422564.880 5        33.400
G19  20741246.734 7 108995997.729 7        45.900    20741260.047 6  84931780.541 6        37.600
G17  21937513.563 7 115282403.249 7        45.300    21937531.496 6  89830209.818 6        41.900    21937531.559 7  89830488.820 7        44.300
G14  22069574.320 6 115976384.006 6        40.900    22069596.789 4  90371064.975 4        28.800    22069596.074 7  90371008.969 7        44.700    22069604.211 7  86605538.405 7        47.900
G12  24002766.148 6 126135401.466 6        36.500    24002785.488 4  98287418.503 4        26.700    24002785.633 6  98287475.498 6        36.100
G11  21826928.492 7 114701306.768 7        45.800    21826946.195 5  89377864.527 5        35.000    21826946.094 8  89377930.531 8        48.100    21826952.086 8  85653727.545 8        50.200
G09  23786390.000 5 124998368.729 5        34.100    23786421.246 4  97401450.917 4        28.300    23786420.941 6  97401366.920 6        38.700    23786426.422 7  93342956.966 7        42.500
G06  21249011.359 7 111664319.743 7        46.600    21249028.293 7  87011296.137 7        47.400    21249028.480 7  87011244.136 7        47.400    21249030.992 8  83385775.077 8        52.100
G05  25004450.906 5 131399289.139 5        33.700    25004478.730 3 102389184.650 3        23.400    25004477.559 5 102389100.667 5        34.100
G04  25121822.938 4 132016094.844 4        29.600                                                    25121846.902 5 102869809.158 5        34.200    25121854.516 6  98583550.536 6        36.100
> 2025  3 13  8 53 14.0000000  0 12       -.000263330000
G24  25461029.484 5 133798610.266 5        31.500                                                    25461065.324 5 104258796.392 5        34.200    25461071.234 6  99914531.959 6        41.000
G22  21042587.875 7 110579537.068 7        46.800    21042604.660 6  86165544.154 6        37.500
G20  21593078.586 7 113472419.921 7        45.200    21593097.906 5  88420601.074 5        34.000
G19  20741138.063 7 108995424.890 7        45.900    20741151.168 6  84931334.175 6        37.600
G17  21937605.188 7 115282885.079 7        45.200    21937623.078 6  89830585.270 6        41.800    21937623.074 7  89830864.265 7        44.500
G14  22070191.648 6 115979628.817 6        40.900    22070214.145 4  90373593.393 4        29.000    22070213.629 7  90373537.398 7        44.500    22070221.703 8  86607961.478 8        48.000
G12  24002148.172 6 126132153.591 6        36.200    24002167.609 4  98284887.689 4        27.300    24002167.668 6  98284944.694 6        36.100
G11  21826828.094 7 114700779.990 7        46.200    21826846.230 5  89377454.055 5        35.800    21826845.875 8  89377520.060 8        48.000    21826851.879 8  85653334.181 8        50.300
G09  23786170.344 5 124997213.062 5        34.100    23786201.352 4  97400550.404 4        26.800    23786200.793 6  97400466.399 6        38.500    23786206.543 7  93342093.965 7        42.000
G06  21249187.914 7 111665247.789 7        46.400    21249204.922 7  87012019.293 7        47.300    21249205.059 7  87011967.290 7        47.600    21249207.598 8  83386468.105 8        51.900
G05  25003746.563 5 131395585.697 5        33.800    25003773.891 3 102386298.868 3        22.800    25003772.895 5 102386214.875 5        34.300
G04  25121781.547 4                        28.600                                                    25121807.680 5 102869646.849 5        34.400    25121814.699 6  98583394.952 6        36.200
> 2025  3 13  8 53 15.0000000  0 12       -.000263330000
G24  25461257.938 5 133799812.957 5        31.500    25461293.324 3 104259738.56513        20.100    25461294.336 5 104259733.536 5        34.800    25461300.156 6  99915430.056 6        40.900
G22  21042940.484 7 110581389.785 7        46.800    21042957.195 6  86166987.833 6        37.400
G20  21592599.031 7 113469900.094 7        45.200    21592618.258 5  88418637.575 5        33.300
G19  20741029.242 7 108994852.256 7        45.900    20741042.246 6  84930887.966 6        37.600
G17  21937696.367 7 115283367.100 7        45.000    21937714.828 6  89830960.868 6        41.400    21937714.656 7  89831239.870 7        44.900
G14  22070809.070 6 115982873.930 6        41.200    22070831.641 4  90376122.042 4        28.500    22070831.230 7  90376066.049 7        45.100    22070839.211 8  86610384.770 8        48.000
G12  24001529.555 6 126128905.981 6        36.100    24001549.582 4  98282357.096 4        26.000    24001549.719 6  98282414.101 6        36.500
G11  21826728.266 7 114700253.472 7        45.800    21826745.969 5  89377043.794 5        35.400    21826745.469 8  89377109.792 8        48.200    21826751.625 8  85652941.006 8        50.300
G09  23785949.992 5 124996057.665 5        34.300    23785981.617 4  97399650.104 4        28.600    23785981.004 6  97399566.102 6        37.900    23785986.695 7  93341231.183 7        42.000
G06  21249364.242 7 111666175.989 7        46.500    21249381.613 7  87012742.567 7        47.200    21249381.891 7  87012690.568 7        47.800    21249384.250 8  83387161.244 8        51.700
G05  25003041.492 5 131391882.325 5        33.400    25003069.113 3 102383413.122 3        21.700    25003068.313 5 102383329.131 5        34.600
G04  25121741.859 4 132015678.532 4        28.600                                                    25121767.863 5 102869484.782 5        34.600    25121775.055 6  98583239.679 6        36.600
> 2025  3 13  8 53 16.0000000  0 12       -.000263330000
G24  25461487.195 5 133801015.830 5        31.500    25461522.121 3 104260675.843 3        20.900    25461522.824 5 104260670.851 5        34.700    25461529.117 6  99916328.298 6        40.800
G22  21043293.250 7 110583242.995 7        46.700    21043309.797 6  86168431.884 6        37.200
G20  21592119.500 7 113467380.698 7        45.300    21592138.797 5  88416674.422 5        33.200
G19  20740920.359 7 108994279.829 7        45.900    20740933.227 6  84930441.917 6        37.400
G17  21937788.258 7 115283849.337 7        45.200    21937806.672 7  89831336.634 7        42.100    21937806.371 7  89831615.636 7        44.900
G14  22071426.523 6 115986119.334 6        41.100    22071449.363 4  90378650.929 4        28.900    22071449.480 7  90378594.929 7        45.300    22071456.727 7  86612808.283 7        47.900
G12  24000912.102 6 126125658.654 6        36.200    24000931.691 4  98279826.721 4        26.000    24000931.758 6  98279883.727 6        36.700
G11  21826628.250 7 114699727.204 7        45.800    21826645.684 6  89376633.719 6        36.000    21826645.492 8  89376699.722 8        48.000    21826651.445 8  85652548.023 8        50.300
G09  23785731.047 5 124994902.576 5        34.300    23785761.813 4  97398750.044 4        27.400    23785761.402 6  97398666.045 6        37.100    23785766.750 7  93340368.628 7        42.000
G06  21249541.094 7 111667104.338 7        46.500    21249558.332 7  87013465.962 7        47.300    21249558.410 7  87013413.961 7        47.700    21249560.887 8  83387854.497 8        51.800
G05  25002336.359 5 131388178.990 5        33.400    25002364.164 3 102380527.415 3        21.300    25002363.652 5 102380443.427 5        34.300
G04  25121702.570 4 132015470.970 4        29.400                                                    25121727.980 5 102869323.068 5        34.600    25121735.445 6  98583084.701 6        36.300
> 2025  3 13  8 53 17.0000000  0 12       -.000263330000
G24  25461715.969 5 133802218.949 5        31.600    25461750.941 3 104261613.321 3        20.100    25461751.273 5 104261608.324 5        34.200    25461758.102 6  99917226.717 6        40.600
G22  21043646.023 7 110585096.750 7        46.800    21043662.547 6  86169876.364 6        37.600
G20  21591640.484 7 113464861.771 7        45.500    21591659.379 5  88414711.627 5        33.700
G19  20740811.445 7 108993707.655 7        45.800    20740824.418 6  84929996.070 6        37.200
G17  21937880.102 7 115284331.823 7        45.100    21937898.418 7  89831712.596 7        42.100    21937897.934 7  89831991.595 7        45.200
G14  22072044.711 6 115989365.080 6        41.100    22072067.055 4  90381180.077 4        28.600    22072066.855 7  90381124.074 7        45.300    22072074.355 7  86615232.047 7        47.900
G12  24000293.656 6 126122411.645 6        36.200    24000313.777 4  98277296.588 4        25.300    24000314.293 6  98277353.590 6        37.200
G11  21826527.930 7 114699201.239 7        45.800    21826545.496 5  89376223.888 5        35.800    21826545.367 8  89376289.888 8        48.000    21826551.367 8  85652155.265 8        50.200
G09  23785511.266 5 124993747.826 5        34.900    23785542.168 4  97397850.245 4        29.600    23785541.512 6  97397766.249 6        37.300    23785547.117 7  93339506.332 7        42.200
G06  21249717.531 7 111668032.895 7        46.700    21249734.895 7  87014189.518 7        47.200    21249735.141 8  87014137.512 8        48.100    21249737.621 8  83388547.900 8        51.800
G05  25001633.133 5 131384475.759 5        33.700    25001659.441 3 102377641.799 3        22.000    25001659.141 5 102377557.807 5        34.200
G04  25121661.984 4                        29.100                                                    25121688.492 5 102869161.667 5        34.600    25121695.992 6  98582930.030 6        36.200
> 2025  3 13  8 53 18.0000000  0 12       -.000263332000
G24  25461946.430 5 133803422.271 5        32.000    25461980.027 3 104262550.962 3        20.900    25461980.664 5 104262545.958 5        34.300    25461987.152 6  99918125.293 6        41.100
G22  21043998.828 7 110586950.989 7        46.900    21044015.449 6  86171321.223 6        37.900
G20  21591160.938 7 113462343.256 7        45.600    21591180.078 5  88412749.161 5        33.500
G19  20740702.539 7 108993135.684 7        45.900    20740715.598 6  84929550.383 6        37.500
G17  21937972.148 7 115284814.509 7        45.200    21937990.379 6  89832088.714 6        41.800    21937989.805 7  89832367.712 7        45.100
G14  22072662.492 6 115992611.113 6        41.100    22072684.801 4  90383709.442 4        29.300    22072684.270 7  90383653.451 7        45.400    22072692.031 8  86617656.031 8        48.000
G12  23999676.805 6 126119164.898 6        36.600    23999696.066 4  98274766.664 4        26.800    23999696.602 6  98274823.665 6        37.300
G11  21826427.930 7 114698675.520 7        45.700    21826445.387 5  89375814.239 5        35.800    21826445.438 8  89375880.246 8        48.000    21826451.395 8  85651762.694 8        50.000
G09  23785292.148 5 124992593.365 5        34.600    23785322.414 4  97396950.678 4        28.500    23785321.516 6  97396866.686 6        37.300    23785327.453 7  93338644.245 7        42.600
G06  21249894.242 7 111668961.591 7        46.400    21249911.684 7  87014913.177 7        47.200    21249911.797 7  87014861.176 7        47.900    21249914.332 8  83389241.410 8        51.700
G05  25000928.273 5 131380772.577 5        34.100    25000954.762 3 102374756.203 3        22.800    25000954.566 5 102374672.213 5        34.200
G04  25121623.234 4 132015057.150 4        29.600                                                    25121649.074 5 102869000.588 5        34.700    25121656.570 6  98582775.684 6        36.300
> 2025  3 13  8 53 19.0000000  0 12       -.000263332000
G24  25462174.781 5 133804625.673 5        31.900    25462209.043 3 104263488.671 3        20.600    25462209.809 5 104263483.699 5        33.800    25462216.184 6  99919023.940 6        41.200
G22  21044351.844 7 110588805.617 7        46.900    21044368.359 6  86172766.386 6        38.300
G20  21590682.078 7 113459825.059 7        45.700    21590700.828 5  88410786.938 5        33.100
G19  20740593.711 7 108992563.804 7        46.000    20740606.758 6  84929104.763 6        37.500
G17  21938063.758 7 115285297.295 7        44.100    21938082.285 6  89832464.907 6        41.400    21938081.926 7  89832743.907 7        44.800
G14  22073280.039 6 115995857.339 6        41.300    22073302.480 4  90386238.972 4        29.400    22073302.320 7  90386182.972 7        45.300    22073309.730 7  86620080.155 7        47.800
G12  23999058.703 6 126115918.309 6        36.400    23999078.355 4  98272236.862 4        26.000    23999078.801 6  98272293.875 6        36.700
G11  21826327.836 7 114698149.956 7        45.800    21826345.309 5  89375404.723 5        35.500    21826345.688 8  89375470.720 8        48.200    21826351.316 8  85651370.234 8        50.200
G09  23785073.141 5 124991439.108 5        35.200    23785102.730 4  97396051.262 4        28.600    23785102.313 6  97395967.269 6        37.100    23785107.801 7  93337782.304 7        42.200
G06  21250071.094 7 111669890.341 7        46.400    21250088.320 7  87015636.882 7        47.300    21250088.551 8  87015584.876 8        48.200    21250091.012 8  83389934.960 8        51.600
G05  25000223.586 5 131377069.372 5        34.400    25000249.996 3 102371870.608 3        21.800    25000250.160 5 102371786.605 5        34.000
G04  25121585.227 4 132014850.70814        29.600                                                    25121609.828 5 102868839.757 5        34.700    25121617.305 6  98582621.546 6        36.400
> 2025  3 13  8 53 20.0000000  0 12       -.000263332000
G24  25462404.109 5 133805829.286 5        32.500    25462438.063 3 104264426.534 3        20.600    25462438.301 5 104264421.558 5        33.800    25462445.285 6  99919922.727 6        41.100
G22  21044704.945 7 110590660.734 7        46.900    21044721.379 6  86174211.931 6        38.500
G20  21590202.773 7 113457307.287 7        45.800    21590221.668 5  88408825.046 5        33.400
G19  20740484.906 7 108991992.128 7        45.700    20740497.996 6  84928659.300 6        37.800
G17  21938155.148 7 115285780.274 7        44.300    21938174.070 6  89832841.252 6        41.300    21938174.102 7  89833120.256 7        44.600
G14  22073897.578 6 115999103.854 6        41.300    22073920.215 4  90388768.718 4        28.500    22073919.719 7  90388712.721 7        45.400    22073927.543 7  86622504.498 7        47.500
G12  23998440.633 6 126112671.980 6        36.500    23998460.488 4  98269707.259 4        26.800    23998460.465 6  98269764.270 6        36.400
G11  21826227.609 7 114697624.643 7        45.700    21826245.398 5  89374995.392 5        35.900    21826245.453 8  89375061.393 8        48.200    21826251.383 8  85650977.962 8        50.500
G09  23784851.695 5 124990285.133 5        35.100    23784883.012 4  97395152.071 4        28.300    23784882.281 6  97395068.074 6        37.700    23784888.246 7  93336920.581 7        42.300
G06  21250247.953 7 111670819.243 7        46.500    21250265.043 7  87016360.705 7        47.300    21250265.215 8  87016308.700 8        48.400    21250267.879 8  83390628.626 8        51.700
G05  24999519.719 5 131373366.223 5        34.200    24999545.371 3 102368985.031 3        22.000    24999545.512 5 102368901.029 5        34.100
G04  25121546.086 4 132014644.645 4        29.400                                                    25121570.457 5 102868679.224 5        34.300    25121578.160 6  98582467.704 6        36.000
> 2025  3 13  8 53 21.0000000  0 12       -.000263334000
G24  25462633.094 5 133807033.149 5        32.500    25462667.078 3 104265364.613 3        19.900    25462667.969 5 104265359.614 5        34.100    25462674.438 6  99920821.703 6        41.300
G22  21045057.883 7 110592516.392 7        46.700    21045074.496 6  86175657.899 6        37.600
G20  21589723.523 7 113454789.973 7        45.400    21589742.734 5  88406863.509 5        33.200
G19  20740376.234 7 108991420.712 7        46.000    20740389.273 6  84928214.047 6        37.900
G17  21938247.531 7 115286263.516 7        44.300    21938266.148 6  89833217.805 6        41.600    21938266.070 7  89833496.803 7        44.200
G14  22074515.828 6 116002350.715 6        41.300    22074538.012 4  90391298.740 4        28.500    22074537.586 7  90391242.735 7        44.900    22074545.441 7  86624929.096 7        47.500
G12  23997822.953 6 126109425.990 6        36.800    23997842.727 4  98267177.927 4        26.800    23997842.785 6  98267234.930 6        36.400
G11  21826127.984 7 114697099.633 7        45.700    21826145.516 5  89374586.299 5        35.800    21826145.672 8  89374652.300 8        48.400    21826151.520 8  85650585.920 8        50.500
G09  23784632.219 5 124989131.514 5        34.300    23784663.520 4  97394253.164 4        28.700    23784662.703 6  97394169.157 6        37.900    23784668.688 7  93336059.122 7        42.800
G06  21250424.852 7 111671748.350 7        46.300    21250441.832 7  87017084.688 7        47.400    21250442.133 7  87017032.684 7        47.900    21250444.637 8  83391322.443 8        51.700
G05  24998813.445 5 131369663.161 5        33.700    24998840.793 3 102366099.538 3        22.000    24998841.070 5 102366015.539 5        34.800
G04  25121507.102 5 132014439.048 5        31.000                                                    25121531.539 5 102868519.030 5        34.400    25121539.191 6  98582314.190 6        36.200
> 2025  3 13  8 53 22.0000000  0 12       -.000263334000
G24  25462862.273 5 133808237.232 5        32.200    25462896.180 3 104266302.840 3        20.600    25462897.238 5 104266297.841 5        34.200    25462903.480 6  99921720.843 6        41.200
G22  21045411.484 7 110594372.571 7        46.800    21045427.680 6  86177104.271 6        37.900
G20  21589244.594 7 113452273.122 7        45.400    21589263.914 5  88404902.340 5        32.700
G19  20740267.289 7 108990849.530 7        45.800    20740280.512 6  84927768.972 6        37.800
G17  21938339.266 7 115286746.986 7        44.700    21938358.102 6  89833594.532 6        41.300    21938358.172 7  89833873.532 7        44.300
G14  22075133.453 6 116005597.897 6        41.700    22075155.953 4  90393829.009 4        28.400    22075155.637 7  90393773.007 7        44.900    22075163.273 7  86627353.938 7        47.800
G12  23997206.148 6 126106180.296 6        36.700    23997225.102 4  98264648.816 4        27.100    23997225.328 6  98264705.822 6        36.800
G11  21826027.891 7 114696574.908 7        45.700    21826045.527 5  89374177.432 5        35.400    21826045.641 7  89374243.431 7        47.900    21826051.582 8  85650194.088 8        50.700
G09  23784412.633 5 124987978.221 5        34.300    23784443.992 4  97393354.504 4        28.900    23784442.875 6  97393270.495 6        37.700    23784449.277 7  93335197.908 7        42.600
G06  21250601.766 7 111672677.640 7        46.400    21250618.703 7  87017808.811 7        47.800    21250618.992 8  87017756.809 8        48.000    21250621.457 8  83392016.394 8        51.900
G05  24998109.211 5 131365960.174 5        33.800    24998136.313 3 102363214.097 3        21.700    24998136.820 5 102363130.105 5        34.800
G04  25121468.797 5 132014233.884 5        30.700                                                    25121492.430 5 102868359.167 5        34.100    25121500.121 6  98582160.991 6        36.700
> 2025  3 13  8 53 23.0000000  0 12       -.000263332000
G24  25463091.555 5 133809441.468 5        32.000    25463125.371 3 104267241.189 3        19.900    25463126.191 5 104267236.223 5        33.800    25463132.605 6  99922620.121 6        41.200
G22  21045764.555 7 110596229.223 7        46.700    21045780.961 6  86178551.006 6        37.700
G20  21588766.000 7 113449756.659 7        45.400    21588784.980 5  88402941.465 5        33.200
G19  20740158.828 7 108990278.527 7        46.000    20740171.703 6  84927324.035 6        37.800
G17  21938431.484 7 115287230.630 7        44.700    21938450.164 6  89833971.398 6        41.400    21938450.297 7  89834250.400 7        44.600
G14  22075752.406 6 116008845.352 6        41.500    22075774.039 4  90396359.480 4        28.700    22075773.578 7  90396303.486 7        44.700    22075781.168 7  86629778.978 7        47.500
G12  23996588.063 6 126102934.837 6        36.900    23996607.313 4  98262119.891 4        25.800    23996607.410 6  98262176.898 6        36.600
G11  21825928.016 7 114696050.409 7        45.600    21825945.660 5  89373768.735 5        35.500    21825945.625 7  89373834.737 7        47.900    21825951.738 8  85649802.427 8        50.600
G09  23784192.930 5 124986825.196 5        34.400    23784224.633 4  97392456.037 4        28.600    23784223.949 6  97392372.051 6        38.300    23784229.945 7  93334336.896 7        42.200
G06  21250778.414 7 111673607.052 7        46.400    21250795.535 7  87018533.032 7        47.400    21250795.914 7  87018481.028 7        47.900    21250798.305 8  83392710.441 8        52.000
G05  24997404.508 5 131362257.235 5        33.700    24997431.656 3 102360328.703 3        22.500    24997432.484 5 102360244.694 5        34.600
G04  25121429.750 5 132014029.082 5        30.300                                                    25121453.531 5 102868199.607 5        35.000    25121461.031 6  98582008.069 6        37.000
> 2025  3 13  8 53 24.0000000  0 12       -.000263334000
G24  25463320.320 5 133810645.919 5        32.000    25463354.563 3 104268179.718 3        20.900    25463354.930 5 104268174.747 5        34.300    25463361.801 6  99923519.527 6        40.900
G22  21046118.031 7 110598086.348 7        46.800    21046134.324 6  86179998.118 6        37.700
G20  21588286.914 7 113447240.601 7        45.100    21588306.215 5  88400980.914 5        32.900
G19  20740050.219 7 108989707.713 7        45.900    20740063.156 6  84926879.247 6        37.700
G17  21938524.039 7 115287714.462 7        45.100    21938542.273 6  89834348.412 6        41.300    21938542.219 7  89834627.416 7        44.600
G14  22076369.867 6 116012093.077 6        41.300    22076392.059 4  90398890.176 4        29.300    22076391.578 7  90398834.182 7        44.800    22076399.254 7  86632204.230 7        47.700
G12  23995971.039 6 126099689.647 6        36.200    23995989.723 4  98259591.178 4        26.000    23995989.734 6  98259648.188 6        36.300
G11  21825828.422 7 114695526.151 7        45.700    21825846.000 5  89373360.227 5        35.300    21825845.832 8  89373426.234 8        48.000    21825852.023 8  85649410.941 8        50.100
G09  23783973.742 5 124985672.475 5        34.000    23784005.254 4  97391557.822 4        28.900    23784004.926 6  97391473.825 6        38.400    23784010.492 7  93333476.099 7        42.500
G06  21250955.320 7 111674536.604 7        46.400    21250972.520 7  87019257.362 7        47.300    21250972.934 7  87019205.356 7        47.600    21250975.172 8  83393404.588 8        51.900
G05  24996699.703 5 131358554.320 5        33.400    24996726.980 3 102357443.317 3        22.500    24996727.359 5 102357359.322 5        34.500
G04  25121389.398 5 132013824.660 5        31.300                                                    25121414.457 5 102868040.326 5        34.800    25121422.129 6  98581855.429 6        37.200
> 2025  3 13  8 53 25.0000000  0 12       -.000263334000
G24  25463549.656 5 133811850.612 5        31.900    25463583.824 3 104269118.450 3        20.400    25463584.211 5 104269113.455 5        34.100    25463591.172 6  99924419.128 6        41.100
G22  21046471.289 7 110599944.020 7        46.800    21046487.973 6  86181445.651 6        37.800
G20  21587808.375 7 113444725.014 7        45.000    21587827.414 5  88399020.719 5        33.100
G19  20739941.656 7 108989137.162 7        46.000    20739954.566 6  84926434.662 6        37.600
G17  21938615.852 7 115288198.566 7        45.000    21938634.313 6  89834725.634 6        41.300    21938634.484 7  89835004.630 7        44.500
G14  22076987.914 6 116015341.161 6        41.400    22077010.129 4  90401421.151 4        28.100    22077009.301 7  90401365.155 7        44.900    22077017.293 7  86634629.741 7        47.600
G12  23995353.758 6 126096444.788 6        36.500    23995372.168 4  98257062.713 4        26.900    23995372.309 6  98257119.724 6        36.200
G11  21825728.375 7 114695002.203 7        45.600    21825746.328 5  89372951.964 5        35.400    21825746.129 7  89373017.969 7        47.700    21825752.277 8  85649019.695 8        49.900
G09  23783753.531 5 124984520.089 5        33.800    23783785.980 4  97390659.880 4        28.100    23783785.656 6  97390575.882 6        38.300    23783791.270 7  93332615.566 7        42.600
G06  21251132.070 7 111675466.361 7        46.400    21251149.348 7  87019981.849 7        47.300    21251149.738 7  87019929.846 7        47.600    21251152.121 8  83394098.892 8        51.900
G05  24995995.211 5 131354851.543 5        33.300    24996022.363 3 102354558.042 3        21.800    24996022.367 5 102354474.038 5        34.500
G04  25121349.883 4 132013620.754 4        29.600                                                    25121375.547 5 102867881.437 5        34.700    25121383.223 6  98581703.152 6        37.400
> 2025  3 13  8 53 26.0000000  0 12       -.000263334000
G24  25463778.789 5 133813055.479 5        31.500    25463813.297 3 104270057.299 3        19.900    25463813.547 5 104270052.309 5        34.300    25463820.438 6  99925318.862 6        40.800
G22  21046824.898 7 110601802.158 7        46.600    21046841.617 6  86182893.549 6        37.400
G20  21587329.625 7 113442209.833 7        44.700    21587348.684 5  88397060.848 5        33.300
G19  20739833.063 7 108988566.787 7        46.000    20739845.875 6  84925990.215 6        37.500
G17  21938708.336 7 115288682.839 7        45.300    21938726.410 6  89835102.984 6        41.500    21938726.168 7  89835381.986 7        44.600
G14  22077606.047 6 116018589.507 6        41.300    22077628.188 4  90403952.318 4        28.100    22077627.621 7  90403896.332 7        45.100    22077635.426 7  86637055.449 7        47.700
G12  23994735.430 6 126093200.159 6        37.200    23994754.629 4  98254534.428 4        26.100    23994754.711 6  98254591.453 6        36.100
G11  21825629.008 7 114694478.486 7        45.600    21825646.652 5  89372543.884 5        35.000    21825646.605 7  89372609.884 7        47.900    21825652.570 8  85648628.614 8        50.300
G09  23783534.273 5 124983367.967 5        33.700    23783566.852 4  97389762.121 4        29.200    23783566.164 6  97389678.138 6        38.400    23783572.027 7  93331755.231 7        42.700
G06  21251309.273 7 111676396.248 7        46.400    21251326.355 7  87020706.439 7        47.200    21251326.660 7  87020654.437 7        47.800    21251329.090 8  83394793.292 8        51.800
G05  24995289.820 5 131351148.764 5        33.000    24995317.832 3 102351672.759 3        22.300    24995317.887 5 102351588.763 5        34.200
G04  25121311.445 4 132013417.12514        29.600                                                    25121336.492 5 102867722.798 5        34.700    25121344.859 6  98581551.125 6        37.300
> 2025  3 13  8 53 27.0000000  0 12       -.000263334000
G24  25464007.406 5 133814260.495 5        32.000    25464042.578 3 104270996.274 3        20.100    25464042.801 5 104270991.281 5        34.400    25464049.879 6  99926218.712 6        40.400
G22  21047178.477 7 110603660.755 7        46.600    21047195.207 6  86184341.806 6        37.800
G20  21586851.242 7 113439695.019 7        44.700    21586870.063 5  88395101.263 5        33.500
G19  20739724.680 7 108987996.585 7        46.000    20739737.469 6  84925545.904 6        38.100
G17  21938800.141 7 115289167.279 7        44.900    21938818.668 6  89835480.470 6        41.300    21938818.605 7  89835759.466 7        44.500
G14  22078224.031 6 116021838.105 6        41.400    22078246.512 4  90406483.701 4        29.100    22078246.156 7  90406427.697 7        45.100    22078253.648 7  86639481.346 7        47.500
G12  23994117.953 6 126089955.767 6        36.700    23994137.125 4  98252006.348 4        26.700    23994136.859 6  98252063.359 6        36.000
G11  21825529.242 7 114693954.973 7        45.500    21825546.984 5  89372135.961 5        35.700    21825547.023 8  89372201.963 8        48.000    21825553.027 8  85648237.691 8        50.100
G09  23783316.195 5 124982216.124 5        33.800    23783347.590 4  97388864.586 4        28.600    23783347.172 6  97388780.593 6        38.400    23783352.930 7  93330895.084 7        42.600
G06  21251486.141 7 111677326.243 7        46.300    21251503.398 7  87021431.114 7        47.300    21251503.500 7  87021379.109 7        47.600    21251506.016 8  83395487.772 8        51.600
G05  24994585.148 5 131347446.017 5        33.300    24994613.313 3 102348787.514 3        22.800    24994613.027 5 102348703.512 5        34.600
G04  25121272.836 5                        30.300                                                    25121298.016 5 102867564.438 5        35.300    25121306.367 6  98581399.399 6        37.200
> 2025  3 13  8 53 28.0000000  0 12       -.000263336000
G24  25464236.406 5 133815465.713 5        31.800    25464272.082 3 104271935.413 3        20.400    25464272.090 5 104271930.397 5        33.600    25464279.430 6  99927118.700 6        40.400
G22  21047531.938 7 110605519.835 7        46.600    21047548.926 6  86185790.433 6        37.300
G20  21586372.250 7 113437180.629 7        45.300    21586391.598 5  88393142.007 5        33.500
G19  20739616.383 7 108987426.577 7        46.100    20739629.039 6  84925101.745 6        37.800
G17  21938892.789 7 115289651.915 7        45.200    21938910.902 6  89835858.108 6        41.500    21938910.816 7  89836137.107 7        44.800
G14  22078842.227 6 116025086.997 6        41.600    22078864.703 4  90409015.301 4        28.100    22078864.434 7  90408959.293 7        44.900    22078871.910 7  86641907.458 7        47.400
G12  23993501.055 6 126086711.645 6        36.200    23993519.840 4  98249478.469 4        25.600    23993519.391 6  98249535.462 6        36.500
G11  21825429.695 7 114693431.720 7        45.600    21825447.371 5  89371728.238 5        35.400    21825447.574 7  89371794.239 7        47.800    21825453.391 8  85647846.954 8        50.100
G09  23783096.898 5 124981064.566 5        34.000    23783128.430 4  97387967.276 4        29.200    23783127.988 6  97387883.287 6        38.500    23783133.625 7  93330035.170 7        42.600
G06  21251662.984 7 111678256.387 7        46.300    21251680.320 7  87022155.904 7        47.200    21251680.598 8  87022103.900 8        48.000    21251683.020 8  83396182.363 8        51.500
G05  24993880.875 5 131343743.305 5        33.200    24993908.723 3 102345902.288 3        22.900    24993908.965 5 102345818.293 5        35.100
G04  25121233.594 4 132013011.031 4        29.600                                                    25121259.566 5 102867406.393 5        34.700    25121267.844 6  98581247.914 6        37.500
> 2025  3 13  8 53 29.0000000  0 12       -.000263336000
G24  25464466.617 5 133816671.136 5        32.500    25464501.535 3 104272874.685 3        20.600    25464501.535 5 104272869.660 5        33.400    25464508.781 6  99928018.841 6        40.600
G22  21047885.859 7 110607379.404 7        46.600    21047902.824 6  86187239.443 6        37.900
G20  21585894.508 7 113434666.660 7        45.100    21585913.219 5  88391183.078 5        33.200
G19  20739507.898 7 108986856.779 7        46.200    20739520.637 6  84924657.748 6        37.700
G17  21938984.797 7 115290136.754 7        45.400    21939003.121 7  89836235.902 7        42.000    21939002.980 7  89836514.900 7        45.000
G14  22079460.477 6 116028336.173 6        41.800    22079482.945 4  90411547.108 4        27.200    22079482.801 7  90411491.117 7        45.000    22079490.137 7  86644333.787 7        47.900
G12  23992883.102 6 126083467.780 6        36.700    23992902.641 4  98246950.775 4        24.900    23992902.258 6  98247007.791 6        36.200
G11  21825329.977 7 114692908.712 7        45.700    21825347.816 5  89371320.706 5        34.800    21825348.039 7  89371386.708 7        47.800    21825353.910 8  85647456.406 8        50.000
G09  23782877.727 5 124979913.304 5        34.000    23782909.500 4  97387070.205 4        28.700    23782909.172 6  97386986.209 6        38.500    23782914.602 7  93329175.464 7        42.900
G06  21251839.773 7 111679186.677 7        46.300    21251857.359 7  87022880.810 7        47.000    21251857.426 7  87022828.805 7        47.900    21251860.004 8  83396877.065 8        52.000
G05  24993176.555 5 131340040.661 5        33.600    24993204.227 3 102343017.115 3        22.600    24993204.664 5 102342933.124 5        35.400
G04  25121194.930 5 132012808.587 5        30.100                                                    25121221.113 5 102867248.652 5        34.500    25121229.680 6  98581096.747 6        37.800
> 2025  3 13  8 53 30.0000000  0 12       -.000263336000
G24  25464696.391 5 133817876.732 5        31.800    25464731.043 3 104273814.101 3        20.100    25464730.816 5 104273809.094 5        32.900    25464738.336 6  99928919.117 6        40.600
G22  21048240.156 7 110609239.462 7        46.600    21048256.750 6  86188688.840 6        37.500
G20  21585415.383 7 113432153.100 7        45.000    21585434.945 5  88389224.473 5        33.000
G19  20739399.250 7 108986287.173 7        45.800    20739412.266 6  84924213.902 6        37.700
G17  21939077.273 7 115290621.791 7        45.400    21939095.387 7  89836613.850 7        42.000    21939095.313 7  89836892.853 7        44.700
G14  22080079.094 6 116031585.640 6        41.400    22080101.414 4  90414079.159 4        28.400    22080100.750 7  90414023.162 7        44.900    22080108.539 8  86646760.329 8        48.000
G12  23992266.094 6 126080224.194 6        36.700    23992285.301 4  98244423.315 4        26.800    23992285.383 6  98244480.306 6        36.200
G11  21825230.836 7 114692385.950 7        45.700    21825248.426 5  89370913.365 5        35.000    21825248.324 7  89370979.369 7        47.500    21825254.379 8  85647066.042 8        50.100
G09  23782658.281 5 124978762.347 5        34.200    23782690.449 4  97386173.351 4        29.300    23782690.672 6  97386089.358 6        38.300    23782695.539 7  93328315.984 7        42.300
G06  21252016.914 7 111680117.116 7        46.300    21252034.355 7  87023605.832 7        47.000    21252034.691 7  87023553.825 7        47.900    21252037.070 8  83397571.876 8        51.600
G05  24992472.523 5 131336338.057 5        34.000    24992499.633 3 102340132.004 3        22.900    24992500.453 5 102340047.982 5        35.700
G04  25121155.867 4 132012606.518 4        29.600                                                    25121182.793 5 102867091.218 5        35.300    25121191.273 6  98580945.876 6        38.200
> 2025  3 13  8 53 31.0000000  0 12       -.000263336000
G24  25464926.844 5 133819082.517 5        32.200    25464960.645 3 104274753.651 3        20.600    25464960.172 5 104274748.658 5        33.400    25464967.785 6  99929819.545 6        41.000
G22  21048594.383 7 110611100.013 7        46.700    21048610.805 6  86190138.616 6        38.000
G20  21584937.625 7 113429639.956 7        44.500    21584956.754 5  88387266.183 5        33.800
G19  20739291.063 7 108985717.773 7        45.800    20739303.848 6  84923770.213 6        37.300
G17  21939169.625 7 115291107.031 7        45.400    21939187.754 7  89836991.959 7        42.200    21939187.566 7  89837270.958 7        45.000
G14  22080697.156 6 116034835.386 6        41.300    22080719.746 4  90416611.421 4        28.900    22080719.262 7  90416555.434 7        44.500    22080726.969 7  86649187.090 7        47.800
G12  23991648.852 6 126076980.864 6        36.900    23991668.141 4  98241896.049 4        26.600    23991668.543 6  98241953.035 6        36.400
G11  21825131.188 7 114691863.442 7        45.500    21825148.988 5  89370506.224 5        35.700    21825148.797 7  89370572.229 7        47.300    21825154.941 8  85646675.862 8        50.100
G09  23782440.547 5 124977611.665 5        34.100    23782471.488 4  97385276.727 4        27.700    23782471.391 6  97385192.736 6        38.300    23782476.520 7  93327456.727 7        42.400
G06  21252193.945 7 111681047.709 7        46.200    21252211.477 7  87024330.970 7        47.000    21252211.668 8  87024278.965 8        48.000    21252214.211 8  83398266.804 8        51.700
G05  24991768.031 5 131332635.525 5        34.400    24991795.164 3 102337246.898 3        22.500    24991796.113 5 102337162.904 5        35.400
G04  25121118.563 4 132012404.867 4        29.900                                                    25121144.449 5 102866934.095 5        35.100    25121153.059 6  98580795.303 6        38.400
> 2025  3 13  8 53 32.0000000  0 12       -.000263336000
G24  25465155.250 5 133820288.567 5        32.900    25465190.254 3 104275693.428 3        20.900    25465189.426 5 104275688.411 5        33.400    25465197.418 6  99930720.152 6        40.800
G22  21048948.633 7 110612961.086 7        47.100    21048964.895 6  86191588.800 6        37.900
G20  21584459.023 7 113427127.272 7        45.000    21584478.578 5  88385308.261 5        33.500
G19  20739182.508 7 108985148.614 7        45.900    20739195.559 6  84923326.715 6        37.300
G17  21939262.141 7 115291592.513 7        45.500    21939280.230 7  89837370.255 7        42.000    21939279.957 7  89837649.254 7        45.100
G14  22081316.023 6 116038085.469 6        41.200    22081338.160 4  90419143.952 4        28.300    22081337.754 7  90419087.967 7        44.800    22081345.449 7  86651614.095 7        47.900
G12  23991031.836 6 126073737.839 6        37.100    23991051.051 4  98239369.019 4        26.400    23991051.387 6  98239426.009 6        36.600
G11  21825031.922 7 114691341.225 7        45.500    21825049.449 5  89370099.306 5        35.000    21825049.340 7  89370165.313 7        47.400    21825055.629 8  85646285.905 8        50.000
G09  23782221.930 5 124976461.316 5        34.100    23782252.508 4  97384380.365 4        28.700    23782252.070 6  97384296.375 6        38.700    23782257.582 7  93326597.712 7        42.200
G06  21252370.953 7 111681978.493 7        46.300    21252388.676 7  87025056.262 7        47.100    21252388.809 8  87025004.254 8        48.000    21252391.289 8  83398961.872 8        51.800
G05  24991064.813 5 131328933.082 5        34.400    24991090.668 3 102334361.892 3        22.900    24991091.426 5 102334277.887 5        35.500
G04  25121082.070 4 132012203.624 4        28.900                                                    25121106.652 5 102866777.302 5        35.100    25121114.742 6  98580645.051 6        38.400
> 2025  3 13  8 53 33.0000000  0 12       -.000263336000
G24  25465385.328 5 133821494.829 5        32.500    25465419.922 3 104276633.363 3        20.600    25465419.008 5 104276628.340 5        33.400    25465426.965 6  99931620.911 6        40.700
G22  21049303.063 7 110614822.668 7        46.900    21049319.293 6  86193039.383 6        37.700
G20  21583981.234 7 113424615.022 7        45.000    21584000.496 5  88383350.673 5        34.000
G19  20739074.305 7 108984579.677 7        45.900    20739087.293 6  84922883.388 6        37.700
G17  21939354.430 7 115292078.223 7        45.800    21939372.676 6  89837748.728 6        41.400    21939372.227 7  89838027.728 7        45.300
G14  22081934.094 6 116041335.855 6        41.000    22081956.824 4  90421676.728 4        28.600    22081956.707 7  90421620.724 7        45.200    22081963.953 7  86654041.326 7        47.800
G12  23990414.891 6 126070495.096 6        37.300    23990434.082 4  98236842.216 4        27.100    23990434.305 6  98236899.212 6        36.700
G11  21824932.797 7 114690819.272 7        45.600    21824950.070 5  89369692.597 5        35.200    21824949.879 7  89369758.604 7        47.400    21824956.254 8  85645896.141 8        50.300
G09  23782002.375 5 124975311.268 5        33.900    23782033.543 4  97383484.226 4        28.900    23782033.184 6  97383400.253 6        38.700    23782038.832 7  93325738.935 7        42.500
G06  21252548.453 7 111682909.429 7        46.400    21252565.785 7  87025781.668 7        47.200    21252565.820 7  87025729.663 7        47.800    21252568.422 8  83399657.056 8        51.700
G05  24990360.008 5 131325230.704 5        34.400    24990386.266 3 102331476.919 3        23.000    24990387.098 5 102331392.927 5        35.500
G04  25121042.594 4 132012002.816 4        28.600                                                    25121068.484 5 102866620.822 5        35.200    25121076.605 6  98580495.104 6        38.600
> 2025  3 13  8 53 34.0000000  0 12       -.000263336000
G24  25465615.586 5 133822701.251 5        32.900    25465649.586 3 104277573.424 3        20.100    25465649.176 5 104277568.422 5        33.600    25465656.535 6  99932521.814 6        40.800
G22  21049657.414 7 110616684.738 7        46.900    21049673.691 6  86194490.345 6        37.700
G20  21583503.125 7 113422103.192 7        45.300    21583522.652 5  88381393.415 5        33.500
G19  20738965.945 7 108984010.937 7        46.000    20738979.066 6  84922440.217 6        37.900
G17  21939447.133 7 115292564.128 7        45.400    21939465.008 6  89838127.352 6        41.800    21939464.754 7  89838406.353 7        45.300
G14  22082552.945 6 116044586.529 6        41.000    22082575.340 4  90424209.707 4        27.900    22082575.125 7  90424153.716 7        45.400    22082582.559 7  86656468.775 7        47.500
G12  23989798.695 6 126067252.618 6        36.900    23989816.961 4  98234315.617 4        27.200    23989817.129 6  98234372.610 6        36.600
G11  21824833.391 7 114690297.571 7        45.700    21824850.859 5  89369286.087 5        34.900    21824850.629 7  89369352.087 7        47.600    21824856.984 8  85645506.568 8        50.500
G09  23781783.508 5 124974161.554 5        33.700    23781814.730 4  97382588.358 4        28.300    23781814.539 6  97382504.365 6        38.300    23781820.023 7  93324880.374 7        42.800
G06  21252725.703 7 111683840.517 7        46.300    21252742.996 7  87026507.195 7        47.200    21252742.930 7  87026455.191 7        47.900    21252745.598 8  83400352.354 8        51.800
G05  24989655.133 5 131321528.373 5        34.000    24989681.832 3 102328592.001 3        22.800    24989682.461 5 102328508.004 5        35.500
G04  25121003.688 5 132011802.378 5        30.100                                                    25121030.199 5 102866464.659 5        35.100    25121038.324 6  98580345.450 6        38.000
> 2025  3 13  8 53 35.0000000  0 12       -.000263338000
G24  25465845.609 5 133823907.860 5        32.300    25465879.109 3 104278513.645 3        21.100    25465878.805 5 104278508.624 5        33.900    25465886.180 6  99933422.842 6        41.100
G22  21050011.594 7 110618547.263 7        46.900    21050027.945 6  86195941.664 6        37.400
G20  21583025.086 7 113419591.747 7        45.200    21583044.734 5  88379436.449 5        33.300
G19  20738858.227 7 108983442.377 7        46.000    20738870.883 6  84921997.186 6        37.900
G17  21939539.719 7 115293050.205 7        45.200    21939557.520 6  89838506.112 6        41.700    21939557.191 7  89838785.114 7        45.300
G14  22083171.531 6 116047837.462 6        41.100    22083193.938 4  90426742.902 4        27.300    22083193.520 7  90426686.904 7        45.100    22083201.164 7  86658896.415 7        47.500
G12  23989181.172 6 126064010.375 6        36.600    23989199.840 4  98231789.196 4        26.900    23989200.094 6  98231846.200 6        36.700
G11  21824733.688 7 114689776.085 7        45.800    21824751.793 5  89368879.741 5        35.400    21824751.508 7  89368945.746 7        47.600    21824757.691 8  85645117.157 8        50.500
G09  23781564.930 5 124973012.075 5        33.700    23781596.145 4  97381692.662 4        28.200    23781595.371 6  97381608.684 6        38.100    23781601.324 7  93324022.014 7        42.700
G06  21252902.977 7 111684771.729 7        46.400    21252920.051 7  87027232.818 7        47.200    21252920.309 8  87027180.812 8        48.100    21252922.820 8  83401047.742 8        51.800
G05  24988950.773 5 131317826.067 5        34.200    24988977.434 3 102325707.093 3        23.200    24988977.945 5 102325623.114 5        35.400
G04  25120966.703 5 132011602.323 5        30.500                                                    25120991.832 5 102866308.791 5        34.600    25121000.066 6  98580196.065 6        37.900
> 2025  3 13  8 53 36.0000000  0 12       -.000263336000
G24  25466074.523 5 133825114.675 5        32.900    25466108.668 3 104279453.999 3        20.100    25466108.250 5 104279449.006 5        33.800    25466115.793 6  99934324.031 6        40.600
G22  21050365.898 7 110620410.301 7        46.600    21050382.496 6  86197393.379 6        37.600
G20  21582547.445 7 113417080.747 7        45.300    21582566.750 5  88377479.831 5        33.800
G19  20738749.750 7 108982874.042 7        46.000    20738762.848 6  84921554.332 6        37.800
G17  21939632.148 7 115293536.505 7        44.900    21939650.066 6  89838885.045 6        41.800    21939649.934 7  89839164.048 7        45.000
G14  22083790.211 6 116051088.707 6        41.100    22083812.715 4  90429276.347 4        28.300    22083812.063 7  90429220.340 7        45.000    22083819.891 7  86661324.289 7        47.200
G12  23988563.922 6 126060768.425 6        36.300    23988583.016 4  98229263.014 4        25.500    23988583.297 6  98229320.005 6        36.000
G11  21824634.773 7 114689254.875 7        45.800    21824652.570 5  89368473.615 5        35.500    21824652.223 7  89368539.616 7        47.800    21824658.559 8  85644727.950 8        50.400
G09  23781345.305 5 124971862.933 5        34.600    23781377.613 4  97380797.242 4        26.500    23781376.707 6  97380713.247 6        37.700    23781382.559 7  93323163.892 7        42.300
G06  21253080.094 7 111685703.109 7        46.300    21253097.367 7  87027958.573 7        47.200    21253097.480 7  87027906.568 7        47.900    21253100.074 8  83401743.257 8        51.600
G05  24988245.242 5 131314123.838 5        34.200    24988272.934 3 102322822.244 3        22.600    24988272.563 5 102322738.260 5        35.100
G04  25120928.070 5                        30.500                                                    25120953.941 5 102866153.236 5        34.700    25120962.129 6  98580046.979 6        37.900
> 2025  3 13  8 53 37.0000000  0 12       -.000263338000
G24  25466303.367 5 133826321.692 5        32.800    25466338.242 3 104280394.526 3        20.100    25466337.684 5 104280389.528 5        33.800    25466345.371 6  99935225.358 6        40.600
G22  21050720.227 7 110622273.825 7        46.600    21050737.109 6  86198845.476 6        37.100
G20  21582069.992 7 113414570.158 7        45.300    21582088.922 5  88375523.540 5        33.200
G19  20738641.969 7 108982305.898 7        46.100    20738654.715 6  84921111.621 6        38.100
G17  21939724.359 7 115294023.011 7        44.400    21939742.633 6  89839264.139 6        41.200    21939742.422 7  89839543.137 7        44.500
G14  22084408.680 6 116054340.238 6        40.900    22084431.441 4  90431810.001 4        27.200    22084430.801 7  90431753.995 7        45.000    22084438.578 7  86663752.374 7        47.300
G12  23987947.227 6 126057526.745 6        36.100    23987966.250 4  98226737.030 4        27.000    23987966.449 6  98226794.034 6        36.000
G11  21824535.352 7 114688733.913 7        45.400    21824553.352 5  89368067.674 5        35.800    21824553.109 7  89368133.677 7        47.600    21824559.383 8  85644338.928 8        50.500
G09  23781127.797 5 124970714.075 5        33.800    23781159.000 4  97379902.037 4        27.600    23781157.859 6  97379818.039 6        38.200    23781163.965 7  93322305.988 7        42.300
G06  21253257.352 7 111686634.640 7        46.200    21253274.609 7  87028684.442 7        47.200    21253274.980 7  87028632.440 7        47.900    21253277.234 8  83402438.884 8        51.500
G05  24987540.617 5 131310421.644 5        33.700    24987568.344 3 102319937.430 3        21.700    24987567.660 5 102319853.440 5        35.200
G04  25120889.984 5 132011203.406 5        30.100                                                    25120916.141 5 102865997.971 5        35.000    25120924.398 6  98579898.218 6        37.700
> 2025  3 13  8 53 38.0000000  0 12       -.000263336000
G24  25466533.367 5 133827528.895 5        32.500    25466567.910 3 104281335.188 3        19.600    25466567.398 5 104281330.182 5        33.900    25466575.039 6  99936126.825 6        40.800
G22  21051075.148 7 110624137.832 7        47.100    21051091.785 6  86200297.945 6        37.500
G20  21581592.398 7 113412059.978 7        45.100    21581611.387 5  88373567.561 5        33.200
G19  20738533.922 7 108981737.954 7        46.000    20738546.551 6  84920669.069 6        37.900
G17  21939817.148 7 115294509.695 7        44.200    21939835.164 6  89839643.371 6        41.400    21939835.063 7  89839922.374 7        44.600
G14  22085027.891 6 116057592.051 6        41.300    22085050.125 4  90434343.873 4        27.400    22085049.781 7  90434287.868 7        44.500    22085057.461 7  86666180.670 7        47.600
G12  23987329.750 6 126054285.316 6        36.000    23987349.383 4  98224211.239 4        25.600    23987349.906 6  98224268.250 6        36.100
G11  21824436.297 7 114688213.190 7        45.700    21824454.309 5  89367661.924 5        35.500    21824454.008 7  89367727.924 7        47.700    21824460.344 8  85643950.086 8        50.200
G09  23780908.938 5 124969565.513 5        34.500    23780940.492 4  97379007.053 4        27.800    23780939.551 6  97378923.061 6        38.400    23780945.422 7  93321448.299 7        42.500
G06  21253434.477 7 111687566.310 7        46.400    21253451.863 7  87029410.424 7        47.200    21253452.316 7  87029358.423 7        47.800    21253454.582 8  83403134.616 8        51.600
G05  24986836.984 5 131306719.501 5        33.100    24986863.906 3 102317052.649 3        22.300    24986863.445 5 102316968.666 5        35.300
G04  25120853.133 5 132011004.556 5        30.100                                                    25120878.488 5 102865843.026 5        35.700    25120886.574 6  98579749.730 6        37.800
> 2025  3 13  8 53 39.0000000  0 12       -.000263336000
G24  25466763.531 5 133828736.235 5        33.100    25466797.613 3 104282275.963 3        20.100    25466797.363 5 104282270.957 5        34.300    25466804.758 6  99937028.404 6        40.900
G22  21051429.844 7 110626002.285 7        46.500    21051446.594 6  86201750.758 6        38.000
G20  21581114.695 7 113409550.176 7        44.900    21581133.875 5  88371611.880 5        33.500
G19  20738425.844 7 108981170.177 7        46.000    20738438.473 6  84920226.643 6        38.100
G17  21939909.867 7 115294996.550 7        44.500    21939927.832 7  89840022.736 7        42.100    21939927.691 7  89840301.734 7        44.500
G14  22085646.664 6 116060844.108 6        40.900    22085668.926 4  90436877.937 4        28.100    22085668.586 7  90436821.938 7        44.200    22085676.336 7  86668609.152 7        47.300
G12  23986712.336 6 126051044.115 6        36.400    23986732.629 4  98221685.652 4        26.000    23986733.188 6  98221742.656 6        36.500
G11  21824337.344 7 114687692.683 7        46.000    21824355.336 5  89367256.340 5        35.000    21824354.980 8  89367322.343 8        48.100    21824361.262 8  85643561.404 8        50.200
G09  23780691.156 5 124968417.192 5        34.700    23780721.945 4  97378112.269 4        29.000    23780721.113 6  97378028.283 6        38.700    23780726.961 7  93320590.803 7        42.800
G06  21253611.867 7 111688498.089 7        46.200    21253629.285 7  87030136.487 7        47.200    21253629.313 8  87030084.482 8        48.100    21253631.902 8  83403830.427 8        51.700
G05  24986131.758 5 131303017.389 5        33.700    24986159.352 3 102314167.877 3        22.200    24986158.820 5 102314083.908 5        34.600
G04  25120813.797 4                        29.400                                                    25120841.141 5 102865688.372 5        35.500    25120848.609 6  98579601.486 6        37.900
> 2025  3 13  8 53 40.0000000  0 12       -.000263338000
G24  25466994.102 5 133829943.827 5        32.600    25467027.477 3 104283216.937 3        21.100    25467026.914 5 104283211.935 5        33.500    25467034.559 6  99937930.169 6        41.000
G22  21051784.750 7 110627867.279 7        46.700    21051801.492 6  86203203.999 6        37.600
G20  21580636.883 7 113407040.850 7        44.900    21580656.461 5  88369656.572 5        34.000
G19  20738317.875 7 108980602.650 7        45.800    20738330.477 6  84919784.420 6        38.100
G17  21940002.336 7 115295483.653 7        44.400    21940020.555 6  89840402.294 6        41.900    21940020.492 7  89840681.296 7        44.300
G14  22086265.109 6 116064096.511 6        41.000    22086287.934 4  90439412.278 4        28.100    22086287.406 7  90439356.274 7        44.400    22086295.223 7  86671037.888 7        47.300
G12  23986097.000 6 126047803.258 6        36.700    23986116.215 4  98219160.319 4        28.200    23986116.367 6  98219217.304 6        36.800
G11  21824238.813 7 114687172.474 7        45.800    21824256.301 5  89366850.993 5        35.400    21824256.250 8  89366916.992 8        48.000    21824262.277 8  85643172.945 8        50.200
G09  23780472.398 5 124967269.237 5        34.400    23780503.242 4  97377217.771 4        28.500    23780502.906 6  97377133.778 6        38.700    23780508.539 7  93319733.573 7        43.000
G06  21253789.367 7 111689430.067 7        46.300    21253806.574 7  87030862.706 7        47.200    21253807.086 8  87030810.702 8        48.100    21253809.289 8  83404526.389 8        52.000
G05  24985426.336 5 131299315.380 5        34.100    24985454.996 3 102311283.207 3        22.200    24985453.992 5 102311199.219 5        34.700
G04  25120777.320 4                        29.400                                                    25120802.949 5 102865534.033 5        35.500    25120810.785 6  98579453.611 6        37.600
> 2025  3 13  8 53 41.0000000  0 12       -.000263338000
G24  25467222.914 5 133831151.669 5        33.000    25467257.402 3 104284158.106 3        21.300    25467256.367 5 104284153.104 5        33.500    25467264.438 6  99938832.120 6        40.900
G22  21052139.891 7 110629732.807 7        46.900    21052156.547 6  86204657.654 6        37.500
G20  21580159.063 7 113404531.976 7        45.000    21580179.000 5  88367701.612 5        33.000
G19  20738209.609 7 108980035.377 7        45.800    20738222.535 6  84919342.390 6        37.900
G17  21940095.492 7 115295971.008 7        44.700    21940113.371 7  89840782.052 7        42.500    21940113.320 7  89841061.049 7        44.200
G14  22086884.195 6 116067349.248 6        41.100    22086907.051 4  90441946.880 4        28.500    22086906.145 7  90441890.873 7        44.100    22086914.156 7  86673466.876 7        47.300
G12  23985480.422 6 126044562.713 6        36.700    23985499.598 4  98216635.208 4        25.700    23985499.742 6  98216692.207 6        37.000
G11  21824139.523 7 114686652.564 7        45.900    21824157.320 5  89366445.878 5        35.200    21824157.230 8  89366511.875 8        48.300    21824163.270 8  85642784.711 8        50.500
G09  23780254.234 5 124966121.618 5        34.100    23780284.813 4  97376323.525 4        29.000    23780284.289 6  97376239.525 6        38.900    23780290.031 7  93318876.586 7        42.900
G06  21253966.758 7 111690362.238 7        46.500    21253983.953 7  87031589.075 7        47.200    21253984.133 8  87031537.073 8        48.100    21253986.633 8  83405222.494 8        51.600
G05  24984721.711 5 131295613.472 5        33.800    24984750.469 3 102308398.615 3        22.200    24984749.809 5 102308314.628 5        34.700
G04  25120739.625 4                        29.100                                                    25120765.410 5 102865380.055 5        34.900    25120772.902 6  98579306.039 6        37.600
> 2025  3 13  8 53 42.0000000  0 12       -.000263340000
G24  25467452.813 5 133832359.686 5        32.400    25467487.230 3 104285099.405 3        20.900    25467486.340 5 104285094.405 5        33.000    25467494.383 6  99939734.199 6        40.700
G22  21052494.883 7 110631598.800 7        46.600    21052511.734 6  86206111.673 6        37.600
G20  21579682.016 7 113402023.508 7        45.000    21579701.660 5  88365746.975 5        32.900
G19  20738101.375 7 108979468.293 7        45.800    20738114.598 6  84918900.512 6        37.900
G17  21940188.039 7 115296458.544 7        44.400    21940206.113 6  89841161.949 6        41.900    21940206.137 7  89841440.948 7        44.100
G14  22087503.563 6 116070602.253 6        41.100    22087526.230 4  90444481.676 4        28.400    22087525.379 7  90444425.682 7        44.600    22087533.254 7  86675896.064 7        47.500
G12  23984862.922 6 126041322.392 6        36.400    23984883.043 4  98214110.288 4        27.500    23984883.219 6  98214167.300 6        37.000
G11  21824040.734 7 114686132.887 7        45.600    21824058.430 5  89366040.940 5        35.200    21824058.461 8  89366106.937 8        48.100    21824064.438 8  85642396.646 8        50.300
G09  23780035.406 5 124964974.271 5        34.300    23780066.352 4  97375429.498 4        27.500    23780065.887 6  97375345.493 6        38.600    23780071.633 7  93318019.815 7        43.000
G06  21254143.898 7 111691294.544 7        46.300    21254161.398 7  87032315.551 7        47.300    21254161.551 7  87032263.546 7        47.900    21254164.129 8  83405918.697 8        51.900
G05  24984018.047 5 131291911.604 5        34.200    24984045.938 3 102305514.044 3        22.300    24984045.141 5 102305430.056 5        35.000
G04  25120701.555 5 132010213.095 5        30.100                                                    25120727.645 5 102865226.355 5        35.200    25120735.070 6  98579158.767 6        37.600
