     3.04           OBSERVATION DATA    G: GPS              RINEX VERSION / TYPE
RTKCONV demo5 b34i                      20250513 053431 UTC PGM / RUN BY / DATE 
format: u-blox UBX                                          COMMENT             
log: D:\20242\NGUYENDS\GNSS_DOA_Spoofing\hai\SP-2025-04-26_0COMMENT             
                                                            MARKER NAME         
                                                            MARKER NUMBER       
                                                            MARKER TYPE         
                                                            OBSERVER / AGENCY   
                                                            REC # / TYPE / VERS 
                                                            ANT # / TYPE        
 -1626585.5383  5730529.9048  2271870.9954                  APPROX POSITION XYZ 
        0.0000        0.0000        0.0000                  ANTENNA: DELTA H/E/N
G    8 C1C L1C D1C S1C C2X L2X D2X S2X                      SYS / # / OBS TYPES 
  2025    04    26    01    00   18.0040000     GPS         TIME OF FIRST OBS   
  2025    04    26    01    46   34.0040000     GPS         TIME OF LAST OBS    
G L1C                                                       SYS / PHASE SHIFT   
G L2X  0.00000                                              SYS / PHASE SHIFT   
  0                                                         GLONASS SLOT / FRQ #
                                                            GLONASS COD/PHS/BIS 
                                                            END OF HEADER       
> 2025 04 26 01 00 18.0040000  0 12                     
G07  21470646.373   112828998.2691        953.810          43.000    21470645.699    87918716.0001        743.271          43.000  
G22  26236247.173   137872410.4781       1746.881          30.000                                                                  
G17  23642444.493   124241857.0611       1697.008          38.000    23642445.935    96811920.1291       1322.475          38.000  
G08  23541747.955   123712683.1101      -2612.330          38.000    23541754.220    96399502.8631      -2035.716          37.000  
G09  24674548.613   129665587.7921      -2451.583          33.000    24674556.158   101038070.6561      -1910.537          35.000  
G04  25961973.503   136431052.2161      -2691.695          27.000    25961984.540   106309848.6011      -2097.194          36.000  
G02  22492777.306   118200260.0421      -1394.568          42.000                                                                  
G01  22021855.506   115725626.4531       1318.475          41.000    22021856.624    90175759.6071       1027.393          43.000  
G30  23050038.824   121128788.4271       2628.102          40.000    23050042.282    94386120.0251       2048.463          40.000  
G19  26298973.637   138202040.6961       2628.440          30.000                                                                  
G14  24798333.788   130316114.4241       2094.199          34.000    24798337.988   101545036.7151       1631.684          37.000  
G27                                                                  26887415.423   110099476.8201      -2334.060          31.000  
> 2025 04 26 01 00 19.0040000  0 12                     
G07  21470464.845   112828044.411         953.642          43.000    21470464.217    87917972.726         743.176          43.000  
G22  26235914.821   137870663.496        1746.984          30.000                                                                  
G17  23642121.519   124240159.844        1697.022          38.000    23642122.954    96810597.604        1322.278          38.000  
G08  23542245.021   123715295.234       -2612.132          38.000    23542251.263    96401538.266       -2035.555          37.000  
G09  24675015.055   129668039.042       -2451.294          33.000    24675022.649   101039980.682       -1909.920          35.000  
G04  25962485.721   136433743.442       -2690.756          27.000    25962496.751   106311945.687       -2097.156          36.000  
G02  22493042.593   118201654.641       -1394.900          42.000                                                                  
G01  22021604.711   115724307.969        1318.365          41.000    22021605.732    90174732.232        1027.081          43.000  
G30  23049538.762   121126160.193        2628.179          40.000    23049542.149    94384072.094        2047.546          40.000  
G19  26298473.366   138199410.945        2629.520          30.000                                                                  
G14  24797935.317   130314020.257        2094.035          34.000    24797939.359   101543404.884        1631.706          37.000  
G27                                                                  26887985.435   110101810.460       -2332.491          31.000  
> 2025 04 26 01 00 20.0040000  0 12                     
G07  21470283.388   112827091.100         953.203          43.000    21470282.836    87917229.889         742.803          43.000  
G22  26235582.424   137868916.417        1747.126          30.000                                                                  
G17  23641798.636   124238462.956        1696.920          38.000    23641799.989    96809275.363        1322.135          38.000  
G08  23542741.995   123717907.343       -2612.045          38.000    23542748.289    96403573.657       -2035.025          37.000  
G09  24675481.386   129670490.192       -2450.953          33.000    24675489.101   101041890.682       -1909.881          35.000  
G04  25962997.533   136436434.413       -2690.317          27.000    25963008.883   106314042.508       -2096.282          36.000  
G02  22493308.119   118203049.789       -1395.270          42.000                                                                  
G01  22021353.932   115722990.044        1317.834          41.000    22021354.916    90173705.252        1027.179          43.000  
G30  23049038.689   121123532.299        2627.804          40.000    23049042.023    94382024.365        2047.606          40.000  
G19  26297973.178   138196781.422        2628.962          31.000                                                                  
G14  24797536.730   130311925.885        2095.286          35.000    24797540.779   101541772.937        1632.424          37.000  
G27                                                                  26888555.421   110104144.013       -2333.111          31.000  
> 2025 04 26 01 00 21.0040000  0 12                     
G07  21470102.141   112826138.418         952.199          43.000    21470101.603    87916487.535         742.094          43.000  
G22  26235250.101   137867169.221        1746.947          29.000                                                                  
G17  23641475.810   124236766.485        1696.003          38.000    23641477.198    96807953.452        1321.165          38.000  
G08  23543239.019   123720519.465       -2612.143          38.000    23543245.392    96405609.094       -2035.880          37.000  
G09  24675947.913   129672941.364       -2451.887          33.000    24675955.538   101043800.636       -1910.178          35.000  
G04  25963509.167   136439125.193       -2690.776          27.000    25963520.977   106316139.179       -2096.651          36.000  
G02  22493573.707   118204445.555       -1396.288          42.000                                                                  
G01  22021103.282   115721672.699        1316.827          41.000    22021104.234    90172678.757        1026.038          43.000  
G30  23048538.547   121120904.793        2627.306          40.000    23048542.032    94379976.958        2047.124          40.000  
G19  26297472.934   138194152.046        2628.737          30.000                                                                  
G14  24797138.241   130309831.544        2094.092          34.000    24797142.231   101540140.959        1631.573          37.000  
G27                                                                  26889125.294   110106477.417       -2332.611          32.000  
> 2025 04 26 01 00 22.0040000  0 12                     
G07  21469920.935   112825186.337         951.919          43.000    21469920.485    87915745.657         741.745          43.000  
G22  26234917.616   137865421.978        1747.450          30.000                                                                  
G17  23641153.004   124235070.388        1696.142          38.000    23641154.503    96806631.801        1321.333          38.000  
G08  23543736.024   123723131.651       -2612.086          38.000    23543742.515    96407644.556       -2035.677          37.000  
G09  24676414.322   129675392.435       -2449.952          33.000    24676421.977   101045710.592       -1909.491          35.000  
G04  25964021.166   136441815.688       -2690.150          26.000    25964032.907   106318235.670       -2096.240          36.000  
G02  22493839.375   118205841.906       -1396.280          42.000                                                                  
G01  22020852.830   115720355.946        1316.492          41.000    22020853.800    90171652.723        1025.806          43.000  
G30  23048038.702   121118277.694        2627.227          40.000    23048042.143    94377929.859        2047.318          40.000  
G19  26296972.796   138191522.918        2629.101          31.000                                                                  
G14  24796739.722   130307737.099        2094.563          34.000    24796743.635   101538508.933        1631.927          37.000  
G27                                                                  26889695.174   110108810.781       -2333.502          31.000  
> 2025 04 26 01 00 23.0040000  0 12                     
G07  21469739.946   112824234.801         951.190          43.000    21469739.444    87915004.210         741.090          43.000  
G22  26234585.185   137863674.565        1747.832          29.000                                                                  
G17  23640830.334   124233374.658        1695.794          38.000    23640831.894    96805310.451        1321.248          38.000  
G08  23544233.222   123725743.815       -2612.511          38.000    23544239.627    96409679.987       -2035.636          37.000  
G09  24676880.677   129677843.477       -2450.220          32.000    24676888.341   101047620.530       -1910.604          35.000  
G04  25964532.989   136444505.893       -2690.088          26.000    25964544.859   106320331.929       -2095.902          35.000  
G02  22494105.114   118207238.838       -1397.255          42.000                                                                  
G01  22020602.232   115719039.719        1315.796          41.000    22020603.260    90170627.087        1025.275          43.000  
G30  23047538.786   121115650.944        2626.218          40.000    23047542.275    94375883.032        2046.928          40.000  
G19  26296472.287   138188893.908        2629.855          31.000                                                                  
G14  24796341.070   130305642.529        2093.875          34.000    24796345.115   101536876.786        1631.974          37.000  
G27                                                                  26890264.950   110111143.895       -2333.166          31.000  
> 2025 04 26 01 00 24.0040000  0 12                     
G07  21469558.940   112823283.831         950.769          43.000    21469558.424    87914263.176         740.774          43.000  
G22  26234252.654   137861927.093        1747.536          30.000                                                                  
G17  23640507.698   124231679.258        1695.582          38.000    23640509.259    96803989.362        1320.980          38.000  
G08  23544730.332   123728355.931       -2612.091          38.000    23544736.651    96411715.389       -2035.367          37.000  
G09  24677346.963   129680294.473       -2451.096          32.000    24677354.799   101049530.304       -1909.242          35.000  
G04  25965044.967   136447195.890       -2690.064          27.000    25965056.722   106322427.978       -2095.915          35.000  
G02  22494371.025   118208636.305       -1397.809          42.000                                                                  
G01  22020351.783   115717724.019        1315.356          41.000    22020352.895    90169601.859        1024.890          43.000  
G30  23047038.881   121113024.497        2626.493          40.000    23047042.417    94373836.478        2046.691          40.000  
G19  26295971.965   138186265.206        2628.596          31.000                                                                  
G14  24795942.598   130303547.769        2094.773          34.000    24795946.534   101535244.514        1632.509          37.000  
G27                                                                  26890834.824   110113476.857       -2332.888          31.000  
> 2025 04 26 01 00 25.0040000  0 12                     
G07  21469377.968   112822333.390         950.133          43.000    21469377.657    87913522.571         740.536          43.000  
G22  26233920.218   137860179.497        1746.997          30.000                                                                  
G17  23640185.147   124229984.188        1694.965          38.000    23640186.715    96802668.536        1320.521          38.000  
G08  23545227.451   123730968.040       -2612.315          38.000    23545233.641    96413750.824       -2036.012          37.000  
G09  24677813.360   129682745.366       -2451.157          32.000    24677821.036   101051440.079       -1909.291          35.000  
G04  25965556.801   136449885.498       -2689.586          27.000    25965568.533   106324523.823       -2096.667          35.000  
G02  22494637.073   118210034.306       -1398.271          42.000                                                                  
G01  22020101.495   115716408.859        1314.569          41.000    22020102.651    90168577.059        1024.579          43.000  
G30  23046539.216   121110398.409        2625.751          40.000    23046542.627    94371790.175        2046.041          40.000  
G19  26295471.851   138183636.499        2628.637          31.000                                                                  
G14  24795543.923   130301452.887        2094.749          34.000    24795547.879   101533612.152        1632.329          37.000  
G27                                                                  26891404.636   110115809.664       -2332.899          32.000  
> 2025 04 26 01 00 26.0040000  0 12                     
G07  21469197.302   112821383.599         949.417          43.000    21469197.010    87912782.475         740.091          43.000  
G22  26233587.682   137858431.716        1748.365          30.000                                                                  
G17  23639862.656   124228289.543        1694.609          38.000    23639864.256    96801348.025        1320.432          38.000  
G08  23545724.502   123733580.218       -2612.409          38.000    23545730.682    96415786.262       -2035.620          37.000  
G09  24678279.878   129685196.280       -2451.384          32.000    24678287.343   101053349.897       -1910.090          35.000  
G04  25966068.722   136452574.909       -2689.235          28.000    25966080.298   106326619.454       -2095.687          35.000  
G02  22494903.294   118211432.951       -1398.986          42.000                                                                  
G01  22019851.348   115715094.301        1314.319          41.000    22019852.502    90167552.740        1024.036          43.000  
G30  23046039.478   121107772.729        2625.643          40.000    23046042.976    94369744.196        2045.723          40.000  
G19  26294971.493   138181008.075        2629.052          31.000                                                                  
G14  24795145.189   130299357.987        2094.914          35.000    24795149.243   101531979.755        1632.465          37.000  
G27                                                                  26891974.353   110118142.347       -2333.268          32.000  
> 2025 04 26 01 00 27.0040000  0 12                     
G07  21469016.597   112820434.255         949.036          43.000    21469016.236    87912042.729         739.532          43.000  
G22  26233255.196   137856683.870        1747.955          30.000                                                                  
G17  23639540.209   124226595.170        1694.118          38.000    23639541.825    96800027.725        1320.245          38.000  
G08  23546221.614   123736192.257       -2612.057          38.000    23546227.864    96417821.614       -2035.237          37.000  
G09  24678746.349   129687646.979       -2450.912          32.000    24678753.592   101055259.522       -1909.790          34.000  
G04  25966580.446   136455263.971       -2688.897          28.000    25966592.018   106328714.786       -2095.094          35.000  
G02  22495169.722   118212832.043       -1399.587          42.000                                                                  
G01  22019601.162   115713780.190        1313.690          41.000    22019602.464    90166528.749        1023.755          43.000  
G30  23045539.881   121105147.309        2625.003          40.000    23045543.409    94367698.391        2045.636          40.000  
G19  26294471.506   138178379.750        2628.687          30.000                                                                  
G14  24794746.483   130297262.843        2095.240          35.000    24794750.556   101530347.183        1632.618          37.000  
G27                                                                  26892543.966   110120474.762       -2332.509          32.000  
> 2025 04 26 01 00 28.0040000  0 12                     
G07  21468836.035   112819485.628         948.051          43.000    21468835.506    87911303.534         738.975          43.000  
G22  26232922.617   137854935.990        1747.345          30.000                                                                  
G17  23639217.810   124224901.260        1694.038          38.000    23639219.455    96798707.809        1319.571          38.000  
G08  23546718.671   123738804.437       -2612.029          38.000    23546724.894    96419857.083       -2035.631          38.000  
G09  24679212.872   129690097.784       -2450.967          32.000    24679219.889   101057169.240       -1910.143          34.000  
G04  25967092.256   136457952.832       -2688.212          29.000    25967103.715   106330810.055       -2095.302          35.000  
G02  22495436.053   118214231.836       -1400.132          42.000                                                                  
G01  22019351.115   115712466.760        1313.013          41.000    22019352.547    90165505.298        1023.151          43.000  
G30  23045040.361   121102522.340        2624.978          40.000    23045043.941    94365652.987        2045.287          40.000  
G19  26293971.271   138175751.720        2627.947          31.000                                                                  
G14  24794347.799   130295167.732        2095.031          35.000    24794351.803   101528714.617        1632.740          37.000  
G27                                                                  26893113.488   110122807.122       -2331.544          32.000  
> 2025 04 26 01 00 29.0040000  0 12                     
G07  21468655.588   112818537.541         947.750          43.000    21468655.086    87910564.780         738.376          43.000  
G22  26232589.943   137853187.966        1748.665          30.000                                                                  
G17  23638895.590   124223207.722        1693.181          38.000    23638897.175    96797388.147        1319.548          38.000  
G08  23547215.725   123741416.624       -2612.343          38.000    23547221.966    96421892.514       -2035.082          38.000  
G09  24679679.337   129692548.505       -2451.017          32.000    24679686.250   101059078.884       -1909.426          34.000  
G04  25967603.938   136460641.544       -2688.805          28.000    25967615.331   106332905.053       -2094.456          35.000  
G02  22495702.497   118215632.174       -1400.674          42.000                                                                  
G01  22019101.376   115711153.857        1312.775          41.000    22019102.717    90164482.258        1022.955          43.000  
G30  23044540.843   121099897.744        2624.450          40.000    23044544.396    94363607.826        2045.383          40.000  
G19  26293471.270   138173123.868        2628.162          30.000                                                                  
G14  24793949.150   130293072.456        2095.563          35.000    24793952.978   101527081.932        1633.059          37.000  
G27                                                                  26893682.720   110125139.386       -2332.532          32.000  
> 2025 04 26 01 00 30.0040000  0 12                     
G07  21468475.393   112817590.028         946.998          43.000    21468474.823    87909826.454         737.857          43.000  
G22  26232257.570   137851439.784        1749.299          30.000                                                                  
G17  23638573.427   124221514.487        1693.352          38.000    23638574.878    96796068.755        1319.049          38.000  
G08  23547712.835   123744028.758       -2612.200          38.000    23547719.066    96423927.976       -2035.853          38.000  
G09  24680145.617   129694999.161       -2451.006          33.000    24680152.565   101060988.474       -1909.846          34.000  
G04  25968115.753   136463329.879       -2688.463          28.000    25968126.930   106334999.896       -2095.101          35.000  
G02  22495969.090   118217033.063       -1401.359          42.000                                                                  
G01  22018851.697   115709841.511        1312.012          41.000    22018852.967    90163459.641        1022.394          43.000  
G30  23044041.466   121097273.490        2623.966          40.000    23044045.133    94361562.984        2044.395          40.000  
G19  26292971.186   138170496.151        2628.406          31.000                                                                  
G14  24793550.360   130290977.072        2095.848          35.000    24793554.343   101525449.200        1632.518          37.000  
G27                                                                  26894252.273   110127471.391       -2331.184          32.000  
> 2025 04 26 01 00 31.0040000  0 12                     
G07  21468295.270   112816643.141         946.705          43.000    21468294.737    87909088.619         737.477          43.000  
G22  26231925.013   137849691.606        1749.601          30.000                                                                  
G17  23638251.367   124219821.696        1693.200          38.000    23638252.725    96794749.714        1318.706          38.000  
G08  23548209.877   123746640.983       -2612.531          38.000    23548216.132    96425963.446       -2035.463          37.000  
G09  24680612.026   129697449.790       -2450.480          33.000    24680618.824   101062898.043       -1909.200          34.000  
G04  25968627.164   136466017.998       -2687.943          28.000    25968638.486   106337094.544       -2094.476          35.000  
G02  22496235.706   118218434.594       -1401.759          42.000                                                                  
G01  22018602.019   115708529.766        1311.383          41.000    22018603.347    90162437.515        1021.893          43.000  
G30  23043542.120   121094649.646        2623.880          40.000    23043545.918    94359518.409        2044.682          40.000  
G19  26292471.232   138167868.675        2628.226          31.000                                                                  
G14  24793151.641   130288881.666        2095.390          35.000    24793155.614   101523816.394        1632.775          37.000  
G27                                                                  26894821.906   110129803.337       -2331.170          33.000  
> 2025 04 26 01 00 32.0040000  0 12                     
G07  21468115.207   112815696.743         946.137          43.000    21468114.793    87908351.156         737.213          43.000  
G22  26231592.375   137847943.316        1747.801          31.000                                                                  
G17  23637929.305   124218129.194        1692.482          37.000    23637930.635    96793430.845        1318.998          38.000  
G08  23548706.900   123749253.086       -2612.099          38.000    23548713.107    96427998.859       -2035.361          37.000  
G09  24681078.411   129699900.286       -2450.045          33.000    24681085.122   101064807.518       -1909.670          34.000  
G04  25969138.814   136468705.827       -2687.669          28.000    25969149.880   106339188.898       -2094.021          35.000  
G02  22496502.451   118219836.601       -1402.491          42.000                                                                  
G01  22018352.502   115707218.487        1311.096          41.000    22018353.814    90161415.747        1021.436          43.000  
G30  23043042.840   121092026.079        2623.404          40.000    23043046.704    94357474.079        2044.123          40.000  
G19  26291971.335   138165241.350        2627.218          31.000                                                                  
G14  24792752.871   130286786.038        2095.832          35.000    24792756.861   101522183.442        1632.922          37.000  
G27                                                                  26895391.484   110132135.103       -2331.301          34.000  
> 2025 04 26 01 00 33.0040000  0 12                     
G07  21467935.275   112814751.095         945.205          43.000    21467934.808    87907614.289         736.452          43.000  
G22  26231259.671   137846195.043        1747.732          31.000                                                                  
G17  23637607.410   124216437.237        1691.499          37.000    23637608.707    96792112.427        1318.385          38.000  
G08  23549203.995   123751865.411       -2612.493          38.000    23549210.187    96430034.398       -2035.355          37.000  
G09  24681544.809   129702350.909       -2450.228          33.000    24681551.390   101066717.084       -1909.665          33.000  
G04  25969650.301   136471393.530       -2687.971          27.000    25969661.380   106341283.210       -2094.437          35.000  
G02  22496769.342   118221239.356       -1403.323          42.000                                                                  
G01  22018103.103   115705907.952        1310.150          41.000    22018104.335    90160394.536        1020.984          43.000  
G30  23042543.758   121089403.034        2622.645          40.000    23042547.594    94355430.130        2043.950          40.000  
G19  26291471.490   138162614.280        2627.647          31.000                                                                  
G14  24792353.925   130284690.474        2095.625          35.000    24792358.138   101520550.523        1633.182          37.000  
G27                                                                  26895961.274   110134466.850       -2332.269          34.000  
> 2025 04 26 01 00 34.0040000  0 12                     
G07  21467755.391   112813806.104         944.827          43.000    21467754.907    87906877.927         736.219          43.000  
G22  26230926.802   137844446.646        1748.587          31.000                                                                  
G17  23637285.521   124214745.699        1691.295          37.000    23637286.806    96790794.352        1318.047          38.000  
G08  23549701.176   123754477.765       -2612.418          38.000    23549707.231    96432070.028       -2035.671          37.000  
G09  24682011.239   129704801.542       -2450.080          33.000    24682017.642   101068626.679       -1909.652          33.000  
G04  25970161.783   136474081.056       -2687.377          27.000    25970172.730   106343377.363       -2093.764          35.000  
G02  22497036.368   118222642.759       -1403.841          42.000                                                                  
G01  22017853.801   115704598.045        1309.668          41.000    22017855.037    90159373.826        1020.514          43.000  
G30  23042044.749   121086780.426        2622.623          40.000    23042048.463    94353386.555        2043.581          40.000  
G19  26290971.780   138159987.525        2627.092          31.000                                                                  
G14  24791955.148   130282594.877        2095.758          35.000    24791959.441   101518917.608        1632.679          37.000  
G27                                                                  26896530.996   110136798.442       -2331.367          34.000  
> 2025 04 26 01 00 35.0040000  0 12                     
G07  21467575.800   112812861.714         944.191          43.000    21467575.240    87906142.027         735.709          43.000  
G22  26230593.977   137842698.184        1749.659          30.000                                                                  
G17  23636963.786   124213054.546        1691.157          37.000    23636965.033    96789476.562        1318.343          38.000  
G08  23550198.373   123757090.169       -2612.060          38.000    23550204.264    96434105.694       -2036.212          37.000  
G09  24682477.563   129707252.178       -2450.391          33.000    24682483.967   101070536.230       -1908.602          33.000  
G04  25970673.217   136476768.325       -2687.006          27.000    25970684.013   106345471.344       -2093.408          35.000  
G02  22497303.679   118224046.739       -1404.196          42.000                                                                  
G01  22017604.575   115703288.717        1308.990          41.000    22017605.880    90158353.576        1019.989          43.000  
G30  23041545.815   121084158.212        2622.220          40.000    23041549.484    94351343.263        2043.406          40.000  
G19  26290472.109   138157360.998        2627.058          30.000                                                                  
G14  24791556.427   130280499.207        2096.111          35.000    24791560.648   101517284.618        1633.274          37.000  
G27                                                                  26897100.381   110139129.913       -2331.358          34.000  
> 2025 04 26 01 00 36.0040000  0 12                     
G07  21467396.283   112811917.867         943.554          43.000    21467395.613    87905406.575         735.235          43.000  
G22  26230261.233   137840949.752        1748.600          31.000                                                                  
G17  23636642.021   124211363.765        1690.572          38.000    23636643.238    96788159.089        1317.361          38.000  
G08  23550695.474   123759702.581       -2612.593          38.000    23550701.381    96436141.303       -2035.950          37.000  
G09  24682943.828   129709702.727       -2450.722          33.000    24682950.259   101072445.780       -1909.951          33.000  
G04  25971184.707   136479455.318       -2687.010          28.000    25971195.348   106347565.095       -2093.680          35.000  
G02  22497570.907   118225451.299       -1405.045          42.000                                                                  
G01  22017355.550   115701979.921        1308.618          41.000    22017356.780    90157333.737        1019.604          43.000  
G30  23041046.963   121081536.348        2621.368          40.000    23041050.552    94349300.255        2042.737          40.000  
G19  26289972.210   138154734.578        2626.389          31.000                                                                  
G14  24791157.730   130278403.418        2095.824          35.000    24791161.751   101515651.532        1632.926          37.000  
G27                                                                  26897669.792   110141461.250       -2331.603          33.000  
> 2025 04 26 01 00 37.0040000  0 12                     
G07  21467216.810   112810974.704         943.080          43.000    21467216.131    87904671.645         734.752          43.000  
G22  26229928.457   137839201.180        1748.710          31.000                                                                  
G17  23636320.318   124209673.436        1690.195          38.000    23636321.634    96786841.947        1317.135          38.000  
G08  23551192.661   123762315.068       -2612.368          38.000    23551198.513    96438177.004       -2035.796          37.000  
G09  24683410.159   129712153.292       -2450.254          33.000    24683416.544   101074355.308       -1909.143          34.000  
G04  25971696.179   136482142.121       -2686.587          28.000    25971706.578   106349658.705       -2093.780          36.000  
G02  22497838.352   118226856.519       -1405.400          42.000                                                                  
G01  22017106.645   115700671.786        1307.867          41.000    22017108.000    90156314.415        1019.098          43.000  
G30  23040548.036   121078914.926        2621.297          40.000    23040551.708    94347257.594        2042.476          40.000  
G19  26289472.379   138152108.452        2626.762          30.000                                                                  
G14  24790758.827   130276307.592        2096.212          35.000    24790762.867   101514018.421        1633.456          37.000  
G27                                                                  26898239.150   110143792.492       -2330.990          33.000  
> 2025 04 26 01 00 38.0040000  0 12                     
G07  21467037.425   112810032.060         942.314          43.000    21467036.916    87903937.108         734.324          43.000  
G22  26229595.491   137837452.511        1748.367          30.000                                                                  
G17  23635998.675   124207983.405        1689.824          38.000    23636000.057    96785525.063        1316.321          38.000  
G08  23551689.735   123764927.509       -2612.273          38.000    23551695.594    96440212.668       -2035.802          37.000  
G09  24683876.564   129714603.777       -2450.562          33.000    24683882.702   101076264.740       -1909.579          33.000  
G04  25972207.685   136484828.594       -2686.059          29.000    25972217.760   106351752.056       -2093.335          36.000  
G02  22498105.775   118228262.246       -1405.930          42.000                                                                  
G01  22016857.681   115699364.149        1307.257          41.000    22016859.189    90155295.471        1018.701          43.000  
G30  23040049.192   121076293.811        2620.802          40.000    23040053.011    94345215.160        2042.266          40.000  
G19  26288972.666   138149482.535        2625.433          30.000                                                                  
G14  24790359.908   130274211.633        2095.822          35.000    24790364.015   101512385.183        1633.449          37.000  
G27                                                                  26898808.495   110146123.561       -2331.094          33.000  
> 2025 04 26 01 00 39.0040000  0 12                     
G07  21466858.141   112809090.096         941.641          43.000    21466857.623    87903203.109         733.892          43.000  
G22  26229262.684   137835703.820        1748.786          30.000                                                                  
G17  23635677.175   124206293.856        1689.246          38.000    23635678.535    96784208.497        1316.663          38.000  
G08  23552186.875   123767540.047       -2612.376          38.000    23552192.804    96442248.401       -2035.913          37.000  
G09  24684342.970   129717054.263       -2449.786          33.000    24684349.011   101078174.248       -1909.008          33.000  
G04  25972718.924   136487514.896       -2685.854          29.000    25972728.906   106353845.283       -2092.604          36.000  
G02  22498373.485   118229668.653       -1406.591          42.000                                                                  
G01  22016608.939   115698057.170        1306.812          41.000    22016610.489    90154277.052        1018.011          43.000  
G30  23039550.493   121073673.159        2620.542          40.000    23039554.328    94343173.086        2042.137          40.000  
G19  26288473.124   138146856.869        2625.086          30.000                                                                  
G14  24789961.039   130272115.636        2095.803          35.000    24789965.196   101510751.951        1633.343          38.000  
G27                                                                  26899377.538   110148454.510       -2330.301          32.000  
> 2025 04 26 01 00 40.0040000  0 12                     
G07  21466678.882   112808148.597         941.284          43.000    21466678.452    87902469.480         733.252          43.000  
G22  26228929.801   137833954.883        1749.417          29.000                                                                  
G17  23635355.618   124204604.565        1689.222          38.000    23635356.995    96782892.161        1316.401          38.000  
G08  23552683.873   123770152.484       -2612.388          38.000    23552689.907    96444284.045       -2035.277          37.000  
G09  24684809.216   129719504.617       -2450.165          33.000    24684815.300   101080083.602       -1909.332          33.000  
G04  25973230.107   136490200.890       -2686.068          29.000    25973240.088   106355938.246       -2092.731          35.000  
G02  22498641.171   118231075.535       -1407.166          42.000                                                                  
G01  22016360.458   115696750.651        1306.122          41.000    22016361.944    90153258.958        1018.079          43.000  
G30  23039051.645   121071052.775        2620.010          40.000    23039055.667    94341131.242        2041.588          40.000  
G19  26287973.411   138144231.178        2625.469          30.000                                                                  
G14  24789562.098   130270019.431        2096.214          35.000    24789566.336   101509118.546        1633.620          38.000  
G27                                                                  26899946.610   110150785.316       -2331.698          32.000  
> 2025 04 26 01 00 41.0040000  0 12                     
G07  21466499.822   112807207.696         940.597          43.000    21466499.330    87901736.321         732.646          43.000  
G22  26228596.927   137832205.879        1749.061          29.000                                                                  
G17  23635034.140   124202915.634        1688.837          37.000    23635035.564    96781576.134        1315.897          38.000  
G08  23553180.969   123772764.942       -2612.282          38.000    23553187.020    96446319.721       -2035.287          37.000  
G09  24685275.464   129721954.933       -2449.924          33.000    24685281.556   101081992.940       -1909.277          34.000  
G04  25973741.402   136492886.545       -2685.209          29.000    25973751.163   106358031.016       -2093.199          35.000  
G02  22498909.035   118232483.009       -1407.756          42.000                                                                  
G01  22016111.871   115695444.685        1305.823          41.000    22016113.363    90152241.349        1017.310          43.000  
G30  23038553.066   121068432.746        2619.927          40.000    23038557.132    94339089.667        2041.134          39.000  
G19  26287473.718   138141605.739        2625.577          30.000                                                                  
G14  24789163.081   130267923.116        2096.706          34.000    24789167.536   101507485.094        1633.299          38.000  
G27                                                                  26900515.888   110153115.907       -2330.379          33.000  
> 2025 04 26 01 00 42.0040000  0 12                     
G07  21466320.886   112806267.343         940.354          43.000    21466320.387    87901003.559         732.736          43.000  
G22  26228264.082   137830456.725        1749.476          30.000                                                                  
G17  23634712.778   124201227.065        1688.172          38.000    23634714.210    96780260.358        1315.549          38.000  
G08  23553678.144   123775377.379       -2612.748          38.000    23553684.135    96448355.396       -2035.859          37.000  
G09  24685741.804   129724405.163       -2449.493          33.000    24685747.817   101083902.219       -1909.654          34.000  
G04  25974252.271   136495571.976       -2684.749          28.000    25974262.178   106360123.540       -2092.671          35.000  
G02  22499176.977   118233891.028       -1408.251          42.000                                                                  
G01  22015863.363   115694139.266        1305.066          41.000    22015864.897    90151224.135        1016.968          43.000  
G30  23038054.579   121065813.083        2619.420          40.000    23038058.718    94337048.369        2041.098          39.000  
G19  26286974.090   138138980.456        2625.504          30.000                                                                  
G14  24788764.189   130265826.741        2096.228          34.000    24788768.577   101505851.495        1633.677          38.000  
G27                                                                  26901085.156   110155446.379       -2330.379          34.000  
> 2025 04 26 01 00 43.0040000  0 12                     
G07  21466142.108   112805327.500         939.385          43.000    21466141.481    87900271.219         732.083          43.000  
G22  26227931.396   137828707.391        1749.694          30.000                                                                  
G17  23634391.430   124199538.774        1687.836          37.000    23634392.868    96778944.798        1315.325          38.000  
G08  23554175.335   123777989.728       -2612.419          38.000    23554181.306    96450390.995       -2035.826          37.000  
G09  24686208.033   129726855.290       -2450.085          33.000    24686214.075   101085811.394       -1909.333          34.000  
G04  25974763.149   136498257.162       -2685.154          27.000    25974773.048   106362215.790       -2092.047          35.000  
G02  22499444.951   118235299.541       -1408.782          42.000                                                                  
G01  22015614.993   115692834.343        1304.413          41.000    22015616.491    90150207.305        1016.473          43.000  
G30  23037556.209   121063193.692        2619.193          40.000    23037560.267    94335007.276        2040.945          40.000  
G19  26286474.466   138136355.282        2625.874          30.000                                                                  
G14  24788365.195   130263730.095        2096.450          34.000    24788369.674   101504217.784        1633.863          38.000  
G27                                                                  26901654.316   110157776.617       -2330.167          34.000  
> 2025 04 26 01 00 44.0040000  0 12                     
G07  21465963.303   112804388.273         938.795          43.000    21465962.678    87899539.354         731.528          43.000  
G22  26227598.520   137826958.040        1749.323          30.000                                                                  
G17  23634070.230   124197850.890        1687.379          37.000    23634071.658    96777629.562        1315.066          38.000  
G08  23554672.506   123780602.116       -2612.242          38.000    23554678.516    96452426.604       -2035.760          37.000  
G09  24686674.235   129729305.404       -2450.466          33.000    24686680.232   101087720.543       -1909.322          34.000  
G04  25975273.979   136500941.974       -2684.705          27.000    25975283.949   106364307.893       -2092.181          34.000  
G02  22499713.220   118236708.675       -1409.514          42.000                                                                  
G01  22015366.782   115691529.987        1304.016          41.000    22015368.349    90149190.934        1016.077          43.000  
G30  23037057.871   121060574.704        2618.554          40.000    23037061.984    94332966.508        2040.439          40.000  
G19  26285974.994   138133730.403        2624.705          30.000                                                                  
G14  24787966.193   130261633.390        2097.334          34.000    24787970.642   101502584.026        1633.542          38.000  
G27                                                                  26902223.201   110160106.725       -2329.951          33.000  
> 2025 04 26 01 00 45.0040000  0 12                     
G07  21465784.681   112803449.742         938.213          43.000    21465784.045    87898808.028         731.029          43.000  
G22  26227265.913   137825208.693        1749.431          31.000                                                                  
G17  23633749.138   124196163.486        1687.192          37.000    23633750.491    96776314.732        1314.313          38.000  
G08  23555169.669   123783214.653       -2612.507          38.000    23555175.680    96454462.338       -2035.635          37.000  
G09  24687140.392   129731755.536       -2450.235          33.000    24687146.517   101089629.744       -1909.240          34.000  
G04  25975785.014   136503626.707       -2684.274          27.000    25975794.748   106366399.882       -2092.171          34.000  
G02  22499981.504   118238118.496       -1410.255          42.000                                                                  
G01  22015118.755   115690226.341        1303.253          41.000    22015120.310    90148175.103        1015.326          43.000  
G30  23036559.639   121057956.195        2618.321          40.000    23036563.769    94330926.118        2040.356          40.000  
G19  26285475.468   138131105.745        2624.278          30.000                                                                  
G14  24787567.082   130259536.762        2096.710          34.000    24787571.632   101500950.243        1633.769          38.000  
G27                                                                  26902792.199   110162436.806       -2329.370          33.000  
> 2025 04 26 01 00 46.0040000  0 12                     
G07  21465606.184   112802511.814         937.541          43.000    21465605.610    87898077.166         730.570          43.000  
G22  26226932.940   137823459.240        1749.255          31.000                                                                  
G17  23633428.160   124194476.472        1686.866          38.000    23633429.519    96775000.133        1314.918          38.000  
G08  23555666.904   123785827.210       -2612.901          37.000    23555672.839    96456498.099       -2035.848          37.000  
G09  24687606.559   129734205.640       -2449.766          33.000    24687612.705   101091538.891       -1909.009          34.000  
G04  25976295.778   136506311.180       -2684.372          27.000    25976305.611   106368491.676       -2092.037          33.000  
G02  22500249.983   118239528.895       -1410.410          42.000                                                                  
G01  22014870.821   115688923.245        1302.863          41.000    22014872.331    90147159.704        1015.228          43.000  
G30  23036061.545   121055338.090        2617.580          40.000    23036065.546    94328886.025        2039.735          40.000  
G19  26284976.145   138128481.286        2624.691          31.000                                                                  
G14  24787168.140   130257439.961        2097.670          34.000    24787172.539   101499316.419        1633.930          38.000  
G27                                                                  26903361.286   110164766.781       -2330.057          32.000  
> 2025 04 26 01 00 47.0040000  0 12                     
G07  21465427.769   112801574.471         936.951          43.000    21465427.258    87897346.776         729.970          43.000  
G22  26226600.147   137821709.685        1749.992          31.000                                                                  
G17  23633107.216   124192789.848        1686.455          38.000    23633108.626    96773685.912        1313.761          38.000  
G08  23556164.013   123788439.760       -2612.492          37.000    23556169.886    96458533.848       -2035.618          37.000  
G09  24688072.838   129736655.732       -2450.258          32.000    24688078.975   101093448.033       -1908.848          35.000  
G04  25976806.442   136508995.420       -2684.368          28.000    25976816.348   106370583.242       -2091.358          33.000  
G02  22500518.524   118240939.899       -1411.376          42.000                                                                  
G01  22014622.990   115687620.740        1302.020          41.000    22014624.511    90146144.764        1014.655          43.000  
G30  23035563.398   121052720.332        2617.355          40.000    23035567.378    94326846.223        2039.587          40.000  
G19  26284476.808   138125857.065        2624.646          31.000                                                                  
G14  24786769.162   130255343.150        2096.763          34.000    24786773.518   101497682.506        1634.159          38.000  
G27                                                                  26903930.370   110167096.544       -2329.260          31.000  
> 2025 04 26 01 00 48.0040000  0 12                     
G07  21465249.439   112800637.736         936.606          43.000    21465249.033    87896616.849         729.841          43.000  
G22  26226267.292   137819960.107        1749.394          31.000                                                                  
G17  23632786.302   124191103.613        1686.082          38.000    23632787.708    96772371.967        1313.458          38.000  
G08  23556661.225   123791052.342       -2612.531          38.000    23556666.991    96460569.622       -2035.511          37.000  
G09  24688539.089   129739105.796       -2450.361          33.000    24688545.206   101095357.185       -1909.360          35.000  
G04  25977317.046   136511679.386       -2683.642          28.000    25977327.082   106372674.691       -2091.801          33.000  
G02  22500787.061   118242351.498       -1411.823          42.000                                                                  
G01  22014375.276   115686318.809        1301.776          41.000    22014376.784    90145130.272        1014.282          43.000  
G30  23035065.262   121050102.982        2617.455          40.000    23035069.276    94324806.741        2039.316          40.000  
G19  26283977.337   138123233.050        2624.042          31.000                                                                  
G14  24786370.082   130253246.211        2097.422          34.000    24786374.528   101496048.560        1633.861          38.000  
G27                                                                  26904499.375   110169426.217       -2329.670          30.000  
> 2025 04 26 01 00 49.0040000  0 12                     
G07  21465071.297   112799701.657         935.883          43.000    21465070.864    87895887.443         729.117          43.000  
G22  26225934.362   137818210.474        1748.827          30.000                                                                  
G17  23632465.557   124189417.812        1685.730          38.000    23632466.996    96771058.350        1313.389          38.000  
G08  23557158.348   123793665.027       -2612.768          38.000    23557164.244    96462605.470       -2036.011          37.000  
G09  24689005.305   129741555.855       -2449.970          33.000    24689011.490   101097266.324       -1909.575          35.000  
G04  25977827.721   136514363.206       -2684.019          28.000    25977837.738   106374765.914       -2090.891          34.000  
G02  22501055.790   118243763.757       -1412.784          42.000                                                                  
G01  22014127.628   115685017.530        1300.928          41.000    22014129.186    90144116.284        1013.678          43.000  
G30  23034567.303   121047486.094        2616.623          40.000    23034571.261    94322767.588        2038.903          40.000  
G19  26283478.248   138120609.335        2623.282          31.000                                                                  
G14  24785971.112   130251149.280        2096.551          34.000    24785975.474   101494414.563        1633.915          38.000  
G27                                                                  26905068.433   110171755.767       -2329.375          30.000  
> 2025 04 26 01 00 50.0040000  0 12                     
G07  21464893.269   112798766.232         935.123          43.000    21464892.879    87895158.527         728.615          43.000  
G22  26225601.596   137816460.784        1749.845          31.000                                                                  
G17  23632144.801   124187732.464        1685.156          38.000    23632146.295    96769745.069        1313.195          38.000  
G08  23557655.591   123796277.761       -2612.516          38.000    23557661.442    96464641.373       -2036.090          37.000  
G09  24689471.518   129744005.986       -2450.652          33.000    24689477.706   101099175.475       -1909.495          35.000  
G04  25978338.589   136517046.832       -2683.742          28.000    25978348.420   106376857.049       -2090.701          34.000  
G02  22501324.585   118245176.626       -1413.062          42.000                                                                  
G01  22013880.072   115683716.866        1300.244          41.000    22013881.617    90143102.784        1013.251          43.000  
G30  23034069.426   121044869.601        2616.083          40.000    23034073.355    94320728.768        2038.757          40.000  
G19  26282978.889   138117985.789        2623.444          31.000                                                                  
G14  24785572.155   130249052.275        2097.335          34.000    24785576.519   101492780.536        1634.441          38.000  
G27                                                                  26905637.474   110174085.280       -2329.636          30.000  
> 2025 04 26 01 00 51.0040000  0 12                     
G07  21464715.381   112797831.332         934.821          43.000    21464714.966    87894430.048         728.176          43.000  
G22  26225268.749   137814711.015        1749.741          31.000                                                                  
G17  23631824.119   124186047.435        1684.811          38.000    23631825.682    96768432.076        1312.621          38.000  
G08  23558152.783   123798890.492       -2612.615          38.000    23558158.570    96466677.238       -2035.644          37.000  
G09  24689937.707   129746455.960       -2449.562          33.000    24689943.946   101101084.545       -1908.952          35.000  
G04  25978849.207   136519730.077       -2682.903          28.000    25978859.046   106378947.900       -2090.315          34.000  
G02  22501593.523   118246590.049       -1413.702          42.000                                                                  
G01  22013632.577   115682416.740        1299.683          41.000    22013634.130    90142089.684        1012.927          43.000  
G30  23033571.471   121042253.452        2616.046          40.000    23033575.492    94318690.214        2038.471          40.000  
G19  26282479.737   138115362.476        2622.465          31.000                                                                  
G14  24785173.032   130246955.165        2096.832          34.000    24785177.540   101491146.421        1634.142          38.000  
G27                                                                  26906206.374   110176414.571       -2329.207          30.000  
> 2025 04 26 01 00 52.0040000  0 12                     
G07  21464537.595   112796897.028         933.847          43.000    21464537.176    87893702.016         727.521          43.000  
G22  26224935.900   137812961.083        1749.837          31.000                                                                  
G17  23631503.525   124184362.772        1684.331          38.000    23631505.159    96767119.347        1312.340          38.000  
G08  23558650.026   123801503.207       -2612.705          38.000    23558655.666    96468713.137       -2036.217          37.000  
G09  24690404.027   129748905.937       -2450.406          32.000    24690410.111   101102993.559       -1908.676          35.000  
G04  25979359.757   136522413.157       -2683.127          28.000    25979369.573   106381038.576       -2090.334          34.000  
G02  22501862.579   118248004.047       -1414.624          42.000                                                                  
G01  22013385.297   115681117.178        1298.712          41.000    22013386.860    90141077.042        1012.103          43.000  
G30  23033073.714   121039637.681        2615.292          40.000    23033077.734    94316651.965        2037.570          40.000  
G19  26281980.669   138112739.272        2622.433          31.000                                                                  
G14  24784774.026   130244857.927        2096.614          34.000    24784778.446   101489512.198        1634.160          38.000  
G27                                                                  26906775.290   110178743.742       -2329.693          32.000  
> 2025 04 26 01 00 53.0040000  0 12                     
G07  21464360.093   112795963.372         933.359          43.000    21464359.534    87892974.487         727.188          43.000  
G22  26224602.931   137811211.122        1750.209          31.000                                                                  
G17  23631183.105   124182678.561        1684.116          38.000    23631184.614    96765806.973        1312.108          38.000  
G08  23559147.219   123804116.019       -2613.097          38.000    23559152.832    96470749.070       -2036.108          37.000  
G09  24690870.244   129751355.895       -2450.250          32.000    24690876.428   101104902.639       -1908.905          35.000  
G04  25979870.125   136525096.029       -2683.153          28.000    25979880.141   106383129.132       -2090.573          35.000  
G02  22502131.800   118249418.713       -1415.419          42.000                                                                  
G01  22013138.251   115679818.230        1298.468          41.000    22013139.660    90140064.886        1011.835          43.000  
G30  23032576.100   121037022.347        2614.831          40.000    23032580.048    94314614.029        2037.528          40.000  
G19  26281481.647   138110116.315        2622.825          31.000                                                                  
G14  24784374.967   130242760.633        2097.500          34.000    24784379.264   101487877.970        1634.260          38.000  
G27                                                                  26907344.052   110181072.838       -2329.382          32.000  
> 2025 04 26 01 00 54.0040000  0 12                     
G07  21464182.489   112795030.260         932.775          43.000    21464181.902    87892247.376         726.834          43.000  
G22  26224270.087   137809461.070        1749.737          31.000                                                                  
G17  23630862.702   124180994.661        1683.665          38.000    23630864.241    96764494.830        1311.857          38.000  
G08  23559644.437   123806728.778       -2613.082          38.000    23559650.003    96472784.989       -2036.183          37.000  
G09  24691336.416   129753805.789       -2450.458          33.000    24691342.649   101106811.603       -1908.503          35.000  
G04  25980380.626   136527778.545       -2682.348          28.000    25980390.725   106385219.401       -2090.309          35.000  
G02  22502401.129   118250833.870       -1415.558          42.000                                                                  
G01  22012891.192   115678519.809        1297.931          41.000    22012892.651    90139053.116        1011.639          43.000  
G30  23032078.438   121034407.296        2615.053          40.000    23032082.383    94312576.348        2037.094          40.000  
G19  26280982.712   138107493.511        2624.055          30.000                                                                  
G14  24783975.724   130240663.250        2096.518          34.000    24783980.136   101486243.611        1634.468          37.000  
G27                                                                  26907912.805   110183401.705       -2329.052          33.000  
> 2025 04 26 01 00 55.0040000  0 12                     
G07  21464005.129   112794097.843         932.195          43.000    21464004.470    87891520.821         726.454          43.000  
G22  26223936.823   137807711.007        1749.528          30.000                                                                  
G17  23630542.335   124179311.267        1683.111          38.000    23630543.891    96763183.098        1311.409          38.000  
G08  23560141.649   123809341.637       -2612.642          38.000    23560147.199    96474820.984       -2035.751          37.000  
G09  24691802.470   129756255.681       -2449.540          33.000    24691808.883   101108720.682       -1909.323          35.000  
G04  25980891.033   136530460.967       -2682.258          28.000    25980901.277   106387309.559       -2089.890          35.000  
G02  22502670.564   118252249.728       -1415.701          42.000                                                                  
G01  22012644.204   115677222.059        1297.363          41.000    22012645.754    90138041.893        1011.078          43.000  
G30  23031580.901   121031792.783        2614.344          40.000    23031584.811    94310539.028        2037.511          40.000  
G19  26280483.568   138104871.060        2622.980          30.000                                                                  
G14  24783576.611   130238565.798        2097.243          34.000    24783581.059   101484609.278        1634.240          37.000  
G27                                                                  26908481.476   110185730.538       -2328.712          33.000  
> 2025 04 26 01 00 56.0040000  0 12                     
G07  21463827.786   112793166.018         931.470          43.000    21463827.267    87890794.719         725.794          43.000  
G22  26223603.774   137805960.802        1750.346          31.000                                                                  
G17  23630222.041   124177628.219        1683.015          38.000    23630223.628    96761871.632        1311.227          38.000  
G08  23560638.937   123811954.544       -2613.094          38.000    23560644.442    96476857.006       -2036.183          37.000  
G09  24692268.732   129758705.591       -2449.805          33.000    24692275.064   101110629.658       -1908.943          35.000  
G04  25981401.375   136533143.097       -2682.087          28.000    25981411.777   106389399.557       -2090.196          35.000  
G02  22502940.005   118253666.180       -1416.538          42.000                                                                  
G01  22012397.320   115675924.880        1296.960          41.000    22012398.957    90137031.124        1010.315          43.000  
G30  23031083.473   121029178.615        2613.988          40.000    23031087.270    94308502.041        2036.685          40.000  
G19  26279984.556   138102248.807        2622.539          31.000                                                                  
G14  24783177.487   130236468.284        2098.158          34.000    24783181.865   101482974.852        1634.479          38.000  
G27                                                                  26909050.466   110188059.245       -2329.020          34.000  
> 2025 04 26 01 00 57.0040000  0 12                     
G07  21463650.667   112792234.814         930.945          43.000    21463650.033    87890069.116         725.291          43.000  
G22  26223270.853   137804210.576        1750.158          30.000                                                                  
G17  23629901.848   124175945.598        1682.611          38.000    23629903.439    96760560.503        1310.849          38.000  
G08  23561136.134   123814567.498       -2613.192          37.000    23561141.778    96478893.066       -2036.162          37.000  
G09  24692735.070   129761155.477       -2450.034          33.000    24692741.231   101112538.645       -1908.824          34.000  
G04  25981911.743   136535825.003       -2681.493          29.000    25981922.159   106391489.336       -2089.565          35.000  
G02  22503209.727   118255083.247       -1416.947          42.000                                                                  
G01  22012150.534   115674628.322        1296.265          40.000    22012152.206    90136020.791        1010.217          43.000  
G30  23030586.098   121026564.864        2613.541          40.000    23030589.807    94306465.360        2036.366          40.000  
G19  26279485.608   138099626.794        2621.381          30.000                                                                  
G14  24782778.175   130234370.738        2097.428          35.000    24782782.715   101481340.393        1634.533          38.000  
G27                                                                  26909619.014   110190387.820       -2328.801          34.000  
> 2025 04 26 01 00 58.0040000  0 12                     
G07  21463473.515   112791304.102         930.406          43.000    21463472.917    87889343.879         724.792          43.000  
G22  26222937.695   137802460.151        1749.803          31.000                                                                  
G17  23629581.680   124174263.270        1682.257          38.000    23629583.413    96759249.589        1310.387          38.000  
G08  23561633.329   123817180.321       -2612.608          38.000    23561638.977    96480929.035       -2035.974          37.000  
G09  24693201.266   129763605.209       -2450.058          33.000    24693207.404   101114447.542       -1909.489          34.000  
G04  25982421.962   136538506.571       -2681.083          29.000    25982432.540   106393578.880       -2089.549          35.000  
G02  22503479.429   118256500.806       -1417.847          42.000                                                                  
G01  22011903.808   115673332.216        1295.905          40.000    22011905.645    90135010.862        1009.515          43.000  
G30  23030088.861   121023951.393        2613.085          40.000    23030092.446    94304428.879        2036.373          40.000  
G19  26278986.727   138097004.754        2622.698          31.000                                                                  
G14  24782379.068   130232272.959        2097.896          35.000    24782383.525   101479705.763        1634.705          38.000  
G27                                                                  26910187.394   110192716.163       -2328.625          34.000  
> 2025 04 26 01 00 59.0040000  0 12                     
G07  21463296.418   112790374.010         929.751          43.000    21463295.903    87888619.144         724.324          43.000  
G22  26222604.654   137800709.636        1750.384          31.000                                                                  
G17  23629261.556   124172581.346        1681.477          38.000    23629263.300    96757939.000        1310.243          38.000  
G08  23562130.591   123819793.248       -2613.183          38.000    23562136.226    96482965.063       -2035.961          37.000  
G09  24693667.439   129766054.926       -2449.897          33.000    24693673.604   101116356.388       -1908.629          34.000  
G04  25982932.260   136541187.929       -2680.871          28.000    25982942.668   106395668.211       -2089.489          35.000  
G02  22503749.429   118257918.986       -1418.603          42.000                                                                  
G01  22011657.322   115672036.722        1295.380          40.000    22011659.190    90134001.378        1009.180          43.000  
G30  23029591.582   121021338.336        2612.806          40.000    23029595.148    94302392.719        2036.024          39.000  
G19  26278488.033   138094383.100        2620.540          30.000                                                                  
G14  24781979.839   130230175.135        2097.765          35.000    24781984.272   101478071.102        1634.829          38.000  
G27                                                                  26910755.991   110195044.420       -2328.290          35.000  
> 2025 04 26 01 01 00.0040000  0 12                     
G07  21463119.501   112789444.425         929.212          43.000    21463118.980    87887894.768         724.292          43.000  
G22  26222271.646   137798958.966        1751.122          31.000                                                                  
G17  23628941.529   124170899.681        1681.699          38.000    23628943.267    96756628.615        1310.004          38.000  
G08  23562627.725   123822406.046       -2612.859          38.000    23562633.339    96485001.014       -2036.053          38.000  
G09  24694133.576   129768504.485       -2449.297          33.000    24694139.635   101118265.164       -1909.224          34.000  
G04  25983442.548   136543868.952       -2680.647          28.000    25983452.756   106397757.303       -2088.822          35.000  
G02  22504019.350   118259337.632       -1418.885          42.000                                                                  
G01  22011410.848   115670741.691        1295.032          40.000    22011412.782    90132992.258        1009.125          43.000  
G30  23029094.296   121018725.531        2612.515          40.000    23029098.046    94300356.764        2036.120          39.000  
G19  26277989.216   138091761.412        2621.767          30.000                                                                  
G14  24781580.574   130228077.122        2098.126          35.000    24781585.143   101476436.280        1634.854          38.000  
G27                                                                  26911324.840   110197372.441       -2328.040          35.000  
> 2025 04 26 01 01 01.0040000  0 12                     
G07  21462942.711   112788515.359         928.578          43.000    21462942.185    87887170.832         723.569          43.000  
G22  26221938.577   137797208.165        1750.731          30.000                                                                  
G17  23628621.559   124169218.358        1680.915          38.000    23628623.321    96755318.469        1310.048          38.000  
G08  23563124.850   123825018.815       -2613.028          38.000    23563130.517    96487036.927       -2035.736          38.000  
G09  24694599.758   129770953.951       -2449.192          33.000    24694605.824   101120173.807       -1908.502          34.000  
G04  25983952.705   136546549.642       -2680.708          29.000    25983962.925   106399846.135       -2088.897          35.000  
G02  22504289.469   118260756.810       -1419.569          42.000                                                                  
G01  22011164.649   115669447.199        1293.903          40.000    22011166.407    90131983.562        1008.276          43.000  
G30  23028597.244   121016113.081        2611.851          40.000    23028600.943    94298321.092        2035.335          39.000  
G19  26277490.534   138089139.893        2621.988          31.000                                                                  
G14  24781181.405   130225978.960        2097.830          34.000    24781185.901   101474801.325        1635.163          38.000  
G27                                                                  26911893.416   110199700.252       -2327.539          34.000  
> 2025 04 26 01 01 02.0040000  0 12                     
G07  21462765.965   112787586.978         928.187          43.000    21462765.526    87886447.420         723.381          43.000  
G22  26221605.430   137795457.337        1751.045          30.000                                                                  
G17  23628301.774   124167537.477        1681.172          38.000    23628303.517    96754008.712        1309.709          38.000  
G08  23563622.062   123827631.700       -2612.341          37.000    23563627.803    96489072.951       -2036.190          38.000  
G09  24695065.941   129773403.502       -2449.210          33.000    24695071.922   101122082.539       -1908.364          34.000  
G04  25984462.907   136549230.223       -2681.031          29.000    25984473.080   106401934.855       -2088.454          35.000  
G02  22504559.676   118262176.681       -1420.005          42.000                                                                  
G01  22010918.449   115668153.372        1293.542          41.000    22010920.140    90130975.380        1008.008          43.000  
G30  23028100.160   121013501.082        2611.900          40.000    23028103.938    94296285.789        2035.100          39.000  
G19  26276991.779   138086518.711        2621.179          31.000                                                                  
G14  24780782.112   130223880.771        2098.503          34.000    24780786.606   101473166.405        1635.108          38.000  
G27                                                                  26912462.058   110202028.019       -2327.342          34.000  
> 2025 04 26 01 01 03.0040000  0 12                     
G07  21462589.483   112786659.301         927.445          43.000    21462588.931    87885724.562         722.403          43.000  
G22  26221272.335   137793706.551        1751.067          30.000                                                                  
G17  23627981.992   124165857.154        1679.550          38.000    23627983.730    96752699.337        1309.140          38.000  
G08  23564119.283   123830244.736       -2613.518          37.000    23564125.088    96491109.067       -2036.452          38.000  
G09  24695531.986   129775853.124       -2450.601          33.000    24695538.095   101123991.289       -1908.649          34.000  
G04  25984973.073   136551910.556       -2680.466          29.000    25984983.236   106404023.481       -2088.840          35.000  
G02  22504830.020   118263597.235       -1421.156          42.000                                                                  
G01  22010672.410   115666860.212        1292.584          41.000    22010674.116    90129967.715        1007.282          43.000  
G30  23027603.123   121010889.575        2610.869          40.000    23027606.897    94294250.831        2034.528          39.000  
G19  26276493.127   138083897.811        2621.057          31.000                                                                  
G14  24780382.968   130221782.607        2098.207          34.000    24780387.398   101471531.481        1634.667          38.000  
G27                                                                  26913030.426   110204355.730       -2326.694          34.000  
> 2025 04 26 01 01 04.0040000  0 12                     
G07  21462412.985   112785732.247         926.464          43.000    21462412.537    87885002.175         721.981          43.000  
G22  26220939.161   137791955.668        1750.728          31.000                                                                  
G17  23627662.160   124164177.140        1679.600          38.000    23627664.103    96751390.259        1308.611          38.000  
G08  23564616.565   123832857.741       -2612.924          37.000    23564622.361    96493145.183       -2036.553          38.000  
G09  24695998.075   129778302.650       -2449.678          33.000    24696004.243   101125900.047       -1908.530          35.000  
G04  25985483.562   136554590.682       -2679.966          28.000    25985493.292   106406111.916       -2088.855          35.000  
G02  22505100.392   118265018.391       -1421.586          42.000                                                                  
G01  22010426.444   115665567.638        1292.120          41.000    22010428.139    90128960.537        1006.567          43.000  
G30  23027106.260   121008278.456        2610.756          40.000    23027110.029    94292216.200        2034.309          39.000  
G19  26275994.528   138081277.185        2620.722          31.000                                                                  
G14  24779983.717   130219684.357        2098.358          34.000    24779988.136   101469896.493        1634.547          38.000  
G27                                                                  26913598.950   110206683.372       -2327.335          32.000  
> 2025 04 26 01 01 05.0040000  0 12                     
G07  21462236.674   112784805.718         926.093          43.000    21462236.229    87884280.201         721.621          43.000  
G22  26220606.164   137790204.644        1750.808          31.000                                                                  
G17  23627342.540   124162497.507        1679.241          38.000    23627344.482    96750081.424        1308.928          38.000  
G08  23565113.852   123835470.751       -2613.055          37.000    23565119.615    96495181.256       -2036.155          38.000  
G09  24696464.173   129780752.109       -2449.236          33.000    24696470.267   101127808.717       -1908.767          35.000  
G04  25985993.572   136557270.599       -2680.069          28.000    25986003.193   106408200.074       -2088.435          35.000  
G02  22505371.036   118266440.075       -1422.108          42.000                                                                  
G01  22010180.491   115664275.588        1291.681          41.000    22010182.228    90127953.725        1006.659          43.000  
G30  23026609.455   121005667.661        2610.447          40.000    23026613.192    94290181.818        2034.209          39.000  
G19  26275495.865   138078656.590        2621.091          31.000                                                                  
G14  24779584.452   130217585.975        2098.609          34.000    24779588.748   101468261.376        1635.261          38.000  
G27                                                                  26914167.168   110209010.767       -2326.924          30.000  
> 2025 04 26 01 01 06.0040000  0 12                     
G07  21462060.526   112783879.753         925.717          43.000    21462060.070    87883558.665         721.285          43.000  
G22  26220272.918   137788453.504        1751.521          31.000                                                                  
G17  23627023.047   124160818.167        1679.568          38.000    23627024.930    96748772.884        1308.346          38.000  
G08  23565611.170   123838083.736       -2613.074          37.000    23565616.865    96497217.358       -2036.148          37.000  
G09  24696930.318   129783201.526       -2449.613          33.000    24696936.424   101129717.335       -1908.266          35.000  
G04  25986503.458   136559950.126       -2679.459          28.000    25986513.011   106410288.034       -2087.542          35.000  
G02  22505641.686   118267862.313       -1422.660          42.000                                                                  
G01  22009934.671   115662984.077        1291.333          41.000    22009936.441    90126947.369        1006.293          43.000  
G30  23026112.645   121003057.206        2610.442          40.000    23026116.438    94288147.717        2033.961          39.000  
G19  26274997.277   138076036.196        2621.654          31.000                                                                  
G14  24779185.126   130215487.497        2098.195          34.000    24779189.404   101466626.187        1635.452          38.000  
G27                                                                  26914735.537   110211338.104       -2327.480          29.000  
> 2025 04 26 01 01 07.0040000  0 12                     
G07  21461884.373   112782954.335         925.180          43.000    21461884.025    87882837.554         721.106          43.000  
G22  26219939.801   137786702.223        1751.704          32.000                                                                  
G17  23626703.496   124159139.220        1678.799          37.000    23626705.406    96747464.598        1308.373          38.000  
G08  23566108.473   123840696.708       -2613.273          37.000    23566114.095    96499253.416       -2036.034          37.000  
G09  24697396.421   129785650.800       -2448.975          33.000    24697402.645   101131625.877       -1909.016          35.000  
G04  25987013.271   136562629.354       -2678.757          27.000    25987022.825   106412375.789       -2088.016          35.000  
G02  22505912.449   118269285.093       -1423.174          42.000                                                                  
G01  22009688.969   115661693.105        1290.533          40.000    22009690.793    90125941.411        1005.811          43.000  
G30  23025615.972   121000447.106        2609.771          40.000    23025619.719    94286113.859        2033.836          39.000  
G19  26274498.587   138073416.008        2620.589          31.000                                                                  
G14  24778785.640   130213388.818        2098.976          34.000    24778789.967   101464990.878        1635.258          38.000  
G27                                                                  26915303.848   110213665.126       -2326.907          27.000  
> 2025 04 26 01 01 08.0040000  0 12                     
G07  21461708.322   112782029.553         924.369          43.000    21461708.046    87882116.958         720.076          43.000  
G22  26219606.596   137784950.948        1751.202          32.000                                                                  
G17  23626384.121   124157460.665        1678.143          37.000    23626385.984    96746156.627        1307.504          38.000  
G08  23566605.721   123843309.687       -2612.996          37.000    23566611.224    96501289.531       -2036.386          37.000  
G09  24697862.514   129788100.117       -2449.373          33.000    24697868.628   101133534.402       -1908.607          35.000  
G04  25987523.063   136565308.465       -2679.559          27.000    25987532.675   106414463.338       -2087.636          36.000  
G02  22506183.199   118270708.497       -1423.981          42.000                                                                  
G01  22009443.489   115660402.738        1289.954          40.000    22009445.206    90124935.931        1005.109          43.000  
G30  23025119.393   120997837.429        2609.231          40.000    23025123.045    94284080.339        2033.109          39.000  
G19  26274000.236   138070796.118        2618.594          31.000                                                                  
G14  24778386.058   130211290.139        2098.423          35.000    24778390.577   101463355.512        1635.110          38.000  
G27                                                                  26915872.195   110215991.965       -2326.187          24.000  
> 2025 04 26 01 01 09.0040000  0 12                     
G07  21461532.469   112781105.428         923.770          43.000    21461532.237    87881396.847         719.854          43.000  
G22  26219273.509   137783199.582        1751.284          32.000                                                                  
G17  23626064.723   124155782.530        1678.074          37.000    23626066.610    96744848.990        1307.643          38.000  
G08  23567102.977   123845922.772       -2612.901          38.000    23567108.450    96503325.685       -2036.270          38.000  
G09  24698328.514   129790549.443       -2449.041          33.000    24698334.816   101135442.963       -1908.361          35.000  
G04  25988032.808   136567987.269       -2678.375          27.000    25988042.552   106416550.763       -2088.040          36.000  
G02  22506454.108   118272132.533       -1424.290          42.000                                                                  
G01  22009198.052   115659113.016        1289.252          40.000    22009199.826    90123930.949        1004.681          43.000  
G30  23024622.843   120995228.167        2609.266          40.000    23024626.492    94282047.161        2033.010          39.000  
G19  26273501.864   138068176.349        2619.529          31.000                                                                  
G14  24777986.702   130209191.390        2098.748          35.000    24777991.182   101461720.132        1635.616          38.000  
G27                                                                  26916439.995                       -2325.279          23.000  
> 2025 04 26 01 01 10.0040000  0 12                     
G07  21461356.663   112780181.729         923.281          43.000    21461356.424    87880677.086         719.456          43.000  
G22  26218940.141   137781447.984        1751.495          31.000                                                                  
G17  23625745.450   124154104.630        1677.714          37.000    23625747.416    96743541.548        1307.153          38.000  
G08  23567600.177   123848535.713       -2613.045          38.000    23567605.648    96505361.715       -2036.193          38.000  
G09  24698794.428   129792998.566       -2449.585          33.000    24698800.851   101137351.371       -1908.520          35.000  
G04  25988542.299   136570665.739       -2678.517          27.000    25988552.294   106418637.824       -2087.140          36.000  
G02  22506725.202   118273556.998       -1424.813          42.000                                                                  
G01  22008952.769   115657823.685        1289.044          41.000    22008954.479    90122926.281        1004.272          43.000  
G30  23024126.416   120992619.133        2608.691          40.000    23024129.956    94280014.152        2032.764          40.000  
G19  26273003.363   138065556.595        2619.913          30.000                                                                  
G14  24777587.299   130207092.430        2098.582          35.000    24777591.579   101460084.555        1635.854          38.000  
G27                                                                  26917008.147                       -2324.785          24.000  
> 2025 04 26 01 01 11.0040000  0 12                     
G07  21461181.062   112779258.683         922.442          43.000    21461180.890    87879957.823         718.911          43.000  
G22  26218606.844   137779696.347        1751.322          31.000                                                                  
G17  23625426.162   124152427.158        1677.213          38.000    23625428.130    96742234.417        1306.972          38.000  
G08  23568097.488   123851148.697       -2612.998          37.000    23568102.831    96507397.813       -2036.010          38.000  
G09  24699260.330   129795447.713       -2449.651          32.000    24699266.982   101139259.749       -1908.219          35.000  
G04  25989051.721   136573343.990       -2678.121          27.000    25989062.023   106420724.750       -2086.689          36.000  
G02  22506996.326   118274982.100       -1425.360          42.000                                                                  
G01  22008707.496   115656534.984        1288.263          41.000    22008709.288    90121922.108        1003.619          43.000  
G30  23023629.982   120990010.516        2608.456          40.000    23023633.569    94277981.485        2032.104          39.000  
G19  26272505.081   138062937.170        2618.742          31.000                                                                  
G14  24777187.827   130204993.344        2099.406          35.000    24777192.213   101458448.941        1635.774          38.000  
G27                                                                  26917575.808                       -2325.688          25.000  
> 2025 04 26 01 01 12.0040000  0 12                     
G07  21461005.487   112778336.311         922.025          43.000    21461005.515    87879239.092         718.374          43.000  
G22  26218273.420   137777944.693        1751.652          31.000                                                                  
G17  23625107.050   124150750.172        1676.597          37.000    23625108.903    96740927.666        1306.625          38.000  
G08  23568594.725   123853761.797       -2613.194          37.000    23568600.154    96509434.001       -2036.324          38.000  
G09  24699726.423   129797896.847       -2449.251          32.000    24699733.140   101141168.156       -1907.825          34.000  
G04  25989561.176   136576022.056       -2677.730          27.000    25989571.679   106422811.562       -2086.585          35.000  
G02  22507267.666   118276407.897       -1426.383          42.000                                                                  
G01  22008462.352   115655246.951        1287.677          41.000    22008464.046    90120918.437        1003.424          43.000  
G30  23023133.743   120987402.405        2607.897          40.000    23023137.236    94275949.150        2032.017          39.000  
G19  26272006.793   138060317.993        2619.111          31.000                                                                  
G14  24776788.365   130202894.326        2098.795          35.000    24776792.758   101456813.340        1635.775          38.000  
G27                                                                  26918143.268                       -2326.851          25.000  
> 2025 04 26 01 01 13.0040000  0 12                     
G07  21460830.035   112777414.549         921.627          43.000    21460830.121    87878520.839         718.134          43.000  
G22  26217940.116   137776192.972        1751.543          31.000                                                                  
G17  23624787.897   124149073.572        1676.679          37.000    23624789.872    96739621.224        1306.560          38.000  
G08  23569092.049   123856374.953       -2613.164          37.000    23569097.542    96511470.215       -2036.285          38.000  
G09  24700192.646   129800346.020       -2449.628          32.000    24700199.181   101143076.587       -1908.096          34.000  
G04  25990070.710   136578699.925       -2677.827          27.000    25990081.262   106424898.198       -2086.804          36.000  
G02  22507539.085   118277834.276       -1426.641          42.000                                                                  
G01  22008217.320   115653959.529        1287.134          41.000    22008219.004    90119915.247        1002.954          43.000  
G30  23022637.442   120984794.675        2607.562          40.000    23022640.990    94273917.178        2031.583          39.000  
G19  26271508.316   138057699.070        2618.538          31.000                                                                  
G14  24776388.964   130200795.226        2098.926          35.000    24776393.365   101455177.689        1635.465          38.000  
G27                                                                  26918710.632                       -2327.264          25.000  
> 2025 04 26 01 01 14.0040000  0 12                     
G07  21460654.803   112776493.311         920.846          43.000    21460654.807    87877802.995         717.351          43.000  
G22  26217606.577   137774441.082        1751.660          31.000                                                                  
G17  23624468.939   124147397.278        1676.145          37.000    23624470.892    96738315.004        1306.287          38.000  
G08  23569589.257   123858988.014       -2613.050          38.000    23569594.852    96513506.348       -2035.997          38.000  
G09  24700658.653   129802795.018       -2449.029          33.000    24700665.263   101144984.904       -1908.245          34.000  
G04  25990580.283   136581377.473       -2677.716          27.000    25990590.813   106426984.577       -2086.727          35.000  
G02  22507810.727   118279261.164       -1427.222          42.000                                                                  
G01  22007972.413   115652672.583        1286.578          41.000    22007974.099    90118912.431        1002.454          43.000  
G30  23022141.332   120982187.228        2607.469          40.000    23022144.812    94271885.393        2031.513          39.000  
G19  26271009.970   138055080.243        2618.001          31.000                                                                  
G14  24775989.472   130198695.949        2098.762          35.000    24775993.823   101453541.882        1635.710          38.000  
G27                                                                  26919280.228                       -2325.929          26.000  
> 2025 04 26 01 01 15.0040000  0 12                     
G07  21460479.641   112775572.711         920.241          43.000    21460479.576    87877085.642         717.020          43.000  
G22  26217273.170   137772689.171        1751.673          32.000                                                                  
G17  23624150.064   124145721.414        1675.649          38.000    23624152.063    96737009.153        1305.732          38.000  
G08  23570086.577   123861601.170       -2613.522          38.000    23570092.203    96515542.577       -2036.252          38.000  
G09  24701124.745   129805243.988       -2447.962          33.000    24701131.263   101146893.261       -1908.721          34.000  
G04  25991089.618   136584054.730       -2676.869          27.000    25991100.246   106429070.769       -2086.081          35.000  
G02  22508082.407   118280688.681       -1427.664          42.000                                                                  
G01  22007727.684   115651386.256        1286.017          41.000    22007729.292    90117910.108        1002.026          43.000  
G30  23021645.251   120979580.228        2606.925          40.000    23021648.726    94269853.979        2030.944          39.000  
G19  26270511.634   138052461.625        2619.223          31.000                                                                  
G14  24775589.979   130196596.603        2099.117          35.000    24775594.468   101451906.033        1636.074          38.000  
G27                                                                  26919849.449                       -2325.500          27.000  
> 2025 04 26 01 01 16.0040000  0 12                     
G07  21460304.598   112774652.601         919.548          43.000    21460304.378    87876368.656         716.809          43.000  
G22  26216939.901   137770937.007        1752.029          32.000                                                                  
G17  23623831.202   124144045.833        1675.158          37.000    23623833.181    96735703.501        1305.247          38.000  
G08  23570583.816   123864214.201       -2613.486          38.000    23570589.474    96517578.713       -2036.746          38.000  
G09  24701590.723   129807692.898       -2448.268          33.000    24701597.207   101148801.441       -1908.276          34.000  
G04  25991599.005   136586731.697       -2676.957          27.000    25991609.645   106431156.690       -2085.594          35.000  
G02  22508354.183   118282116.685       -1428.511          42.000                                                                  
G01  22007483.003   115650100.408        1285.522          40.000    22007484.575    90116908.148        1001.489          43.000  
G30  23021149.274   120976973.496        2606.212          40.000    23021152.727    94267822.724        2031.118          39.000  
G19  26270013.540   138049843.181        2618.741          31.000                                                                  
G14  24775190.408   130194497.077        2099.226          35.000    24775194.998   101450270.045        1635.950          38.000  
G27                                                                  26920416.848   110234608.6651      -2325.519          27.000  
> 2025 04 26 01 01 17.0040000  0 12                     
G07  21460129.685   112773733.203         918.799          43.000    21460129.320    87875652.246         716.175          43.000  
G22  26216606.721   137769184.937        1751.875          32.000                                                                  
G17  23623512.503   124142370.732        1674.779          37.000    23623514.387    96734398.236        1304.880          38.000  
G08  23571081.010   123866827.368       -2612.941          38.000    23571086.663    96519614.923       -2036.169          38.000  
G09  24702056.833   129810141.853       -2448.979          33.000    24702063.274   101150709.708       -1908.549          34.000  
G04  25992108.171   136589408.539       -2677.235          27.000    25992119.131   106433242.508       -2085.634          35.000  
G02  22508626.124   118283545.390       -1429.202          42.000                                                                  
G01  22007238.540   115648815.256        1284.760          40.000    22007239.927    90115906.711        1001.306          43.000  
G30  23020653.326   120974367.264        2606.141          40.000    23020656.787    94265791.915        2030.625          40.000  
G19  26269515.481   138047225.004        2618.541          31.000                                                                  
G14  24774790.858   130192397.583        2099.036          35.000    24774795.513   101448634.100        1635.438          38.000  
G27                                                                  26920983.291   110236934.461       -2325.588          28.000  
> 2025 04 26 01 01 18.0040000  0 12                     
G07  21459954.898   112772814.414         918.355          43.000    21459954.381    87874936.305         715.633          43.000  
G22  26216273.253   137767432.779        1752.147          32.000                                                                  
G17  23623193.841   124140696.012        1675.089          37.000    23623195.691    96733093.283        1304.378          38.000  
G08  23571578.241   123869440.595       -2613.198          38.000    23571583.921    96521651.207       -2036.601          38.000  
G09  24702522.923   129812590.793       -2448.913          33.000    24702529.286   101152617.962       -1908.487          34.000  
G04  25992617.477   136592085.151       -2676.919          26.000    25992628.468   106435328.138       -2085.173          35.000  
G02  22508897.985   118284974.682       -1429.402          42.000                                                                  
G01  22006994.072   115647530.682        1284.503          40.000    22006995.501    90114905.763        1000.684          43.000  
G30  23020157.458   120971761.451        2605.611          40.000    23020160.847    94263761.407        2030.330          39.000  
G19  26269017.498   138044607.092        2617.693          31.000                                                                  
G14  24774391.441   130190298.006        2099.795          35.000    24774396.065   101446998.044        1636.232          38.000  
G27                                                                  26921550.700   110239260.024       -2324.893          27.000  
> 2025 04 26 01 01 19.0040000  0 12                     
G07  21459780.305   112771896.254         917.825          43.000    21459779.600    87874220.865         715.236          43.000  
G22  26215939.773   137765680.559        1751.834          31.000                                                                  
G17  23622875.310   124139021.760        1673.873          37.000    23622877.128    96731788.640        1304.493          38.000  
G08  23572075.501   123872053.852       -2613.061          38.000    23572081.245    96523687.512       -2036.289          38.000  
G09  24702988.907   129815039.705       -2449.025          33.000    24702995.325   101154526.222       -1908.739          34.000  
G04  25993126.727   136594761.490       -2676.090          26.000    25993137.723   106437413.626       -2085.201          35.000  
G02  22509170.071   118286404.606       -1430.165          42.000                                                                  
G01  22006749.687   115646246.730        1283.887          40.000    22006751.278    90113905.278        1000.244          43.000  
G30  23019661.719   120969156.035        2605.123          40.000    23019665.019    94261731.229        2029.816          39.000  
G19  26268519.415   138041989.400        2617.100          31.000                                                                  
G14  24773991.885   130188198.370        2099.428          35.000    24773996.513   101445361.979        1636.072          38.000  
G27                                                                  26922118.849   110241585.704       -2326.795          26.000  
> 2025 04 26 01 01 20.0040000  0 12                     
G07  21459605.596   112770978.653         917.284          43.000    21459604.891    87873505.839         714.755          43.000  
G22  26215606.241   137763928.193        1751.598          31.000                                                                  
G17  23622556.725   124137347.816        1673.886          37.000    23622558.651    96730484.262        1304.219          38.000  
G08  23572572.748   123874667.092       -2613.152          38.000    23572578.671    96525723.791       -2036.396          38.000  
G09  24703455.172   129817488.541       -2448.940          33.000    24703461.257   101156434.375       -1908.055          34.000  
G04  25993635.841   136597437.585       -2676.010          26.000    25993646.975   106439498.872       -2085.305          35.000  
G02  22509442.255   118287835.066       -1430.698          42.000                                                                  
G01  22006505.427   115644963.323        1283.020          40.000    22006507.059    90112905.216         999.707          43.000  
G30  23019165.906   120966550.956        2604.780          39.000    23019169.339    94259701.286        2029.886          39.000  
G19  26268021.331   138039371.820        2617.568          31.000                                                                  
G14  24773592.433   130186098.573        2100.477          35.000    24773596.951   101443725.802        1635.953          37.000  
G27                                                                  26922687.770   110243910.962       -2325.820          25.000  
> 2025 04 26 01 01 21.0040000  0 12                     
G07  21459431.171   112770061.715         916.708          43.000    21459430.353    87872791.349         714.469          43.000  
G22  26215272.705   137762175.780        1753.488          31.000                                                                  
G17  23622238.282   124135674.326        1673.244          37.000    23622240.171    96729180.260        1303.777          38.000  
G08  23573070.034   123877280.417       -2613.078          38.000    23573075.930    96527760.132       -2035.837          37.000  
G09  24703921.124   129819937.422       -2449.445          33.000    24703927.239   101158342.570       -1908.031          34.000  
G04  25994144.803   136600113.526       -2675.981          26.000    25994156.140   106441583.995       -2084.852          35.000  
G02  22509714.598   118289266.189       -1431.493          42.000                                                                  
G01  22006261.405   115643680.550        1282.532          40.000    22006262.887    90111905.655         999.445          43.000  
G30  23018670.268   120963946.344        2604.281          39.000    23018673.737    94257671.733        2029.055          39.000  
G19  26267523.012   138036754.537        2617.591          31.000                                                                  
G14  24773192.924   130183998.838        2099.620          34.000    24773197.393   101442089.582        1636.482          38.000  
G27                                                                  26923255.748   110246236.248       -2325.426          26.000  
> 2025 04 26 01 01 22.0040000  0 12                     
G07  21459256.803   112769145.363         916.016          43.000    21459256.048    87872077.313         713.666          43.000  
G22  26214939.322   137760423.317        1753.029          31.000                                                                  
G17  23621919.920   124134001.203        1673.001          38.000    23621921.781    96727876.519        1303.459          38.000  
G08  23573567.258   123879893.755       -2613.688          38.000    23573573.221    96529796.487       -2036.340          37.000  
G09  24704387.180   129822386.186       -2448.602          34.000    24704393.177   101160250.750       -1908.779          34.000  
G04  25994653.980   136602789.090       -2675.292          26.000    25994665.310   106443668.891       -2085.165          35.000  
G02  22509987.013   118290697.876       -1432.021          42.000                                                                  
G01  22006017.436   115642398.352        1281.738          40.000    22006018.831    90110906.535         998.871          43.000  
G30  23018174.695   120961342.064        2604.289          39.000    23018178.212    94255642.419        2029.055          39.000  
G19  26267025.137   138034137.460        2617.067          31.000                                                                  
G14  24772793.206   130181898.927        2099.776          35.000    24772797.804   101440453.326        1635.962          38.000  
G27                                                                  26923824.372   110248561.344       -2325.036          27.000  
> 2025 04 26 01 01 23.0040000  0 12                     
G07  21459082.480   112768229.488         915.558          43.000    21459081.787    87871363.641         713.498          43.000  
G22  26214605.688   137758670.617        1753.779          31.000                                                                  
G17  23621601.557   124132328.342        1672.760          37.000    23621603.484    96726572.968        1303.618          38.000  
G08  23574064.566   123882506.901       -2613.132          37.000    23574070.598    96531832.718       -2036.137          37.000  
G09  24704853.111   129824834.843       -2448.665          33.000    24704859.005   101162158.714       -1907.234          34.000  
G04  25995163.074   136605464.398       -2674.865          26.000    25995174.410   106445753.496       -2084.140          35.000  
G02  22510259.482   118292130.039       -1432.258          42.000                                                                  
G01  22005773.427   115641116.599        1281.573          40.000    22005774.963    90109907.777         998.572          43.000  
G30  23017679.190   120958738.094        2603.972          40.000    23017682.702    94253613.335        2029.199          39.000  
G19  26266527.258   138031520.470        2616.978          31.000                                                                  
G14  24772393.597   130179798.826        2100.273          35.000    24772398.242   101438816.878        1636.467          38.000  
G27                                                                  26924392.185   110250886.241       -2324.573          27.000  
> 2025 04 26 01 01 24.0040000  0 12                     
G07  21458908.197   112767314.080         915.182          43.000    21458907.660    87870650.335         713.067          43.000  
G22  26214272.231   137756917.762        1752.444          31.000                                                                  
G17  23621283.246   124130655.745        1672.166          37.000    23621285.162    96725269.657        1302.893          38.000  
G08  23574561.824   123885120.008       -2612.979          37.000    23574567.926    96533868.900       -2036.196          38.000  
G09  24705318.993   129827283.345       -2449.031          33.000    24705324.881   101164066.627       -1907.642          34.000  
G04  25995672.034   136608139.256       -2674.525          26.000    25995683.402   106447837.816       -2084.447          35.000  
G02  22510532.241   118293562.666       -1432.798          42.000                                                                  
G01  22005529.589   115639835.301        1280.884          40.000    22005531.207    90108909.357         998.175          43.000  
G30  23017183.772   120956134.357        2603.641          39.000    23017187.233    94251584.460        2028.681          39.000  
G19  26266029.224   138028903.550        2616.810          31.000                                                                  
G14  24771993.925   130177698.501        2100.507          34.000    24771998.509   101437180.265        1636.733          38.000  
G27                                                                  26924960.092   110253210.945       -2324.523          27.000  
> 2025 04 26 01 01 25.0040000  0 12                     
G07  21458734.035   112766399.139         914.573          43.000    21458733.561    87869937.390         712.594          43.000  
G22  26213938.495   137755164.659        1752.671          31.000                                                                  
G17  23620965.026   124128983.367        1672.028          37.000    23620966.937    96723966.507        1302.891          38.000  
G08  23575058.993   123887733.033       -2613.497          37.000    23575065.138    96535905.008       -2036.543          38.000  
G09  24705784.976   129829731.609       -2448.459          33.000    24705790.770   101165974.439       -1908.194          34.000  
G04  25996180.925   136610813.813       -2674.320          26.000    25996192.327   106449921.868       -2084.221          35.000  
G02  22510804.920   118294995.750       -1433.611          42.000                                                                  
G01  22005285.907   115638554.469        1280.365          40.000    22005287.506    90107911.298         997.754          43.000  
G30  23016688.376   120953530.915        2602.746          39.000    23016691.693    94249555.782        2028.396          39.000  
G19  26265531.239   138026286.654        2616.853          31.000                                                                  
G14  24771594.339   130175597.969        2100.452          34.000    24771598.761   101435543.488        1636.502          38.000  
G27                                                                  26925528.363   110255535.398       -2324.653          27.000  
> 2025 04 26 01 01 26.0040000  0 12                     
G07  21458560.081   112765484.903         914.010          43.000    21458559.525    87869225.006         712.075          43.000  
G22  26213604.954   137753411.589        1752.410          32.000                                                                  
G17  23620646.869   124127311.484        1672.154          37.000    23620648.824    96722663.752        1302.485          38.000  
G08  23575556.245   123890346.146       -2613.097          37.000    23575562.359    96537941.202       -2036.019          38.000  
G09  24706250.880   129832179.969       -2447.941          33.000    24706256.637   101167882.228       -1907.690          34.000  
G04  25996689.891   136613488.201       -2674.256          26.000    25996701.214   106452005.778       -2083.904          35.000  
G02  22511077.719   118296429.512       -1434.060          42.000                                                                  
G01  22005042.258   115637274.296        1279.968          40.000    22005043.833    90106913.766         997.315          43.000  
G30  23016192.978   120950927.906        2602.872          39.000    23016196.437    94247527.477        2028.276          40.000  
G19  26265033.406   138023670.135        2615.800          31.000                                                                  
G14  24771194.746   130173497.451        2100.548          34.000    24771198.961   101433906.729        1636.445          38.000  
G27                                                                  26926096.998   110257859.736       -2324.027          27.000  
> 2025 04 26 01 01 27.0040000  0 12                     
G07  21458386.171   112764571.163         913.723          43.000    21458385.769    87868512.995         712.019          43.000  
G22  26213271.399   137751658.265        1753.723          31.000                                                                  
G17  23620328.838   124125639.915        1671.396          37.000    23620330.669    96721361.213        1302.495          38.000  
G08  23576053.575   123892959.205       -2613.209          37.000    23576059.682    96539977.340       -2036.266          38.000  
G09  24706717.027   129834628.200       -2448.413          33.000    24706722.446   101169789.939       -1907.543          34.000  
G04  25997198.862   136616162.181       -2673.543          27.000    25997210.085   106454089.409       -2083.702          35.000  
G02  22511350.689   118297863.780       -1434.523          42.000                                                                  
G01  22004798.787   115635994.619        1279.236          40.000    22004800.334    90105916.607         996.997          43.000  
G30  23015697.754   120948325.200        2602.839          39.000    23015701.141    94245499.417        2027.949          40.000  
G19  26264535.483   138021053.674        2616.469          31.000                                                                  
G14  24770794.982   130171396.743        2100.739          34.000    24770799.182   101432269.799        1637.160          38.000  
G27                                                                  26926663.415   110260183.909       -2324.572          27.000  
> 2025 04 26 01 01 28.0040000  0 12                     
G07  21458212.370   112763657.926         912.896          43.000    21458212.010    87867801.373         711.502          43.000  
G22  26212937.782   137749904.768        1754.282          31.000                                                                  
G17  23620010.864   124123968.632        1670.634          37.000    23620012.607    96720058.892        1302.165          38.000  
G08  23576550.751   123895572.151       -2612.761          37.000    23576556.907    96542013.402       -2036.114          38.000  
G09  24707182.714   129837076.293       -2448.071          33.000    24707188.396   101171697.510       -1907.520          34.000  
G04  25997707.680   136618835.872       -2673.569          27.000    25997718.927   106456172.761       -2083.154          35.000  
G02  22511623.774   118299298.510       -1435.050          42.000                                                                  
G01  22004555.299   115634715.401        1278.955          40.000    22004556.933    90104919.820         996.466          43.000  
G30  23015202.534   120945722.795        2602.045          39.000    23015205.998    94243471.547        2027.683          40.000  
G19  26264037.353   138018437.324        2615.989          31.000                                                                  
G14  24770395.107   130169295.834        2100.815          34.000    24770399.424   101430632.727        1637.107          38.000  
G27                                                                  26927229.763   110262507.807       -2323.645          27.000  
> 2025 04 26 01 01 29.0040000  0 12                     
G07  21458038.545   112762745.174         912.523          43.000    21458038.374    87867090.140         711.040          43.000  
G22  26212604.049   137748151.106        1753.822          31.000                                                                  
G17  23619692.883   124122297.561        1670.798          37.000    23619694.696    96718756.764        1302.354          38.000  
G08  23577047.951   123898185.014       -2612.924          38.000    23577054.206    96544049.382       -2035.765          38.000  
G09  24707648.562   129839524.227       -2448.134          33.000    24707654.272   101173604.962       -1906.965          34.000  
G04  25998216.209   136621509.165       -2673.459          27.000    25998227.674   106458255.826       -2082.335          35.000  
G02  22511896.960   118300733.728       -1435.410          42.000                                                                  
G01  22004311.981   115633436.665        1278.394          40.000    22004313.568    90103923.381         996.423          43.000  
G30  23014707.334   120943120.648        2601.904          40.000    23014710.834    94241443.913        2027.440          40.000  
G19  26263539.349   138015821.034        2616.612          31.000                                                                  
G14  24769995.376   130167194.736        2101.222          34.000    24769999.686   101428995.478        1637.859          37.000  
G27                                                                  26927798.995   110264831.528       -2323.313          28.000  
> 2025 04 26 01 01 30.0040000  0 12                     
G07  21457864.890   112761832.967         911.943          43.000    21457864.726    87866379.319         710.685          43.000  
G22  26212270.588   137746397.271        1754.174          32.000                                                                  
G17  23619374.995   124120626.848        1670.402          37.000    23619376.874    96717454.912        1302.097          38.000  
G08  23577545.178   123900797.841       -2612.486          38.000    23577551.399    96546085.347       -2035.684          38.000  
G09  24708114.476   129841972.051       -2447.939          33.000    24708120.092   101175512.363       -1907.140          35.000  
G04  25998724.925   136624182.140       -2673.115          28.000    25998736.282   106460338.684       -2082.578          35.000  
G02  22512170.133   118302169.462       -1435.901          42.000                                                                  
G01  22004068.690   115632158.441        1278.094          40.000    22004070.221    90102927.375         995.868          43.000  
G30  23014212.184   120940518.816        2601.766          39.000    23014215.714    94239416.519        2027.252          39.000  
G19  26263041.585   138013204.920        2616.171          31.000                                                                  
G14  24769595.483   130165093.476        2101.276          34.000    24769599.695   101427358.171        1636.976          37.000  
G27                                                                  26928367.366   110267155.055       -2323.496          28.000  
> 2025 04 26 01 01 31.0040000  0 12                     
G07  21457691.547   112760921.456         910.900          43.000    21457691.302    87865669.048         710.015          43.000  
G22  26211936.883   137744643.462        1753.781          32.000                                                                  
G17  23619057.089   124118956.619        1669.900          37.000    23619059.066    96716153.441        1301.274          38.000  
G08  23578042.399   123903410.786       -2613.375          38.000    23578048.712    96548121.397       -2035.823          38.000  
G09  24708580.220   129844419.919       -2448.007          33.000    24708586.014   101177419.794       -1907.263          35.000  
G04  25999233.687   136626855.001       -2673.377          28.000    25999244.878   106462421.389       -2082.881          35.000  
G02  22512443.472   118303605.907       -1436.901          42.000                                                                  
G01  22003825.464   115630880.890        1277.161          40.000    22003827.237    90101931.892         995.148          43.000  
G30  23013716.997   120937917.482        2600.825          39.000    23013720.605    94237389.520        2026.455          39.000  
G19  26262543.637   138010589.103        2615.451          31.000                                                                  
G14  24769195.632   130162992.238        2101.005          34.000    24769199.838   101425720.827        1637.161          38.000  
G27                                                                  26928934.171   110269478.536       -2323.490          28.000  
> 2025 04 26 01 01 32.0040000  0 12                     
G07  21457518.337   112760010.477         910.494          43.000    21457518.037    87864959.199         709.462          43.000  
G22  26211603.089   137742889.487        1754.061          31.000                                                                  
G17  23618739.301   124117286.700        1669.556          37.000    23618741.340    96714852.233        1300.632          38.000  
G08  23578539.658   123906023.669       -2612.846          38.000    23578545.880    96550157.423       -2036.292          38.000  
G09  24709046.114   129846867.717       -2447.610          33.000    24709051.827   101179327.158       -1907.541          35.000  
G04  25999741.064                       -2672.233          27.000    25999753.520   106464503.842       -2082.193          35.000  
G02  22512717.052   118305042.867       -1437.495          42.000                                                                  
G01  22003582.484   115629603.872        1276.666          40.000    22003584.332    90100936.803         994.849          43.000  
G30  23013222.118   120935316.486        2600.479          39.000    23013225.662    94235362.732        2026.818          39.000  
G19  26262045.832   138007973.388        2616.216          31.000                                                                  
G14  24768795.605   130160890.793        2101.822          34.000    24768799.923   101424083.381        1637.024          38.000  
G27                                                                  26929500.485   110271801.776       -2322.803          27.000  
> 2025 04 26 01 01 33.0040000  0 12                     
G07  21457345.110   112759100.072         910.050          43.000    21457344.823    87864249.792         709.185          43.000  
G22  26211269.037   137741135.427        1754.478          31.000                                                                  
G17  23618421.627   124115617.138        1669.402          37.000    23618423.709    96713551.279        1300.413          38.000  
G08  23579036.853   123908636.561       -2612.688          37.000    23579043.049    96552193.436       -2036.085          38.000  
G09  24709511.857   129849315.417       -2447.473          33.000    24709517.650   101181234.476       -1907.533          35.000  
G04  26000251.109   136632241.2823      -2672.351          27.000    26000262.180   106466586.153       -2082.187          36.000  
G02  22512990.637   118306480.390       -1437.839          42.000                                                                  
G01  22003339.510   115628327.396        1276.324          40.000    22003341.419    90099942.154         994.562          43.000  
G30  23012727.082   120932715.838        2600.491          39.000    23012730.820    94233336.267        2026.122          39.000  
G19  26261548.086   138005357.939        2615.248          30.000                                                                  
G14  24768395.513   130158789.302        2102.007          34.000    24768399.994   101422445.841        1637.363          38.000  
G27                                                                  26930066.372   110274124.913       -2322.503          27.000  
> 2025 04 26 01 01 34.0040000  0 12                     
G07  21457171.978   112758190.310         909.376          43.000    21457171.639    87863540.887         708.708          43.000  
G22  26210935.172   137739381.324        1753.778          31.000                                                                  
G17  23618104.008   124113948.029        1668.903          37.000    23618106.074    96712250.640        1300.648          38.000  
G08  23579534.107   123911249.507       -2612.636          37.000    23579540.212    96554229.491       -2035.877          38.000  
G09  24709977.741   129851763.149       -2447.438          33.000    24709983.482   101183141.764       -1907.499          35.000  
G04  26000760.597   136634913.3432      -2672.221          28.000    26000770.801   106468668.241       -2081.613          36.000  
G02  22513264.263   118307918.532       -1438.420          42.000                                                                  
G01  22003096.692   115627051.561        1275.562          40.000    22003098.541    90098947.983         994.171          43.000  
G30  23012232.227   120930115.604        2600.285          39.000    23012235.924    94231310.115        2026.107          39.000  
G19  26261050.499   138002742.684        2615.699          31.000                                                                  
G14  24767995.452   130156687.768        2101.245          34.000    24768000.110   101420808.264        1637.647          38.000  
G27                                                                  26930633.643   110276448.018       -2322.700          27.000  
> 2025 04 26 01 01 35.0040000  0 12                     
G07  21456999.084   112757281.194         908.938          43.000    21456998.525    87862832.489         708.388          43.000  
G22  26210601.445   137737627.200        1753.754          31.000                                                                  
G17  23617786.494   124112279.348        1668.551          37.000    23617788.546    96710950.381        1300.132          38.000  
G08  23580031.344   123913862.550       -2612.972          37.000    23580037.485    96556265.617       -2035.887          38.000  
G09  24710443.571   129854210.870       -2447.351          33.000    24710449.256   101185049.058       -1907.037          35.000  
G04  26001268.863   136637585.1452      -2671.394          28.000    26001279.225   106470750.180       -2081.373          36.000  
G02  22513538.074   118309357.325       -1438.910          42.000                                                                  
G01  22002853.986   115625776.348        1274.945          40.000    22002855.849    90097954.314         993.628          43.000  
G30  23011737.570   120927515.843        2599.534          39.000    23011741.239    94229284.321        2025.568          39.000  
G19  26260552.867   138000127.698        2614.859          31.000                                                                  
G14  24767595.400   130154586.155        2101.761          34.000    24767600.177   101419170.689        1637.567          38.000  
G27                                                                  26931200.403   110278770.879       -2322.365          26.000  
> 2025 04 26 01 01 36.0040000  0 12                     
G07  21456826.113   112756372.557         908.561          43.000    21456825.591    87862124.460         707.981          43.000  
G22  26210267.703   137735872.829        1754.036          31.000                                                                  
G17  23617468.971   124110610.901        1668.190          37.000    23617471.025    96709650.291        1300.037          38.000  
G08  23580528.613   123916475.489       -2613.354          37.000    23580534.779    96558301.655       -2036.134          38.000  
G09  24710909.235   129856658.461       -2447.679          33.000    24710914.990   101186956.266       -1907.492          35.000  
G04  26001776.775   136640256.6682      -2671.491          28.000    26001787.608   106472831.861       -2081.915          35.000  
G02  22513812.055   118310796.587       -1439.753          42.000                                                                  
G01  22002611.435   115624501.588        1274.597          40.000    22002613.362    90096961.006         993.066          43.000  
G30  23011242.966   120924916.313        2599.343          39.000    23011246.608    94227258.730        2025.330          39.000  
G19  26260055.313   137997512.776        2615.398          31.000                                                                  
G14  24767195.260   130152484.380        2101.375          34.000    24767200.193   101417532.893        1637.922          38.000  
G27                                                                  26931767.727   110281093.567       -2321.971          26.000  
> 2025 04 26 01 01 37.0040000  0 12                     
G07  21456653.426   112755464.658         907.404          43.000    21456652.830    87861416.991         707.262          43.000  
G22  26209934.078   137734118.513        1754.320          31.000                                                                  
G17  23617151.579   124108942.988        1667.415          37.000    23617153.634    96708350.612        1299.374          38.000  
G08  23581025.889   123919088.554       -2613.557          37.000    23581032.088    96560337.796       -2036.206          38.000  
G09  24711375.010   129859106.072       -2447.577          33.000    24711380.862   101188863.483       -1907.068          35.000  
G04  26002286.979   136642927.5261      -2671.314          29.000    26002296.016   106474913.378       -2081.215          35.000  
G02  22514086.073   118312236.550       -1440.327          42.000                                                                  
G01  22002369.103   115623227.536        1273.621          40.000    22002370.947    90095968.237         992.340          43.000  
G30  23010748.449   120922317.313        2598.750          40.000    23010752.114    94225233.524        2024.912          39.000  
G19  26259557.608   137994898.191        2614.422          31.000                                                                  
G14  24766795.212   130150382.618        2101.116          34.000    24766800.131   101415895.154        1637.862          38.000  
G27                                                                  26932334.009   110283416.260       -2322.274          25.000  
> 2025 04 26 01 01 38.0040000  0 12                     
G07  21456480.734   112754557.310         907.234          43.000    21456480.188    87860709.978         706.923          43.000  
G22  26209600.146   137732364.066        1754.787          31.000                                                                  
G17  23616834.291   124107275.419        1667.554          37.000    23616836.199    96707051.209        1299.435          38.000  
G08  23581523.144   123921701.569       -2612.550          37.000    23581529.353    96562373.923       -2035.825          38.000  
G09  24711840.715   129861553.675       -2447.361          33.000    24711846.647   101190770.692       -1907.067          35.000  
G04  26002796.406   136645598.579       -2670.785          29.000    26002804.390   106476994.765       -2081.081          35.000  
G02  22514360.192   118313677.073       -1440.522          42.000                                                                  
G01  22002126.756   115621954.026        1273.724          40.000    22002128.671    90094975.908         992.017          43.000  
G30  23010253.905   120919718.671        2598.333          40.000    23010257.620    94223208.604        2024.974          39.000  
G19  26259060.013   137992283.762        2615.104          30.000                                                                  
G14  24766395.137   130148280.728        2102.208          34.000    24766400.200   101414257.331        1638.039          37.000  
G27                                                                  26932901.969   110285738.804       -2321.907          25.000  
> 2025 04 26 01 01 39.0040000  0 12                     
G07  21456308.164   112753650.532         906.398          43.000    21456307.631    87860003.398         706.176          43.000  
G22  26209266.161   137730609.508        1754.713          31.000                                                                  
G17  23616517.079   124105608.185        1667.168          37.000    23616518.829    96705752.073        1298.977          38.000  
G08  23582020.346   123924314.610       -2612.924          37.000    23582026.561    96564410.071       -2036.277          38.000  
G09  24712306.560   129864001.199       -2447.717          34.000    24712312.455   101192677.825       -1907.166          35.000  
G04  26003304.095   136648269.353       -2670.488          29.000    26003312.643   106479075.886       -2081.038          35.000  
G02  22514634.337   118315118.152       -1441.420          42.000                                                                  
G01  22001884.618   115620681.082        1272.638          40.000    22001886.271    90093983.980         991.681          43.000  
G30  23009759.379   120917120.357        2598.246          40.000    23009763.162    94221183.962        2024.285          39.000  
G19  26258562.520   137989669.555        2613.661          30.000                                                                  
G14  24765995.123   130146178.716        2101.749          34.000    24766000.318   101412619.380        1638.217          37.000  
G27                                                                  26933468.921   110288061.183       -2322.105          25.000  
> 2025 04 26 01 01 40.0040000  0 12                     
G07  21456135.756   112752744.392         905.872          43.000    21456135.274    87859297.298         706.020          43.000  
G22  26208932.166   137728854.897        1754.533          32.000                                                                  
G17  23616199.876   124103941.429        1666.062          37.000    23616201.522    96704453.284        1298.587          38.000  
G08  23582517.640   123926927.710       -2613.457          37.000    23582523.658    96566446.205       -2035.887          38.000  
G09  24712772.251   129866448.631       -2447.452          33.000    24712778.292   101194584.949       -1907.441          35.000  
G04  26003810.048   136650939.940       -2670.491          29.000    26003820.909   106481156.856       -2081.039          35.000  
G02  22514908.662   118316559.846       -1441.868          42.000                                                                  
G01  22001642.468   115619408.738        1272.186          40.000    22001644.233    90092992.548         991.223          43.000  
G30  23009265.032   120914522.489        2597.661          40.000    23009268.701    94219159.628        2024.084          39.000  
G19  26258065.324   137987055.556        2613.502          31.000                                                                  
G14  24765595.084   130144076.623        2102.270          34.000    24765600.248   101410981.405        1638.308          38.000  
G27                                                                  26934035.587   110290383.440       -2322.254          26.000  
> 2025 04 26 01 01 41.0040000  0 12                     
G07  21455963.408   112751838.843         905.117          43.000    21455962.957    87858591.681         705.324          43.000  
G22  26208598.318   137727100.240        1754.387          32.000                                                                  
G17  23615882.803   124102275.005        1666.092          37.000    23615884.359    96703154.760        1298.250          38.000  
G08  23583014.845   123929540.785       -2613.084          37.000    23583020.978    96568482.408       -2036.465          38.000  
G09  24713237.977   129868896.079       -2447.159          34.000    24713243.962   101196492.023       -1907.154          35.000  
G04  26004319.337   136653610.224       -2669.967          29.000    26004329.007   106483237.625       -2081.171          35.000  
G02  22515183.173   118318002.146       -1442.611          42.000                                                                  
G01  22001400.466   115618136.989        1271.210          40.000    22001402.281    90092001.566         990.723          43.000  
G30  23008770.786   120911924.995        2597.151          40.000    23008774.446    94217135.612        2023.720          39.000  
G19  26257568.051   137984441.809        2612.068          31.000                                                                  
G14  24765195.106   130141974.448        2103.062          34.000    24765200.216   101409343.382        1638.018          38.000  
G27                                                                  26934603.600   110292705.523       -2321.640          26.000  
> 2025 04 26 01 01 42.0040000  0 12                     
G07  21455791.166   112750933.789         904.723          43.000    21455790.732    87857886.451         704.847          43.000  
G22  26208264.272   137725345.338        1754.973          32.000                                                                  
G17  23615565.661   124100608.851        1665.880          37.000    23615567.298    96701856.464        1298.162          38.000  
G08  23583512.091   123932153.806       -2612.996          37.000    23583518.302    96570518.525       -2036.296          38.000  
G09  24713703.704   129871343.395       -2447.191          33.000    24713709.660   101198399.002       -1906.901          34.000  
G04  26004829.115   136656280.160       -2669.303          29.000    26004837.009   106485318.090       -2080.346          35.000  
G02  22515457.758   118319444.913       -1442.969          42.000                                                                  
G01  22001158.689   115616865.689        1270.990          40.000    22001160.312    90091010.941         990.436          43.000  
G30  23008276.596   120909327.789        2596.847          40.000    23008280.197    94215111.824        2023.463          39.000  
G19  26257070.545   137981827.985        2614.214          31.000                                                                  
G14  24764795.010   130139872.127        2102.511          34.000    24764800.066   101407705.204        1637.948          38.000  
G27                                                                  26935171.826   110295027.459       -2321.876          25.000  
> 2025 04 26 01 01 43.0040000  0 12                     
G07  21455619.039   112750029.286         904.302          43.000    21455618.639    87857181.650         704.331          43.000  
G22  26207930.479   137723590.338        1754.963          32.000                                                                  
G17  23615248.574   124098943.048        1665.656          37.000    23615250.378    96700558.436        1298.029          38.000  
G08  23584009.255   123934766.778       -2612.741          37.000    23584015.468    96572554.573       -2036.094          38.000  
G09  24714169.398   129873790.608       -2447.495          33.000    24714175.338   101200305.896       -1906.820          34.000  
G04  26005336.433   136658949.884       -2669.722          29.000    26005345.035   106487398.300       -2079.441          35.000  
G02  22515732.507   118320888.220       -1443.649          42.000                                                                  
G01  22000916.915   115615594.926        1270.624          40.000    22000918.563    90090020.739         990.088          43.000  
G30  23007782.546   120906730.896        2596.715          39.000    23007786.065    94213088.263        2023.457          39.000  
G19  26256573.242   137979214.491        2612.830          31.000                                                                  
G14  24764394.800   130137769.627        2102.591          34.000    24764399.982   101406066.893        1638.324          38.000  
G27                                                                  26935738.450                       -2321.083          23.000  
> 2025 04 26 01 01 44.0040000  0 12                     
G07  21455447.015   112749125.379         903.575          43.000    21455446.634    87856477.287         704.325          43.000  
G22  26207596.457   137721835.159        1755.778          31.000                                                                  
G17  23614931.640   124097277.607        1665.201          37.000    23614933.488    96699260.707        1297.364          38.000  
G08  23584506.590   123937379.773       -2613.008          37.000    23584512.762    96574590.667       -2035.930          38.000  
G09  24714635.044   129876237.709       -2446.875          33.000    24714640.943   101202212.746       -1906.808          34.000  
G04  26005844.107   136661619.305       -2669.507          28.000    26005853.068   106489478.371       -2079.670          35.000  
G02  22516007.201   118322332.110       -1444.454          42.000                                                                  
G01  22000675.292   115614324.740        1269.965          40.000    22000676.819    90089030.983         989.514          43.000  
G30  23007288.526   120904134.390        2596.478          39.000    23007291.938    94211065.023        2022.910          39.000  
G19  26256075.906   137976601.103        2613.182          31.000                                                                  
G14  24763994.690   130135667.051        2102.463          34.000    24763999.831   101404428.505        1638.602          38.000  
G27                                                                  26936305.558                       -2321.132          23.000  
> 2025 04 26 01 01 45.0040000  0 12                     
G07  21455275.184   112748222.093         902.800          43.000    21455274.698    87855773.431         703.514          43.000  
G22  26207262.667   137720079.988        1755.216          31.000                                                                  
G17  23614614.725   124095612.589        1664.382          37.000    23614616.530    96697963.277        1297.254          39.000  
G08  23585003.834   123939992.792       -2612.853          37.000    23585009.939    96576626.812       -2036.533          38.000  
G09  24715100.750   129878684.861       -2447.119          33.000    24715106.659   101204119.613       -1906.768          33.000  
G04  26006353.033   136664288.483       -2669.416          28.000    26006361.032   106491558.260       -2080.048          35.000  
G02  22516282.040   118323776.578       -1444.764          42.000                                                                  
G01  22000433.722   115613055.154        1269.104          40.000    22000435.122    90088041.697         988.947          43.000  
G30  23006794.512   120901538.319        2595.740          39.000    23006797.929    94209042.116        2022.422          39.000  
G19  26255578.735   137973987.985        2612.375          32.000                                                                  
G14  24763594.739   130133564.399        2102.198          34.000    24763599.765   101402790.081        1638.534          38.000  
G27                                                                  26936871.579                       -2321.367          22.000  
> 2025 04 26 01 01 46.0040000  0 12                     
G07  21455103.335   112747319.447         902.295          43.000    21455102.897    87855070.061         703.324          43.000  
G22  26206928.867   137718324.785        1754.736          32.000                                                                  
G17  23614298.052   124093947.991        1663.858          37.000    23614299.811    96696666.200        1296.587          38.000  
G08  23585501.151   123942605.884       -2613.221          38.000    23585507.144    96578662.945       -2036.144          38.000  
G09  24715566.364   129881131.991       -2447.231          33.000    24715572.346   101206026.470       -1906.928          33.000  
G04  26006860.003   136666957.438       -2668.877          28.000    26006868.957   106493637.960       -2079.987          35.000  
G02  22516557.071   118325221.692       -1445.239          42.000                                                                  
G01  22000192.225   115611786.195        1268.408          40.000    22000193.693    90087052.892         988.507          43.000  
G30  23006300.666   120898942.654        2595.389          40.000    23006304.001    94207019.508        2022.658          39.000  
G19  26255081.591   137971375.058        2612.426          31.000                                                                  
G14  24763194.647   130131461.665        2103.048          34.000    24763199.650   101401151.601        1638.878          38.000  
G27                                                                  26937437.447                       -2321.292          22.000  
> 2025 04 26 01 01 47.0040000  0 12                     
G07  21454931.698   112746417.345         901.867          43.000    21454931.246    87854367.133         702.820          43.000  
G22  26206594.800   137716569.389        1755.823          32.000                                                                  
G17  23613981.257   124092283.710        1664.274          37.000    23613982.999    96695369.352        1296.959          38.000  
G08  23585998.492   123945218.926       -2612.949          38.000    23586004.385    96580699.092       -2036.194          38.000  
G09  24716032.004   129883579.049       -2447.423          33.000    24716038.014   101207933.252       -1907.060          33.000  
G04  26007368.559   136669626.095       -2668.290          28.000    26007376.856   106495717.447       -2079.442          35.000  
G02  22516832.094   118326667.359       -1445.884          42.000                                                                  
G01  21999950.937   115610517.763        1268.164          40.000    21999952.312    90086064.505         988.269          43.000  
G30  23005806.762   120896347.344        2595.268          40.000    23005810.144    94204997.181        2022.496          39.000  
G19  26254584.133   137968762.334        2612.717          31.000                                                                  
G14  24762794.358   130129358.845        2102.943          34.000    24762799.557   101399513.052        1638.649          38.000  
G27                                                                  26938003.842                       -2322.393          22.000  
> 2025 04 26 01 01 48.0040000  0 12                     
G07  21454760.222   112745515.980         901.047          43.000    21454759.728    87853664.763         702.239          43.000  
G22  26206260.806   137714814.034        1756.104          31.000                                                                  
G17  23613664.638   124090619.948        1663.841          37.000    23613666.351    96694072.911        1296.491          38.000  
G08  23586495.821   123947832.121       -2613.340          38.000    23586501.653    96582735.338       -2036.373          38.000  
G09  24716497.744   129886026.164       -2447.585          33.000    24716503.649   101209840.100       -1907.189          33.000  
G04  26007876.388   136672294.687       -2668.522          28.000    26007884.699   106497796.810       -2079.613          35.000  
G02  22517107.314   118328113.714       -1446.623          42.000                                                                  
G01  21999709.608   115609250.026        1267.627          40.000    21999711.004    90085076.661         987.842          43.000  
G30  23005312.991   120893752.532        2594.567          40.000    23005316.365    94202975.256        2021.892          39.000  
G19  26254086.828   137966149.904        2611.934          31.000                                                                  
G14  24762394.262   130127256.017        2103.467          34.000    24762399.394   101397874.512        1638.396          38.000  
G27                                                                  26938570.377                       -2321.404          22.000  
> 2025 04 26 01 01 49.0040000  0 12                     
G07  21454588.764   112744615.136         900.342          43.000    21454588.190    87852962.835         701.435          43.000  
G22  26205926.689   137713058.523        1756.385          31.000                                                                  
G17  23613348.145   124088956.523        1662.916          37.000    23613349.798    96692776.728        1296.136          38.000  
G08  23586993.063   123950445.263       -2613.208          38.000    23586998.931    96584771.552       -2036.270          38.000  
G09  24716963.351   129888473.179       -2447.138          33.000    24716969.264   101211746.855       -1906.799          34.000  
G04  26008384.040   136674962.900       -2668.278          28.000    26008392.568   106499875.920       -2078.970          35.000  
G02  22517382.663   118329560.622       -1447.452          42.000                                                                  
G01  21999468.449   115607982.834        1266.571          40.000    21999469.819    90084089.235         987.152          43.000  
G30  23004819.365   120891158.056        2594.022          40.000    23004822.609    94200953.589        2021.231          39.000  
G19  26253589.707   137963537.617        2611.660          31.000                                                                  
G14  24761994.188   130125153.094        2102.992          34.000    24761999.197   101396235.834        1638.388          38.000  
G27                                                                  26939137.839                       -2319.787          23.000  
> 2025 04 26 01 01 50.0040000  0 12                     
G07  21454417.494   112743715.033         899.717          43.000    21454416.987    87852261.424         701.146          43.000  
G22  26205592.686   137711303.144        1755.754          30.000                                                                  
G17  23613031.688   124087293.601        1662.362          37.000    23613033.459    96691480.949        1295.431          38.000  
G08  23587490.354   123953058.545       -2613.487          38.000    23587496.150    96586807.861       -2036.498          38.000  
G09  24717429.137   129890920.255       -2446.973          33.000    24717434.914   101213653.675       -1906.793          34.000  
G04  26008891.801   136677630.984       -2668.225          28.000    26008900.290   106501954.960       -2078.810          35.000  
G02  22517658.096   118331008.213       -1448.075          42.000                                                                  
G01  21999227.417   115606716.313        1266.089          40.000    21999228.887    90083102.346         986.572          43.000  
G30  23004325.547   120888564.088        2593.549          40.000    23004328.890    94198932.315        2021.067          39.000  
G19  26253092.635   137960925.670        2611.657          31.000                                                                  
G14  24761593.985   130123050.148        2103.047          34.000    24761598.898   101394597.201        1638.580          38.000  
G27                                                                  26939705.576                       -2321.850          24.000  
> 2025 04 26 01 01 51.0040000  0 12                     
G07  21454246.290   112742815.546         899.236          43.000    21454245.892    87851560.536         700.587          43.000  
G22  26205258.675   137709547.642        1755.134          30.000                                                                  
G17  23612715.381   124085631.073        1661.995          37.000    23612717.011    96690185.459        1295.359          38.000  
G08  23587987.600   123955671.877       -2613.074          38.000    23587993.483    96588844.228       -2036.513          38.000  
G09  24717894.800   129893367.352       -2447.484          33.000    24717900.513   101215560.483       -1906.843          33.000  
G04  26009399.307   136680298.824       -2667.538          29.000    26009407.910   106504033.817       -2079.064          35.000  
G02  22517933.663   118332456.434       -1448.679          42.000                                                                  
G01  21998986.571   115605450.441        1265.283          40.000    21998988.027    90082115.937         986.115          43.000  
G30  23003831.991   120885970.530        2593.137          39.000    23003835.302    94196911.366        2020.448          39.000  
G19  26252595.591   137958313.946        2611.601          31.000                                                                  
G14  24761193.683   130120947.164        2103.269          34.000    24761198.732   101392958.508        1638.751          38.000  
G27                                                                  26940273.286                       -2321.083          24.000  
> 2025 04 26 01 01 52.0040000  0 12                     
G07  21454075.230   112741916.676         898.489          43.000    21454074.900    87850860.133         699.866          43.000  
G22  26204924.837   137707792.036        1755.892          30.000                                                                  
G17  23612399.196   124083968.931        1661.698          37.000    23612400.755    96688890.287        1294.974          38.000  
G08  23588484.928   123958285.251       -2613.902          38.000    23588490.737    96590880.589       -2036.238          38.000  
G09  24718360.496   129895814.354       -2446.552          34.000    24718366.205   101217467.276       -1907.226          33.000  
G04  26009906.949   136682966.507       -2667.391          29.000    26009915.598   106506112.497       -2078.340          35.000  
G02  22518209.401   118333905.254       -1449.446          42.000                                                                  
G01  21998745.792   115604185.140        1264.697          40.000    21998747.207    90081129.993         985.480          43.000  
G30  23003338.594   120883377.345        2593.379          39.000    23003341.849    94194890.718        2020.508          39.000  
G19  26252098.606   137955702.435        2611.303          31.000                                                                  
G14  24760793.579   130118844.146        2102.336          35.000    24760798.562   101391319.761        1638.857          38.000  
G27                                                                  26940838.535                       -2320.887          25.000  
> 2025 04 26 01 01 53.0040000  0 12                     
G07  21453904.271   112741018.408         898.134          43.000    21453904.069    87850160.172         699.774          43.000  
G22  26204590.525   137706036.358        1755.664          30.000                                                                  
G17  23612082.963   124082307.180        1661.555          37.000    23612084.502    96687595.421        1294.651          38.000  
G08  23588982.268   123960898.616       -2613.223          38.000    23588988.146    96592916.999       -2036.384          38.000  
G09  24718825.971   129898261.392       -2446.774          34.000    24718831.818   101219374.030       -1906.700          33.000  
G04  26010414.560   136685633.922       -2667.629          28.000    26010423.200   106508190.976       -2078.346          35.000  
G02  22518485.308   118335354.653       -1449.702          42.000                                                                  
G01  21998505.097   115602920.415        1264.453          40.000    21998506.536    90080144.496         985.364          43.000  
G30  23002845.207   120880784.587        2592.948          40.000    23002848.392    94192870.384        2020.019          39.000  
G19  26251601.633   137953091.118        2611.791          31.000                                                                  
G14  24760393.482   130116740.974        2103.258          35.000    24760398.342   101389680.963        1638.701          38.000  
G27                                                                  26941406.720                       -2319.323          25.000  
> 2025 04 26 01 01 54.0040000  0 12                     
G07  21453733.472   112740120.703         897.288          43.000    21453733.254    87849460.652         699.351          43.000  
G22  26204256.359   137704280.566        1756.007          31.000                                                                  
G17  23611766.804   124080645.790        1661.153          37.000    23611768.337    96686300.826        1294.475          39.000  
G08  23589479.713   123963511.986       -2613.480          37.000    23589485.424    96594953.366       -2036.219          38.000  
G09  24719291.465   129900708.300       -2446.215          33.000    24719297.432   101221280.718       -1906.653          34.000  
G04  26010921.951   136688300.968       -2666.494          28.000    26010930.645   106510269.228       -2077.770          35.000  
G02  22518761.170   118336804.588       -1449.985          42.000                                                                  
G01  21998264.573   115601656.230        1264.008          41.000    21998265.962    90079159.416         984.900          43.000  
G30  23002351.961   120878192.184        2592.108          40.000    23002354.927    94190850.320        2020.026          39.000  
G19  26251104.780   137950479.984        2611.117          32.000                                                                  
G14  24759993.244   130114637.688        2103.570          35.000    24759997.984   101388042.036        1638.946          38.000  
G27                                                                  26941973.703                       -2319.582          25.000  
> 2025 04 26 01 01 55.0040000  0 12                     
G07  21453562.796   112739223.513         896.829          43.000    21453562.525    87848761.555         698.839          43.000  
G22  26203922.276   137702524.640        1755.651          31.000                                                                  
G17  23611450.592   124078984.690        1660.955          37.000    23611452.248    96685006.461        1294.201          39.000  
G08  23589977.009   123966125.285       -2613.461          37.000    23589982.640    96596989.688       -2036.222          38.000  
G09  24719757.048   129903155.110       -2446.671          33.000    24719762.988   101223187.305       -1906.858          34.000  
G04  26011429.324   136690967.782       -2666.968          28.000    26011438.199   106512347.227       -2077.771          35.000  
G02  22519037.189   118338255.049       -1450.796          42.000                                                                  
G01  21998024.096   115600392.578        1262.958          41.000    21998025.563    90078174.742         984.381          43.000  
G30  23001858.675   120875600.065        2591.892          40.000    23001861.717    94188830.505        2019.453          39.000  
G19  26250607.875   137947868.978        2610.913          32.000                                                                  
G14  24759593.094   130112534.284        2103.066          35.000    24759597.730   101386402.996        1639.280          38.000  
G27                                                                  26942540.695                       -2320.943          24.000  
> 2025 04 26 01 01 56.0040000  0 12                     
G07  21453392.126   112738326.883         896.261          43.000    21453391.824    87848062.875         698.486          43.000  
G22  26203587.988   137700768.520        1757.264          31.000                                                                  
G17  23611134.529   124077323.925        1660.755          37.000    23611136.325    96683712.373        1293.842          39.000  
G08  23590474.325   123968738.548       -2613.470          37.000    23590479.900    96599026.010       -2036.205          38.000  
G09  24720222.624   129905601.804       -2446.495          33.000    24720228.507   101225093.823       -1906.832          34.000  
G04  26011936.598   136693634.235       -2666.188          28.000    26011945.691   106514425.005       -2077.738          35.000  
G02  22519313.268   118339706.054       -1451.255          42.000                                                                  
G01  21997783.803   115599129.437        1262.634          41.000    21997785.142    90077190.479         983.966          43.000  
G30  23001365.481   120873008.303        2591.471          40.000    23001368.575    94186810.942        2019.192          39.000  
G19  26250111.168   137945258.126        2610.291          32.000                                                                  
G14  24759192.777   130110430.689        2103.284          35.000    24759197.390   101384763.837        1639.344          38.000  
G27                                                                  26943106.596                       -2319.103          23.000  
> 2025 04 26 01 01 57.0040000  0 12                     
G07  21453221.613   112737430.855         895.686          43.000    21453221.278    87847364.684         697.719          43.000  
G22  26203253.858   137699012.404        1755.542          31.000                                                                  
G17  23610818.586   124075663.551        1660.013          37.000    23610820.300    96682418.576        1293.316          39.000  
G08  23590971.601   123971351.819       -2613.384          37.000    23590977.210    96601062.340       -2036.538          38.000  
G09  24720688.018   129908048.497       -2447.059          33.000    24720694.092   101227000.318       -1906.796          34.000  
G04  26012443.933   136696300.479       -2666.542          28.000    26012453.085   106516502.597       -2078.065          35.000  
G02  22519589.540   118341157.636       -1451.854          42.000                                                                  
G01  21997543.442   115597866.875        1262.213          40.000    21997544.944    90076206.663         983.563          43.000  
G30  23000872.464   120870416.916        2591.165          40.000    23000875.460    94184791.695        2018.708          39.000  
G19  26249614.526   137942647.449        2611.088          32.000                                                                  
G14  24758792.563   130108327.017        2103.743          35.000    24758797.058   101383124.621        1639.356          38.000  
G27                                                                  26943673.306                       -2318.860          23.000  
> 2025 04 26 01 01 58.0040000  0 12                     
G07  21453051.214   112736535.534         894.951          43.000    21453050.972    87846667.024         697.317          43.000  
G22  26202919.537   137697256.188        1756.263          31.000                                                                  
G17  23610502.755   124074003.657        1659.571          37.000    23610504.407    96681125.160        1292.996          39.000  
G08  23591468.922   123973965.221       -2613.370          37.000    23591474.533    96603098.742       -2036.484          38.000  
G09  24721153.667   129910495.243       -2447.370          33.000    24721159.791   101228906.864       -1907.216          34.000  
G04  26012951.151   136698966.536       -2665.980          28.000    26012960.517   106518580.012       -2077.517          36.000  
G02  22519866.016   118342609.916       -1452.622          42.000                                                                  
G01  21997303.351   115596605.010        1261.438          40.000    21997304.769    90075223.396         982.990          43.000  
G30  23000379.396   120867826.039        2590.505          40.000    23000382.364    94182772.825        2018.340          39.000  
G19  26249117.934   137940037.152        2610.096          32.000                                                                  
G14  24758392.231   130106223.398        2102.963          35.000    24758396.694   101381485.439        1638.672          38.000  
G27                                                                  26944241.342                       -2318.078          22.000  
> 2025 04 26 01 01 59.0040000  0 12                     
G07  21452880.911   112735640.738         894.698          43.000    21452880.647    87845969.780         697.044          43.000  
G22  26202585.565   137695499.896        1756.445          30.000                                                                  
G17  23610186.961   124072344.077        1659.175          37.000    23610188.689    96679831.956        1293.180          39.000  
G08  23591966.285   123976578.559       -2613.075          38.000    23591971.879    96605135.118       -2036.308          38.000  
G09  24721619.175   129912941.826       -2446.539          32.000    24721625.359   101230813.279       -1906.515          35.000  
G04  26013458.346   136701632.285       -2665.310          28.000    26013467.926   106520657.189       -2076.466          36.000  
G02  22520142.373   118344062.694       -1452.876          42.000                                                                  
G01  21997063.338   115595343.628        1261.383          40.000    21997064.736    90074240.510         982.910          43.000  
G30  22999886.431   120865235.453        2590.673          40.000    22999889.398    94180754.178        2018.503          39.000  
G19  26248621.346   137937426.908        2610.352          31.000                                                                  
G14  24757992.000   130104119.534        2104.589          35.000    24757996.389   101379846.095        1639.145          38.000  
G27                                                                  26944806.984                       -2319.152          20.000  
> 2025 04 26 01 02 00.0040000  0 12                     
G07  21452710.782   112734746.564         893.807          43.000    21452710.487    87845273.006         696.420          43.000  
G22  26202251.226   137693743.489        1756.104          31.000                                                                  
G17  23609871.272   124070684.881        1658.793          37.000    23609872.955    96678539.087        1292.596          39.000  
G08  23592463.609   123979191.935       -2613.509          37.000    23592469.223    96607171.499       -2036.625          38.000  
G09  24722084.604   129915388.435       -2447.331          32.000    24722091.008   101232719.681       -1906.576          35.000  
G04  26013965.525   136704297.784       -2665.559          28.000    26013975.295   106522734.212       -2077.093          36.000  
G02  22520418.887   118345516.077       -1453.577          42.000                                                                  
G01  21996823.384   115594082.865        1260.468          40.000    21996824.845    90073258.093         982.153          44.000  
G30  22999393.413   120862645.286        2589.854          40.000    22999396.526    94178735.873        2018.084          39.000  
G19  26248124.803   137934816.916        2609.931          31.000                                                                  
G14  24757591.684   130102015.663        2103.868          35.000    24757596.046   101378206.690        1639.343          37.000  
G27                                                                  26945375.391                       -2329.429          18.000  
> 2025 04 26 01 02 01.0040000  0 12                     
G07  21452540.813   112733853.062         893.212          43.000    21452540.466    87844576.780         695.900          43.000  
G22  26201917.033   137691987.064        1756.868          31.000                                                                  
G17  23609555.539   124069026.175        1658.297          37.000    23609557.306    96677246.572        1292.497          38.000  
G08  23592960.963   123981805.427       -2613.725          37.000    23592966.660    96609207.950       -2036.164          38.000  
G09  24722550.133   129917835.009       -2446.625          32.000    24722556.655   101234626.159       -1907.167          34.000  
G04  26014472.424   136706963.198       -2665.779          28.000    26014482.509   106524811.060       -2076.640          36.000  
G02  22520695.553   118346970.131       -1454.366          42.000                                                                  
G01  21996583.671   115592822.773        1259.692          40.000    21996585.097    90072276.196         981.708          44.000  
G30  22998900.615   120860055.595        2589.477          40.000    22998903.685    94176717.912        2018.163          39.000  
G19  26247628.169   137932207.158        2610.420          31.000                                                                  
G14  24757191.241   130099911.765        2104.239          35.000    24757195.687   101376567.272        1639.583          37.000  
G27                                                                  26945942.506                       -2310.939          15.000  
> 2025 04 26 01 02 02.0040000  0 12                     
G07  21452370.975   112732960.197         892.669          43.000    21452370.546    87843881.048         695.406          43.000  
G22  26201582.887   137690230.605        1757.010          31.000                                                                  
G17  23609239.988   124067367.870        1658.191          37.000    23609241.778    96675954.393        1291.972          38.000  
G08  23593458.361   123984418.906       -2612.985          37.000    23593464.078    96611244.473       -2036.425          38.000  
G09  24723015.722   129920281.630       -2445.897          32.000    24723022.286   101236532.585       -1906.471          34.000  
G04  26014979.515   136709628.242       -2664.906          28.000    26014989.666   106526887.783       -2076.582          36.000  
G02  22520972.377   118348424.815       -1455.000          42.000                                                                  
G01  21996343.950   115591563.276        1259.473          40.000    21996345.483    90071294.783         981.256          44.000  
G30  22998407.893   120857466.340        2589.124          40.000    22998411.006    94174700.325        2017.342          39.000  
G19  26247131.567   137929597.730        2609.346          31.000                                                                  
G14  24756791.014   130097807.834        2104.313          35.000    24756795.332   101374927.863        1639.236          38.000  
G27                                                                  26946507.846                       -2324.663          13.000  
> 2025 04 26 01 02 03.0040000  0 12                     
G07  21452201.235   112732067.992         892.020          43.000    21452200.743    87843185.803         695.149          43.000  
G22  26201248.587   137688474.179        1755.821          31.000                                                                  
G17  23608924.534   124065710.008        1657.592          37.000    23608926.345    96674662.545        1291.582          38.000  
G08  23593955.661   123987032.524       -2613.381          37.000    23593961.400    96613281.026       -2036.274          38.000  
G09  24723481.401   129922728.266       -2446.278          32.000    24723487.792   101238439.033       -1906.964          34.000  
G04  26015487.206   136712307.7453      -2665.556          28.000    26015496.910   106528964.348       -2076.388          35.000  
G02  22521249.285   118349880.120       -1455.444          42.000                                                                  
G01  21996104.418   115590304.432        1258.618          41.000    21996105.955    90070313.861         980.670          43.000  
G30  22997915.202   120854877.507        2588.729          40.000    22997918.366    94172683.046        2017.023          39.000  
G19  26246635.232   137926988.494        2609.400          31.000                                                                  
G14  24756390.791   130095703.855        2103.682          35.000    24756395.009   101373288.385        1639.490          38.000  
G27                                                                  26947074.889                       -2305.883          13.000  
> 2025 04 26 01 02 04.0040000  0 12                     
G07  21452031.590   112731176.394         891.165          43.000    21452031.033    87842491.051         694.636          43.000  
G22  26200914.269   137686717.625        1756.004          31.000                                                                  
G17  23608609.176   124064052.510        1657.581          37.000    23608610.984    96673371.001        1291.177          38.000  
G08  23594452.958   123989646.160       -2613.944          37.000    23594458.713    96615317.616       -2036.685          38.000  
G09  24723947.120   129925174.849       -2446.349          32.000    24723953.345   101240345.454       -1906.625          34.000  
G04  26015992.714   136714972.3482      -2664.246          28.000    26016004.013   106531040.706       -2076.503          35.000  
G02  22521526.431   118351336.033       -1456.348          42.000                                                                  
G01  21995865.063   115589046.193        1257.800          40.000    21995866.583    90069333.402         980.225          43.000  
G30  22997422.620   120852289.096        2587.979          40.000    22997425.847    94170666.091        2016.796          39.000  
G19  26246138.592   137924379.525        2608.803          31.000                                                                  
G14  24755990.443   130093599.799        2103.942          34.000    24755994.611   101371648.854        1639.718          38.000  
G27                                                                  26947639.242                       -2299.800          15.000  
> 2025 04 26 01 02 05.0040000  0 12                     
G07  21451861.972   112730285.515         890.468          43.000    21451861.458    87841796.859         693.878          43.000  
G22  26200580.273   137684961.061        1756.989          31.000                                                                  
G17  23608293.850   124062395.552        1656.724          37.000    23608295.620    96672079.877        1290.873          38.000  
G08  23594950.356   123992259.893       -2613.669          37.000    23594956.066    96617354.302       -2036.841          38.000  
G09  24724412.760   129927621.512       -2446.439          33.000    24724418.782   101242251.898       -1905.887          34.000  
G04  26016498.792   136717636.9612      -2664.717          28.000    26016510.991   106533116.983       -2076.438          35.000  
G02  22521803.698   118352792.646       -1457.059          42.000                                                                  
G01  21995625.635   115587788.629        1257.135          41.000    21995627.305    90068353.492         979.504          43.000  
G30  22996930.285   120849701.162        2587.821          40.000    22996933.393    94168649.535        2016.306          40.000  
G19  26245642.226   137921770.813        2608.501          31.000                                                                  
G14  24755590.096   130091495.769        2103.918          35.000    24755594.327   101370009.354        1639.723          38.000  
G27                                                                  26948205.672                       -2322.470          18.000  
> 2025 04 26 01 02 06.0040000  0 12                     
G07  21451692.601   112729395.249         890.032          43.000    21451691.963    87841103.158         693.367          43.000  
G22  26200246.066   137683204.456        1757.171          31.000                                                                  
G17  23607978.606   124060738.990        1656.375          37.000    23607980.347    96670789.028        1290.944          38.000  
G08  23595447.760   123994873.707       -2613.968          37.000    23595453.499    96619391.030       -2037.151          38.000  
G09  24724878.459   129930068.129       -2445.974          33.000    24724884.370   101244158.364       -1905.645          34.000  
G04  26017007.105   136720301.2562      -2663.906          28.000    26017017.982   106535193.064       -2076.219          35.000  
G02  22522081.062   118354249.852       -1457.646          42.000                                                                  
G01  21995386.422   115586531.670        1256.555          41.000    21995388.172    90067374.031         979.364          43.000  
G30  22996437.894   120847113.660        2587.194          40.000    22996441.011    94166633.282        2016.135          39.000  
G19  26245145.775   137919162.377        2608.163          31.000                                                                  
G14  24755189.789   130089391.704        2102.897          35.000    24755193.818   101368369.788        1639.851          38.000  
G27                                                                  26948772.050                       -2317.979          19.000  
> 2025 04 26 01 02 07.0040000  0 12                     
G07  21451523.390   112728505.506         889.455          43.000    21451522.631    87840409.848         693.106          43.000  
G22  26199911.673   137681447.695        1756.846          31.000                                                                  
G17  23607663.407   124059082.717        1656.003          37.000    23607665.104    96669498.424        1290.543          39.000  
G08  23595945.140   123997487.426       -2613.830          37.000    23595950.841    96621427.685       -2036.984          38.000  
G09  24725344.126   129932514.649       -2446.839          33.000    24725349.955   101246064.753       -1906.485          34.000  
G04  26017513.230   136722964.7291      -2663.527          28.000    26017524.878   106537268.867       -2075.387          34.000  
G02  22522358.474   118355707.557       -1457.874          42.000                                                                  
G01  21995147.336   115585275.212        1256.104          41.000    21995149.017    90066394.984         978.778          43.000  
G30  22995945.560   120844526.436        2587.094          40.000    22995948.726    94164617.295        2015.563          39.000  
G19  26244649.299   137916554.019        2608.276          31.000                                                                  
G14  24754789.303   130087287.373        2104.429          35.000    24754793.451   101366730.106        1639.918          38.000  
G27                                                                  26949338.520                       -2318.621          21.000  
> 2025 04 26 01 02 08.0040000  0 12                     
G07  21451354.188   112727616.379         888.847          43.000    21451353.455    87839717.021         692.442          43.000  
G22  26199577.372   137679690.855        1756.456          31.000                                                                  
G17  23607348.298   124057426.825        1656.348          37.000    23607350.009    96668208.134        1290.167          39.000  
G08  23596442.445   124000101.154       -2613.714          37.000    23596448.282    96623464.352       -2036.528          38.000  
G09  24725809.695   129934961.101       -2445.980          33.000    24725815.480   101247971.075       -1906.171          34.000  
G04  26018020.772   136725628.500       -2663.552          28.000    26018031.745   106539344.515       -2075.344          34.000  
G02  22522636.016   118357165.872       -1458.330          42.000                                                                  
G01  21994908.407   115584019.345        1255.896          41.000    21994910.091    90065416.378         978.503          43.000  
G30  22995453.378   120841939.634        2586.741          40.000    22995456.422    94162601.593        2015.574          39.000  
G19  26244153.029   137913945.936        2607.474          32.000                                                                  
G14  24754388.896   130085183.027        2104.844          34.000    24754392.937   101365090.360        1639.906          38.000  
G27                                                                  26949904.294                       -2320.018          21.000  
> 2025 04 26 01 02 09.0040000  0 12                     
G07  21451185.073   112726727.784         888.223          43.000    21451184.423    87839024.604         692.099          43.000  
G22  26199243.129   137677933.817        1757.703          31.000                                                                  
G17  23607033.302   124055771.271        1655.442          37.000    23607034.917    96666918.098        1289.674          38.000  
G08  23596939.816   124002714.878       -2613.985          38.000    23596945.710    96625501.007       -2036.632          39.000  
G09  24726275.223   129937407.453       -2445.784          33.000    24726280.954   101249877.292       -1905.913          34.000  
G04  26018527.450   136728291.904       -2663.089          28.000    26018538.545   106541419.905       -2075.220          34.000  
G02  22522913.632   118358624.707       -1459.054          42.000                                                                  
G01  21994669.569   115582764.000        1255.084          41.000    21994671.326    90064438.197         977.838          44.000  
G30  22994961.118   120839353.160        2586.147          40.000    22994964.298    94160586.156        2015.134          39.000  
G19  26243656.850   137911337.908        2607.914          31.000                                                                  
G14  24753988.516   130083078.546        2104.135          34.000    24753992.425   101363450.476        1639.676          37.000  
G27                                                                  26950469.427                       -2320.086          22.000  
> 2025 04 26 01 02 10.0040000  0 12                     
G07  21451016.180   112725839.822         887.675          43.000    21451015.502    87838332.680         691.809          43.000  
G22  26198908.752   137676176.744        1757.596          31.000                                                                  
G17  23606718.331   124054116.132        1655.305          37.000    23606720.042    96665628.377        1289.464          38.000  
G08  23597437.213   124005328.603       -2613.557          38.000    23597443.089    96627537.678       -2036.599          39.000  
G09  24726740.713   129939853.807       -2446.554          33.000    24726746.502   101251783.544       -1906.135          34.000  
G04  26019034.087   136730955.121       -2662.976          28.000    26019045.232   106543495.120       -2075.265          34.000  
G02  22523191.504   118360084.174       -1459.900          42.000                                                                  
G01  21994430.645   115581509.264        1254.382          41.000    21994432.491    90063460.474         977.594          44.000  
G30  22994469.041   120836767.077        2586.073          40.000    22994472.335    94158571.042        2014.905          39.000  
G19  26243160.843   137908730.183        2606.352          31.000                                                                  
G14  24753588.140   130080973.946        2105.129          35.000    24753591.912   101361810.569        1639.880          38.000  
G27                                                                  26951035.142                       -2313.454          22.000  
> 2025 04 26 01 02 11.0040000  0 12                     
G07  21450847.262   112724952.493         887.056          43.000    21450846.654    87837641.262         691.182          43.000  
G22  26198574.380   137674419.660        1756.819          31.000                                                                  
G17  23606403.455   124052461.422        1654.378          37.000    23606405.219    96664338.978        1289.108          38.000  
G08  23597934.603   124007942.380       -2613.837          38.000    23597940.457    96629574.403       -2037.161          38.000  
G09  24727206.107   129942300.161       -2447.107          33.000    24727211.995   101253689.779       -1905.973          34.000  
G04  26019541.713   136733618.164       -2663.598          28.000    26019551.836   106545570.191       -2075.554          34.000  
G02  22523469.370   118361544.230       -1460.270          42.000                                                                  
G01  21994191.920   115580255.139        1253.918          41.000    21994193.879    90062483.245         976.880          44.000  
G30  22993977.130   120834181.442        2585.425          40.000    22993980.419    94156556.251        2014.585          39.000  
G19  26242664.595   137906122.678        2606.469          32.000                                                                  
G14  24753187.618   130078869.349        2104.492          34.000    24753191.318   101360170.605        1639.732          37.000  
G27                                                                  26951601.513                       -2317.208          22.000  
> 2025 04 26 01 02 12.0040000  0 12                     
G07  21450678.381   112724065.772         886.654          43.000    21450677.889    87836950.309         690.738          43.000  
G22  26198239.829   137672662.456        1757.210          31.000                                                                  
G17  23606088.677   124050807.088        1653.871          37.000    23606090.464    96663049.876        1288.698          38.000  
G08  23598431.971   124010556.198       -2614.011          38.000    23598437.893    96631611.103       -2036.803          38.000  
G09  24727671.737   129944746.431       -2446.500          33.000    24727677.514   101255595.974       -1906.369          34.000  
G04  26020049.326   136736280.837       -2662.598          27.000    26020058.545   106547645.014       -2074.438          34.000  
G02  22523747.284   118363004.898       -1461.080          42.000                                                                  
G01  21993953.364   115579001.600        1253.442          41.000    21993955.307    90061506.461         976.599          44.000  
G30  22993485.119   120831596.182        2585.046          40.000    22993488.474    94154541.775        2013.974          40.000  
G19  26242168.543   137903515.310        2607.621          32.000                                                                  
G14  24752787.067   130076764.620        2104.963          34.000    24752790.809   101358530.560        1640.081          38.000  
G27                                                                  26952168.807                       -2318.043          21.000  
> 2025 04 26 01 02 13.0040000  0 12                     
G07  21450509.574   112723179.652         885.840          43.000    21450509.305    87836259.812         690.450          43.000  
G22  26197905.275   137670905.186        1756.677          31.000                                                                  
G17  23605773.960   124049153.112        1653.840          38.000    23605775.745    96661761.056        1288.922          38.000  
G08  23598929.365   124013170.034       -2613.924          37.000    23598935.307    96633647.844       -2036.464          38.000  
G09  24728137.238   129947192.659       -2446.066          33.000    24728143.097   101257502.109       -1906.038          35.000  
G04  26020555.662   136738943.305       -2661.970          27.000    26020565.126   106549719.668       -2074.444          34.000  
G02  22524025.345   118364466.142       -1461.557          42.000                                                                  
G01  21993714.978   115577748.657        1252.747          41.000    21993716.906    90060530.134         976.172          44.000  
G30  22992993.258   120829011.320        2584.845          40.000    22992996.621    94152527.593        2013.868          39.000  
G19  26241672.426   137900908.215        2607.393          32.000                                                                  
G14  24752386.564   130074659.819        2104.789          34.000    24752390.270   101356890.470        1640.120          38.000  
G27                                                                  26952735.212                       -2325.432          21.000  
> 2025 04 26 01 02 14.0040000  0 12                     
G07  21450341.063   112722294.104         885.442          43.000    21450340.785    87835569.793         689.782          43.000  
G22  26197570.729   137669147.739        1758.239          31.000                                                                  
G17  23605459.343   124047499.537        1652.967          37.000    23605461.157    96660472.565        1287.904          38.000  
G08  23599426.819   124015783.861       -2614.233          37.000    23599432.773    96635684.590       -2036.607          38.000  
G09  24728602.722   129949638.836       -2446.593          33.000    24728608.662   101259408.228       -1906.184          35.000  
G04  26021061.908   136741605.576       -2662.430          28.000    26021071.717   106551794.152       -2075.398          34.000  
G02  22524303.522   118365927.943       -1462.183          42.000                                                                  
G01  21993476.647   115576496.265        1251.959          40.000    21993478.655    90059554.242         975.665          44.000  
G30  22992501.469   120826426.843        2584.042          40.000    22992504.733    94150513.705        2013.629          39.000  
G19  26241176.283   137898301.328        2606.541          31.000                                                                  
G14  24751986.007   130072554.936        2104.550          35.000    24751989.689   101355250.281        1640.055          38.000  
G27                                                                  26953301.072                       -2320.535          21.000  
> 2025 04 26 01 02 15.0040000  0 12                     
G07  21450172.654   112721409.229         884.763          43.000    21450172.416    87834880.286         689.208          43.000  
G22  26197236.376   137667390.355        1756.974          31.000                                                                  
G17  23605144.756   124045846.364        1653.282          37.000    23605146.548    96659184.390        1287.995          38.000  
G08  23599924.246   124018397.754       -2613.744          37.000    23599930.130    96637721.391       -2036.551          38.000  
G09  24729068.310   129952084.994       -2445.669          33.000    24729074.265   101261314.338       -1905.987          35.000  
G04  26021567.696   136744267.596       -2662.067          28.000    26021578.233   106553868.407       -2074.037          34.000  
G02  22524581.822   118367390.392       -1462.677          42.000                                                                  
G01  21993238.487   115575244.522        1251.385          41.000    21993240.436    90058578.853         975.281          44.000  
G30  22992009.772   120823842.802        2583.723          40.000    22992013.002    94148500.165        2013.410          39.000  
G19  26240680.284   137895694.629        2606.933          31.000                                                                  
G14  24751585.491   130070449.990        2105.212          35.000    24751589.062   101353610.074        1640.265          37.000  
G27                                                                  26953866.700                       -2313.222          21.000  
> 2025 04 26 01 02 16.0040000  0 12                     
G07  21450004.442   112720524.952         883.888          43.000    21450004.204    87834191.227         688.755          43.000  
G22  26196902.000   137665632.811        1756.882          31.000                                                                  
G17  23604830.194   124044193.575        1652.576          37.000    23604831.908    96657896.503        1287.351          38.000  
G08  23600421.685   124021011.668       -2614.074          37.000    23600427.571    96639758.216       -2037.363          38.000  
G09  24729533.844   129954531.189       -2447.068          33.000    24729539.752   101263220.416       -1906.222          35.000  
G04  26022074.183   136746929.322       -2661.386          28.000    26022084.693   106555942.502       -2074.159          34.000  
G02  22524860.105   118368853.417       -1463.433          42.000                                                                  
G01  21993000.415   115573993.346        1250.549          41.000    21993002.359    90057603.912         974.884          44.000  
G30  22991518.090   120821259.154        2582.952          40.000    22991521.398    94146486.924        2012.901          39.000  
G19  26240184.326   137893088.173        2606.268          31.000                                                                  
G14  24751184.809   130068344.943        2104.848          35.000    24751188.402   101351969.811        1639.511          37.000  
G27                                                                  26954432.743                       -2325.060          22.000  
> 2025 04 26 01 02 17.0040000  0 12                     
G07  21449836.221   112719641.198         883.453          43.000    21449835.908    87833502.580         688.389          43.000  
G22  26196567.490   137663875.134        1757.957          31.000                                                                  
G17  23604515.729   124042541.121        1652.159          37.000    23604517.503    96656608.874        1287.100          38.000  
G08  23600919.156   124023625.492       -2613.681          37.000    23600925.019    96641794.939       -2036.677          38.000  
G09  24729999.433   129956977.196       -2446.155          33.000    24730005.243   101265126.396       -1906.365          35.000  
G04  26022580.477   136749590.756       -2661.361          28.000    26022591.115   106558016.352       -2074.207          35.000  
G02  22525138.501   118370316.952       -1463.940          42.000                                                                  
G01  21992762.444   115572742.696        1249.823          41.000    21992764.286    90056629.383         974.072          44.000  
G30  22991026.529   120818675.795        2583.037          40.000    22991029.806    94144473.944        2012.548          39.000  
G19  26239688.259   137890481.831        2606.015          32.000                                                                  
G14  24750784.204   130066239.737        2105.184          35.000    24750787.843   101350329.364        1640.520          37.000  
G27                                                                  26954997.476                       -2322.630          22.000  
> 2025 04 26 01 02 18.0040000  0 12                     
G07  21449668.222   112718758.004         882.690          43.000    21449667.847    87832814.370         688.119          43.000  
G22  26196232.943   137662117.264        1758.491          31.000                                                                  
G17  23604201.293   124040889.006        1651.656          37.000    23604203.091    96655321.515        1286.891          39.000  
G08  23601416.561   124026239.321       -2614.111          37.000    23601422.331    96643831.680       -2036.647          38.000  
G09  24730464.845   129959423.129       -2446.354          33.000    24730470.778   101267032.299       -1906.150          35.000  
G04  26023087.058   136752251.871       -2661.014          28.000    26023097.431   106560089.942       -2073.970          35.000  
G02  22525417.022   118371781.037       -1464.615          42.000                                                                  
G01  21992524.550   115571492.551        1249.945          41.000    21992526.344    90055655.248         973.944          44.000  
G30  22990535.056   120816092.789        2582.748          40.000    22990538.269    94142461.198        2012.657          39.000  
G19  26239192.346   137887875.683        2606.337          32.000                                                                  
G14  24750383.531   130064134.450        2104.732          35.000    24750387.198   101348688.866        1640.423          37.000  
G27                                                                  26955562.998                       -2320.480          22.000  
> 2025 04 26 01 02 19.0040000  0 12                     
G07  21449500.270   112717875.360         882.470          43.000    21449499.879    87832126.610         687.509          43.000  
G22  26195898.484   137660359.343        1758.480          31.000                                                                  
G17  23603886.923   124039237.239        1651.327          37.000    23603888.736    96654034.401        1286.793          39.000  
G08  23601913.915   124028853.105       -2613.847          37.000    23601919.625    96645868.394       -2036.548          38.000  
G09  24730930.270   129961868.949       -2445.670          33.000    24730936.262   101268938.142       -1906.021          35.000  
G04  26023592.926   136754912.706       -2660.741          28.000    26023603.662   106562163.302       -2073.190          35.000  
G02  22525695.686   118373245.663       -1465.060          42.000                                                                  
G01  21992286.805   115570242.978        1249.231          41.000    21992288.568    90054681.547         973.553          44.000  
G30  22990043.666   120813510.173        2582.164          40.000    22990046.862    94140448.780        2011.909          39.000  
G19  26238696.370   137885269.680        2605.573          32.000                                                                  
G14  24749982.827   130062028.995        2105.061          35.000    24749986.551   101347048.252        1640.463          37.000  
G27                                                                  26956130.393                       -2320.021          21.000  
> 2025 04 26 01 02 20.0040000  0 12                     
G07  21449332.513   112716993.294         881.755          43.000    21449332.039    87831439.283         686.866          43.000  
G22  26195563.946   137658601.296        1758.051          31.000                                                                  
G17  23603572.681   124037585.770        1651.481          37.000    23603574.313    96652747.557        1286.592          39.000  
G08  23602411.267   124031466.853       -2613.742          37.000    23602417.002    96647905.078       -2036.681          38.000  
G09  24731395.708   129964314.740       -2445.879          33.000    24731401.704   101270843.919       -1906.218          35.000  
G04  26024098.579   136757573.233       -2659.863          28.000    26024109.976   106564236.433       -2072.951          35.000  
G02  22525974.533   118374710.828       -1465.623          42.000                                                                  
G01  21992049.037   115568993.940        1248.682          41.000    21992050.834    90053708.269         973.114          44.000  
G30  22989552.315   120810927.869        2581.972          40.000    22989555.488    94138436.583        2012.118          39.000  
G19  26238200.459   137882663.790        2607.030          32.000                                                                  
G14  24749581.973   130059923.387        2105.831          35.000    24749585.880   101345407.547        1640.810          38.000  
G27                                                                  26956696.376                       -2316.812          20.000  
> 2025 04 26 01 02 21.0040000  0 12                     
G07  21449164.773   112716111.812         881.070          43.000    21449164.338    87830752.401         686.620          43.000  
G22  26195229.549   137656843.157        1757.573          31.000                                                                  
G17  23603258.553   124035934.722        1650.621          37.000    23603260.072    96651461.023        1286.241          39.000  
G08  23602908.627   124034080.636       -2613.726          37.000    23602914.386    96649941.785       -2036.840          38.000  
G09  24731861.209                       -2444.873          33.000    24731867.164   101272749.631       -1905.534          35.000  
G04  26024605.144   136760233.558       -2660.188          28.000    26024616.316   106566309.389       -2073.339          35.000  
G02  22526253.443   118376176.566       -1466.229          42.000                                                                  
G01  21991811.467   115567745.464        1248.108          41.000    21991813.189    90052735.441         972.528          44.000  
G30  22989060.989   120808345.943        2581.818          40.000    22989064.141    94136424.717        2011.468          39.000  
G19  26237704.569                        2613.226          32.000                                                                  
G14  24749181.222   130057817.699        2105.396          34.000    24749185.080   101343766.752        1640.579          38.000  
G27                                                                  26957259.931                       -2334.269          17.000  
> 2025 04 26 01 02 22.0040000  0 12                     
G07  21448997.208   112715230.903         880.240          43.000    21448996.715    87830065.993         685.850          43.000  
G22  26194895.037   137655084.897        1757.462          31.000                                                                  
G17  23602944.385   124034284.007        1650.366          37.000    23602945.986    96650174.752        1286.266          39.000  
G08  23603406.034   124036694.397       -2614.181          37.000    23603411.799    96651978.485       -2036.914          38.000  
G09  24732326.846   129969254.5453      -2445.705          33.000    24732332.577   101274655.329       -1906.226          35.000  
G04  26025111.125   136762893.556       -2659.568          28.000    26025122.500   106568382.095       -2072.593          35.000  
G02  22526532.393   118377642.866       -1466.755          42.000                                                                  
G01  21991574.001   115566497.566        1247.394          41.000    21991575.663    90051763.037         972.156          44.000  
G30  22988569.718   120805764.401        2581.167          40.000    22988572.892    94134413.115        2011.327          39.000  
G19  26237208.636   137877461.2023       2605.148          31.000                                                                  
G14  24748780.500   130055711.897        2105.885          34.000    24748784.363   101342125.886        1640.672          38.000  
G27                                                                  26957828.531                       -2314.643          15.000  
> 2025 04 26 01 02 23.0040000  0 12                     
G07  21448829.718   112714350.759         879.749          43.000    21448829.249    87829380.159         685.468          43.000  
G22  26194560.525   137653326.652        1758.330          31.000                                                                  
G17  23602630.385   124032633.852        1649.886          37.000    23602631.875    96648888.924        1285.699          39.000  
G08  23603903.345   124039308.319       -2613.720          37.000    23603909.322    96654015.293       -2036.398          38.000  
G09  24732792.183   129971700.2962      -2445.549          33.000    24732798.024   101276561.090       -1905.683          34.000  
G04  26025616.475   136765553.497       -2659.644          28.000    26025628.815   106570454.756       -2072.323          35.000  
G02  22526811.563   118379109.916       -1467.316          42.000                                                                  
G01  21991336.733   115565250.390        1246.991          41.000    21991338.485    90050791.235         971.472          43.000  
G30  22988078.595   120803183.396        2581.007          40.000    22988081.668    94132401.944        2011.112          39.000  
G19  26236712.808   137874856.1252       2605.234          31.000                                                                  
G14  24748379.875   130053606.197        2105.501          35.000    24748383.632   101340485.048        1641.092          38.000  
G27                                                                  26958394.655                       -2333.819          14.000  
> 2025 04 26 01 02 24.0040000  0 12                     
G07  21448662.357   112713471.097         879.418          43.000    21448661.795    87828694.714         685.280          43.000  
G22  26194225.921   137651568.263        1757.822          31.000                                                                  
G17  23602316.290   124030983.962        1649.770          37.000    23602317.929    96647603.307        1285.194          38.000  
G08  23604400.779   124041922.178       -2613.680          37.000    23604406.667    96656052.050       -2036.678          38.000  
G09  24733257.694   129974145.8692      -2445.272          33.000    24733263.448   101278466.754       -1905.867          34.000  
G04  26026122.445   136768213.056       -2659.523          28.000    26026134.866   106572527.146       -2072.750          35.000  
G02  22527090.735   118380577.434       -1467.816          42.000                                                                  
G01  21991099.580   115564003.702        1246.423          41.000    21991101.161    90049819.785         971.161          44.000  
G30  22987587.588   120800602.681        2580.700          40.000    22987590.625    94130390.984        2010.940          40.000  
G19  26236217.106   137872251.1352       2605.033          31.000                                                                  
G14  24747979.119   130051500.278        2105.656          35.000    24747982.908   101338844.076        1640.928          38.000  
G27                                                                  26958961.781                       -2337.076          15.000  
> 2025 04 26 01 02 25.0040000  0 12                     
G07  21448495.070   112712592.072         878.949          43.000    21448494.530    87828009.755         685.034          43.000  
G22  26193891.384   137649809.741        1759.767          31.000                                                                  
G17  23602002.478   124029334.483        1649.593          37.000    23602004.188    96646317.979        1285.376          38.000  
G08  23604898.137   124044536.055       -2613.696          37.000    23604904.093    96658088.840       -2036.661          38.000  
G09  24733723.051   129976590.9441      -2445.308          33.000    24733728.805   101280372.367       -1906.124          34.000  
G04  26026629.001   136770872.418       -2659.552          28.000    26026640.889   106574599.325       -2072.398          35.000  
G02  22527370.198   118382045.583       -1468.313          42.000                                                                  
G01  21990862.360   115562757.618        1246.021          41.000    21990864.011    90048848.804         970.837          44.000  
G30  22987096.597   120798022.403        2579.899          40.000    22987099.679    94128380.369        2010.765          40.000  
G19  26235721.406   137869645.8401       2604.534          31.000                                                                  
G14  24747578.319   130049394.277        2106.215          35.000    24747582.169   101337203.041        1641.453          38.000  
G27                                                                  26959526.632                       -2308.645          15.000  
> 2025 04 26 01 02 26.0040000  0 12                     
G07  21448327.962   112711713.656         877.967          43.000    21448327.316    87827325.264         684.294          43.000  
G22  26193556.737   137648051.186        1758.873          30.000                                                                  
G17  23601688.631   124027685.388        1648.984          37.000    23601690.437    96645032.945        1285.264          38.000  
G08  23605395.496   124047149.947       -2613.926          37.000    23605401.489    96660125.629       -2036.829          38.000  
G09  24734188.546   129979036.442       -2445.344          33.000    24734194.276   101282277.967       -1906.289          34.000  
G04  26027135.478   136773531.452       -2659.042          28.000    26027147.001   106576671.300       -2071.833          36.000  
G02  22527649.686   118383514.299       -1469.100          42.000                                                                  
G01  21990625.422   115561512.113        1245.331          41.000    21990627.120    90047878.279         970.251          44.000  
G30  22986605.542   120795442.478        2579.867          40.000    22986608.656    94126370.052        2010.012          40.000  
G19  26235225.688   137867041.235        2604.767          31.000                                                                  
G14  24747177.591   130047288.175        2106.615          35.000    24747181.459   101335561.968        1640.452          38.000  
G27                                                                  26960092.866                       -2321.786          17.000  
> 2025 04 26 01 02 27.0040000  0 12                     
G07  21448160.852   112710835.866         877.276          43.000    21448160.166    87826641.269         683.880          43.000  
G22  26193221.935   137646292.621        1758.228          30.000                                                                  
G17  23601374.787   124026036.681        1648.786          37.000    23601376.680    96643748.272        1284.412          38.000  
G08  23605892.862   124049763.868       -2613.851          37.000    23605898.900    96662162.444       -2036.531          38.000  
G09  24734653.946   129981481.925       -2444.949          33.000    24734659.575   101284183.514       -1905.597          34.000  
G04  26027643.277   136776190.294       -2658.797          28.000    26027652.997   106578743.119       -2071.900          36.000  
G02  22527929.359   118384983.627       -1469.776          42.000                                                                  
G01  21990388.546   115560267.227        1244.330          41.000    21990390.261    90046908.228         969.879          44.000  
G30  22986114.767   120792862.987        2579.420          40.000    22986117.655    94124360.067        2009.686          40.000  
G19  26234730.045   137864436.868        2604.893          31.000                                                                  
G14  24746776.745   130045182.013        2106.838          35.000    24746780.583   101333920.804        1641.056          38.000  
G27                                                                  26960659.238                       -2322.201          19.000  
> 2025 04 26 01 02 28.0040000  0 12                     
G07  21447993.919   112709958.654         876.845          43.000    21447993.198    87825957.731         683.278          43.000  
G22  26192887.201   137644533.896        1758.667          31.000                                                                  
G17  23601061.183   124024388.360        1648.252          37.000    23601062.947    96642463.846        1284.436          38.000  
G08  23606390.253   124052377.789       -2613.649          37.000    23606396.390    96664199.278       -2036.751          38.000  
G09  24735119.403   129983927.380       -2445.579          34.000    24735124.816   101286089.051       -1905.877          34.000  
G04  26028147.930   136778848.843       -2658.113          29.000    26028158.960   106580814.715       -2071.567          36.000  
G02  22528209.035   118386453.522       -1470.067          42.000                                                                  
G01  21990151.845   115559022.904        1243.988          41.000    21990153.561    90045938.628         969.446          44.000  
G30  22985623.934   120790283.872        2578.888          40.000    22985626.876    94122350.350        2009.793          40.000  
G19  26234234.331   137861832.709        2604.773          30.000                                                                  
G14  24746375.966   130043075.815        2106.155          35.000    24746379.758   101332279.568        1641.487          38.000  
G27                                                                  26961224.275                       -2310.029          20.000  
> 2025 04 26 01 02 29.0040000  0 12                     
G07  21447827.174   112709081.947         876.566          43.000    21447826.407    87825274.586         682.871          43.000  
G22  26192552.293   137642774.989        1758.421          31.000                                                                  
G17  23600747.623   124022740.331        1647.766          37.000    23600749.355    96641179.670        1284.181          38.000  
G08  23606887.645   124054991.657       -2613.727          37.000    23606893.756    96666236.038       -2036.745          38.000  
G09  24735584.818   129986372.642       -2444.999          34.000    24735590.078   101287994.439       -1905.305          34.000  
G04  26028653.348   136781507.068       -2658.224          29.000    26028664.831   106582886.049       -2070.963          36.000  
G02  22528488.893   118387923.910       -1470.496          42.000                                                                  
G01  21989915.212   115557779.060        1243.604          41.000    21989916.903    90044969.403         968.964          44.000  
G30  22985133.219   120787705.050        2578.849          40.000    22985136.065    94120340.884        2009.597          40.000  
G19  26233738.593   137859228.644        2604.167          31.000                                                                  
G14  24745975.172   130040969.392        2106.322          35.000    24745978.910   101330638.201        1641.406          38.000  
G27                                                                  26961789.874                       -2312.427          22.000  
> 2025 04 26 01 02 30.0040000  0 12                     
G07  21447660.436   112708205.751         875.745          43.000    21447659.725    87824591.836         682.532          43.000  
G22  26192217.473   137641015.878        1759.759          31.000                                                                  
G17  23600434.007   124021092.558        1647.708          37.000    23600435.750    96639895.693        1284.181          38.000  
G08  23607385.072   124057605.425       -2613.899          37.000    23607391.084    96668272.751       -2036.948          38.000  
G09  24736050.177   129988817.807       -2445.260          34.000    24736055.297   101289899.747       -1905.191          34.000  
G04  26029161.888   136784164.963       -2658.098          29.000    26029170.699   106584957.122       -2071.338          36.000  
G02  22528768.712   118389394.792       -1471.262          42.000                                                                  
G01  21989678.611   115556535.698        1243.304          41.000    21989680.291    90044000.560         968.591          44.000  
G30  22984642.444   120785126.519        2578.376          40.000    22984645.443    94118331.626        2009.389          40.000  
G19  26233243.197   137856624.749        2603.025          31.000                                                                  
G14  24745574.138   130038862.771        2106.511          35.000    24745578.000   101328996.707        1641.270          38.000  
G27                                                                  26962355.338                       -2315.223          22.000  
> 2025 04 26 01 02 31.0040000  0 12                     
G07  21447493.842   112707330.163         875.141          43.000    21447493.094    87823909.558         681.888          43.000  
G22  26191882.835   137639256.716        1759.356          31.000                                                                  
G17  23600120.502   124019445.199        1647.038          37.000    23600122.197    96638612.044        1283.214          38.000  
G08  23607882.380   124060219.208       -2613.854          37.000    23607888.580    96670309.441       -2036.870          38.000  
G09  24736515.475   129991262.882       -2445.044          34.000    24736520.580   101291805.011       -1905.251          33.000  
G04  26029666.275   136786822.541       -2657.707          28.000    26029676.414   106587027.954       -2070.793          37.000  
G02  22529048.695   118390866.260       -1472.069          42.000                                                                  
G01  21989442.041   115555292.941        1242.297          41.000    21989443.750    90043032.162         968.115          44.000  
G30  22984151.844   120782548.402        2577.761          40.000    22984154.871    94116322.723        2008.665          40.000  
G19  26232747.885   137854020.990        2603.677          31.000                                                                  
G14  24745173.234   130036756.054        2106.776          35.000    24745177.133   101327355.121        1641.023          38.000  
G27                                                                  26962920.910                       -2320.344          22.000  
> 2025 04 26 01 02 32.0040000  0 12                     
G07  21447327.356   112706455.309         874.540          43.000    21447326.588    87823227.846         681.536          43.000  
G22  26191548.208   137637497.577        1760.063          31.000                                                                  
G17  23599807.090   124017798.343        1646.831          37.000    23599808.861    96637328.784        1282.933          38.000  
G08  23608379.754   124062833.129       -2613.770          37.000    23608385.924    96672346.259       -2036.767          38.000  
G09  24736980.700   129993708.069       -2445.261          34.000    24736985.827   101293710.381       -1905.456          33.000  
G04  26030170.076   136789480.041       -2657.259          28.000    26030182.123   106589098.711       -2070.305          37.000  
G02  22529328.753   118392338.426       -1472.370          42.000                                                                  
G01  21989205.717   115554050.890        1241.718          41.000    21989207.423    90042064.352         967.285          44.000  
G30  22983661.290   120779970.783        2577.489          40.000    22983664.447    94114314.195        2008.538          40.000  
G19  26232252.400   137851417.582        2603.099          31.000                                                                  
G14  24744772.310   130034649.411        2106.690          35.000    24744776.334   101325713.564        1641.329          37.000  
G27                                                                  26963483.917                       -2319.644          22.000  
> 2025 04 26 01 02 33.0040000  0 12                     
G07  21447161.038   112705580.994         873.947          43.000    21447160.231    87822546.558         681.184          43.000  
G22  26191213.320   137635738.289        1759.664          30.000                                                                  
G17  23599493.771   124016151.825        1646.104          37.000    23599495.479    96636045.763        1283.260          38.000  
G08  23608877.313   124065447.018       -2613.881          37.000    23608883.426    96674383.057       -2037.042          38.000  
G09  24737446.116   129996153.152       -2445.149          34.000    24737451.016   101295615.623       -1905.502          33.000  
G04  26030673.971   136792137.230       -2657.087          28.000    26030687.868   106591169.229       -2070.337          36.000  
G02  22529608.992   118393811.128       -1473.090          42.000                                                                  
G01  21988969.401   115552809.364        1241.113          41.000    21988971.205    90041096.914         967.059          44.000  
G30  22983170.894   120777393.501        2577.083          40.000    22983174.010    94112305.922        2007.992          40.000  
G19  26231757.107   137848814.302        2603.454          31.000                                                                  
G14  24744371.345   130032542.602        2106.336          35.000    24744375.430   101324071.872        1641.871          37.000  
G27                                                                  26964047.307                       -2314.208          21.000  
> 2025 04 26 01 02 34.0040000  0 12                     
G07  21446994.786   112704707.388         873.478          43.000    21446994.019    87821865.836         680.386          43.000  
G22  26190878.253   137633979.046        1759.043          30.000                                                                  
G17  23599180.515   124014505.777        1646.022          37.000    23599182.254    96634763.154        1282.238          38.000  
G08  23609374.661   124068061.027       -2614.064          37.000    23609380.955    96676419.944       -2036.900          38.000  
G09  24737911.426   129998598.306       -2445.336          34.000    24737916.336   101297520.928       -1905.660          33.000  
G04  26031181.153   136794794.245       -2656.734          28.000    26031193.421   106593239.633       -2070.079          36.000  
G02  22529889.337   118395284.525       -1473.747          42.000                                                                  
G01  21988733.321   115551568.523        1240.533          41.000    21988734.972    90040130.028         966.473          44.000  
G30  22982680.532   120774816.729        2576.498          40.000    22982683.609    94110298.066        2007.271          40.000  
G19  26231261.759   137846211.352        2603.478          31.000                                                                  
G14  24743970.389   130030435.792        2106.998          35.000    24743974.543   101322430.244        1641.256          38.000  
G27                                                                  26964612.233                       -2310.481          21.000  
> 2025 04 26 01 02 35.0040000  0 12                     
G07  21446828.644   112703834.461         872.500          43.000    21446827.922    87821185.634         679.673          43.000  
G22  26190543.421   137632219.777        1758.531          30.000                                                                  
G17  23598867.373   124012860.203        1645.464          37.000    23598869.118    96633480.868        1282.203          38.000  
G08  23609871.996   124070675.108       -2614.292          36.000    23609878.429    96678456.868       -2036.852          38.000  
G09  24738376.770   130001043.432       -2445.031          34.000    24738381.657   101299426.223       -1905.427          33.000  
G04  26031685.916   136797451.098       -2656.620          28.000    26031699.020   106595309.884       -2069.670          36.000  
G02  22530169.810   118396758.565       -1474.456          42.000                                                                  
G01  21988497.281   115550328.334        1239.819          41.000    21988499.018    90039163.651         965.942          44.000  
G30  22982190.218   120772240.411        2575.697          40.000    22982193.378    94108290.528        2007.124          40.000  
G19  26230766.507   137843608.710        2601.929          31.000                                                                  
G14  24743569.591   130028328.992        2106.711          35.000    24743573.588   101320788.559        1641.643          38.000  
G27                                                                  26965178.178                       -2316.913          21.000  
> 2025 04 26 01 02 36.0040000  0 12                     
G07  21446662.534   112702962.209         871.837          43.000    21446661.947    87820505.946         679.561          43.000  
G22  26190208.594   137630460.463        1758.815          30.000                                                                  
G17  23598554.366   124011215.077        1644.875          37.000    23598556.116    96632198.974        1281.165          38.000  
G08  23610369.451   124073289.293       -2614.518          36.000    23610375.866    96680493.893       -2037.135          39.000  
G09  24738842.135   130003488.637       -2445.806          34.000    24738846.999   101301331.534       -1905.280          34.000  
G04  26032190.860   136800107.821       -2656.750          28.000    26032204.588   106597380.058       -2070.486          36.000  
G02  22530450.397   118398233.276       -1475.243          42.000                                                                  
G01  21988261.481   115549088.823        1238.867          41.000    21988263.207    90038197.787         965.497          44.000  
G30  22981700.018   120769664.565        2575.287          40.000    22981703.208    94106283.376        2006.789          40.000  
G19  26230271.175   137841006.266        2602.468          31.000                                                                  
G14  24743168.815   130026222.166        2107.040          35.000    24743172.648   101319146.905        1641.287          38.000  
G27                                                                  26965743.414                       -2306.521          22.000  
> 2025 04 26 01 02 37.0040000  0 12                     
G07  21446496.760   112702090.605         871.198          43.000    21446496.078    87819826.778         678.921          43.000  
G22  26189873.800   137628701.134        1759.320          30.000                                                                  
G17  23598241.378   124009570.385        1644.324          37.000    23598243.083    96630917.369        1281.573          38.000  
G08  23610866.999   124075903.514       -2614.103          37.000    23610873.486    96682530.959       -2037.126          39.000  
G09  24739307.523   130005933.819       -2445.470          34.000    24739312.249   101303236.872       -1904.982          34.000  
G04  26032695.388   136802764.291       -2656.100          28.000    26032710.136   106599449.988       -2069.583          36.000  
G02  22530731.289   118399708.611       -1475.623          42.000                                                                  
G01  21988025.828   115547849.940        1238.208          41.000    21988027.470    90037232.427         964.996          44.000  
G30  22981209.901   120767089.138        2575.352          40.000    22981213.117    94104276.550        2006.670          40.000  
G19  26229775.989   137838404.172        2601.690          31.000                                                                  
G14  24742767.825   130024115.322        2106.526          35.000    24742771.711   101317505.171        1641.746          37.000  
G27                                                                  26966308.272                       -2315.872          23.000  
> 2025 04 26 01 02 38.0040000  0 12                     
G07  21446330.975   112701219.575         870.862          43.000    21446330.227    87819148.054         678.495          43.000  
G22  26189538.992   137626956.1613       1759.744          31.000                                                                  
G17  23597928.619   124007926.024        1644.640          37.000    23597930.251    96629636.079        1281.013          38.000  
G08  23611364.465   124078517.767       -2614.421          37.000    23611370.914    96684568.003       -2036.980          39.000  
G09  24739772.799   130008378.915       -2444.438          34.000    24739777.692   101305142.123       -1904.565          34.000  
G04  26033199.471   136805420.428       -2655.643          28.000    26033215.476   106601519.734       -2069.329          36.000  
G02  22531012.214   118401184.516       -1476.398          42.000                                                                  
G01  21987790.167   115546611.584        1238.202          41.000    21987791.963    90036267.489         964.642          44.000  
G30  22980719.873   120764514.103        2574.789          40.000    22980723.096    94102270.038        2006.411          40.000  
G19  26229280.755   137835802.188        2601.793          31.000                                                                  
G14  24742366.901   130022008.328        2107.055          35.000    24742370.717   101315863.394        1641.958          37.000  
G27                                                                  26966874.069                       -2316.554          23.000  
> 2025 04 26 01 02 39.0040000  0 12                     
G07  21446165.237   112700349.150         870.258          43.000    21446164.647    87818469.799         677.994          43.000  
G22  26189204.236   137625196.6402       1759.684          31.000                                                                  
G17  23597615.762   124006282.103        1643.690          37.000    23597617.367    96628355.077        1280.764          38.000  
G08  23611862.031   124081131.978       -2614.050          37.000    23611868.342    96686605.071       -2037.039          39.000  
G09  24740238.029   130010823.991       -2445.785          34.000    24740243.002   101307047.392       -1905.235          35.000  
G04  26033706.141   136808076.394       -2655.640          28.000    26033720.825   106603589.279       -2069.448          36.000  
G02  22531293.226   118402660.993       -1477.048          42.000                                                                  
G01  21987554.640   115545373.843        1237.415          41.000    21987556.333    90035302.999         964.294          44.000  
G30  22980229.873   120761939.446        2574.452          40.000    22980233.140    94100263.808        2006.030          40.000  
G19  26228785.653   137833200.398        2602.046          31.000                                                                  
G14  24741965.954   130019901.249        2106.946          35.000    24741969.778   101314221.509        1642.129          38.000  
G27                                                                  26967439.754                       -2318.129          24.000  
> 2025 04 26 01 02 40.0040000  0 12                     
G07  21445999.651   112699479.221         869.789          43.000    21445999.123    87817791.928         677.752          43.000  
G22  26188869.376   137623436.9022       1759.702          31.000                                                                  
G17  23597302.912   124004638.400        1643.479          37.000    23597304.644    96627074.281        1280.355          38.000  
G08  23612359.466   124083746.144       -2614.517          37.000    23612365.792    96688642.063       -2037.261          39.000  
G09  24740703.258   130013268.872       -2444.839          33.000    24740708.268   101308952.481       -1904.386          35.000  
G04  26034212.536   136810731.924       -2654.894          28.000    26034226.194   106605658.543       -2068.729          36.000  
G02  22531574.308   118404137.942       -1477.380          42.000                                                                  
G01  21987319.127   115544136.581        1236.938          41.000    21987320.922    90034338.902         963.721          44.000  
G30  22979739.965   120759365.093        2574.116          40.000    22979743.218    94098257.817        2005.910          40.000  
G19  26228290.501   137830598.776        2601.361          31.000                                                                  
G14  24741564.933   130017794.017        2107.047          35.000    24741568.764   101312579.507        1641.986          38.000  
G27                                                                  26968005.502                       -2314.620          23.000  
> 2025 04 26 01 02 41.0040000  0 12                     
G07  21445834.284   112698610.006         868.974          43.000    21445833.712    87817114.623         677.041          43.000  
G22  26188534.495   137621677.1992       1760.164          31.000                                                                  
G17  23596990.257   124002995.227        1643.175          37.000    23596991.931    96625793.856        1280.519          38.000  
G08  23612857.013   124086360.401       -2614.018          37.000    23612863.325    96690679.132       -2036.789          39.000  
G09  24741168.335   130015713.855       -2444.964          33.000    24741173.578   101310857.668       -1905.339          35.000  
G04  26034717.820   136813387.371       -2655.219          29.000    26034731.626   106607727.728       -2069.515          36.000  
G02  22531855.467   118405615.570       -1477.580          42.000                                                                  
G01  21987083.854   115542899.997        1236.371          41.000    21987085.542    90033375.329         963.544          44.000  
G30  22979250.101   120756791.237        2573.392          40.000    22979253.455    94096252.202        2005.665          40.000  
G19  26227795.424   137827997.437        2600.913          30.000                                                                  
G14  24741163.996   130015686.755        2107.705          35.000    24741167.897   101310937.499        1642.065          38.000  
G27                                                                  26968570.701                       -2306.776          22.000  
> 2025 04 26 01 02 42.0040000  0 12                     
G07  21445669.013   112697741.445         868.422          42.000    21445668.373    87816437.827         676.481          43.000  
G22  26188199.655   137619917.4552       1759.747          31.000                                                                  
G17  23596677.562   124001352.451        1642.688          37.000    23596679.308    96624513.797        1279.912          39.000  
G08  23613354.657   124088974.720       -2613.985          37.000    23613360.868    96692716.280       -2037.199          39.000  
G09  24741633.524   130018158.790       -2444.825          33.000    24741638.839   101312762.811       -1904.833          35.000  
G04  26035224.032   136816042.629       -2655.254          29.000    26035236.945   106609796.708       -2068.979          36.000  
G02  22532136.815   118407093.858       -1478.483          42.000                                                                  
G01  21986848.522   115541664.058        1235.614          41.000    21986850.389    90032412.255         962.848          44.000  
G30  22978760.315   120754217.783        2573.597          40.000    22978763.807    94094246.938        2005.375          40.000  
G19  26227300.352   137825396.297        2600.604          31.000                                                                  
G14  24740762.837   130013579.484        2107.317          35.000    24740766.895   101309295.459        1642.491          38.000  
G27                                                                  26969135.750                       -2312.284          21.000  
> 2025 04 26 01 02 43.0040000  0 12                     
G07  21445503.861   112696873.361         867.812          43.000    21445503.132    87815761.387         676.343          43.000  
G22  26187864.647   137618157.0091       1759.671          31.000                                                                  
G17  23596365.132   123999709.968        1642.276          38.000    23596366.733    96623233.934        1279.828          39.000  
G08  23613852.155   124091588.969       -2614.261          37.000    23613858.407    96694753.331       -2037.080          39.000  
G09  24742098.693   130020603.611       -2444.372          33.000    24742104.113   101314667.859       -1905.016          35.000  
G04  26035729.272   136818697.454       -2654.786          29.000    26035742.348   106611865.420       -2068.800          36.000  
G02  22532418.174   118408572.606       -1479.109          42.000                                                                  
G01  21986613.505   115540428.579        1235.126          41.000    21986615.359    90031449.542         962.512          44.000  
G30  22978270.653   120751644.648        2572.909          40.000    22978274.110    94092241.896        2004.659          40.000  
G19  26226805.371   137822795.292        2600.970          31.000                                                                  
G14  24740361.665   130011471.992        2107.747          35.000    24740365.934   101307653.273        1642.069          38.000  
G27                                                                  26969701.660                       -2316.310          20.000  
> 2025 04 26 01 02 44.0040000  0 12                     
G07  21445338.733   112696005.949         867.106          43.000    21445338.017    87815085.487         675.664          43.000  
G22  26187529.836   137616397.020        1760.435          32.000                                                                  
G17  23596052.635   123998067.922        1641.917          38.000    23596054.235    96621954.407        1279.460          38.000  
G08  23614349.676   124094203.270       -2614.205          37.000    23614355.928    96696790.439       -2037.013          38.000  
G09  24742563.804   130023048.437       -2444.596          32.000    24742569.377   101316572.892       -1904.980          35.000  
G04  26036236.230   136821352.076       -2654.401          29.000    26036247.473   106613933.976       -2068.587          35.000  
G02  22532699.717   118410051.991       -1479.670          42.000                                                                  
G01  21986378.529   115539193.738        1234.698          41.000    21986380.386    90030487.335         962.073          44.000  
G30  22977781.207   120749071.971        2572.192          40.000    22977784.467    94090237.195        2004.503          40.000  
G19  26226310.608   137820194.548        2600.848          31.000                                                                  
G14  24739960.593   130009364.490        2107.456          35.000    24739964.923   101306011.055        1642.323          38.000  
G27                                                                  26970267.718                       -2309.970          20.000  
> 2025 04 26 01 02 45.0040000  0 12                     
G07  21445173.746   112695139.034         866.610          42.000    21445173.075    87814409.960         675.427          43.000  
G22  26187194.714   137614636.829        1761.063          32.000                                                                  
G17  23595740.325   123996426.154        1641.532          38.000    23595741.860    96620675.106        1279.286          38.000  
G08  23614847.217   124096817.472       -2613.951          37.000    23614853.428    96698827.480       -2036.978          39.000  
G09  24743029.051   130025493.065       -2444.071          33.000    24743034.640   101318477.814       -1905.031          35.000  
G04  26036738.846   136824006.368       -2654.009          28.000    26036752.625   106616002.227       -2068.012          35.000  
G02  22532981.347   118411531.846       -1479.921          42.000                                                                  
G01  21986143.605   115537959.378        1234.296          41.000    21986145.495    90029525.502         961.621          44.000  
G30  22977291.702   120746499.548        2572.290          40.000    22977294.996    94088232.719        2004.182          40.000  
G19  26225815.519   137817593.858        2601.198          31.000                                                                  
G14  24739559.583   130007256.762        2108.237          35.000    24739563.890   101304368.692        1642.155          38.000  
G27                                                                  26970832.802                       -2310.936          19.000  
> 2025 04 26 01 02 46.0040000  0 12                     
G07  21445008.893   112694272.670         865.982          43.000    21445008.355    87813734.879         674.647          43.000  
G22  26186859.661   137612876.577        1759.340          32.000                                                                  
G17  23595427.961   123994784.711        1641.305          38.000    23595429.511    96619396.080        1278.529          38.000  
G08  23615344.583   124099431.643       -2614.133          37.000    23615350.819    96700864.507       -2037.241          38.000  
G09  24743494.179   130027937.659       -2444.724          33.000    24743499.914   101320382.663       -1905.111          35.000  
G04  26037244.477   136826660.374       -2653.867          28.000    26037257.700   106618070.260       -2068.028          35.000  
G02  22533263.149   118413012.237       -1480.868          42.000                                                                  
G01  21985908.956   115536725.566        1233.179          41.000    21985910.705    90028564.086         961.145          44.000  
G30  22976802.361   120743927.493        2571.735          40.000    22976805.571    94086228.514        2003.981          40.000  
G19  26225320.535   137814993.414        2599.796          31.000                                                                  
G14  24739158.520   130005148.916        2108.228          35.000    24739162.842   101302726.204        1642.455          38.000  
G27                                                                  26971398.061                       -2319.560          18.000  
> 2025 04 26 01 02 47.0040000  0 11                     
G07  21444844.090   112693407.028         865.219          43.000    21444843.532    87813060.345         674.160          43.000  
G22  26186524.999   137611116.242        1760.705          31.000                                                                  
G17  23595115.725   123993143.767        1640.630          38.000    23595117.317    96618117.421        1278.358          38.000  
G08  23615842.061   124102045.936       -2614.207          37.000    23615848.440    96702901.604       -2037.155          38.000  
G09  24743959.377   130030382.261       -2444.656          33.000    24743965.102   101322287.543       -1905.038          35.000  
G04  26037748.250   136829314.274       -2654.292          28.000    26037762.666   106620138.172       -2067.823          35.000  
G02  22533544.956   118414493.308       -1481.246          42.000                                                                  
G01  21985674.219   115535492.436        1232.782          41.000    21985676.036    90027603.210         960.529          44.000  
G30  22976313.016   120741355.927        2571.285          39.000    22976316.211    94084224.699        2003.629          40.000  
G19  26224825.779   137812393.235        2600.030          30.000                                                                  
G14  24738757.412   130003041.090        2108.459          35.000    24738761.705   101301083.745        1642.456          38.000  
> 2025 04 26 01 02 48.0040000  0 11                     
G07  21444679.537   112692541.961         864.570          43.000    21444679.067    87812386.260         673.807          43.000  
G22  26186190.064   137609355.850        1761.434          31.000                                                                  
G17  23594803.553   123991503.193        1639.891          38.000    23594805.149    96616839.032        1278.094          38.000  
G08  23616339.506   124104660.237       -2614.639          37.000    23616345.928    96704938.711       -2037.177          38.000  
G09  24744424.440   130032826.835       -2444.216          33.000    24744430.305   101324192.378       -1904.839          35.000  
G04  26038253.157   136831967.797       -2653.633          27.000    26038267.653   106622205.878       -2067.590          35.000  
G02  22533826.951   118415974.954       -1482.081          42.000                                                                  
G01  21985439.660   115534259.861        1232.367          41.000    21985441.457    90026642.767         960.132          44.000  
G30  22975823.678   120738784.737        2570.909          39.000    22975826.942    94082221.175        2003.439          40.000  
G19  26224331.194   137809793.226        2599.550          31.000                                                                  
G14  24738356.205   130000933.194        2107.553          35.000    24738360.515   101299441.198        1642.484          38.000  
> 2025 04 26 01 02 49.0040000  0 11                     
G07  21444515.090   112691677.566         864.258          43.000    21444514.568    87811712.715         673.237          43.000  
G22  26185855.022   137607595.438        1761.168          31.000                                                                  
G17  23594491.408   123989863.060        1639.901          37.000    23594492.932    96615561.016        1277.846          38.000  
G08  23616836.948   124107274.584       -2613.927          37.000    23616843.484    96706975.841       -2036.675          38.000  
G09  24744889.666   130035271.411       -2444.229          32.000    24744895.494   101326097.236       -1904.972          34.000  
G04  26038758.874   136834621.145       -2652.396          27.000    26038772.631   106624273.452       -2067.442          35.000  
G02  22534109.071   118417457.244       -1482.583          42.000                                                                  
G01  21985205.227   115533027.973        1231.592          41.000    21985206.931    90025682.844         959.644          44.000  
G30  22975334.406   120736214.005        2570.702          39.000    22975337.768    94080218.029        2002.841          40.000  
G19  26223836.606   137807193.430        2600.386          31.000                                                                  
G14  24737955.139   129998825.239        2107.822          35.000    24737959.439   101297798.656        1642.694          38.000  
> 2025 04 26 01 02 50.0040000  0 11                     
G07  21444350.739   112690813.719         863.270          43.000    21444350.253    87811039.576         672.718          43.000  
G22  26185520.132   137605834.899        1760.686          31.000                                                                  
G17  23594179.288   123988223.233        1639.312          37.000    23594180.905    96614283.233        1277.500          38.000  
G08  23617334.324   124109888.905       -2614.091          37.000    23617341.014    96709012.998       -2037.319          38.000  
G09  24745354.849   130037715.891       -2444.512          33.000    24745360.565   101328001.981       -1904.663          34.000  
G04  26039264.701   136837274.257       -2653.171          27.000    26039277.478   106626340.762       -2067.292          36.000  
G02  22534391.212   118418940.056       -1483.282          42.000                                                                  
G01  21984970.863   115531796.590        1230.939          41.000    21984972.644    90024723.317         959.125          44.000  
G30  22974845.298   120733643.611        2570.217          40.000    22974848.698    94078215.112        2002.644          40.000  
G19  26223341.971   137804593.897        2599.430          31.000                                                                  
G14  24737553.986   129996717.122        2108.299          35.000    24737558.273   101296155.966        1642.719          38.000  
> 2025 04 26 01 02 51.0040000  0 11                     
G07  21444186.512   112689950.556         862.878          43.000    21444186.042    87810366.987         672.175          43.000  
G22  26185185.020   137604074.338        1760.371          31.000                                                                  
G17  23593867.457   123986583.906        1638.871          37.000    23593869.018    96613005.815        1277.338          38.000  
G08  23617831.846   124112503.363       -2614.633          37.000    23617838.601    96711050.207       -2037.090          38.000  
G09  24745819.818   130040160.384       -2444.976          33.000    24745825.692   101329906.777       -1904.300          34.000  
G04  26039770.308   136839927.153       -2652.537          27.000    26039782.297   106628407.951       -2067.247          36.000  
G02  22534673.468   118420423.541       -1483.865          42.000                                                                  
G01  21984736.615   115530565.874        1230.316          41.000    21984738.333    90023764.323         958.624          44.000  
G30  22974356.265   120731073.717        2569.684          39.000    22974359.581    94076212.598        2002.079          40.000  
G19  26222847.249   137801994.589        2599.911          31.000                                                                  
G14  24737152.760   129994609.023        2107.881          35.000    24737157.178   101294513.299        1642.584          38.000  
> 2025 04 26 01 02 52.0040000  0 11                     
G07  21444022.354   112689088.007         862.230          43.000    21444021.927    87809694.868         671.860          43.000  
G22  26184849.854   137602313.722        1759.869          31.000                                                                  
G17  23593555.497   123984944.947        1638.390          37.000    23593557.242    96611728.713        1276.907          38.000  
G08  23618329.256   124115117.783       -2614.595          36.000    23618336.187    96713087.429       -2037.212          38.000  
G09  24746285.007   130042604.817       -2444.002          33.000    24746290.891   101331811.567       -1904.656          34.000  
G04  26040273.862   136842579.789       -2652.110          27.000    26040287.083   106630474.928       -2066.912          36.000  
G02  22534955.880   118421907.611       -1484.415          42.000                                                                  
G01  21984502.668   115529335.758        1229.663          41.000    21984504.203    90022805.782         958.386          44.000  
G30  22973867.328   120728504.197        2569.271          40.000    22973870.588    94074210.380        2001.809          40.000  
G19  26222352.781   137799395.542        2599.384          31.000                                                                  
G14  24736751.554   129992500.792        2108.893          35.000    24736755.930   101292870.565        1642.526          38.000  
> 2025 04 26 01 02 53.0040000  0 11                     
G07  21443858.380   112688226.126         861.585          43.000    21443857.744    87809023.274         671.374          43.000  
G22  26184514.726   137600553.001        1761.059          31.000                                                                  
G17  23593243.677   123983306.428        1638.322          37.000    23593245.380    96610451.956        1276.967          38.000  
G08  23618826.737   124117732.318       -2614.939          36.000    23618833.716    96715124.721       -2037.393          39.000  
G09  24746750.096   130045049.267       -2444.207          32.000    24746755.967   101333716.354       -1905.421          34.000  
G04  26040778.978   136845232.245       -2651.902          27.000    26040791.852   106632541.771       -2066.573          36.000  
G02  22535238.328   118423392.313       -1484.979          42.000                                                                  
G01  21984268.758   115528106.272        1229.205          41.000    21984270.219    90021847.756         957.861          44.000  
G30  22973378.530   120725935.132        2568.887          40.000    22973381.740    94072208.500        2001.764          40.000  
G19  26221858.382   137796796.717        2599.506          31.000                                                                  
G14  24736350.401   129990392.590        2108.423          35.000    24736354.658   101291227.802        1642.600          38.000  
> 2025 04 26 01 02 54.0040000  0 11                     
G07  21443694.432   112687364.845         861.154          43.000    21443693.857    87808352.148         670.822          43.000  
G22  26184179.625   137598792.243        1761.484          31.000                                                                  
G17  23592931.943   123981668.309        1637.905          37.000    23592933.665    96609175.488        1276.383          38.000  
G08  23619324.285   124120346.831       -2614.391          36.000    23619331.198    96717161.996       -2037.187          39.000  
G09  24747215.320   130047493.729       -2444.743          33.000    24747221.059   101335621.079       -1904.948          34.000  
G04  26041282.724   136847884.496       -2652.079          27.000    26041296.640   106634608.413       -2066.678          36.000  
G02  22535521.010   118424877.606       -1485.475          42.000                                                                  
G01  21984034.967   115526877.394        1228.534          41.000    21984036.358    90020890.176         957.275          44.000  
G30  22972889.583   120723366.468        2568.490          40.000    22972892.897    94070206.946        2001.488          40.000  
G19  26221363.968   137794198.145        2598.215          32.000                                                                  
G14  24735949.212   129988284.295        2108.323          35.000    24735953.360   101289584.957        1642.784          38.000  
> 2025 04 26 01 02 55.0040000  0 11                     
G07  21443530.689   112686504.094         860.460          43.000    21443530.092    87807681.435         670.464          43.000  
G22  26183844.668   137597031.320        1760.985          31.000                                                                  
G17  23592620.279   123980030.497        1637.601          37.000    23592621.971    96607899.293        1275.540          38.000  
G08  23619821.890   124122961.299       -2614.563          37.000    23619828.659    96719199.223       -2036.992          39.000  
G09  24747680.402   130049938.030       -2444.515          33.000    24747686.209   101337525.724       -1904.898          34.000  
G04  26041786.087   136850536.356       -2651.828          27.000    26041801.302   106636674.783       -2066.209          36.000  
G02  22535803.731   118426363.414       -1486.163          42.000                                                                  
G01  21983801.256   115525649.023        1227.667          41.000    21983802.601    90019933.001         956.824          44.000  
G30  22972400.720   120720798.124        2568.172          40.000    22972404.143    94068205.640        2001.182          40.000  
G19  26220869.387   137791599.614        2599.171          31.000                                                                  
G14  24735548.148   129986175.847        2108.448          35.000    24735552.158   101287942.007        1642.845          38.000  
> 2025 04 26 01 02 56.0040000  0 11                     
G07  21443366.985   112685644.014         859.820          43.000    21443366.413    87807011.231         669.987          43.000  
G22  26183509.428   137595270.373        1760.938          31.000                                                                  
G17  23592308.619   123978393.100        1637.701          37.000    23592310.246    96606623.406        1275.567          38.000  
G08  23620319.483   124125575.840       -2614.635          37.000    23620326.226    96721236.540       -2037.322          39.000  
G09  24748145.502   130052382.305       -2443.553          33.000    24748151.310   101339430.346       -1904.208          33.000  
G04  26042289.293   136853188.033       -2651.323          27.000    26042306.058   106638741.009       -2066.251          36.000  
G02  22536086.625   118427849.860       -1486.476          42.000                                                                  
G01  21983567.541   115524421.282        1227.386          41.000    21983568.928    90018976.332         956.458          44.000  
G30  22971912.105   120718230.235        2567.679          39.000    22971915.556    94066204.684        2001.269          40.000  
G19  26220375.066   137789001.455        2598.174          31.000                                                                  
G14  24735146.894   129984067.323        2108.838          35.000    24735150.969   101286299.011        1643.041          38.000  
> 2025 04 26 01 02 57.0040000  0 11                     
G07  21443203.395   112684784.424         859.327          43.000    21443202.721    87806341.422         669.565          43.000  
G22  26183174.282   137593509.214        1761.785          31.000                                                                  
G17  23591997.059   123976756.030        1636.642          37.000    23591998.685    96605347.738        1275.411          38.000  
G08  23620816.964   124128190.277       -2614.512          37.000    23620823.749    96723273.770       -2037.527          39.000  
G09  24748610.686   130054826.495       -2444.299          33.000    24748616.412   101341334.900       -1904.961          33.000  
G04  26042794.466   136855839.330       -2651.261          28.000    26042810.556   106640806.983       -2066.429          36.000  
G02  22536369.554   118429336.788       -1487.270          42.000                                                                  
G01  21983334.103   115523194.021        1226.910          41.000    21983335.476    90018020.030         956.018          44.000  
G30  22971423.463   120715662.621        2567.683          39.000    22971426.981    94064203.955        2000.703          40.000  
G19  26219880.687   137786403.344        2598.042          31.000                                                                  
G14  24734745.609   129981958.634        2108.794          34.000    24734749.706   101284655.900        1642.931          37.000  
> 2025 04 26 01 02 58.0040000  0 11                     
G07  21443039.994   112683925.442         858.458          43.000    21443039.334    87805672.083         669.040          43.000  
G22  26182839.209   137591747.924        1761.687          30.000                                                                  
G17  23591685.590   123975119.270        1636.434          37.000    23591687.203    96604072.363        1274.946          38.000  
G08  23621314.470   124130804.725       -2614.912          37.000    23621321.290    96725310.970       -2037.502          39.000  
G09  24749075.797   130057270.531       -2444.126          33.000    24749081.376   101343239.357       -1904.469          33.000  
G04  26043301.179   136858490.372       -2651.204          28.000    26043315.049   106642872.695       -2065.933          36.000  
G02  22536652.737   118430824.263       -1487.783          42.000                                                                  
G01  21983100.619   115521967.329        1226.343          41.000    21983102.024    90017064.160         955.328          44.000  
G30  22970934.928   120713095.398        2566.817          40.000    22970938.460    94062203.518        2000.061          40.000  
G19  26219386.302   137783805.405        2597.987          31.000                                                                  
G14  24734344.410   129979849.847        2108.400          35.000    24734348.362   101283012.672        1642.860          37.000  
> 2025 04 26 01 02 59.0040000  0 11                     
G07  21442876.636   112683067.089         857.895          43.000    21442875.943    87805003.232         668.627          43.000  
G22  26182504.065   137589986.644        1760.684          30.000                                                                  
G17  23591374.238   123973482.937        1636.041          37.000    23591375.881    96602797.293        1274.826          38.000  
G08  23621811.942   124133419.170       -2614.517          37.000    23621818.838    96727348.213       -2037.239          39.000  
G09  24749540.892   130059714.579       -2443.895          33.000    24749546.408   101345143.810       -1904.344          32.000  
G04  26043807.196   136861141.207       -2651.407          28.000    26043819.491   106644938.256       -2065.676          35.000  
G02  22536935.950   118432312.348       -1488.436          42.000                                                                  
G01  21982867.273   115520741.241        1225.800          41.000    21982868.794    90016108.768         954.956          44.000  
G30  22970446.460   120710528.596        2566.353          39.000    22970450.082    94060203.392        1999.965          40.000  
G19  26218892.073   137781207.703        2597.280          31.000                                                                  
G14  24733943.017   129977740.944        2109.516          35.000    24733947.059   101281369.391        1643.342          37.000  
> 2025 04 26 01 03 00.0040000  0 11                     
G07  21442713.373   112682209.285         857.647          43.000    21442712.646    87804334.823         668.285          43.000  
G22  26182168.547   137588225.152        1762.078          30.000                                                                  
G17  23591062.910   123971846.944        1636.024          37.000    23591064.586    96601522.482        1274.774          38.000  
G08  23622309.437   124136033.613       -2614.379          37.000    23622316.240    96729385.419       -2037.040          39.000  
G09  24750005.960   130062158.556       -2443.773          33.000    24750011.428   101347048.187       -1904.618          32.000  
G04  26044312.207   136863791.661       -2650.326          28.000    26044323.783   106647003.557       -2064.900          35.000  
G02  22537219.217   118433800.982       -1488.829          42.000                                                                  
G01  21982634.057   115519515.699        1225.330          41.000    21982635.580    90015153.796         954.907          44.000  
G30  22969958.051   120707962.118        2566.333          39.000    22969961.778    94058203.549        1999.918          40.000  
G19  26218397.767   137778610.167        2596.775          31.000                                                                  
G14  24733541.634   129975631.954        2109.481          35.000    24733545.687   101279726.010        1643.457          37.000  
> 2025 04 26 01 03 01.0040000  0 11                     
G07  21442550.238   112681351.923         857.102          43.000    21442549.510    87803666.752         667.772          43.000  
G22  26181833.397   137586463.455        1761.577          31.000                                                                  
G17  23590751.547   123970211.192        1635.468          38.000    23590753.332    96600247.877        1274.308          38.000  
G08  23622806.845   124138647.885       -2614.157          37.000    23622813.756    96731422.515       -2036.981          39.000  
G09  24750471.089   130064602.269       -2443.456          33.000    24750476.380   101348952.354       -1903.983          33.000  
G04  26044818.061   136866441.738       -2649.900          28.000    26044828.037   106649068.555       -2065.109          35.000  
G02  22537502.526   118435290.021       -1489.355          42.000                                                                  
G01  21982400.920   115518290.566        1224.805          41.000    21982402.533    90014199.143         954.480          44.000  
G30  22969469.774   120705395.877        2566.195          39.000    22969473.419    94056203.895        1999.588          40.000  
G19  26217903.510   137776012.638        2597.347          31.000                                                                  
G14  24733140.302   129973522.714        2108.527          35.000    24733144.273   101278082.437        1643.627          37.000  
> 2025 04 26 01 03 02.0040000  0 11                     
G07  21442387.189   112680495.163         856.500          43.000    21442386.449    87802999.141         667.375          43.000  
G22  26181498.273   137584701.659        1761.269          31.000                                                                  
G17  23590440.466   123968575.846        1634.929          37.000    23590442.178    96598973.547        1274.113          38.000  
G08  23623304.225   124141262.180       -2614.488          37.000    23623311.241    96733459.622       -2037.167          39.000  
G09  24750936.091   130067045.950       -2443.679          33.000    24750941.350   101350856.529       -1903.994          33.000  
G04  26045321.615   136869091.552       -2649.235          28.000    26045332.268   106651133.362       -2065.270          34.000  
G02  22537785.853   118436779.653       -1490.278          42.000                                                                  
G01  21982167.953   115517066.032        1224.054          41.000    21982169.574    90013244.959         953.839          44.000  
G30  22968981.572   120702830.028        2565.518          39.000    22968985.115    94054204.537        1999.167          40.000  
G19  26217409.233   137773415.315        2597.621          31.000                                                                  
G14  24732739.018   129971413.345        2109.577          35.000    24732742.911   101276438.785        1643.688          37.000  
> 2025 04 26 01 03 03.0040000  0 11                     
G07  21442224.291   112679638.995         855.761          43.000    21442223.525    87802332.004         666.786          43.000  
G22  26181162.962   137582939.687        1762.672          31.000                                                                  
G17  23590129.315   123966940.827        1634.701          37.000    23590131.008    96597699.538        1273.391          38.000  
G08  23623801.689   124143876.471       -2614.663          37.000    23623808.738    96735496.722       -2037.147          39.000  
G09  24751401.086   130069489.574       -2443.647          33.000    24751406.257   101352760.632       -1904.048          33.000  
G04  26045825.274   136871741.123       -2649.130          28.000    26045836.447   106653197.908       -2064.177          34.000  
G02  22538069.359   118438269.854       -1490.894          42.000                                                                  
G01  21981935.184   115515842.062        1223.499          41.000    21981936.617    90012291.223         953.253          44.000  
G30  22968493.453   120700264.573        2564.858          39.000    22968496.873    94052205.464        1998.970          40.000  
G19  26216915.058   137770818.185        2597.743          31.000                                                                  
G14  24732337.597   129969303.916        2109.473          35.000    24732341.415   101274795.072        1643.625          37.000  
> 2025 04 26 01 03 04.0040000  0 11                     
G07  21442061.440   112678783.352         855.419          43.000    21442060.735    87801665.274         666.266          43.000  
G22  26180827.650   137581177.668        1762.231          30.000                                                                  
G17  23589818.206   123965306.123        1634.494          37.000    23589819.963    96596425.736        1273.592          38.000  
G08  23624299.156   124146490.701       -2613.922          37.000    23624306.211    96737533.794       -2037.319          39.000  
G09  24751866.092   130071933.066       -2443.531          33.000    24751871.160   101354664.694       -1904.404          32.000  
G04  26046329.824   136874390.342       -2649.057          28.000    26046340.658   106655262.238       -2064.476          35.000  
G02  22538352.985   118439760.532       -1490.822          42.000                                                                  
G01  21981702.279   115514618.594        1223.358          41.000    21981703.679    90011337.871         953.107          44.000  
G30  22968005.365   120697699.431        2564.517          40.000    22968008.715    94050206.660        1998.677          40.000  
G19  26216420.857   137768221.207        2597.626          32.000                                                                  
G14  24731936.204   129967194.297        2109.500          35.000    24731939.985   101273151.210        1643.876          37.000  
> 2025 04 26 01 03 05.0040000  0 11                     
G07  21441898.724   112677928.468         854.429          43.000    21441898.223    87800999.120         665.588          43.000  
G22  26180492.328   137579415.659        1761.484          30.000                                                                  
G17  23589507.210   123963671.951        1633.472          37.000    23589509.054    96595152.360        1272.861          38.000  
G08  23624796.572   124149105.096       -2614.622          36.000    23624803.693    96739570.964       -2037.522          39.000  
G09  24752331.025   130074376.602       -2442.691          33.000    24752336.172   101356568.756       -1904.181          33.000  
G04  26046832.697   136877039.454       -2649.220          28.000    26046844.664   106657326.486       -2064.620          35.000  
G02  22538636.830   118441251.963       -1491.985          42.000                                                                  
G01  21981469.704   115513395.867        1222.369          41.000    21981470.879    90010385.091         952.350          44.000  
G30  22967517.323   120695134.807        2564.198          39.000    22967520.726    94048208.260        1998.210          40.000  
G19  26215926.585   137765624.553        2597.185          31.000                                                                  
G14  24731534.793   129965084.749        2109.227          35.000    24731538.626   101271507.388        1643.606          37.000  
> 2025 04 26 01 03 06.0040000  0 11                     
G07  21441736.196   112677074.310         853.693          43.000    21441735.775    87800333.531         665.391          43.000  
G22  26180157.061   137577653.660        1762.155          30.000                                                                  
G17  23589196.250   123962038.250        1633.851          37.000    23589198.048    96593879.349        1273.019          38.000  
G08  23625294.061   124151719.626       -2614.683          36.000    23625301.127    96741608.255       -2037.539          39.000  
G09  24752796.100   130076820.304       -2443.604          33.000    24752801.162   101358472.894       -1903.547          33.000  
G04  26047336.874   136879688.415       -2648.605          28.000    26047348.749   106659390.614       -2064.434          34.000  
G02  22538920.754   118442744.090       -1492.477          42.000                                                                  
G01  21981237.248   115512173.854        1221.613          41.000    21981238.216    90009432.876         951.904          44.000  
G30  22967029.409   120692570.726        2563.940          40.000    22967032.790    94046210.284        1997.727          40.000  
G19  26215432.643   137763028.336        2595.336          31.000                                                                  
G14  24731133.341   129962975.220        2109.545          35.000    24731137.153   101269863.625        1643.935          37.000  
> 2025 04 26 01 03 07.0040000  0 11                     
G07  21441573.746   112676220.648         853.406          43.000    21441573.455    87799668.343         665.078          43.000  
G22  26179821.558   137575891.494        1762.027          30.000                                                                  
G17  23588885.463   123960404.872        1633.481          37.000    23588887.212    96592606.586        1272.734          38.000  
G08  23625791.597   124154334.063       -2614.571          37.000    23625798.694    96743645.475       -2037.339          39.000  
G09  24753261.202   130079263.825       -2443.747          33.000    24753266.140   101360376.925       -1903.843          33.000  
G04  26047842.242   136882337.090       -2648.790          28.000    26047852.685   106661454.449       -2063.836          35.000  
G02  22539204.898   118444236.701       -1493.086          42.000                                                                  
G01  21981004.737   115510952.322        1221.112          41.000    21981005.839    90008481.031         951.575          44.000  
G30  22966541.547   120690006.946        2563.446          40.000    22966544.932    94044212.526        1997.474          40.000  
G19  26214938.440   137760432.094        2595.773          31.000                                                                  
G14  24730731.861   129960865.505        2109.754          35.000    24730735.591   101268219.707        1643.903          37.000  
> 2025 04 26 01 03 08.0040000  0 11                     
G07  21441411.414   112675367.632         852.718          43.000    21441411.011    87799003.653         664.618          43.000  
G22  26179486.163   137574129.246        1762.930          31.000                                                                  
G17  23588574.664   123958771.925        1632.677          37.000    23588576.464    96591334.145        1272.290          38.000  
G08  23626289.161   124156948.553       -2614.749          37.000    23626296.245    96745682.722       -2037.225          39.000  
G09  24753726.166   130081707.310       -2443.256          33.000    24753731.159   101362280.932       -1903.622          34.000  
G04  26048346.882   136884985.484       -2648.450          28.000    26048356.645   106663518.129       -2063.385          35.000  
G02  22539489.094   118445729.942       -1493.678          42.000                                                                  
G01  21980772.326   115509731.419        1220.563          41.000    21980773.536    90007529.672         951.288          44.000  
G30  22966053.652   120687443.600        2563.104          39.000    22966057.109    94042215.116        1997.014          40.000  
G19  26214444.259   137757836.191        2594.812          31.000                                                                  
G14  24730330.384   129958755.732        2110.207          35.000    24730334.153   101266575.740        1643.944          37.000  
> 2025 04 26 01 03 09.0040000  0 11                     
G07  21441249.147   112674515.141         852.027          43.000    21441248.795    87798339.381         663.717          43.000  
G22  26179150.640   137572366.912        1762.345          31.000                                                                  
G17  23588263.908   123957139.268        1632.029          37.000    23588265.849    96590061.948        1271.887          38.000  
G08  23626786.737   124159562.955       -2614.362          37.000    23626793.782    96747719.906       -2037.121          39.000  
G09  24754191.044   130084150.671       -2442.935          33.000    24754195.942   101364184.868       -1903.980          34.000  
G04  26048849.163   136887633.511       -2647.697          27.000    26048860.554   106665581.575       -2063.518          35.000  
G02  22539773.401   118447223.676       -1494.128          42.000                                                                  
G01  21980540.064   115508511.010        1220.001          41.000    21980541.326    90006578.713         950.702          44.000  
G30  22965565.873   120684880.554        2562.769          39.000    22965569.290    94040217.929        1996.713          40.000  
G19  26213950.259   137755240.277        2595.834          31.000                                                                  
G14  24729928.804   129956645.828        2109.869          35.000    24729932.616   101264931.622        1644.395          37.000  
> 2025 04 26 01 03 10.0040000  0 11                     
G07  21441086.988   112673663.165         851.858          43.000    21441086.626    87797675.510         663.577          43.000  
G22  26178815.399   137570604.332        1762.652          31.000                                                                  
G17  23587953.292   123955506.892        1632.103          37.000    23587955.158    96588789.970        1271.915          38.000  
G08  23627284.240   124162177.288       -2614.262          37.000    23627291.168    96749757.076       -2037.297          39.000  
G09  24754655.934   130086593.944       -2443.589          33.000    24754660.992   101366088.636       -1903.097          33.000  
G04  26049351.410   136890281.272       -2647.632          27.000    26049364.377   106667644.725       -2063.318          35.000  
G02  22540057.713   118448717.915       -1494.580          42.000                                                                  
G01  21980307.892   115507291.105        1219.727          41.000    21980309.214    90005628.144         950.311          44.000  
G30  22965078.185   120682317.829        2562.532          39.000    22965081.630    94038221.000        1996.761          40.000  
G19  26213456.153   137752644.578        2595.844          31.000                                                                  
G14  24729527.258   129954535.732        2110.453          35.000    24729531.036   101263287.397        1644.330          37.000  
> 2025 04 26 01 03 11.0040000  0 11                     
G07  21440924.929   112672811.935         850.809          43.000    21440924.599    87797012.201         662.941          43.000  
G22  26178479.819   137568841.826        1762.373          31.000                                                                  
G17  23587642.765   123953875.028        1631.378          37.000    23587644.639    96587518.394        1271.064          38.000  
G08  23627781.873   124164791.781       -2614.637          37.000    23627788.663    96751794.318       -2037.497          39.000  
G09  24755120.980   130089037.239       -2443.804          33.000    24755126.040   101367992.552       -1903.659          33.000  
G04  26049855.510   136892928.885       -2647.633          27.000    26049868.240   106669707.738       -2062.757          35.000  
G02  22540342.087   118450212.862       -1495.408          42.000                                                                  
G01  21980075.856   115506071.925        1218.848          41.000    21980077.268    90004678.131         949.640          44.000  
G30  22964590.664   120679755.617        2562.047          39.000    22964593.965    94036224.473        1996.326          40.000  
G19  26212962.359   137750049.195        2595.349          31.000                                                                  
G14  24729125.649   129952425.672        2110.002          35.000    24729129.523   101261643.223        1643.703          37.000  
> 2025 04 26 01 03 12.0040000  0 11                     
G07  21440763.112   112671961.201         850.643          43.000    21440762.712    87796349.288         662.843          43.000  
G22  26178144.258   137567079.119        1763.185          31.000                                                                  
G17  23587332.323   123952243.441        1631.539          37.000    23587334.068    96586247.008        1271.572          38.000  
G08  23628279.401   124167406.164       -2614.327          36.000    23628286.150    96753831.501       -2036.981          39.000  
G09  24755585.813   130091480.370       -2442.895          33.000    24755591.040   101369896.295       -1903.262          33.000  
G04  26050359.281   136895576.135       -2646.902          27.000    26050371.972   106671770.533       -2062.552          35.000  
G02  22540626.719   118451708.281       -1495.522          42.000                                                                  
G01  21979844.042   115504853.214        1218.811          41.000    21979845.332    90003728.488         949.640          43.000  
G30  22964103.102   120677193.712        2561.942          39.000    22964106.453    94034228.200        1996.000          40.000  
G19  26212468.277   137747453.913        2595.801          31.000                                                                  
G14  24728724.084   129950315.427        2110.556          35.000    24728727.982   101259998.861        1644.310          37.000  
> 2025 04 26 01 03 13.0040000  0 11                     
G07  21440601.307   112671110.917         850.227          43.000    21440600.958    87795686.742         662.184          43.000  
G22  26177808.680   137565316.115        1763.654          31.000                                                                  
G17  23587021.886   123950612.079        1631.304          37.000    23587023.696    96584975.847        1270.852          38.000  
G08  23628776.862   124170020.434       -2614.164          36.000    23628783.577    96755868.563       -2036.955          39.000  
G09  24756050.723   130093923.306       -2442.097          33.000    24756055.908   101371799.907       -1903.447          34.000  
G04  26050862.763   136898222.968       -2646.876          27.000    26050875.586   106673833.000       -2062.095          34.000  
G02  22540911.402   118453204.142       -1495.930          42.000                                                                  
G01  21979612.235   115503634.968        1218.085          41.000    21979613.475    90002779.194         949.066          43.000  
G30  22963615.594   120674632.048        2561.363          39.000    22963619.007    94032232.080        1996.158          40.000  
G19  26211974.494   137744858.760        2594.458          31.000                                                                  
G14  24728322.541   129948204.952        2110.226          35.000    24728326.347   101258354.312        1644.683          37.000  
> 2025 04 26 01 03 14.0040000  0 11                     
G07  21440439.608   112670261.306         849.159          42.000    21440439.259    87795024.692         661.847          43.000  
G22  26177473.261   137563553.139        1764.053          30.000                                                                  
G17  23586711.474   123948981.174        1630.790          37.000    23586713.293    96583704.992        1270.821          38.000  
G08  23629274.373   124172634.760       -2614.397          36.000    23629281.135    96757905.718       -2037.551          39.000  
G09  24756515.697   130096366.306       -2443.061          33.000    24756520.831   101373703.493       -1903.570          34.000  
G04  26051365.758   136900869.583       -2646.561          27.000    26051379.199   106675895.276       -2061.655          34.000  
G02  22541196.179   118454700.635       -1496.619          42.000                                                                  
G01  21979380.536   115502417.344        1217.493          41.000    21979381.666    90001830.393         948.657          43.000  
G30  22963128.197   120672070.847        2560.958          39.000    22963131.588    94030236.320        1995.845          40.000  
G19  26211480.908   137742263.747        2594.934          31.000                                                                  
G14  24727920.955   129946094.420        2110.448          35.000    24727924.702   101256709.764        1644.449          37.000  
> 2025 04 26 01 03 15.0040000  0 11                     
G07  21440278.008   112669412.316         848.613          43.000    21440277.756    87794363.142         661.203          43.000  
G22  26177137.879   137561790.136        1763.260          30.000                                                                  
G17  23586401.201   123947350.657        1630.327          37.000    23586402.983    96582434.473        1270.370          38.000  
G08  23629771.957   124175249.102       -2613.987          36.000    23629778.571    96759942.858       -2037.139          39.000  
G09  24756980.699   130098809.244       -2443.055          33.000    24756985.818   101375607.068       -1903.564          34.000  
G04  26051870.119   136903515.996       -2646.557          27.000    26051882.726   106677957.422       -2061.935          34.000  
G02  22541480.881   118456197.764       -1497.777          42.000                                                                  
G01  21979148.983   115501200.343        1216.589          41.000    21979150.132    90000882.085         948.077          43.000  
G30  22962640.837   120669510.033        2560.659          39.000    22962644.298    94028240.905        1995.251          40.000  
G19  26210987.302   137739669.041        2594.705          31.000                                                                  
G14  24727519.419   129943983.839        2110.398          35.000    24727523.013   101255065.173        1644.354          37.000  
> 2025 04 26 01 03 16.0040000  0 11                     
G07  21440116.556   112668564.086         847.519          43.000    21440116.284    87793702.178         660.573          43.000  
G22  26176802.322   137560027.168        1762.570          31.000                                                                  
G17  23586091.083   123945720.702        1629.544          37.000    23586092.861    96581164.352        1269.589          38.000  
G08  23630269.594   124177863.642       -2614.854          36.000    23630276.090    96761980.129       -2037.327          38.000  
G09  24757445.574   130101252.312       -2444.029          33.000    24757450.766   101377510.719       -1904.115          34.000  
G04  26052372.636   136906162.277       -2645.802          27.000    26052386.346   106680019.471       -2062.259          34.000  
G02  22541765.954   118457695.585       -1498.467          42.000                                                                  
G01  21978917.601   115499984.081        1215.588          41.000    21978918.689    89999934.344         947.333          43.000  
G30  22962153.593   120666949.796        2560.092          39.000    22962157.030    94026245.917        1994.555          40.000  
G19  26210493.769   137737074.679        2594.048          31.000                                                                  
G14  24727117.760   129941873.299        2110.619          36.000    24727121.266   101253420.606        1644.091          37.000  
> 2025 04 26 01 03 17.0040000  0 11                     
G07  21439955.225   112667716.452         847.267          43.000    21439954.967    87793041.687         660.339          43.000  
G22  26176466.681   137558264.086        1763.289          31.000                                                                  
G17  23585781.030   123944091.088        1629.711          37.000    23585782.704    96579894.556        1269.535          38.000  
G08  23630767.275   124180478.182       -2614.528          36.000    23630773.540    96764017.456       -2037.727          38.000  
G09  24757910.545   130103695.277       -2444.031          33.000    24757915.686   101379414.328       -1903.529          34.000  
G04  26052876.493   136908808.328       -2645.937          27.000    26052889.844   106682081.303       -2061.746          35.000  
G02  22542051.152   118459193.997       -1498.608          42.000                                                                  
G01  21978686.278   115498768.396        1215.503          41.000    21978687.430    89998987.063         947.046          44.000  
G30  22961666.482   120664389.963        2559.803          39.000    22961669.877    94024251.240        1994.550          40.000  
G19  26210000.153   137734480.538        2593.633          31.000                                                                  
G14  24726716.183   129939762.716        2110.841          36.000    24726719.552   101251775.992        1644.431          37.000  
> 2025 04 26 01 03 18.0040000  0 11                     
G07  21439794.038   112666869.488         846.715          43.000    21439793.879    87792381.736         659.480          43.000  
G22  26176131.138   137556501.019        1763.099          31.000                                                                  
G17  23585471.050   123942461.968        1628.844          37.000    23585472.647    96578625.078        1269.549          38.000  
G08  23631264.766   124183092.797       -2614.975          36.000    23631271.092    96766054.805       -2037.405          38.000  
G09  24758375.379   130106138.267       -2443.165          33.000    24758380.615   101381317.964       -1903.397          34.000  
G04  26053378.561   136911454.190       -2645.437          27.000    26053393.337   106684143.001       -2061.717          34.000  
G02  22542336.447   118460693.066       -1499.512          42.000                                                                  
G01  21978454.998   115497553.360        1214.758          41.000    21978456.166    89998040.293         946.332          43.000  
G30  22961179.450   120661830.591        2558.921          39.000    22961182.941    94022256.919        1994.088          40.000  
G19  26209506.329   137731886.666        2593.384          31.000                                                                  
G14  24726314.537   129937652.087        2110.905          36.000    24726318.001   101250131.336        1644.461          37.000  
> 2025 04 26 01 03 19.0040000  0 11                     
G07  21439633.034   112666023.102         845.872          43.000    21439632.807    87791722.198         658.966          43.000  
G22  26175795.451   137554737.792        1763.306          31.000                                                                  
G17  23585161.058   123940833.168        1628.236          37.000    23585162.757    96577355.883        1268.957          38.000  
G08  23631762.367   124185707.369       -2614.536          36.000    23631768.686    96768092.128       -2037.321          38.000  
G09  24758840.369   130108581.154       -2443.625          33.000    24758845.596   101383221.536       -1903.980          34.000  
G04  26053882.210   136914099.779       -2645.942          27.000    26053896.784   106686204.484       -2062.126          34.000  
G02  22542621.836   118462192.656       -1500.077          42.000                                                                  
G01  21978223.894   115496338.887        1213.672          41.000    21978225.100    89997093.933         945.898          43.000  
G30  22960692.477   120659271.569        2558.350          39.000    22960695.927    94020262.884        1993.212          40.000  
G19  26209012.491   137729292.904        2593.339          30.000                                                                  
G14  24725912.911   129935541.328        2110.793          36.000    24725916.356   101248486.590        1644.441          37.000  
> 2025 04 26 01 03 20.0040000  0 11                     
G07  21439472.123   112665177.451         845.104          43.000    21439471.848    87791063.231         658.876          43.000  
G22  26175459.687   137552974.635        1762.600          31.000                                                                  
G17  23584851.173   123939204.881        1627.595          37.000    23584852.937    96576087.102        1268.674          38.000  
G08  23632259.906   124188322.131       -2614.983          37.000    23632266.283    96770129.574       -2037.359          38.000  
G09  24759305.236   130111024.133       -2442.947          33.000    24759310.547   101385125.126       -1903.664          34.000  
G04  26054387.254   136916745.190       -2645.182          27.000    26054400.108   106688265.864       -2061.935          34.000  
G02  22542907.307   118463692.987       -1500.720          42.000                                                                  
G01  21977992.974   115495125.129        1213.403          41.000    21977994.156    89996148.152         945.337          44.000  
G30  22960205.644   120656713.080        2557.934          39.000    22960209.144    94018269.248        1993.102          40.000  
G19  26208518.725   137726699.547        2592.532          31.000                                                                  
G14  24725511.368   129933430.616        2110.551          35.000    24725514.704   101246841.857        1645.032          37.000  
> 2025 04 26 01 03 21.0040000  0 11                     
G07  21439311.306   112664332.414         844.724          43.000    21439311.074    87790404.777         658.113          43.000  
G22  26175124.089   137551211.362        1763.407          30.000                                                                  
G17  23584541.378   123937576.996        1627.748          37.000    23584543.137    96574818.625        1268.066          38.000  
G08  23632757.517   124190936.894       -2615.031          36.000    23632763.838    96772167.056       -2037.433          38.000  
G09  24759770.275   130113467.116       -2443.357          33.000    24759775.433   101387028.747       -1904.157          34.000  
G04  26054890.784   136919390.424       -2645.080          27.000    26054903.437   106690327.025       -2061.003          33.000  
G02  22543193.055   118465193.905       -1501.317          42.000                                                                  
G01  21977761.978   115493911.972        1212.872          41.000    21977763.311    89995202.837         944.977          43.000  
G30  22959718.887   120654154.993        2557.688          39.000    22959722.376    94016275.932        1992.909          40.000  
G19  26208025.398   137724106.393        2592.686          31.000                                                                  
G14  24725109.680   129931319.838        2111.064          35.000    24725113.029   101245197.104        1644.946          37.000  
