     3.04           OBSERVATION DATA    G: GPS              RINEX VERSION / TYPE
RTKCONV demo5 b34i                      20250513 053436 UTC PGM / RUN BY / DATE 
format: u-blox UBX                                          COMMENT             
log: D:\20242\NGUYENDS\GNSS_DOA_Spoofing\hai\SP-2025-04-26_0COMMENT             
                                                            MARKER NAME         
                                                            MARKER NUMBER       
                                                            MARKER TYPE         
                                                            OBSERVER / AGENCY   
                                                            REC # / TYPE / VERS 
                                                            ANT # / TYPE        
 -1626585.2301  5730530.5115  2271870.5923                  APPROX POSITION XYZ 
        0.0000        0.0000        0.0000                  ANTENNA: DELTA H/E/N
G    8 C1C L1C D1C S1C C2X L2X D2X S2X                      SYS / # / OBS TYPES 
  2025    04    26    01    00   17.9860000     GPS         TIME OF FIRST OBS   
  2025    04    26    01    46   32.9850000     GPS         TIME OF LAST OBS    
G L1C                                                       SYS / PHASE SHIFT   
G L2X  0.00000                                              SYS / PHASE SHIFT   
  0                                                         GLONASS SLOT / FRQ #
                                                            GLONASS COD/PHS/BIS 
                                                            END OF HEADER       
> 2025 04 26 01 00 17.9860000  0  9                     
G01  16554312.969    86993503.2401       1419.342          40.000    16554315.029    67787103.4011       1105.957          42.000  
G02  17025234.873    89468148.4661      -1293.753          41.000                                                                  
G04  20494423.755   107698941.9181      -2590.666          27.000    20494443.223    83921779.1251      -2018.503          34.000  
G08  18074206.201    94980554.8341      -2511.737          37.000    18074213.101    74010843.3551      -1956.335          36.000  
G30  17582496.524    92396651.9141       2728.733          39.000    17582500.505    71997422.5951       2126.572          38.000  
G09  19207006.123   100933386.4751      -2350.660          32.000    19207014.530    78649455.1321      -1831.666          33.000  
G17  18174900.812    95509734.7661       1797.504          37.000    18174904.521    74423194.8491       1401.142          36.000  
G07  16003103.801    84096872.1361       1054.897          42.000    16003104.232    65530010.8511        821.854          41.000  
G14  19330791.500   101583984.0491       2194.375          34.000    19330796.400    79156354.3361       1710.648          35.000  
> 2025 04 26 01 00 18.9860000  0  9                     
G01  16554042.939    86992084.054        1418.805          40.000    16554045.010    67785997.543        1105.707          41.000  
G02  17025481.160    89469442.370       -1294.318          41.000                                                                  
G04  20494916.639   107701532.472       -2590.019          26.000    20494936.214    83923797.731       -2018.533          34.000  
G08  18074684.186    94983066.256       -2511.552          37.000    18074691.027    74012800.317       -1957.199          36.000  
G30  17581977.213    92393922.977        2728.590          39.000    17581981.206    71995296.170        2126.099          38.000  
G09  19207453.424   100935737.030       -2351.242          32.000    19207461.812    78651286.703       -1831.631          34.000  
G17  18174558.748    95507936.838        1797.487          37.000    18174562.491    74421793.860        1400.907          37.000  
G07  16002903.136    84095817.577        1054.386          42.000    16002903.582    65529189.117         821.484          41.000  
G14  19330373.699   101581789.146        2194.439          34.000    19330378.691    79154644.080        1709.776          35.000  
> 2025 04 26 01 00 19.9860000  0  9                     
G01  16553772.988    86990665.550        1418.207          40.000    16553775.073    67784892.226        1104.944          41.000  
G02  17025727.432    89470736.955       -1295.058          41.000                                                                  
G04  20495408.911   107704122.934       -2590.858          26.000    20495429.176    83925816.235       -2018.837          34.000  
G08  18075162.010    94985577.777       -2511.656          37.000    18075168.963    74014757.346       -1956.914          36.000  
G30  17581458.051    92391194.506        2728.102          39.000    17581462.004    71993170.079        2125.514          38.000  
G09  19207900.591   100938087.611       -2351.260          32.000    19207909.128    78653118.330       -1831.677          34.000  
G17  18174216.707    95506139.381        1797.270          37.000    18174220.463    74420393.245        1400.128          36.000  
G07  16002702.666    84094763.707        1053.313          42.000    16002703.005    65528367.921         820.736          41.000  
G14  19329956.102   101579594.235        2195.274          34.000    19329960.997    79152933.757        1710.377          35.000  
> 2025 04 26 01 00 20.9860000  0  9                     
G01  16553503.150    86989247.750        1417.480          40.000    16553505.213    67783787.439        1104.272          41.000  
G02  17025973.946    89472032.262       -1295.830          41.000                                                                  
G04  20495901.636   107706713.187       -2590.385          26.000    20495922.080    83927834.618       -2018.446          34.000  
G08  18075639.911    94988089.465       -2511.979          37.000    18075646.950    74016714.508       -1957.513          36.000  
G30  17580938.951    92388466.546        2727.733          39.000    17580942.951    71991044.400        2125.604          38.000  
G09  19208347.850   100940438.264       -2350.364          32.000    19208356.577    78654950.006       -1831.245          34.000  
G17  18173874.752    95504342.441        1796.767          37.000    18173878.540    74418993.047        1400.065          37.000  
G07  16002502.235    84093710.569        1052.796          42.000    16002502.719    65527547.289         820.412          41.000  
G14  19329538.321   101577399.436        2194.162          34.000    19329543.272    79151223.504        1709.561          35.000  
> 2025 04 26 01 00 21.9860000  0  9                     
G01  16553233.486    86987830.537        1417.175          40.000    16553235.568    67782683.127        1104.047          41.000  
G02  17026220.520    89473328.173       -1295.975          41.000                                                                  
G04  20496395.832   107709303.243       -2590.014          26.000    20496415.002    83929852.824       -2017.822          34.000  
G08  18076117.833    94990601.198       -2511.836          37.000    18076124.878    74018671.685       -1957.150          36.000  
G30  17580419.901    92385738.983        2727.641          39.000    17580423.972    71988919.023        2125.545          38.000  
G09  19208794.895   100942788.925       -2350.115          32.000    19208803.994    78656781.681       -1831.457          33.000  
G17  18173532.826    95502545.900        1796.705          37.000    18173536.733    74417593.132        1399.844          37.000  
G07  16002302.075    84092658.030        1052.344          42.000    16002302.434    65526727.131         820.060          41.000  
G14  19329120.500   101575204.516        2195.144          34.000    19329125.613    79149513.198        1709.895          35.000  
> 2025 04 26 01 00 22.9860000  0  9                     
G01  16552963.944    86986413.908        1415.961          40.000    16552965.998    67781579.233        1103.510          41.000  
G02  17026467.309    89474624.684       -1297.225          41.000                                                                  
G04  20496889.241   107711892.942       -2589.063          26.000    20496907.814    83931870.852       -2018.541          34.000  
G08  18076595.829    94993112.911       -2512.032          37.000    18076602.905    74020628.883       -1957.701          36.000  
G30  17579900.953    92383011.811        2726.794          39.000    17579904.980    71986793.957        2124.688          38.000  
G09  19209242.382   100945139.567       -2350.630          32.000    19209251.307    78658613.371       -1832.381          34.000  
G17  18173191.085    95500749.751        1796.097          37.000    18173194.911    74416193.531        1399.205          37.000  
G07  16002101.961    84091606.079        1051.412          42.000    16002102.131    65525907.424         819.174          41.000  
G14  19328702.815   101573009.507        2194.584          34.000    19328707.928    79147802.796        1710.297          35.000  
> 2025 04 26 01 00 23.9860000  0  9                     
G01  16552694.454    86984997.965        1415.393          40.000    16552696.458    67780475.908        1102.679          41.000  
G02  17026714.136    89475921.906       -1298.039          41.000                                                                  
G04  20497382.561   107714482.761       -2589.821          26.000    20497400.652    83933888.774       -2018.147          34.000  
G08  18077073.898    94995624.820       -2512.336          37.000    18077080.907    74022586.152       -1957.159          36.000  
G30  17579382.033    92380285.134        2726.390          39.000    17579386.170    71984669.284        2124.366          38.000  
G09  19209689.742   100947490.311       -2350.508          32.000    19209698.624    78660445.084       -1832.133          33.000  
G17  18172849.364    95498954.114        1795.238          37.000    18172853.106    74414794.353        1398.346          37.000  
G07  16001901.954    84090554.866        1050.592          42.000    16001901.971    65525088.293         818.691          41.000  
G14  19328285.100   101570814.531        2194.693          34.000    19328290.254    79146092.411        1710.364          36.000  
> 2025 04 26 01 00 24.9860000  0  9                     
G01  16552425.103    86983582.510        1415.277          40.000    16552427.102    67779372.964        1102.930          41.000  
G02  17026961.090    89477219.612       -1297.643          41.000                                                                  
G04  20497876.358   107717072.103       -2589.045          26.000    20497893.472    83935906.426       -2017.488          34.000  
G08  18077551.898    94998136.639       -2511.836          37.000    18077558.919    74024543.437       -1957.117          36.000  
G30  17578863.184    92377558.768        2726.297          39.000    17578867.342    71982544.826        2124.325          38.000  
G09  19210137.107   100949840.939       -2350.686          31.000    19210145.956    78662276.674       -1830.989          33.000  
G17  18172507.713    95497158.753        1795.643          37.000    18172511.419    74413395.364        1398.853          36.000  
G07  16001701.909    84089504.142        1050.712          42.000    16001702.007    65524269.549         818.765          41.000  
G14  19327867.301   101568619.388        2194.751          34.000    19327872.619    79144381.915        1710.824          35.000  
> 2025 04 26 01 00 25.9860000  0  9                     
G01  16552155.885    86982167.604        1414.471          40.000    16552157.838    67778270.447        1102.155          41.000  
G02  17027208.129    89478517.900       -1298.899          41.000                                                                  
G04  20498370.395   107719661.153       -2589.218          27.000    20498386.231    83937923.869       -2017.243          34.000  
G08  18078029.897    95000648.441       -2511.663          37.000    18078036.804    74026500.708       -1958.019          36.000  
G30  17578344.438    92374832.722        2725.771          39.000    17578348.517    71980420.660        2123.721          38.000  
G09  19210584.354   100952191.465       -2350.593          31.000    19210593.375    78664108.290       -1832.073          33.000  
G17  18172166.113    95495363.766        1794.653          37.000    18172169.901    74411996.666        1398.255          37.000  
G07  16001502.074    84088453.988        1049.522          42.000    16001502.121    65523451.246         818.021          41.000  
G14  19327449.667   101566424.099        2195.385          34.000    19327454.849    79142671.311        1710.397          35.000  
> 2025 04 26 01 00 26.9860000  0  9                     
G01  16551886.838    86980753.302        1413.873          40.000    16551888.697    67777168.376        1101.801          41.000  
G02  17027455.320    89479816.800       -1299.344          41.000                                                                  
G04  20498864.873   107722250.029       -2588.757          27.000    20498878.832    83939941.179       -2017.749          34.000  
G08  18078507.911    95003160.293       -2511.768          37.000    18078514.782    74028457.968       -1957.056          36.000  
G30  17577825.733    92372107.097        2725.245          39.000    17577829.836    71978296.783        2123.658          38.000  
G09  19211031.764   100954541.995       -2350.554          31.000    19211040.573    78665939.829       -1831.635          33.000  
G17  18171824.636    95493569.197        1794.163          37.000    18171828.317    74410598.277        1398.340          36.000  
G07  16001302.281    84087404.446        1049.066          42.000    16001302.434    65522633.428         817.490          41.000  
G14  19327031.921   101564228.764        2195.472          34.000    19327036.965    79140960.671        1710.471          35.000  
> 2025 04 26 01 00 27.9860000  0  9                     
G01  16551617.792    86979339.579        1413.568          40.000    16551619.721    67776066.782        1101.312          41.000  
G02  17027702.632    89481116.317       -1299.985          41.000                                                                  
G04  20499359.703   107724838.659       -2588.444          28.000    20499371.470    83941958.301       -2017.347          34.000  
G08  18078985.837    95005672.210       -2511.901          37.000    18078992.751    74030415.287       -1957.302          36.000  
G30  17577307.127    92369381.863        2725.167          39.000    17577311.250    71976173.243        2123.203          38.000  
G09  19211478.986   100956892.483       -2349.790          31.000    19211487.790    78667771.413       -1830.961          32.000  
G17  18171483.150    95491774.993        1794.054          37.000    18171486.781    74409200.213        1397.985          36.000  
G07  16001102.565    84086355.540        1048.361          42.000    16001102.703    65521816.085         817.117          41.000  
G14  19326614.110   101562033.386        2195.021          34.000    19326619.223    79139249.951        1711.044          35.000  
> 2025 04 26 01 00 28.9860000  0  9                     
G01  16551348.921    86977926.498        1412.781          40.000    16551350.776    67774965.678        1100.995          41.000  
G02  17027949.992    89482416.458       -1300.495          41.000                                                                  
G04  20499852.725   107727427.146       -2588.828          28.000    20499864.012    83943975.239       -2016.837          34.000  
G08  18079463.815    95008184.190       -2512.235          37.000    18079470.756    74032372.683       -1957.762          36.000  
G30  17576788.666    92366657.060        2724.901          39.000    17576792.695    71974050.016        2123.123          38.000  
G09  19211926.227   100959243.018       -2350.584          32.000    19211935.055    78669602.979       -1830.998          32.000  
G17  18171141.812    95489981.254        1793.319          37.000    18171145.393    74407802.507        1397.458          36.000  
G07  16000903.170    84085307.260        1048.034          42.000    16000903.255    65520999.264         816.309          41.000  
G14  19326196.402   101559837.913        2195.438          34.000    19326201.444    79137539.210        1710.838          35.000  
> 2025 04 26 01 00 29.9860000  0  9                     
G01  16551080.055    86976514.033        1411.798          40.000    16551082.022    67773865.055        1100.134          41.000  
G02  17028197.616    89483717.230       -1301.299          41.000                                                                  
G04  20500346.070   107730015.332       -2588.398          28.000    20500356.589    83945992.025       -2016.869          33.000  
G08  18079941.903    95010696.227       -2512.258          37.000    18079948.734    74034330.112       -1957.625          36.000  
G30  17576270.297    92363932.688        2724.220          39.000    17576274.239    71971927.138        2122.439          38.000  
G09  19212373.308   100961593.581       -2350.710          32.000    19212382.261    78671434.549       -1831.201          32.000  
G17  18170800.533    95488187.925        1793.373          37.000    18170804.144    74406405.097        1396.969          37.000  
G07  16000703.800    84084259.635        1047.083          42.000    16000703.774    65520182.910         815.949          41.000  
G14  19325778.514   101557642.401        2196.037          34.000    19325783.713    79135828.438        1710.778          35.000  
> 2025 04 26 01 00 30.9860000  0  9                     
G01  16550811.375    86975102.185        1411.591          40.000    16550813.267    67772764.907        1100.043          41.000  
G02  17028445.230    89485018.651       -1301.537          41.000                                                                  
G04  20500837.892   107732603.361       -2587.783          27.000    20500849.109    83948008.694       -2016.828          34.000  
G08  18080419.896    95013208.318       -2512.035          37.000    18080426.774    74036287.578       -1957.474          36.000  
G30  17575751.838    92361208.759        2723.757          39.000    17575755.893    71969804.572        2122.426          38.000  
G09  19212820.579   100963944.114       -2350.830          32.000    19212829.465    78673266.126       -1831.206          32.000  
G17  18170459.336    95486395.036        1793.016          37.000    18170463.034    74405008.033        1396.559          37.000  
G07  16000504.523    84083212.638        1046.877          42.000    16000504.595    65519367.090         815.425          41.000  
G14  19325360.731   101555446.911        2195.651          34.000    19325365.924    79134117.668        1710.310          35.000  
> 2025 04 26 01 00 31.9860000  0  9                     
G01  16550542.921    86973691.010        1410.663          40.000    16550544.701    67771665.285        1099.463          41.000  
G02  17028693.055    89486320.747       -1302.448          41.000                                                                  
G04  20501329.648   107735191.121       -2586.011          27.000    20501341.580    83950025.207       -2016.498          34.000  
G08  18080898.003    95015720.512       -2511.655          38.000    18080904.783    74038245.136       -1957.383          36.000  
G30  17575233.605    92358485.259        2723.393          39.000    17575237.701    71967682.368        2122.301          38.000  
G09  19213267.915   100966294.707       -2350.771          32.000    19213276.675    78675097.773       -1831.745          32.000  
G17  18170118.220    95484602.615        1792.270          37.000    18170121.977    74403611.337        1396.503          36.000  
G07  16000305.447    84082166.329        1046.171          42.000    16000305.458    65518551.765         815.076          41.000  
G14  19324943.047   101553251.365        2195.613          34.000    19324948.048    79132406.828        1711.197          36.000  
> 2025 04 26 01 00 32.9860000  0  9                     
G01  16550274.546    86972280.437        1410.272          40.000    16550276.440    67770566.148        1098.926          41.000  
G02  17028940.882    89487623.480       -1302.998          41.000                                                                  
G04  20501822.158   107737778.981       -2587.761          27.000    20501834.033    83952041.553       -2016.010          34.000  
G08  18081376.045    95018232.818       -2512.095          37.000    18081382.815    74040202.742       -1957.369          36.000  
G30  17574715.396    92355762.190        2723.269          39.000    17574719.547    71965560.504        2121.847          38.000  
G09  19213715.103   100968645.293       -2350.407          32.000    19213723.950    78676929.384       -1831.402          32.000  
G17  18169777.238    95482810.616        1792.051          37.000    18169781.013    74402214.982        1396.352          36.000  
G07  16000106.335    84081120.658        1045.482          42.000    16000106.557    65517736.969         814.638          41.000  
G14  19324525.322   101551055.757        2195.844          34.000    19324530.278    79130695.981        1711.526          36.000  
> 2025 04 26 01 00 33.9860000  0  9                     
G01  16550006.267    86970870.432        1409.406          40.000    16550008.092    67769467.446        1098.279          41.000  
G02  17029188.986    89488926.800       -1304.025          41.000                                                                  
G04  20502314.388   107740366.357       -2586.918          27.000    20502326.446    83954057.721       -2016.017          34.000  
G08  18081854.212    95020745.102       -2512.425          37.000    18081860.809    74042160.359       -1957.536          36.000  
G30  17574197.325    92353039.514        2722.223          39.000    17574201.591    71963438.931        2121.262          38.000  
G09  19214162.473   100970995.834       -2350.521          32.000    19214171.114    78678760.998       -1831.682          32.000  
G17  18169436.300    95481018.988        1791.671          36.000    18169440.097    74400818.910        1395.607          36.000  
G07  15999907.467    84080075.584        1044.539          42.000    15999907.655    65516922.606         814.104          41.000  
G14  19324107.534   101548860.118        2195.156          34.000    19324112.500    79128985.081        1710.592          36.000  
> 2025 04 26 01 00 34.9860000  0  9                     
G01  16549738.011    86969461.076        1408.801          40.000    16549739.911    67768369.243        1097.711          41.000  
G02  17029437.108    89490230.749       -1304.385          41.000                                                                  
G04  20502806.885   107742953.621       -2586.938          26.000    20502818.730    83956073.721       -2015.330          34.000  
G08  18082332.232    95023257.485       -2512.714          37.000    18082338.814    74044118.056       -1957.955          35.000  
G30  17573679.326    92350317.250        2721.927          39.000    17573683.583    71961317.674        2121.370          38.000  
G09  19214609.815   100973346.444       -2350.971          32.000    19214618.382    78680592.645       -1832.619          31.000  
G17  18169095.444    95479227.829        1790.695          37.000    18169099.176    74399423.170        1395.757          36.000  
G07  15999708.736    84079031.146        1044.064          42.000    15999708.805    65516108.763         813.610          41.000  
G14  19323689.765   101546664.362        2196.041          34.000    19323694.679    79127274.144        1710.945          36.000  
> 2025 04 26 01 00 35.9860000  0  9                     
G01  16549469.921    86968052.295        1408.221          40.000    16549471.844    67767271.494        1097.449          41.000  
G02  17029685.388    89491535.326       -1305.050          41.000                                                                  
G04  20503299.935   107745540.616       -2586.745          27.000    20503311.045    83958089.615       -2016.070          34.000  
G08  18082810.338    95025769.901       -2512.806          37.000    18082816.909    74046075.775       -1957.529          35.000  
G30  17573161.339    92347595.410        2721.289          39.000    17573165.744    71959196.763        2120.622          38.000  
G09  19215057.024   100975696.994       -2350.625          32.000    19215065.639    78682424.230       -1831.740          32.000  
G17  18168754.692    95477437.057        1790.433          37.000    18168758.387    74398027.782        1394.942          37.000  
G07  15999510.149    84077987.335        1043.387          42.000    15999510.128    65515295.410         812.986          41.000  
G14  19323271.892   101544468.618        2195.579          34.000    19323276.883    79125563.143        1710.887          36.000  
> 2025 04 26 01 00 36.9860000  0  9                     
G01  16549201.986    86966644.100        1407.898          40.000    16549203.822    67766174.201        1096.997          41.000  
G02  17029933.701    89492840.486       -1305.551          41.000                                                                  
G04  20503793.432   107748127.378       -2586.597          27.000    20503803.166    83960105.266       -2016.180          34.000  
G08  18083288.453    95028282.326       -2512.309          37.000    18083294.979    74048033.518       -1957.942          35.000  
G30  17572643.442    92344873.921        2721.226          39.000    17572647.826    71957076.137        2120.295          38.000  
G09  19215504.414   100978047.526       -2350.579          33.000    19215512.713    78684255.761       -1831.168          32.000  
G17  18168413.930    95475646.657        1790.230          37.000    18168417.615    74396632.678        1394.695          37.000  
G07  15999311.682    84076944.108        1042.924          42.000    15999311.538    65514482.494         812.738          41.000  
G14  19322854.201   101542272.729        2195.639          34.000    19322859.038    79123852.062        1711.219          36.000  
> 2025 04 26 01 00 37.9860000  0  9                     
G01  16548934.093    86965236.451        1407.385          40.000    16548935.978    67765077.324        1096.735          41.000  
G02  17030182.141    89494146.208       -1306.076          41.000                                                                  
G04  20504287.451   107750713.849       -2585.977          28.000    20504295.261    83962120.643       -2014.793          34.000  
G08  18083766.481    95030794.754       -2512.376          37.000    18083773.120    74049991.268       -1958.043          35.000  
G30  17572125.651    92342152.799        2721.092          39.000    17572129.937    71954955.782        2119.979          38.000  
G09  19215951.912   100980397.988       -2350.376          33.000    19215960.009    78686087.308       -1831.561          32.000  
G17  18168073.260    95473856.631        1789.649          37.000    18168076.975    74395237.839        1394.594          36.000  
G07  15999113.194    84075901.448        1042.432          42.000    15999113.212    65513670.042         812.237          41.000  
G14  19322436.425   101540076.748        2195.619          34.000    19322441.208    79122140.910        1710.859          36.000  
> 2025 04 26 01 00 38.9860000  0  9                     
G01  16548666.287    86963829.417        1406.848          40.000    16548668.344    67763980.935        1096.332          41.000  
G02  17030430.645    89495452.552       -1306.496          41.000                                                                  
G04  20504782.142   107753300.113       -2585.806          28.000    20504787.317    83964135.939       -2014.908          34.000  
G08  18084244.570    95033307.229       -2512.331          37.000    18084251.191    74051949.024       -1958.014          36.000  
G30  17571607.902    92339432.094        2720.671          39.000    17571612.243    71952835.732        2120.131          38.000  
G09  19216399.207   100982748.430       -2350.762          33.000    19216407.170    78687918.853       -1831.487          32.000  
G17  18167732.592    95472067.006        1789.407          37.000    18167736.376    74393843.311        1394.440          36.000  
G07  15998914.942    84074859.431        1041.662          42.000    15998915.090    65512858.061         812.082          42.000  
G14  19322018.586   101537880.698        2195.827          34.000    19322023.375    79120429.700        1711.351          36.000  
> 2025 04 26 01 00 39.9860000  0  9                     
G01  16548398.680    86962422.976        1406.116          40.000    16548400.755    67762884.999        1095.831          41.000  
G02  17030679.383    89496759.524       -1307.132          41.000                                                                  
G04  20505271.108   107755886.160       -2585.621          29.000    20505279.466    83966151.018       -2014.656          34.000  
G08  18084722.710    95035819.755       -2512.422          37.000    18084729.262    74053906.813       -1957.530          36.000  
G30  17571090.264    92336711.791        2720.098          39.000    17571094.532    71950716.022        2119.679          38.000  
G09  19216846.526   100985098.851       -2350.071          33.000    19216854.461    78689750.330       -1831.365          32.000  
G17  18167392.217    95470277.799        1789.151          37.000    18167395.954    74392449.134        1394.147          36.000  
G07  15998716.735    84073818.019        1041.123          42.000    15998717.079    65512046.587         811.215          42.000  
G14  19321600.637   101535684.583        2195.875          34.000    19321605.451    79118718.440        1711.470          36.000  
> 2025 04 26 01 00 40.9860000  0  9                     
G01  16548131.124    86961016.989        1405.511          40.000    16548133.221    67761789.439        1095.215          41.000  
G02  17030928.174    89498066.957       -1307.923          41.000                                                                  
G04  20505762.816   107758471.836       -2585.466          28.000    20505771.514    83968165.823       -2015.085          34.000  
G08  18085200.829    95038332.159       -2512.114          37.000    18085207.272    74055864.555       -1957.637          36.000  
G30  17570572.634    92333991.722        2720.085          39.000    17570576.958    71948596.494        2119.357          38.000  
G09  19217293.920   100987449.136       -2349.967          32.000    19217301.679    78691581.725       -1831.491          32.000  
G17  18167051.799    95468488.844        1788.724          37.000    18167055.599    74391055.156        1393.644          37.000  
G07  15998518.672    84072777.090        1040.498          42.000    15998518.984    65511235.475         810.563          41.000  
G14  19321182.569   101533488.240        2196.281          34.000    19321187.493    79117007.025        1711.598          36.000  
> 2025 04 26 01 00 41.9860000  0  9                     
G01  16547863.691    86959611.657        1404.926          40.000    16547865.735    67760694.383        1094.489          41.000  
G02  17031177.166    89499375.069       -1308.608          41.000                                                                  
G04  20506254.220   107761057.395       -2585.627          27.000    20506263.557    83970180.495       -2014.503          33.000  
G08  18085679.022    95040844.723       -2513.130          37.000    18085685.371    74057822.357       -1957.786          36.000  
G30  17570055.051    92331272.153        2719.401          39.000    17570059.324    71946477.354        2118.923          38.000  
G09  19217741.198   100989799.453       -2349.885          33.000    19217748.998    78693413.196       -1832.388          32.000  
G17  18166711.523    95466700.382        1787.968          37.000    18166715.271    74389661.530        1393.219          37.000  
G07  15998320.681    84071736.834        1039.788          42.000    15998321.013    65510424.871         810.344          41.000  
G14  19320764.913   101531291.943        2195.511          34.000    19320769.575    79115295.593        1711.401          36.000  
> 2025 04 26 01 00 42.9860000  0  9                     
G01  16547596.378    86958207.021        1404.297          40.000    16547598.443    67759599.856        1094.287          41.000  
G02  17031426.132    89500683.890       -1309.193          41.000                                                                  
G04  20506745.022   107763642.813       -2585.657          27.000    20506755.500    83972195.084       -2014.397          33.000  
G08  18086157.119    95043357.353       -2512.502          37.000    18086163.625    74059780.260       -1957.925          36.000  
G30  17569537.667    92328553.066        2718.961          39.000    17569541.781    71944358.576        2118.580          38.000  
G09  19218188.724   100992149.890       -2350.117          33.000    19218196.239    78695244.646       -1831.748          32.000  
G17  18166371.246    95464912.372        1787.704          37.000    18166375.022    74388268.276        1393.303          37.000  
G07  15998122.805    84070697.273        1039.387          42.000    15998123.202    65509614.836         809.832          41.000  
G14  19320346.875   101529095.600        2196.308          34.000    19320351.613    79113584.201        1711.044          36.000  
> 2025 04 26 01 00 43.9860000  0  9                     
G01  16547329.146    86956803.025        1403.790          40.000    16547331.169    67758505.825        1093.860          41.000  
G02  17031675.264    89501993.344       -1309.736          41.000                                                                  
G04  20507235.920   107766227.945       -2584.747          26.000    20507247.398    83974209.514       -2014.070          32.000  
G08  18086635.308    95045870.090       -2512.594          37.000    18086641.735    74061738.246       -1958.010          36.000  
G30  17569020.311    92325834.421        2718.436          39.000    17569024.483    71942240.146        2118.109          38.000  
G09  19218635.898   100994500.282       -2350.225          33.000    19218643.488    78697076.120       -1831.130          33.000  
G17  18166031.126    95463124.829        1786.893          37.000    18166034.854    74386875.387        1392.662          37.000  
G07  15997925.098    84069658.396        1038.343          42.000    15997925.580    65508805.311         809.089          41.000  
G14  19319928.743   101526899.232        2197.067          33.000    19319933.626    79111872.749        1711.270          36.000  
> 2025 04 26 01 00 44.9860000  0  9                     
G01  16547062.075    86955399.579        1403.064          40.000    16547064.085    67757412.232        1093.250          41.000  
G02  17031924.488    89503303.377       -1310.394          41.000                                                                  
G04  20507729.400   107768812.889       -2584.510          26.000    20507739.270    83976223.753       -2013.976          32.000  
G08  18087113.452    95048382.829       -2512.563          37.000    18087119.871    74063696.207       -1957.943          36.000  
G30  17568502.970    92323116.118        2718.022          39.000    17568507.194    71940122.008        2117.988          38.000  
G09  19219083.140   100996850.692       -2350.617          32.000    19219090.777    78698907.587       -1831.251          32.000  
G17  18165690.990    95461337.630        1786.751          37.000    18165694.705    74385482.784        1392.223          37.000  
G07  15997727.553    84068620.067        1038.029          42.000    15997728.022    65507996.234         808.769          41.000  
G14  19319510.639   101524702.857        2195.314          34.000    19319515.702    79110161.215        1711.620          36.000  
> 2025 04 26 01 00 45.9860000  0  9                     
G01  16546795.121    86953996.705        1402.759          40.000    16546797.137    67756319.091        1092.975          41.000  
G02  17032173.906    89504614.033       -1311.160          41.000                                                                  
G04  20508220.819   107771397.560       -2583.993          27.000    20508231.058    83978237.808       -2014.648          32.000  
G08  18087591.604    95050895.611       -2512.993          37.000    18087598.068    74065654.189       -1957.698          36.000  
G30  17567985.782    92320398.242        2717.325          39.000    17567990.059    71938004.174        2117.304          38.000  
G09  19219530.429   100999201.032       -2350.750          32.000    19219538.073    78700738.996       -1831.594          33.000  
G17  18165350.945    95459550.837        1786.636          37.000    18165354.750    74384090.453        1392.358          37.000  
G07  15997530.062    84067582.370        1037.140          42.000    15997530.517    65507187.630         808.098          41.000  
G14  19319092.607   101522506.251        2196.908          34.000    19319097.731    79108449.664        1711.573          36.000  
> 2025 04 26 01 00 46.9860000  0  9                     
G01  16546528.232    86952594.387        1401.984          40.000    16546530.294    67755226.376        1092.548          41.000  
G02  17032423.445    89505925.199       -1311.452          41.000                                                                  
G04  20508712.386   107773982.057       -2584.512          27.000    20508722.847    83980251.571       -2012.993          31.000  
G08  18088069.783    95053408.367       -2512.870          37.000    18088076.152    74067612.195       -1958.007          36.000  
G30  17567468.626    92317680.661        2717.622          39.000    17567472.939    71935886.592        2117.419          38.000  
G09  19219977.577   101001551.302       -2350.781          32.000    19219985.322    78702570.357       -1831.262          33.000  
G17  18165010.969    95457764.409        1786.403          37.000    18165014.871    74382698.447        1391.643          37.000  
G07  15997332.641    84066545.204        1036.976          42.000    15997333.104    65506379.459         807.979          41.000  
G14  19318674.524   101520309.601        2196.931          34.000    19318679.824    79106737.979        1711.556          36.000  
> 2025 04 26 01 00 47.9860000  0  9                     
G01  16546261.524    86951192.619        1401.324          40.000    16546263.517    67754134.066        1092.224          41.000  
G02  17032673.153    89507236.936       -1311.917          41.000                                                                  
G04  20509203.988   107776566.144       -2583.911          27.000    20509214.622    83982265.211       -2013.475          32.000  
G08  18088547.941    95055921.115       -2513.112          37.000    18088554.301    74069570.159       -1957.601          36.000  
G30  17566951.558    92314963.463        2717.153          39.000    17566955.716    71933769.300        2117.034          38.000  
G09  19220424.832   101003901.472       -2349.946          32.000    19220432.568    78704401.693       -1831.764          33.000  
G17  18164671.051    95455978.304        1785.693          37.000    18164674.889    74381306.679        1391.390          37.000  
G07  15997135.386    84065508.617        1036.375          42.000    15997135.765    65505571.734         807.389          41.000  
G14  19318256.452   101518112.823        2197.146          34.000    19318261.734    79105026.224        1711.738          36.000  
> 2025 04 26 01 00 48.9860000  0  9                     
G01  16545994.785    86949791.350        1401.166          40.000    16545996.895    67753042.200        1091.370          41.000  
G02  17032922.895    89508549.220       -1312.683          41.000                                                                  
G04  20509695.842   107779149.990       -2583.767          28.000    20509706.379    83984278.608       -2013.668          32.000  
G08  18089026.052    95058433.802       -2512.608          37.000    18089032.424    74071528.084       -1957.672          36.000  
G30  17566434.608    92312246.594        2716.762          39.000    17566438.778    71931652.254        2116.798          38.000  
G09  19220871.893   101006251.584       -2349.542          32.000    19220879.723    78706232.924       -1831.720          33.000  
G17  18164331.279    95454192.551        1785.799          37.000    18164335.115    74379915.149        1391.932          36.000  
G07  15996938.233    84064472.574        1035.889          42.000    15996938.542    65504764.407         807.246          41.000  
G14  19317838.369   101515915.920        2196.171          33.000    19317843.682    79103314.318        1711.980          36.000  
> 2025 04 26 01 00 49.9860000  0  9                     
G01  16545728.156    86948390.703        1400.262          40.000    16545730.368    67751950.775        1091.022          41.000  
G02  17033172.674    89509862.104       -1313.118          41.000                                                                  
G04  20510187.395   107781733.617       -2583.679          28.000    20510197.964    83986291.791       -2012.843          32.000  
G08  18089504.300    95060946.551       -2512.889          37.000    18089510.615    74073486.080       -1958.103          36.000  
G30  17565917.652    92309530.112        2716.276          39.000    17565921.855    71929535.506        2116.487          38.000  
G09  19221318.909   101008601.701       -2350.454          32.000    19221326.934    78708064.184       -1831.929          33.000  
G17  18163991.484    95452407.198        1784.927          37.000    18163995.354    74378523.966        1391.518          36.000  
G07  15996741.179    84063437.144        1035.091          42.000    15996741.498    65503957.585         806.471          41.000  
G14  19317420.418   101513718.926        2197.059          33.000    19317425.584    79101602.381        1711.882          36.000  
> 2025 04 26 01 00 50.9860000  0  9                     
G01  16545461.718    86946990.740        1399.353          40.000    16545463.866    67750859.891        1090.393          41.000  
G02  17033422.689    89511175.700       -1313.952          41.000                                                                  
G04  20510678.901   107784317.028       -2583.288          28.000    20510689.485    83988304.828       -2012.254          33.000  
G08  18089982.550    95063459.435       -2512.958          37.000    18089988.688    74075444.145       -1957.371          36.000  
G30  17565400.820    92306814.137        2715.671          39.000    17565404.943    71927419.170        2116.007          38.000  
G09  19221766.261   101010951.824       -2349.377          32.000    19221774.163    78709895.418       -1830.818          33.000  
G17  18163651.790    95450622.340        1784.684          37.000    18163655.682    74377133.172        1390.913          36.000  
G07  15996544.327    84062402.435        1034.178          42.000    15996544.577    65503151.309         805.966          41.000  
G14  19317002.286   101511521.991        2196.280          33.000    19317007.472    79099890.467        1711.580          36.000  
> 2025 04 26 01 00 51.9860000  0  9                     
G01  16545195.445    86945591.272        1399.030          40.000    16545197.661    67749769.395        1090.198          41.000  
G02  17033672.734    89512489.807       -1314.298          41.000                                                                  
G04  20511170.537   107786900.225       -2583.235          28.000    20511181.098    83990317.676       -2012.554          33.000  
G08  18090460.833    95065972.251       -2512.702          37.000    18090466.824    74077402.205       -1957.575          36.000  
G30  17564884.048    92304098.481        2715.181          39.000    17564888.138    71925303.075        2115.697          38.000  
G09  19222213.342   101013301.961       -2350.491          32.000    19222221.455    78711726.629       -1830.839          33.000  
G17  18163312.296    95448837.793        1784.416          37.000    18163316.086    74375742.660        1389.723          36.000  
G07  15996347.538    84061368.225        1033.964          42.000    15996347.796    65502345.440         805.392          41.000  
G14  19316584.251   101509324.838        2196.814          33.000    19316589.269    79098178.412        1712.103          36.000  
> 2025 04 26 01 00 52.9860000  0  9                     
G01  16544929.242    86944192.338        1398.584          40.000    16544931.597    67748679.310        1089.819          42.000  
G02  17033922.953    89513804.456       -1315.038          41.000                                                                  
G04  20511661.961   107789483.082       -2583.049          27.000    20511672.547    83992330.267       -2011.859          33.000  
G08  18090938.911    95068485.045       -2512.715          37.000    18090945.084    74079360.255       -1958.626          36.000  
G30  17564367.401    92301383.142        2714.690          40.000    17564371.526    71923187.215        2115.530          38.000  
G09  19222660.468   101015651.942       -2350.896          32.000    19222668.683    78713557.784       -1831.041          33.000  
G17  18162972.792    95447053.550        1784.573          37.000    18162976.533    74374352.340        1389.622          36.000  
G07  15996150.913    84060334.572        1033.336          42.000    15996151.135    65501539.997         804.900          41.000  
G14  19316165.963   101507127.565        2197.105          33.000    19316171.065    79096466.247        1712.237          36.000  
> 2025 04 26 01 00 53.9860000  0  9                     
G01  16544663.100    86942794.009        1397.937          40.000    16544665.557    67747589.699        1089.441          42.000  
G02  17034173.246    89515119.720       -1315.479          41.000                                                                  
G04  20512153.461   107792065.706       -2582.194          28.000    20512164.038    83994342.709       -2012.305          33.000  
G08  18091417.064    95070997.898       -2512.542          37.000    18091423.301    74081318.307       -1958.456          36.000  
G30  17563850.754    92298668.178        2715.095          39.000    17563854.935    71921071.678        2115.294          38.000  
G09  19223107.737   101018001.861       -2349.726          32.000    19223115.906    78715388.885       -1830.729          33.000  
G17  18162633.375    95445269.786        1783.565          37.000    18162636.995    74372962.338        1389.944          37.000  
G07  15995954.310    84059301.545        1032.805          42.000    15995954.574    65500735.025         804.954          41.000  
G14  19315747.876   101504930.247        2196.663          33.000    19315752.845    79094754.047        1712.708          36.000  
> 2025 04 26 01 00 54.9860000  0  9                     
G01  16544397.141    86941396.242        1397.443          40.000    16544399.550    67746500.535        1089.105          42.000  
G02  17034423.721    89516435.569       -1316.012          41.000                                                                  
G04  20512644.823   107794648.090       -2582.358          28.000    20512655.450    83996354.947       -2011.859          33.000  
G08  18091895.110    95073510.751       -2512.690          37.000    18091901.563    74083276.337       -1957.493          36.000  
G30  17563334.180    92295953.644        2714.187          39.000    17563338.370    71918956.426        2115.182          38.000  
G09  19223554.997   101020351.778       -2349.740          32.000    19223563.213    78717219.996       -1830.859          33.000  
G17  18162293.999    95443486.360        1783.067          37.000    18162297.614    74371572.647        1389.744          37.000  
G07  15995757.784    84058269.113        1032.145          42.000    15995758.060    65499930.527         804.388          41.000  
G14  19315329.721   101502732.777        2197.401          34.000    19315334.676    79093041.762        1712.211          36.000  
> 2025 04 26 01 00 55.9860000  0  9                     
G01  16544131.212    86939998.993        1396.906          40.000    16544133.633    67745411.786        1088.342          41.000  
G02  17034674.215    89517751.941       -1316.601          41.000                                                                  
G04  20513136.026   107797230.164       -2581.822          28.000    20513146.836    83998366.978       -2012.511          33.000  
G08  18092373.250    95076023.568       -2512.622          37.000    18092379.765    74085234.385       -1957.846          36.000  
G30  17562817.734    92293239.409        2713.770          39.000    17562821.925    71916841.450        2114.796          38.000  
G09  19224002.179   101022701.603       -2350.042          32.000    19224010.325    78719051.007       -1830.890          33.000  
G17  18161954.749    95441703.246        1782.573          37.000    18161958.270    74370183.216        1389.415          37.000  
G07  15995561.440    84057237.202        1031.578          42.000    15995561.812    65499126.451         803.781          41.000  
G14  19314911.342   101500535.198        2198.233          34.000    19314916.585    79091329.356        1712.475          36.000  
> 2025 04 26 01 00 56.9860000  0  9                     
G01  16543865.459    86938602.368        1396.130          40.000    16543867.807    67744323.489        1088.098          42.000  
G02  17034924.752    89519068.952       -1317.261          41.000                                                                  
G04  20513627.281   107799812.031       -2582.117          28.000    20513638.264    84000378.767       -2011.725          34.000  
G08  18092851.376    95078536.470       -2512.792          37.000    18092857.934    74087192.499       -1958.599          36.000  
G30  17562301.344    92290525.583        2713.888          39.000    17562305.621    71914726.797        2114.347          38.000  
G09  19224449.490   101025051.386       -2349.813          32.000    19224457.424    78720882.041       -1830.987          33.000  
G17  18161615.506    95439920.563        1782.324          37.000    18161619.009    74368794.129        1388.914          37.000  
G07  15995365.207    84056205.936        1030.994          42.000    15995365.549    65498322.872         803.172          41.000  
G14  19314493.072   101498337.584        2197.261          34.000    19314498.452    79089616.920        1712.660          36.000  
> 2025 04 26 01 00 57.9860000  0  9                     
G01  16543599.810    86937206.401        1395.642          40.000    16543602.109    67743235.735        1087.482          42.000  
G02  17035175.528    89520386.646       -1317.989          41.000                                                                  
G04  20514118.509   107802393.749       -2581.816          28.000    20514129.567    84002390.504       -2011.723          33.000  
G08  18093329.524    95081049.455       -2512.978          37.000    18093336.163    74089150.628       -1957.897          36.000  
G30  17561785.056    92287812.244        2713.252          39.000    17561789.198    71912612.517        2113.988          38.000  
G09  19224896.666   101027401.286       -2349.959          32.000    19224904.546    78722713.113       -1831.025          33.000  
G17  18161276.377    95438138.375        1781.624          37.000    18161279.920    74367405.385        1388.369          37.000  
G07  15995169.157    84055175.367        1030.417          42.000    15995169.519    65497519.828         802.650          41.000  
G14  19314074.780   101496139.944        2197.935          34.000    19314080.272    79087904.495        1712.532          36.000  
> 2025 04 26 01 00 58.9860000  0  9                     
G01  16543334.307    86935811.025        1395.319          40.000    16543336.645    67742148.437        1087.103          41.000  
G02  17035426.491    89521704.939       -1318.433          41.000                                                                  
G04  20514609.775   107804975.234       -2581.321          28.000    20514620.789    84004402.024       -2011.478          33.000  
G08  18093807.726    95083562.496       -2513.181          37.000    18093814.539    74091108.854       -1957.929          36.000  
G30  17561268.848    92285099.316        2712.908          39.000    17561273.010    71910498.535        2113.982          38.000  
G09  19225343.871   101029751.102       -2349.592          33.000    19225351.736    78724544.138       -1830.308          33.000  
G17  18160937.229    95436356.531        1781.844          37.000    18160940.868    74366016.960        1388.629          37.000  
G07  15994973.161    84054145.398        1029.946          42.000    15994973.502    65496717.254         802.580          42.000  
G14  19313656.625   101493942.223        2197.903          34.000    19313662.113    79086192.008        1712.531          36.000  
> 2025 04 26 01 00 59.9860000  0  9                     
G01  16543068.883    86934416.135        1394.733          40.000    16543071.257    67741061.495        1086.804          41.000  
G02  17035677.465    89523023.717       -1318.904          41.000                                                                  
G04  20515100.937   107807556.359       -2581.015          28.000    20515111.972    84006413.286       -2011.402          33.000  
G08  18094285.975    95086075.428       -2513.110          37.000    18094292.698    74093066.953       -1957.799          36.000  
G30  17560752.635    92282386.645        2712.494          39.000    17560756.825    71908384.744        2114.153          38.000  
G09  19225791.087   101032100.815       -2349.021          32.000    19225798.836    78726375.094       -1831.074          33.000  
G17  18160598.292    95434575.048        1780.975          37.000    18160601.883    74364628.755        1388.280          37.000  
G07  15994777.258    84053115.936        1029.223          42.000    15994777.537    65495915.072         802.083          42.000  
G14  19313238.488   101491744.351        2197.998          34.000    19313243.953    79084479.366        1712.390          36.000  
> 2025 04 26 01 01 00.9860000  0  9                     
G01  16542803.475    86933021.740        1393.976          40.000    16542805.891    67739974.953        1086.304          41.000  
G02  17035928.525    89524343.011       -1319.636          41.000                                                                  
G04  20515592.160   107810137.148       -2580.796          28.000    20515603.073    84008424.277       -2010.632          33.000  
G08  18094764.171    95088588.303       -2513.044          37.000    18094770.913    74095025.072       -1958.147          36.000  
G30  17560236.539    92279674.310        2711.622          39.000    17560240.773    71906271.233        2113.396          38.000  
G09  19226238.340   101034450.411       -2349.457          32.000    19226245.989    78728205.903       -1830.455          32.000  
G17  18160259.454    95432793.807        1780.865          37.000    18160262.946    74363240.800        1387.720          37.000  
G07  15994581.398    84052086.990        1028.380          42.000    15994581.720    65495113.305         801.270          42.000  
G14  19312820.254   101489546.280        2198.217          34.000    19312825.688    79082766.590        1712.576          36.000  
> 2025 04 26 01 01 01.9860000  0  9                     
G01  16542538.340    86931628.075        1393.378          40.000    16542540.616    67738888.965        1085.956          41.000  
G02  17036179.788    89525663.041       -1320.450          41.000                                                                  
G04  20516083.207   107812717.815       -2580.467          28.000    20516094.147    84010435.204       -2010.781          33.000  
G08  18095242.386    95091101.357       -2513.049          37.000    18095249.087    74096983.273       -1958.475          36.000  
G30  17559720.472    92276962.465        2711.579          39.000    17559724.628    71904158.109        2113.366          38.000  
G09  19226685.376   101036800.115       -2349.738          32.000    19226693.139    78730036.856       -1831.226          33.000  
G17  18159920.629    95431013.116        1780.282          37.000    18159924.176    74361853.231        1387.360          37.000  
G07  15994385.784    84051058.769        1027.923          42.000    15994386.092    65494312.087         800.812          42.000  
G14  19312401.941   101487348.268        2198.201          34.000    19312407.456    79081053.855        1712.954          36.000  
> 2025 04 26 01 01 02.9860000  0  9                     
G01  16542273.203    86930234.890        1392.657          40.000    16542275.532    67737803.379        1085.291          41.000  
G02  17036431.036    89526983.554       -1320.776          41.000                                                                  
G04  20516574.250   107815298.172       -2580.380          28.000    20516585.220    84012445.886       -2010.904          33.000  
G08  18095720.655    95093614.327       -2512.897          37.000    18095727.271    74098941.421       -1957.606          36.000  
G30  17559204.497    92274250.938        2711.114          39.000    17559208.676    71902045.231        2112.767          38.000  
G09  19227132.480   101039149.678       -2349.573          32.000    19227140.219    78731867.683       -1831.125          33.000  
G17  18159581.915    95429232.718        1780.173          37.000    18159585.369    74360465.928        1386.835          37.000  
G07  15994190.212    84050031.067        1027.541          42.000    15994190.548    65493511.285         800.613          42.000  
G14  19311983.640   101485150.089        2198.217          34.000    19311989.071    79079340.973        1712.815          36.000  
> 2025 04 26 01 01 03.9860000  0  9                     
G01  16542008.242    86928842.351        1391.968          40.000    16542010.617    67736718.296        1084.589          41.000  
G02  17036682.367    89528304.753       -1321.666          41.000                                                                  
G04  20517065.197   107817878.352       -2579.952          28.000    20517076.202    84014456.398       -2010.560          33.000  
G08  18096198.928    95096127.393       -2513.210          37.000    18096205.589    74100899.662       -1958.503          36.000  
G30  17558688.513    92271539.843        2710.694          39.000    17558692.815    71899932.708        2112.126          38.000  
G09  19227579.630   101041499.246       -2349.418          32.000    19227587.297    78733698.528       -1831.359          33.000  
G17  18159243.282    95427452.772        1779.320          37.000    18159246.735    74359078.943        1386.482          36.000  
G07  15993994.633    84049004.048        1026.430          42.000    15993995.102    65492710.987         799.839          42.000  
G14  19311565.381   101482951.881        2198.205          34.000    19311570.635    79077628.090        1712.617          36.000  
> 2025 04 26 01 01 04.9860000  0  9                     
G01  16541743.287    86927450.337        1391.821          40.000    16541745.805    67735633.597        1084.436          41.000  
G02  17036933.848    89529626.474       -1322.042          41.000                                                                  
G04  20517556.231   107820458.257       -2579.872          27.000    20517567.223    84016466.703       -2010.572          33.000  
G08  18096677.160    95098640.445       -2513.143          37.000    18096683.834    74102857.865       -1958.189          36.000  
G30  17558172.689    92268829.096        2710.423          39.000    17558176.990    71897820.436        2112.243          38.000  
G09  19228026.736   101043848.789       -2349.715          32.000    19228034.476    78735529.281       -1830.807          33.000  
G17  18158904.693    95425673.158        1779.680          37.000    18158908.074    74357692.220        1386.842          36.000  
G07  15993799.310    84047977.556        1026.125          42.000    15993799.788    65491911.139         799.602          42.000  
G14  19311146.976   101480753.526        2198.622          33.000    19311152.379    79075915.093        1713.190          36.000  
> 2025 04 26 01 01 05.9860000  0  9                     
G01  16541478.484    86926058.786        1391.095          40.000    16541481.073    67734549.275        1084.070          41.000  
G02  17037185.397    89530948.679       -1322.917          41.000                                                                  
G04  20518046.927   107823037.795       -2579.400          27.000    20518058.069    84018476.683       -2010.084          33.000  
G08  18097155.358    95101153.368       -2513.224          37.000    18097161.989    74104815.980       -1957.943          36.000  
G30  17557656.797    92266118.593        2710.196          39.000    17557661.301    71895708.368        2111.814          38.000  
G09  19228473.736   101046198.119       -2349.671          32.000    19228481.602    78737359.948       -1830.811          33.000  
G17  18158566.133    95423893.773        1779.359          37.000    18158569.554    74356305.727        1386.190          36.000  
G07  15993604.049    84046951.539        1025.643          42.000    15993604.563    65491111.633         799.234          42.000  
G14  19310728.499   101478554.985        2198.706          34.000    19310733.990    79074201.937        1713.282          36.000  
> 2025 04 26 01 01 06.9860000  0  9                     
G01  16541213.724    86924667.775        1390.814          40.000    16541216.317    67733465.378        1083.575          41.000  
G02  17037437.182    89532271.421       -1323.189          41.000                                                                  
G04  20518537.611   107825617.029       -2579.330          27.000    20518548.924    84020486.470       -2009.805          34.000  
G08  18097633.557    95103666.304       -2513.095          37.000    18097640.128    74106774.123       -1958.390          36.000  
G30  17557141.070    92263408.465        2709.682          39.000    17557145.498    71893596.591        2111.370          38.000  
G09  19228920.746   101048547.398       -2349.440          32.000    19228928.779    78739190.537       -1830.918          33.000  
G17  18158227.616    95422114.798        1778.866          37.000    18158230.894    74354919.482        1386.024          36.000  
G07  15993408.930    84045926.097        1025.078          42.000    15993409.497    65490312.585         798.932          42.000  
G14  19310310.067   101476356.316        2198.367          34.000    19310315.503    79072488.679        1713.529          36.000  
> 2025 04 26 01 01 07.9860000  0  9                     
G01  16540949.138    86923277.358        1389.972          40.000    16540951.677    67732381.933        1082.855          41.000  
G02  17037689.005    89533594.767       -1323.986          41.000                                                                  
G04  20519028.231   107828196.049       -2579.469          26.000    20519039.785    84022496.088       -2009.765          34.000  
G08  18098111.775    95106179.261       -2513.224          37.000    18098118.316    74108732.262       -1958.415          36.000  
G30  17556625.503    92260698.728        2708.933          39.000    17556629.834    71891485.095        2111.026          38.000  
G09  19229367.739   101050896.614       -2349.059          32.000    19229375.610    78741021.132       -1831.455          33.000  
G17  18157889.231    95420336.188        1778.112          37.000    18157892.471    74353533.554        1385.433          37.000  
G07  15993213.921    84044901.263        1024.287          42.000    15993214.505    65489514.015         798.145          42.000  
G14  19309891.801   101474157.560        2198.376          34.000    19309897.113    79070775.333        1713.903          36.000  
> 2025 04 26 01 01 08.9860000  0  9                     
G01  16540684.678    86921887.586        1389.166          40.000    16540687.253    67731298.997        1082.471          42.000  
G02  17037940.909    89534918.751       -1324.265          41.000                                                                  
G04  20519518.833   107830774.850       -2578.909          26.000    20519530.604    84024505.543       -2009.904          34.000  
G08  18098590.045    95108692.282       -2513.103          37.000    18098596.541    74110690.452       -1958.057          36.000  
G30  17556109.931    92257989.417        2709.119          39.000    17556114.317    71889373.958        2110.906          38.000  
G09  19229814.873   101053245.891       -2349.050          32.000    19229822.765    78742851.694       -1830.358          33.000  
G17  18157550.858    95418558.003        1778.274          37.000    18157554.147    74352147.957        1385.649          37.000  
G07  15993019.029    84043877.086        1023.800          42.000    15993019.751    65488715.959         797.821          42.000  
G14  19309473.345   101471958.759        2198.863          34.000    19309478.755    79069062.047        1712.830          36.000  
> 2025 04 26 01 01 09.9860000  0  9                     
G01  16540420.229    86920498.343        1389.026          40.000    16540422.835    67730216.458        1082.477          41.000  
G02  17038192.893    89536243.310       -1324.776          41.000                                                                  
G04  20520009.492   107833353.325       -2577.809          26.000    20520021.355    84026514.755       -2009.322          34.000  
G08  18099068.254    95111205.305       -2512.937          37.000    18099074.728    74112648.639       -1958.150          36.000  
G30  17555594.459    92255280.470        2709.081          39.000    17555598.681    71887263.081        2110.872          38.000  
G09  19230261.994   101055595.133       -2349.604          32.000    19230269.767    78744682.272       -1830.590          33.000  
G17  18157212.658    95416780.204        1777.598          37.000    18157215.821    74350762.652        1385.419          37.000  
G07  15992824.283    84042853.468        1023.619          42.000    15992824.976    65487918.340         797.473          42.000  
G14  19309054.829   101469759.905        2198.219          34.000    19309060.309    79067348.605        1713.619          36.000  
> 2025 04 26 01 01 10.9860000  0  9                     
G01  16540155.977    86919109.668        1388.428          40.000    16540158.675    67729134.398        1081.708          41.000  
G02  17038445.087    89537568.436       -1325.060          41.000                                                                  
G04  20520500.114   107835931.632       -2578.148          26.000    20520512.027    84028523.773       -2008.494          34.000  
G08  18099546.474    95113718.340       -2513.076          37.000    18099552.862    74114606.860       -1958.425          36.000  
G30  17555079.083    92252571.893        2708.358          39.000    17555083.224    71885152.517        2110.427          38.000  
G09  19230708.938   101057944.293       -2349.454          32.000    19230716.899    78746512.737       -1830.531          33.000  
G17  18156874.403    95415002.769        1777.178          37.000    18156877.535    74349377.639        1385.036          37.000  
G07  15992629.638    84041830.463        1022.595          42.000    15992630.314    65487121.184         796.848          42.000  
G14  19308636.404   101467560.837        2199.770          34.000    19308641.827    79065635.073        1713.987          36.000  
> 2025 04 26 01 01 11.9860000  0  9                     
G01  16539891.783    86917721.611        1387.652          40.000    16539894.516    67728052.776        1081.268          41.000  
G02  17038697.418    89538894.189       -1326.090          41.000                                                                  
G04  20520990.634   107838509.744       -2578.292          26.000    20521002.635    84030532.659       -2009.048          34.000  
G08  18100024.661    95116231.394       -2513.079          37.000    18100031.183    74116565.070       -1958.422          36.000  
G30  17554563.782    92249863.744        2707.745          39.000    17554567.918    71883042.259        2109.882          38.000  
G09  19231155.832   101060293.419       -2349.475          32.000    19231164.037    78748343.210       -1830.080          33.000  
G17  18156536.140    95413225.741        1776.554          37.000    18156539.396    74347992.915        1384.995          36.000  
G07  15992434.995    84040808.052        1021.972          42.000    15992435.772    65486324.492         796.388          42.000  
G14  19308217.960   101465361.785        2198.652          34.000    19308223.390    79063921.526        1713.820          36.000  
> 2025 04 26 01 01 12.9860000  0  9                     
G01  16539627.666    86916334.056        1387.360          40.000    16539630.382    67726971.567        1080.981          41.000  
G02  17038949.859    89540220.469       -1326.586          41.000                                                                  
G04  20521481.193   107841087.417       -2577.759          26.000    20521493.214    84032541.252       -2008.504          34.000  
G08  18100502.824    95118744.412       -2512.618          37.000    18100509.512    74118523.261       -1957.909          36.000  
G30  17554048.491    92247155.892        2707.621          39.000    17554052.617    71880932.240        2109.830          38.000  
G09  19231602.895   101062642.417       -2348.798          32.000    19231611.006    78750173.639       -1830.444          33.000  
G17  18156198.021    95411449.013        1776.629          37.000    18156201.323    74346608.469        1384.455          37.000  
G07  15992240.613    84039786.171        1021.866          42.000    15992241.290    65485528.225         796.271          41.000  
G14  19307799.510   101463162.558        2199.168          34.000    19307805.017    79062207.849        1713.812          36.000  
> 2025 04 26 01 01 13.9860000  0  9                     
G01  16539363.732    86914947.039        1386.871          40.000    16539366.434    67725890.774        1080.688          41.000  
G02  17039202.413    89541547.279       -1326.950          41.000                                                                  
G04  20521971.869   107843664.852       -2576.844          27.000    20521983.686    84034549.649       -2008.131          34.000  
G08  18100981.011    95121257.430       -2513.061          37.000    18100987.844    74120481.426       -1958.103          36.000  
G30  17553533.225    92244448.371        2707.679          39.000    17553537.339    71878822.506        2109.392          38.000  
G09  19232049.895   101064991.406       -2349.141          32.000    19232058.061    78752003.949       -1830.145          33.000  
G17  18155859.951    95409672.641        1776.581          37.000    18155863.348    74345224.284        1384.211          37.000  
G07  15992046.217    84038764.861        1021.173          42.000    15992046.950    65484732.409         795.535          42.000  
G14  19307380.979   101460963.196        2199.826          34.000    19307386.554    79060494.064        1714.053          36.000  
> 2025 04 26 01 01 14.9860000  0  9                     
G01  16539099.960    86913560.585        1386.304          40.000    16539102.708    67724810.426        1080.096          41.000  
G02  17039454.939    89542874.657       -1327.445          41.000                                                                  
G04  20522462.454   107846242.034       -2577.010          27.000    20522474.075    84036557.829       -2008.008          33.000  
G08  18101459.248    95123770.411       -2512.873          37.000    18101466.019    74122439.633       -1958.320          36.000  
G30  17553017.943    92241741.232        2707.112          39.000    17553022.170    71876713.046        2109.016          38.000  
G09  19232496.827   101067340.278       -2348.519          32.000    19232505.112    78753834.248       -1830.057          33.000  
G17  18155521.906    95407896.631        1776.208          37.000    18155525.458    74343840.387        1384.247          37.000  
G07  15991851.948    84037744.134        1020.458          42.000    15991852.696    65483937.023         795.163          42.000  
G14  19306962.317   101458763.712        2199.707          34.000    19306967.905    79058780.200        1714.008          36.000  
> 2025 04 26 01 01 15.9860000  0  9                     
G01  16538836.220    86912174.700        1385.370          40.000    16538838.925    67723730.498        1079.620          41.000  
G02  17039707.643    89544202.626       -1328.493          41.000                                                                  
G04  20522952.535   107848818.954       -2576.957          26.000    20522964.495    84038565.801       -2007.656          33.000  
G08  18101937.494    95126283.436       -2513.519          37.000    18101944.275    74124397.800       -1958.506          36.000  
G30  17552502.911    92239034.473        2706.227          39.000    17552507.090    71874603.852        2108.901          38.000  
G09  19232943.834   101069689.092       -2349.107          32.000    19232952.054    78755664.530       -1831.091          32.000  
G17  18155184.050    95406121.039        1775.144          37.000    18155187.521    74342456.796        1383.089          37.000  
G07  15991657.946    84036723.970        1019.717          42.000    15991658.566    65483142.085         794.725          42.000  
G14  19306543.906   101456564.167        2199.113          35.000    19306549.351    79057066.248        1713.810          36.000  
> 2025 04 26 01 01 16.9860000  0  9                     
G01  16538572.644    86910789.321        1385.089          40.000    16538575.316    67722650.983        1079.346          41.000  
G02  17039960.432    89545531.095       -1328.800          41.000                                                                  
G04  20523443.067   107851395.580       -2576.996          26.000    20523454.791    84040573.533       -2007.648          33.000  
G08  18102415.711    95128796.365       -2512.717          37.000    18102422.518    74126355.918       -1957.734          36.000  
G30  17551987.953    92236328.016        2705.993          39.000    17551992.014    71872494.937        2108.739          38.000  
G09  19233390.798   101072037.837       -2349.077          32.000    19233399.060    78757494.690       -1830.397          32.000  
G17  18154846.177    95404345.705        1775.098          37.000    18154849.714    74341073.422        1383.298          37.000  
G07  15991464.028    84035704.349        1019.220          42.000    15991464.487    65482347.575         794.289          42.000  
G14  19306125.464   101454364.422        2200.131          34.000    19306130.812    79055352.207        1713.941          36.000  
> 2025 04 26 01 01 17.9860000  0  9                     
G01  16538309.079    86909404.407        1384.741          40.000    16538311.858    67721571.840        1078.937          41.000  
G02  17040213.293    89546860.050       -1329.193          41.000                                                                  
G04  20523933.228   107853971.810       -2576.415          26.000    20523945.032    84042580.955       -2007.026          34.000  
G08  18102893.941    95131309.252       -2512.789          37.000    18102900.688    74128314.029       -1958.418          36.000  
G30  17551472.915    92233621.851        2705.885          39.000    17551476.970    71870386.226        2108.716          38.000  
G09  19233837.845   101074386.416       -2348.577          33.000    19233845.969    78759324.779       -1831.122          32.000  
G17  18154508.410    95402570.639        1775.229          37.000    18154511.965    74339690.263        1382.880          37.000  
G07  15991270.001    84034685.223        1018.608          42.000    15991270.570    65481553.453         793.750          42.000  
G14  19305706.761   101452164.514        2199.850          34.000    19305712.166    79053637.955        1714.455          36.000  
> 2025 04 26 01 01 18.9860000  0  9                     
G01  16538045.582    86908020.057        1384.137          40.000    16538048.459    67720493.128        1078.479          41.000  
G02  17040466.407    89548189.589       -1329.756          41.000                                                                  
G04  20524423.325   107856547.816       -2576.726          26.000    20524435.198    84044588.211       -2006.871          33.000  
G08  18103372.121    95133822.123       -2512.879          37.000    18103378.851    74130272.103       -1958.482          36.000  
G30  17550957.972    92230916.035        2705.808          39.000    17550962.065    71868277.813        2108.144          38.000  
G09  19234284.947   101076734.944       -2349.048          32.000    19234292.788    78761154.735       -1829.635          32.000  
G17  18154170.622    95400795.977        1774.757          37.000    18154174.267    74338307.391        1383.055          37.000  
G07  15991076.179    84033666.668        1018.156          42.000    15991076.853    65480759.779         793.333          42.000  
G14  19305288.099   101449964.500        2199.647          34.000    19305293.507    79051923.684        1713.652          36.000  
> 2025 04 26 01 01 19.9860000  0  9                     
G01  16537782.425    86906636.349        1383.258          40.000    16537785.152    67719414.915        1077.771          42.000  
G02  17040719.610    89549519.749       -1330.633          41.000                                                                  
G04  20524913.548   107859123.558       -2575.555          25.000    20524925.298    84046595.292       -2006.688          33.000  
G08  18103850.311    95136335.048       -2512.919          37.000    18103857.131    74132230.226       -1958.439          36.000  
G30  17550443.197    92228210.656        2705.157          39.000    17550447.299    71866169.724        2108.178          38.000  
G09  19234731.888   101079083.446       -2348.246          33.000    19234739.637    78762984.776       -1830.267          32.000  
G17  18153832.926    95399021.727        1774.366          37.000    18153836.671    74336924.887        1382.249          37.000  
G07  15990882.529    84032648.765        1017.607          42.000    15990883.190    65479966.598         793.011          42.000  
G14  19304869.533   101447764.402        2201.303          34.000    19304874.830    79050209.321        1714.416          36.000  
> 2025 04 26 01 01 20.9860000  0  9                     
G01  16537519.166    86905253.132        1383.093          40.000    16537521.909    67718337.091        1077.448          41.000  
G02  17040972.900    89550850.438       -1331.228          41.000                                                                  
G04  20525403.472   107861699.057       -2575.519          25.000    20525415.313    84048602.175       -2006.885          33.000  
G08  18104328.566    95138847.957       -2512.779          37.000    18104335.309    74134188.314       -1958.148          36.000  
G30  17549928.428    92225505.602        2704.887          39.000    17549932.561    71864061.885        2107.751          38.000  
G09  19235179.064   101081431.902       -2348.733          33.000    19235186.513    78764814.703       -1830.055          32.000  
G17  18153495.496    95397247.826        1773.404          37.000    18153499.096    74335542.614        1381.792          36.000  
G07  15990688.979    84031631.405        1016.853          42.000    15990689.711    65479173.859         792.388          42.000  
G14  19304451.044   101445564.229        2200.122          34.000    19304456.226    79048494.870        1714.229          36.000  
> 2025 04 26 01 01 21.9860000  0  9                     
G01  16537256.029    86903870.541        1382.263          40.000    16537258.804    67717259.742        1077.051          42.000  
G02  17041226.181    89552181.748       -1331.912          41.000                                                                  
G04  20525893.429   107864274.251       -2574.816          26.000    20525905.315    84050608.846       -2006.835          34.000  
G08  18104806.771    95141360.885       -2513.211          37.000    18104813.526    74136146.429       -1958.239          36.000  
G30  17549413.780    92222800.956        2704.767          39.000    17549417.890    71861954.363        2107.544          38.000  
G09  19235625.861   101083780.296       -2348.723          33.000    19235633.345    78766644.623       -1829.606          32.000  
G17  18153157.967    95395474.308        1773.374          37.000    18153161.622    74334160.643        1381.863          37.000  
G07  15990495.579    84030614.642        1016.652          42.000    15990496.259    65478381.575         792.122          42.000  
G14  19304032.276   101443363.941        2199.724          34.000    19304037.498    79046780.365        1714.252          36.000  
> 2025 04 26 01 01 22.9860000  0  9                     
G01  16536993.027    86902488.467        1381.781          40.000    16536995.751    67716182.796        1076.733          41.000  
G02  17041479.555    89553513.564       -1332.200          41.000                                                                  
G04  20526383.420   107866849.249       -2574.703          26.000    20526395.315    84052615.268       -2005.858          33.000  
G08  18105284.953    95143873.717       -2513.117          37.000    18105291.738    74138104.470       -1958.267          36.000  
G30  17548899.159    92220096.632        2704.309          39.000    17548903.247    71859847.124        2106.804          38.000  
G09  19236072.740   101086128.578       -2347.835          33.000    19236080.139    78768474.458       -1829.485          32.000  
G17  18152820.492    95393701.113        1773.069          37.000    18152824.237    74332778.920        1381.576          36.000  
G07  15990302.325    84029598.439        1016.062          42.000    15990302.894    65477589.729         791.543          42.000  
G14  19303613.116   101441163.485        2200.549          34.000    19303618.800    79045065.735        1714.847          36.000  
> 2025 04 26 01 01 23.9860000  0  9                     
G01  16536730.169    86901106.906        1381.281          40.000    16536732.857    67715106.250        1076.380          41.000  
G02  17041733.071    89554845.924       -1332.469          41.000                                                                  
G04  20526873.222   107869423.845       -2574.490          26.000    20526885.277    84054621.456       -2006.543          33.000  
G08  18105763.109    95146386.555       -2512.764          37.000    18105769.917    74140062.517       -1957.883          36.000  
G30  17548384.569    92217392.634        2704.084          39.000    17548388.717    71857740.078        2107.381          38.000  
G09  19236519.599   101088476.801       -2347.945          33.000    19236526.970    78770304.242       -1830.048          32.000  
G17  18152483.121    95391928.245        1772.545          37.000    18152486.855    74331397.465        1381.635          36.000  
G07  15990108.990    84028582.775        1015.255          42.000    15990109.626    65476798.289         791.367          42.000  
G14  19303194.479   101438962.892        2201.066          34.000    19303199.967    79043350.999        1714.686          36.000  
> 2025 04 26 01 01 24.9860000  0  9                     
G01  16536467.356    86899725.868        1380.707          40.000    16536470.017    67714030.128        1075.745          41.000  
G02  17041986.770    89556178.819       -1333.355          41.000                                                                  
G04  20527363.005   107871998.181       -2574.073          26.000    20527375.166    84056627.444       -2006.220          33.000  
G08  18106241.307    95148899.384       -2512.965          37.000    18106248.123    74142020.559       -1958.306          36.000  
G30  17547870.113    92214688.992        2703.208          39.000    17547874.214    71855633.343        2106.769          38.000  
G09  19236966.372   101090824.927       -2348.140          32.000    19236973.786    78772133.963       -1829.995          32.000  
G17  18152145.912    95390155.702        1772.181          37.000    18152149.580    74330016.254        1381.151          36.000  
G07  15989915.846    84027567.656        1014.541          42.000    15989916.388    65476007.288         790.593          42.000  
G14  19302775.676   101436762.154        2201.422          34.000    19302781.089    79041636.167        1714.417          36.000  
> 2025 04 26 01 01 25.9860000  0  9                     
G01  16536204.728    86898345.347        1380.518          40.000    16536207.351    67712954.381        1075.610          41.000  
G02  17042240.617    89557512.212       -1333.489          41.000                                                                  
G04  20527852.973   107874572.193       -2573.829          26.000    20527864.931    84058633.119       -2005.215          33.000  
G08  18106719.490    95151412.143       -2512.765          37.000    18106726.202    74143978.547       -1957.961          36.000  
G30  17547355.624    92211985.635        2703.367          39.000    17547359.782    71853526.858        2106.367          38.000  
G09  19237413.190   101093172.930       -2347.654          33.000    19237420.566    78773963.538       -1829.709          33.000  
G17  18151808.683    95388383.444        1772.633          36.000    18151812.473    74328635.285        1381.023          36.000  
G07  15989722.850    84026553.034        1014.576          42.000    15989723.230    65475216.695         790.248          42.000  
G14  19302356.745   101434561.299        2200.976          33.000    19302362.297    79039921.189        1714.705          36.000  
> 2025 04 26 01 01 26.9860000  0  9                     
G01  16535942.082    86896965.422        1379.388          40.000    16535944.763    67711879.109        1074.927          41.000  
G02  17042494.456    89558846.231       -1334.250          41.000                                                                  
G04  20528342.732   107877145.942       -2573.621          26.000    20528354.717    84060638.628       -2004.865          33.000  
G08  18107197.612    95153924.937       -2512.663          37.000    18107204.389    74145936.584       -1958.120          36.000  
G30  17546841.266    92209282.679        2702.939          39.000    17546845.409    71851420.650        2106.467          38.000  
G09  19237859.939   101095520.889       -2347.877          32.000    19237867.309    78775793.138       -1829.863          33.000  
G17  18151471.568    95386611.610        1771.679          37.000    18151475.296    74327254.640        1380.530          36.000  
G07  15989529.879    84025539.058        1013.751          42.000    15989530.294    65474426.567         789.864          42.000  
G14  19301937.884   101432360.341        2200.880          33.000    19301943.410    79038206.166        1714.880          36.000  
> 2025 04 26 01 01 27.9860000  0  9                     
G01  16535679.556    86895585.969        1379.327          40.000    16535682.182    67710804.210        1074.811          41.000  
G02  17042748.264    89560180.731       -1334.745          41.000                                                                  
G04  20528832.523   107879719.374       -2573.435          26.000    20528844.521    84062643.906       -2005.337          33.000  
G08  18107675.720    95156437.635       -2512.237          37.000    18107682.529    74147894.524       -1957.838          36.000  
G30  17546326.924    92206580.046        2702.193          39.000    17546331.185    71849314.674        2106.412          38.000  
G09  19238306.805   101097868.740       -2347.520          32.000    19238314.125    78777622.642       -1830.104          33.000  
G17  18151134.417    95384840.060        1771.353          36.000    18151138.244    74325874.217        1380.197          37.000  
G07  15989337.090    84024525.572        1013.167          42.000    15989337.427    65473636.835         789.581          42.000  
G14  19301519.007   101430159.198        2201.160          33.000    19301524.524    79036490.960        1715.176          36.000  
> 2025 04 26 01 01 28.9860000  0  9                     
G01  16535417.039    86894207.005        1378.729          40.000    16535419.799    67709729.686        1074.518          41.000  
G02  17043002.353    89561515.734       -1335.423          41.000                                                                  
G04  20529322.119   107882292.404       -2572.760          26.000    20529334.158    84064648.864       -2004.194          33.000  
G08  18108153.881    95158950.303       -2512.703          37.000    18108160.681    74149852.414       -1957.417          36.000  
G30  17545812.698    92203877.663        2702.348          39.000    17545816.878    71847208.954        2105.812          38.000  
G09  19238753.477   101100216.457       -2347.539          32.000    19238760.868    78779451.990       -1829.450          33.000  
G17  18150797.233    95383068.818        1771.077          36.000    18150801.157    74324493.984        1380.576          37.000  
G07  15989144.503    84023512.601        1012.962          42.000    15989144.627    65472847.512         789.278          42.000  
G14  19301100.004   101427957.862        2201.637          33.000    19301105.659    79034775.638        1715.738          36.000  
> 2025 04 26 01 01 29.9860000  0  9                     
G01  16535154.699    86892828.508        1378.290          40.000    16535157.421    67708655.547        1073.962          42.000  
G02  17043256.572    89562851.209       -1335.930          41.000                                                                  
G04  20529811.860   107884865.118       -2572.325          27.000    20529823.686    84066653.624       -2004.886          34.000  
G08  18108631.941    95161462.853       -2512.388          37.000    18108638.934    74151810.262       -1958.008          36.000  
G30  17545298.426    92201175.573        2701.968          39.000    17545302.660    71845103.435        2105.408          38.000  
G09  19239200.307   101102564.053       -2348.228          32.000    19239207.616    78781281.255       -1829.470          33.000  
G17  18150460.236    95381297.820        1770.679          36.000    18150464.180    74323114.030        1379.688          37.000  
G07  15988951.848    84022500.134        1012.178          42.000    15988951.939    65472058.572         788.559          42.000  
G14  19300681.108   101425756.341        2201.842          33.000    19300686.684    79033060.187        1715.438          36.000  
> 2025 04 26 01 01 30.9860000  0  9                     
G01  16534892.423    86891450.685        1377.502          40.000    16534895.176    67707581.928        1073.065          42.000  
G02  17043510.789    89564187.362       -1336.501          41.000                                                                  
G04  20530301.563   107887437.664       -2572.113          27.000    20530313.296    84068658.169       -2004.719          34.000  
G08  18109110.097    95163975.530       -2512.821          37.000    18109117.070    74153768.181       -1958.308          36.000  
G30  17544784.355    92198473.959        2701.399          39.000    17544788.527    71842998.294        2104.738          38.000  
G09  19239647.177   101104911.615       -2347.621          32.000    19239654.354    78783110.544       -1829.155          33.000  
G17  18150123.385    95379527.328        1769.839          36.000    18150127.229    74321734.391        1379.506          37.000  
G07  15988759.318    84021488.340        1011.447          42.000    15988759.465    65471270.151         788.206          42.000  
G14  19300262.382   101423554.821        2201.763          33.000    19300267.720    79031344.712        1715.076          36.000  
> 2025 04 26 01 01 31.9860000  0  9                     
G01  16534630.323    86890073.411        1376.819          40.000    16534633.062    67706508.728        1072.644          42.000  
G02  17043765.184    89565524.070       -1337.297          41.000                                                                  
G04  20530790.858   107890009.952       -2571.974          26.000    20530802.913    84070662.538       -2005.006          34.000  
G08  18109588.217    95166488.159       -2512.649          37.000    18109595.183    74155726.067       -1957.994          36.000  
G30  17544270.316    92195772.695        2700.962          39.000    17544274.398    71840893.392        2105.029          38.000  
G09  19240093.934   101107259.119       -2346.621          32.000    19240101.042    78784939.774       -1829.194          34.000  
G17  18149786.487    95377757.139        1770.045          36.000    18149790.440    74320355.068        1378.909          37.000  
G07  15988566.810    84020477.105        1010.757          42.000    15988567.079    65470482.176         787.758          42.000  
G14  19299843.471   101421353.175        2201.085          33.000    19299848.740    79029629.131        1715.416          36.000  
> 2025 04 26 01 01 32.9860000  0  9                     
G01  16534368.467    86888696.806        1376.062          40.000    16534371.193    67705436.024        1072.601          42.000  
G02  17044019.640    89566861.421       -1337.545          41.000                                                                  
G04  20531280.269   107892582.134       -2572.158          27.000    20531292.397    84072666.763       -2003.686          34.000  
G08  18110066.366    95169000.901       -2512.515          37.000    18110073.310    74157684.055       -1958.217          36.000  
G30  17543756.384    92193071.896        2700.840          39.000    17543760.490    71838788.886        2104.097          38.000  
G09  19240540.432   101109606.717       -2347.127          32.000    19240547.757    78786769.055       -1829.630          34.000  
G17  18149449.717    95375987.434        1769.465          36.000    18149453.678    74318976.066        1378.950          37.000  
G07  15988374.327    84019466.555        1010.235          42.000    15988374.791    65469694.729         787.334          42.000  
G14  19299424.229   101419151.493        2201.881          33.000    19299429.807    79027913.554        1715.741          36.000  
> 2025 04 26 01 01 33.9860000  0  9                     
G01  16534106.644    86887320.598        1375.763          39.000    16534109.255    67704363.670        1072.028          42.000  
G02  17044274.089    89568199.226       -1338.201          41.000                                                                  
G04  20531769.655   107895153.786       -2571.522          27.000    20531781.821    84074670.647       -2003.507          34.000  
G08  18110544.495    95171513.495       -2512.780          36.000    18110551.449    74159641.885       -1957.477          36.000  
G30  17543242.459    92190371.332        2700.267          39.000    17543246.615    71836684.556        2103.938          37.000  
G09  19240987.154   101111954.097       -2347.417          33.000    19240994.457    78788598.155       -1829.744          34.000  
G17  18149112.960    95374217.966        1769.129          36.000    18149116.950    74317597.247        1378.754          37.000  
G07  15988182.238    84018456.425        1009.849          42.000    15988182.595    65468907.630         786.796          42.000  
G14  19299005.203   101416949.570        2202.402          33.000    19299010.712    79026197.792        1715.754          36.000  
> 2025 04 26 01 01 34.9860000  0  9                     
G01  16533844.861    86885944.969        1375.391          40.000    16533847.474    67703291.740        1071.851          41.000  
G02  17044528.786    89569537.592       -1338.402          41.000                                                                  
G04  20532258.941   107897725.205       -2570.848          28.000    20532271.149    84076674.339       -2003.126          34.000  
G08  18111022.577    95174026.134       -2513.065          36.000    18111029.671    74161599.796       -1958.263          36.000  
G30  17542728.608    92187671.119        2700.240          39.000    17542732.775    71834580.494        2103.724          38.000  
G09  19241433.654   101114301.367       -2346.831          33.000    19241441.140    78790427.180       -1828.441          33.000  
G17  18148776.283    95372448.848        1769.179          36.000    18148780.264    74316218.741        1378.274          36.000  
G07  15987990.018    84017446.907        1009.133          42.000    15987990.427    65468120.991         786.305          42.000  
G14  19298586.092   101414747.578        2202.072          33.000    19298591.717    79024481.933        1716.179          36.000  
> 2025 04 26 01 01 35.9860000  0  9                     
G01  16533583.219    86884569.879        1374.713          40.000    16533585.908    67702220.255        1071.100          41.000  
G02  17044783.565    89570876.525       -1339.484          41.000                                                                  
G04  20532748.375   107900296.407       -2571.194          28.000    20532760.557    84078677.854       -2003.662          34.000  
G08  18111500.745    95176538.690       -2512.295          36.000    18111507.692    74163557.649       -1958.000          36.000  
G30  17542214.939    92184971.287        2699.373          39.000    17542219.083    71832476.717        2103.589          38.000  
G09  19241880.271   101116648.634       -2347.143          33.000    19241887.851    78792256.196       -1828.870          34.000  
G17  18148439.665    95370680.101        1768.265          36.000    18148443.594    74314840.476        1377.715          37.000  
G07  15987798.049    84016437.936        1008.700          42.000    15987798.500    65467334.770         786.107          42.000  
G14  19298166.969   101412545.453        2201.925          33.000    19298172.683    79022765.995        1715.713          36.000  
> 2025 04 26 01 01 36.9860000  0  9                     
G01  16533321.651    86883195.297        1374.029          39.000    16533324.311    67701149.150        1070.697          41.000  
G02  17045038.418    89572215.974       -1339.996          41.000                                                                  
G04  20533237.669   107902867.218       -2570.685          28.000    20533249.895    84080681.068       -2003.613          34.000  
G08  18111978.813    95179051.256       -2513.014          37.000    18111985.871    74165515.459       -1957.956          36.000  
G30  17541701.250    92182271.762        2698.976          39.000    17541705.384    71830373.180        2103.365          38.000  
G09  19242327.144   101118995.787       -2347.977          32.000    19242334.541    78794085.109       -1829.050          34.000  
G17  18148103.044    95368911.632        1768.254          37.000    18148107.145    74313462.463        1377.753          37.000  
G07  15987606.047    84015429.499        1008.077          42.000    15987606.507    65466548.978         785.613          42.000  
G14  19297747.862   101410343.158        2201.927          33.000    19297753.676    79021049.916        1716.163          36.000  
> 2025 04 26 01 01 37.9860000  0  9                     
G01  16533060.240    86881821.313        1373.798          40.000    16533062.912    67700078.519        1070.117          41.000  
G02  17045293.434    89573556.014       -1340.533          41.000                                                                  
G04  20533727.034   107905437.802       -2570.402          29.000    20533739.057    84082684.105       -2002.515          33.000  
G08  18112456.930    95181563.804       -2512.584          37.000    18112463.966    74167473.269       -1957.676          36.000  
G30  17541187.609    92179572.611        2698.882          39.000    17541191.766    71828269.963        2103.188          38.000  
G09  19242773.887   101121342.847       -2347.378          32.000    19242781.232    78795914.002       -1828.802          34.000  
G17  18147766.580    95367143.587        1767.867          37.000    18147770.620    74312084.752        1377.756          37.000  
G07  15987414.216    84014421.664        1007.593          42.000    15987414.724    65465763.657         785.076          42.000  
G14  19297328.637   101408140.775        2202.764          33.000    19297334.565    79019333.772        1716.429          36.000  
> 2025 04 26 01 01 38.9860000  0  9                     
G01  16532798.858    86880447.860        1373.199          40.000    16532801.515    67699008.281        1070.056          41.000  
G02  17045548.562    89574896.577       -1340.726          41.000                                                                  
G04  20534216.117   107908008.095       -2570.178          29.000    20534228.067    84084686.956       -2002.963          33.000  
G08  18112935.026    95184076.327       -2512.631          37.000    18112942.152    74169431.100       -1957.766          36.000  
G30  17540674.056    92176873.832        2698.358          39.000    17540678.246    71826167.013        2102.552          38.000  
G09  19243220.408   101123689.857       -2346.958          33.000    19243227.939    78797742.848       -1829.227          34.000  
G17  18147430.199    95365375.862        1767.847          37.000    18147434.185    74310707.314        1377.101          37.000  
G07  15987222.559    84013414.391        1006.868          42.000    15987223.098    65464978.768         784.567          42.000  
G14  19296909.580   101405938.287        2202.249          33.000    19296915.508    79017617.534        1716.092          36.000  
> 2025 04 26 01 01 39.9860000  0  9                     
G01  16532537.624    86879074.869        1373.108          40.000    16532540.232    67697938.431        1069.611          41.000  
G02  17045803.716    89576237.639       -1341.077          41.000                                                                  
G04  20534705.159   107910578.042       -2569.946          29.000    20534717.147    84086689.484       -2002.753          33.000  
G08  18113413.126    95186588.790       -2512.587          37.000    18113420.283    74171388.835       -1957.700          36.000  
G30  17540160.525    92174175.299        2698.337          39.000    17540164.653    71824064.255        2102.630          38.000  
G09  19243667.126   101126036.686       -2346.804          33.000    19243674.448    78799571.530       -1828.741          33.000  
G17  18147093.901    95363608.450        1767.098          37.000    18147097.799    74309330.073        1377.315          37.000  
G07  15987030.948    84012407.608        1006.645          42.000    15987031.567    65464194.261         784.307          42.000  
G14  19296490.303   101403735.553        2203.181          34.000    19296496.305    79015901.140        1716.677          36.000  
> 2025 04 26 01 01 40.9860000  0  9                     
G01  16532276.527    86877702.462        1372.064          40.000    16532279.184    67696869.018        1069.214          41.000  
G02  17046058.990    89577579.293       -1342.096          41.000                                                                  
G04  20535194.327   107913147.661       -2569.279          29.000    20535206.125    84088691.825       -2002.618          33.000  
G08  18113891.255    95189101.213       -2512.309          37.000    18113898.376    74173346.586       -1957.812          36.000  
G30  17539647.088    92171477.161        2697.617          39.000    17539651.259    71821961.811        2102.125          38.000  
G09  19244113.771   101128383.481       -2346.561          32.000    19244121.034    78801400.193       -1829.152          33.000  
G17  18146757.556    95361841.399        1766.447          37.000    18146761.642    74307953.134        1377.010          36.000  
G07  15986839.427    84011401.414        1005.926          42.000    15986839.949    65463410.212         783.625          42.000  
G14  19296071.005   101401532.751        2203.036          33.000    19296077.033    79014184.683        1716.313          36.000  
> 2025 04 26 01 01 41.9860000  0  9                     
G01  16532015.520    86876330.644        1371.497          40.000    16532018.131    67695800.061        1068.707          41.000  
G02  17046314.447    89578921.522       -1342.498          41.000                                                                  
G04  20535683.314   107915717.083       -2568.954          29.000    20535695.060    84090693.972       -2002.312          33.000  
G08  18114369.389    95191613.711       -2512.570          36.000    18114376.476    74175304.395       -1958.391          36.000  
G30  17539133.800    92168779.420        2697.289          39.000    17539137.818    71819859.669        2101.924          38.000  
G09  19244560.441   101130730.269       -2347.514          32.000    19244567.630    78803228.834       -1828.624          33.000  
G17  18146421.390    95360074.727        1766.085          36.000    18146425.351    74306576.507        1376.398          37.000  
G07  15986648.132    84010395.840        1005.084          42.000    15986648.729    65462626.635         783.336          42.000  
G14  19295651.930   101399329.861        2203.131          33.000    19295657.785    79012468.150        1716.614          36.000  
> 2025 04 26 01 01 42.9860000  0  9                     
G01  16531754.529    86874959.390        1370.856          40.000    16531757.215    67694731.553        1068.365          41.000  
G02  17046570.014    89580264.336       -1343.208          41.000                                                                  
G04  20536172.189   107918286.266       -2568.739          28.000    20536183.937    84092695.879       -2001.847          33.000  
G08  18114847.459    95194126.196       -2512.425          37.000    18114854.477    74177262.132       -1957.998          36.000  
G30  17538620.500    92166082.031        2697.283          39.000    17538624.545    71817757.831        2101.389          37.000  
G09  19245007.003   101133076.967       -2346.721          32.000    19245014.154    78805057.422       -1828.738          33.000  
G17  18146085.378    95358308.417        1765.756          36.000    18146089.290    74305200.177        1376.195          37.000  
G07  15986456.911    84009390.835        1004.572          42.000    15986457.431    65461843.517         782.827          42.000  
G14  19295232.594   101397126.905        2202.271          33.000    19295238.549    79010751.545        1716.645          36.000  
> 2025 04 26 01 01 43.9860000  0  9                     
G01  16531493.725    86873588.679        1370.465          40.000    16531496.342    67693663.456        1068.115          41.000  
G02  17046825.733    89581607.695       -1343.561          41.000                                                                  
G04  20536661.110   107920855.211       -2568.954          28.000    20536672.859    84094697.628       -2001.686          33.000  
G08  18115325.543    95196638.639       -2512.040          37.000    18115332.656    74179219.883       -1957.540          36.000  
G30  17538107.255    92163385.019        2696.697          39.000    17538111.402    71815656.256        2101.453          38.000  
G09  19245453.626   101135423.592       -2346.965          33.000    19245460.622    78806885.929       -1828.113          32.000  
G17  18145749.321    95356542.445        1765.668          36.000    18145753.277    74303824.113        1375.888          37.000  
G07  15986265.976    84008386.412        1004.023          42.000    15986266.405    65461060.842         782.625          42.000  
G14  19294813.372   101394923.756        2203.833          33.000    19294819.330    79009034.840        1716.661          36.000  
> 2025 04 26 01 01 44.9860000  0  9                     
G01  16531232.915    86872218.471        1369.952          40.000    16531235.510    67692595.781        1067.279          41.000  
G02  17047081.502    89582951.565       -1344.163          42.000                                                                  
G04  20537149.891   107923423.724       -2568.012          27.000    20537161.798    84096699.087       -2001.681          33.000  
G08  18115803.667    95199151.089       -2512.551          37.000    18115810.726    74181177.628       -1958.123          36.000  
G30  17537594.112    92160688.321        2696.390          39.000    17537598.308    71813554.937        2101.007          38.000  
G09  19245900.097   101137770.090       -2346.319          33.000    19245907.152    78808714.394       -1828.097          32.000  
G17  18145413.305    95354776.808        1764.993          36.000    18145417.177    74302448.294        1375.552          37.000  
G07  15986074.960    84007382.500        1003.410          42.000    15986075.250    65460278.582         782.042          42.000  
G14  19294394.018   101392720.509        2203.152          33.000    19294400.031    79007318.008        1716.826          36.000  
> 2025 04 26 01 01 45.9860000  0  9                     
G01  16530972.272    86870848.769        1369.336          40.000    16530974.946    67691528.476        1067.017          42.000  
G02  17047337.309    89584295.925       -1344.692          41.000                                                                  
G04  20537638.605   107925991.956       -2567.872          27.000    20537650.436    84098700.281       -2001.799          33.000  
G08  18116281.820    95201663.415       -2512.842          37.000    18116288.785    74183135.273       -1958.169          36.000  
G30  17537080.930    92157991.915        2696.044          39.000    17537085.107    71811453.848        2100.605          38.000  
G09  19246346.487   101140116.472       -2346.499          33.000    19246353.657    78810542.750       -1828.344          32.000  
G17  18145077.369    95353011.449        1765.088          36.000    18145081.279    74301072.684        1375.370          37.000  
G07  15985883.859    84006379.102        1002.993          42.000    15985884.213    65459496.711         781.539          42.000  
G14  19293974.629   101390517.082        2202.543          33.000    19293980.695    79005601.036        1717.154          36.000  
> 2025 04 26 01 01 46.9860000  0  9                     
G01  16530711.792    86869479.729        1368.756          40.000    16530714.554    67690461.687        1066.583          42.000  
G02  17047593.248    89585640.992       -1345.550          42.000                                                                  
G04  20538127.366   107928560.060       -2568.138          27.000    20538139.130    84100701.371       -2001.329          33.000  
G08  18116759.967    95204175.824       -2512.108          37.000    18116766.921    74185092.993       -1957.442          36.000  
G30  17536567.963    92155295.991        2695.510          39.000    17536572.061    71809353.129        2100.469          38.000  
G09  19246793.162   101142462.932       -2346.780          32.000    19246800.022    78812371.136       -1828.612          32.000  
G17  18144741.499    95351246.585        1764.519          36.000    18144745.409    74299697.484        1374.808          37.000  
G07  15985693.081    84005376.406        1002.216          42.000    15985693.446    65458715.388         781.060          42.000  
G14  19293555.353   101388313.606        2203.561          33.000    19293561.350    79003884.057        1717.283          36.000  
> 2025 04 26 01 01 47.9860000  0  9                     
G01  16530451.446    86868111.259        1368.310          40.000    16530454.063    67689395.349        1066.254          42.000  
G02  17047849.241    89586986.609       -1346.009          42.000                                                                  
G04  20538616.141   107931127.803       -2566.975          27.000    20538627.794    84102702.246       -2001.161          34.000  
G08  18117238.179    95206688.298       -2512.708          37.000    18117245.056    74187050.766       -1958.206          36.000  
G30  17536055.056    92152600.436        2695.309          39.000    17536059.112    71807252.704        2100.152          38.000  
G09  19247239.735   101144809.290       -2346.470          32.000    19247246.484    78814199.468       -1828.255          32.000  
G17  18144405.719    95349482.082        1764.390          36.000    18144409.645    74298322.513        1375.092          37.000  
G07  15985502.299    84004374.303        1001.744          42.000    15985502.771    65457934.518         780.820          42.000  
G14  19293136.095   101386110.052        2203.562          33.000    19293141.973    79002167.016        1717.280          36.000  
> 2025 04 26 01 01 48.9860000  0  9                     
G01  16530191.155    86866743.237        1367.743          40.000    16530193.633    67688329.345        1066.010          42.000  
G02  17048105.375    89588332.693       -1346.399          41.000                                                                  
G04  20539104.799   107933695.268       -2567.529          27.000    20539116.460    84104702.813       -2000.818          33.000  
G08  18117716.240    95209200.595       -2511.987          37.000    18117723.144    74189008.402       -1957.536          37.000  
G30  17535542.190    92149905.144        2695.052          39.000    17535546.167    71805152.461        2099.969          38.000  
G09  19247686.231   101147155.511       -2346.476          32.000    19247692.834    78816027.695       -1828.304          32.000  
G17  18144070.002    95347717.845        1763.950          36.000    18144073.903    74296947.783        1374.733          37.000  
G07  15985311.813    84003372.640        1001.456          42.000    15985312.155    65457154.011         780.352          42.000  
G14  19292716.931   101383906.280        2204.429          33.000    19292722.651    79000449.787        1717.309          36.000  
> 2025 04 26 01 01 49.9860000  0  9                     
G01  16529930.949    86865375.657        1367.255          40.000    16529933.458    67687263.714        1065.491          42.000  
G02  17048361.606    89589679.234       -1347.058          41.000                                                                  
G04  20539593.382   107936262.288       -2566.886          28.000    20539604.966    84106703.081       -2000.256          33.000  
G08  18118194.298    95211712.848       -2512.403          37.000    18118201.131    74190965.959       -1957.533          37.000  
G30  17535029.201    92147210.118        2694.546          39.000    17535033.343    71803052.444        2099.768          38.000  
G09  19248132.728   101149501.521       -2346.465          33.000    19248139.299    78817855.788       -1829.008          32.000  
G17  18143734.361    95345953.850        1763.577          36.000    18143738.181    74295573.251        1373.965          36.000  
G07  15985121.311    84002371.471        1000.578          42.000    15985121.741    65456373.879         779.488          42.000  
G14  19292297.470   101381702.285        2204.486          34.000    19292303.202    78998732.407        1717.469          36.000  
> 2025 04 26 01 01 50.9860000  0  9                     
G01  16529670.760    86864008.707        1366.608          40.000    16529673.323    67686198.551        1064.856          42.000  
G02  17048618.027    89591026.363       -1347.482          41.000                                                                  
G04  20540081.819   107938829.098       -2566.815          28.000    20540093.415    84108703.153       -1999.609          33.000  
G08  18118672.429    95214225.098       -2512.029          37.000    18118679.121    74192923.564       -1957.319          37.000  
G30  17534516.421    92144515.478        2694.224          39.000    17534520.522    71800952.715        2099.494          38.000  
G09  19248579.138   101151847.525       -2345.645          33.000    19248585.642    78819683.785       -1827.546          32.000  
G17  18143398.780    95344190.242        1763.445          36.000    18143402.568    74294198.985        1374.379          36.000  
G07  15984930.861    84001370.915        1000.304          42.000    15984931.343    65455594.209         779.584          42.000  
G14  19291878.024   101379498.219        2204.779          34.000    19291883.804    78997014.949        1717.583          36.000  
> 2025 04 26 01 01 51.9860000  0  9                     
G01  16529410.766    86862642.310        1365.863          40.000    16529413.355    67685133.833        1064.197          42.000  
G02  17048874.440    89592374.080       -1348.219          41.000                                                                  
G04  20540570.231   107941395.601       -2566.292          28.000    20540581.806    84110703.059       -1999.360          33.000  
G08  18119150.489    95216737.355       -2512.479          37.000    18119157.217    74194881.144       -1957.323          37.000  
G30  17534003.746    92141821.202        2694.195          39.000    17534007.821    71798853.309        2099.134          38.000  
G09  19249025.537   101154193.451       -2346.141          33.000    19249032.088    78821511.812       -1827.774          32.000  
G17  18143063.269    95342427.014        1762.727          36.000    18143066.940    74292825.073        1373.308          37.000  
G07  15984740.471    84000370.942         999.577          42.000    15984740.996    65454815.030         778.811          42.000  
G14  19291458.529   101377294.116        2203.758          34.000    19291464.370    78995297.422        1717.724          36.000  
> 2025 04 26 01 01 52.9860000  0  9                     
G01  16529150.797    86861276.476        1365.631          40.000    16529153.465    67684069.544        1064.117          41.000  
G02  17049130.963    89593722.372       -1348.475          41.000                                                                  
G04  20541058.527   107943961.938       -2566.018          28.000    20541070.197    84112702.789       -1999.670          33.000  
G08  18119628.498    95219249.617       -2512.240          37.000    18119635.338    74196838.765       -1957.531          36.000  
G30  17533491.039    92139127.331        2693.902          39.000    17533495.222    71796754.170        2098.941          38.000  
G09  19249471.973   101156539.353       -2345.802          33.000    19249478.519    78823339.772       -1827.805          32.000  
G17  18142727.843    95340664.133        1763.001          36.000    18142731.524    74291451.388        1373.521          37.000  
G07  15984550.347    83999371.561         998.969          42.000    15984550.864    65454036.284         778.470          42.000  
G14  19291039.114   101375089.825        2204.474          34.000    19291044.872    78993579.832        1717.781          36.000  
> 2025 04 26 01 01 53.9860000  0  9                     
G01  16528891.056    86859911.375        1364.948          40.000    16528893.756    67683005.827        1063.434          41.000  
G02  17049387.633    89595071.415       -1349.492          41.000                                                                  
G04  20541546.935   107946528.079       -2566.204          28.000    20541558.434    84114702.374       -1999.630          33.000  
G08  18120106.557    95221762.075       -2512.604          37.000    18120113.448    74198796.511       -1957.745          37.000  
G30  17532978.561    92136434.026        2692.666          39.000    17532982.638    71794655.479        2098.357          38.000  
G09  19249918.371   101158885.357       -2345.638          32.000    19249924.949    78825167.816       -1827.985          32.000  
G17  18142392.444    95338901.845        1761.796          37.000    18142396.162    74290078.150        1373.201          37.000  
G07  15984360.329    83998372.935         998.365          42.000    15984360.778    65453258.142         777.599          42.000  
G14  19290619.689   101372885.641        2204.396          34.000    19290625.370    78991862.296        1717.326          36.000  
> 2025 04 26 01 01 54.9860000  0  9                     
G01  16528631.428    86858546.867        1364.081          40.000    16528634.050    67681942.562        1062.988          41.000  
G02  17049644.517    89596421.017       -1350.107          41.000                                                                  
G04  20542035.174   107949094.029       -2565.831          28.000    20542046.706    84116701.790       -1999.256          34.000  
G08  18120584.704    95224274.514       -2512.753          36.000    18120591.552    74200754.252       -1957.699          37.000  
G30  17532466.145    92133741.045        2692.464          39.000    17532470.216    71792557.082        2097.829          38.000  
G09  19250364.736   101161231.328       -2346.279          32.000    19250371.313    78826995.837       -1828.181          32.000  
G17  18142057.160    95337139.887        1761.666          37.000    18142060.868    74288705.207        1373.013          37.000  
G07  15984170.391    83997374.905         997.528          42.000    15984170.954    65452480.444         777.340          42.000  
G14  19290200.315   101370681.362        2204.050          34.000    19290205.925    78990144.660        1717.679          36.000  
> 2025 04 26 01 01 55.9860000  0  9                     
G01  16528371.882    86857182.889        1363.507          40.000    16528374.429    67680879.715        1062.396          42.000  
G02  17049901.452    89597771.175       -1350.762          41.000                                                                  
G04  20542523.364   107951659.660       -2565.530          28.000    20542534.926    84118700.997       -1999.894          33.000  
G08  18121062.788    95226786.943       -2512.528          36.000    18121069.671    74202711.979       -1957.507          36.000  
G30  17531953.790    92131048.412        2692.494          39.000    17531957.842    71790458.930        2098.008          38.000  
G09  19250811.163   101163577.184       -2345.731          32.000    19250817.731    78828823.760       -1828.335          32.000  
G17  18141722.003    95335378.270        1761.491          37.000    18141725.624    74287332.535        1372.454          37.000  
G07  15983980.775    83996377.424         997.054          42.000    15983981.143    65451703.185         776.924          42.000  
G14  19289780.891   101368476.930        2203.972          34.000    19289786.553    78988426.932        1717.631          37.000  
> 2025 04 26 01 01 56.9860000  0  9                     
G01  16528112.388    86855819.457        1363.367          40.000    16528114.972    67679817.311        1062.305          42.000  
G02  17050158.502    89599121.885       -1350.901          41.000                                                                  
G04  20543011.589   107954225.010       -2564.868          27.000    20543023.133    84120699.982       -1999.161          34.000  
G08  18121540.862    95229299.355       -2512.293          37.000    18121547.729    74204669.717       -1957.685          36.000  
G30  17531441.453    92128356.191        2691.960          39.000    17531445.531    71788361.082        2097.548          38.000  
G09  19251257.512   101165923.016       -2346.431          32.000    19251264.153    78830651.669       -1827.937          32.000  
G17  18141386.950    95333617.041        1761.112          36.000    18141390.351    74285960.126        1372.420          37.000  
G07  15983790.836    83995380.528         996.729          42.000    15983791.420    65450926.404         776.349          42.000  
G14  19289361.520   101366272.410        2204.422          34.000    19289367.136    78986709.123        1717.679          36.000  
> 2025 04 26 01 01 57.9860000  0  9                     
G01  16527853.108    86854456.565        1362.531          40.000    16527855.627    67678755.322        1061.603          42.000  
G02  17050415.676    89600473.143       -1351.542          41.000                                                                  
G04  20543499.822   107956790.039       -2565.010          27.000    20543511.424    84122698.672       -1998.522          34.000  
G08  18122019.011    95231811.728       -2512.320          37.000    18122025.832    74206627.394       -1957.517          36.000  
G30  17530929.229    92125664.274        2691.424          39.000    17530933.280    71786263.463        2097.680          38.000  
G09  19251703.790   101168268.682       -2345.875          32.000    19251710.625    78832479.502       -1828.344          33.000  
G17  18141051.889    95331856.122        1760.531          37.000    18141055.344    74284588.010        1371.749          37.000  
G07  15983601.176    83994384.191         995.820          42.000    15983601.792    65450150.018         776.010          42.000  
G14  19288942.136   101364067.749        2204.089          34.000    19288947.660    78984991.183        1717.893          36.000  
> 2025 04 26 01 01 58.9860000  0  9                     
G01  16527593.906    86853094.366        1361.786          40.000    16527596.392    67677693.872        1061.115          42.000  
G02  17050672.942    89601825.091       -1352.261          41.000                                                                  
G04  20543987.800   107959354.940       -2564.429          28.000    20543999.515    84124697.296       -1998.213          35.000  
G08  18122497.129    95234324.248       -2512.441          37.000    18122503.982    74208585.219       -1958.028          36.000  
G30  17530417.052    92122972.847        2691.405          39.000    17530421.174    71784166.288        2096.749          38.000  
G09  19252149.990   101170614.450       -2345.851          32.000    19252157.157    78834307.325       -1827.646          33.000  
G17  18140716.801    95330095.679        1760.497          37.000    18140720.267    74283216.253        1371.291          37.000  
G07  15983411.564    83993388.567         995.101          42.000    15983412.234    65449374.201         775.524          42.000  
G14  19288522.564   101361863.095        2204.573          34.000    19288528.220    78983273.294        1717.389          36.000  
> 2025 04 26 01 01 59.9860000  0  9                     
G01  16527334.840    86851732.718        1361.267          40.000    16527337.265    67676632.835        1060.980          42.000  
G02  17050930.386    89603177.598       -1352.694          41.000                                                                  
G04  20544475.872   107961919.613       -2564.746          28.000    20544487.648    84126695.701       -1998.231          35.000  
G08  18122975.223    95236836.737       -2512.517          37.000    18122982.100    74210542.968       -1957.443          36.000  
G30  17529904.916    92120281.813        2690.811          39.000    17529909.119    71782069.354        2096.951          38.000  
G09  19252596.216   101172960.176       -2346.091          31.000    19252603.595    78836135.145       -1828.124          33.000  
G17  18140381.908    95328335.632        1759.975          37.000    18140385.436    74281844.754        1371.487          37.000  
G07  15983222.316    83992393.499         994.723          42.000    15983222.721    65448598.817         775.175          42.000  
G14  19288103.071   101359658.301        2204.967          34.000    19288108.546    78981555.263        1718.021          36.000  
> 2025 04 26 01 02 00.9860000  0  9                     
G01  16527075.857    86850371.640        1360.834          40.000    16527078.350    67675572.257        1060.315          42.000  
G02  17051187.840    89604530.657       -1353.315          41.000                                                                  
G04  20544963.775   107964484.015       -2564.739          27.000    20544975.684    84128693.884       -1998.218          34.000  
G08  18123453.324    95239349.243       -2512.869          37.000    18123460.316    74212500.772       -1957.876          37.000  
G30  17529392.939    92117591.136        2690.593          39.000    17529397.166    71779972.734        2096.568          38.000  
G09  19253042.426   101175305.792       -2345.531          31.000    19253049.983    78837962.903       -1828.279          33.000  
G17  18140046.938    95326575.926        1759.644          37.000    18140050.481    74280473.577        1371.173          37.000  
G07  15983033.085    83991399.019         994.156          42.000    15983033.547    65447823.908         774.650          42.000  
G14  19287683.503   101357453.438        2205.254          34.000    19287688.956    78979837.182        1718.246          36.000  
> 2025 04 26 01 02 01.9860000  0  9                     
G01  16526816.906    86849011.055        1360.248          40.000    16526819.447    67674512.068        1060.120          42.000  
G02  17051445.361    89605884.250       -1354.001          41.000                                                                  
G04  20545451.617   107967047.991       -2564.086          27.000    20545463.628    84130691.837       -1998.130          34.000  
G08  18123931.341    95241861.653       -2512.365          37.000    18123938.426    74214458.490       -1957.591          37.000  
G30  17528880.962    92114900.785        2689.883          39.000    17528885.197    71777876.365        2095.971          38.000  
G09  19253488.576   101177651.335       -2345.986          31.000    19253496.419    78839790.561       -1827.036          33.000  
G17  18139712.165    95324816.534        1759.025          37.000    18139715.783    74279102.599        1370.741          37.000  
G07  15982844.054    83990405.070         993.414          42.000    15982844.485    65447049.403         774.206          42.000  
G14  19287263.857   101355248.400        2205.048          34.000    19287269.390    78978118.985        1717.664          36.000  
> 2025 04 26 01 02 02.9860000  0  9                     
G01  16526558.035    86847651.019        1359.827          40.000    16526560.670    67673452.304        1059.595          42.000  
G02  17051703.055    89607238.378       -1354.383          41.000                                                                  
G04  20545939.369   107969611.835       -2564.379          27.000    20545951.587    84132689.540       -1998.034          34.000  
G08  18124409.462    95244374.053       -2512.086          36.000    18124416.456    74216416.185       -1956.917          37.000  
G30  17528369.171    92112210.796        2689.609          39.000    17528373.195    71775780.225        2096.153          38.000  
G09  19253934.744   101179996.739       -2345.068          31.000    19253942.744    78841618.204       -1828.545          33.000  
G17  18139377.602    95323057.510        1758.388          36.000    18139380.969    74277731.914        1370.470          37.000  
G07  15982655.010    83989411.671         993.163          42.000    15982655.503    65446275.320         774.010          42.000  
G14  19286844.302   101353043.257        2204.362          34.000    19286849.762    78976400.655        1718.413          36.000  
> 2025 04 26 01 02 03.9860000  0  9                     
G01  16526299.347    86846291.594        1359.521          40.000    16526301.936    67672393.014        1059.082          42.000  
G02  17051960.881    89608593.097       -1354.645          41.000                                                                  
G04  20546427.185   107972175.311       -2564.116          27.000    20546439.435    84134687.062       -1997.572          34.000  
G08  18124887.541    95246886.507       -2512.225          36.000    18124894.608    74218373.962       -1957.884          37.000  
G30  17527857.379    92109521.178        2689.432          39.000    17527861.306    71773684.452        2095.649          38.000  
G09  19254381.103   101182342.181       -2345.302          32.000    19254389.093    78843445.791       -1828.070          33.000  
G17  18139043.008    95321298.854        1758.398          36.000    18139046.247    74276361.516        1370.732          37.000  
G07  15982466.132    83988418.897         992.613          42.000    15982466.550    65445501.740         773.411          42.000  
G14  19286424.585   101350838.003        2205.141          34.000    19286430.169    78974682.303        1718.809          36.000  
> 2025 04 26 01 02 04.9860000  0  9                     
G01  16526040.729    86844932.751        1358.209          40.000    16526043.424    67671334.164        1058.331          42.000  
G02  17052218.808    89609948.423       -1355.881          41.000                                                                  
G04  20546915.080   107974738.558       -2563.734          27.000    20546927.178    84136684.423       -1997.999          34.000  
G08  18125365.608    95249398.968       -2512.562          36.000    18125372.791    74220331.718       -1958.263          37.000  
G30  17527345.654    92106831.960        2688.873          39.000    17527349.622    71771588.959        2095.110          38.000  
G09  19254827.258   101184687.548       -2345.143          32.000    19254835.341    78845273.293       -1827.291          32.000  
G17  18138708.396    95319540.570        1757.600          36.000    18138711.634    74274991.475        1369.362          37.000  
G07  15982277.342    83987426.723         991.584          42.000    15982277.719    65444728.606         772.681          42.000  
G14  19286004.786   101348632.678        2205.293          34.000    19286010.548    78972963.885        1718.193          36.000  
> 2025 04 26 01 02 05.9860000  0  9                     
G01  16525782.218    86843574.591        1357.782          40.000    16525785.083    67670275.851        1058.338          42.000  
G02  17052476.959    89611304.442       -1356.409          41.000                                                                  
G04  20547402.741   107977301.654       -2563.100          27.000    20547414.850    84138681.629       -1997.176          33.000  
G08  18125843.752    95251911.556       -2512.244          36.000    18125850.900    74222289.589       -1958.323          37.000  
G30  17526833.991    92104143.249        2688.610          39.000    17526838.035    71769493.850        2095.039          38.000  
G09  19255273.431   101187032.944       -2344.736          32.000    19255281.723    78847100.915       -1827.531          32.000  
G17  18138373.895    95317782.786        1757.870          36.000    18138377.035    74273621.761        1369.948          37.000  
G07  15982088.680    83986435.259         991.257          42.000    15982088.963    65443956.038         772.465          42.000  
G14  19285585.113   101346427.400        2204.740          34.000    19285590.879    78971245.447        1718.596          36.000  
> 2025 04 26 01 02 06.9860000  0  9                     
G01  16525523.874    86842216.917        1357.428          40.000    16525526.720    67669217.936        1057.721          42.000  
G02  17052735.025    89612660.947       -1356.900          42.000                                                                  
G04  20547890.382   107979864.440       -2562.916          27.000    20547902.510    84140678.602       -1997.272          33.000  
G08  18126321.893    95254424.060       -2512.425          36.000    18126329.053    74224247.380       -1957.820          37.000  
G30  17526322.402    92101454.843        2687.889          39.000    17526326.371    71767398.992        2094.774          38.000  
G09  19255719.721   101189378.259       -2345.656          32.000    19255728.041    78848928.412       -1827.825          32.000  
G17  18138039.447    95316025.340        1757.129          36.000    18138042.587    74272252.300        1369.270          37.000  
G07  15981900.161    83985444.312         990.609          42.000    15981900.419    65443183.876         772.010          42.000  
G14  19285165.324   101344221.881        2205.460          34.000    19285171.219    78969526.898        1718.900          36.000  
> 2025 04 26 01 02 07.9860000  0  9                     
G01  16525265.602    86840859.879        1356.451          40.000    16525268.559    67668160.495        1056.952          42.000  
G02  17052993.289    89614018.068       -1357.632          41.000                                                                  
G04  20548378.123   107982427.012       -2562.589          27.000    20548390.215    84142675.347       -1996.532          33.000  
G08  18126800.036    95256936.624       -2512.585          37.000    18126807.092    74226205.204       -1958.153          37.000  
G30  17525810.821    92098766.828        2687.679          39.000    17525814.811    71765304.436        2094.369          38.000  
G09  19256165.932   101191723.546       -2345.778          32.000    19256174.303    78850755.860       -1827.017          32.000  
G17  18137705.124    95314268.266        1756.869          36.000    18137708.252    74270883.168        1368.715          37.000  
G07  15981711.825    83984454.001         989.590          42.000    15981711.995    65442412.191         771.285          42.000  
G14  19284745.668   101342016.338        2205.614          34.000    19284751.485    78967808.295        1718.592          36.000  
> 2025 04 26 01 02 08.9860000  0  9                     
G01  16525007.498    86839503.402        1356.262          40.000    16525010.370    67667103.506        1056.787          42.000  
G02  17053251.652    89615375.786       -1358.116          41.000                                                                  
G04  20548865.705   107984989.271       -2561.761          27.000    20548877.814    84144671.950       -1995.929          33.000  
G08  18127278.219    95259449.224       -2512.680          37.000    18127285.240    74228163.050       -1957.504          37.000  
G30  17525299.321    92096079.236        2687.517          39.000    17525303.438    71763210.228        2093.669          38.000  
G09  19256612.394   101194068.753       -2345.004          32.000    19256620.600    78852583.299       -1826.623          32.000  
G17  18137370.689    95312511.573        1756.685          36.000    18137373.955    74269514.333        1368.605          37.000  
G07  15981523.292    83983464.276         989.519          42.000    15981523.749    65441640.986         770.981          42.000  
G14  19284325.995   101339810.707        2206.138          34.000    19284331.718    78966089.650        1718.224          36.000  
> 2025 04 26 01 02 09.9860000  0  9                     
G01  16524749.493    86838147.453        1355.817          40.000    16524752.419    67666046.928        1056.439          42.000  
G02  17053510.151    89616734.028       -1358.607          42.000                                                                  
G04  20549353.198   107987551.306       -2561.920          27.000    20549365.210    84146668.322       -1996.490          32.000  
G08  18127756.326    95261961.747       -2512.403          37.000    18127763.442    74230120.857       -1957.762          37.000  
G30  17524787.910    92093391.944        2687.218          39.000    17524792.179    71761116.228        2093.875          38.000  
G09  19257058.716   101196413.892       -2345.021          32.000    19257066.815    78854410.729       -1828.214          33.000  
G17  18137036.357    95310755.235        1756.100          36.000    18137039.788    74268145.754        1367.965          37.000  
G07  15981335.089    83982475.114         988.729          42.000    15981335.472    65440870.202         770.456          42.000  
G14  19283906.245   101337604.911        2206.488          34.000    19283911.921    78964370.837        1718.853          36.000  
> 2025 04 26 01 02 10.9860000  0  9                     
G01  16524491.599    86836792.134        1355.011          40.000    16524494.499    67664990.821        1055.853          42.000  
G02  17053768.817    89618092.888       -1359.036          42.000                                                                  
G04  20549840.809   107990113.089       -2561.684          27.000    20549852.723    84148664.515       -1996.012          32.000  
G08  18128234.483    95264474.324       -2512.470          37.000    18128241.601    74232078.717       -1958.025          37.000  
G30  17524276.567    92090705.097        2686.637          39.000    17524280.947    71759022.575        2093.827          38.000  
G09  19257505.053   101198759.053       -2345.341          32.000    19257513.165    78856238.040       -1826.940          33.000  
G17  18136702.194    95308999.291        1756.175          37.000    18136705.707    74266777.490        1368.117          37.000  
G07  15981146.984    83981486.568         988.351          42.000    15981147.178    65440099.911         770.124          42.000  
G14  19283486.522   101335399.128        2205.861          34.000    19283492.205    78962652.024        1718.546          36.000  
> 2025 04 26 01 02 11.9860000  0  9                     
G01  16524233.771    86835437.336        1354.803          40.000    16524236.601    67663935.152        1055.524          42.000  
G02  17054027.450    89619452.298       -1359.680          42.000                                                                  
G04  20550328.230   107992674.612       -2561.999          27.000    20550340.036    84150660.464       -1995.386          32.000  
G08  18128712.566    95266986.881       -2512.639          37.000    18128719.618    74234036.533       -1957.642          37.000  
G30  17523765.318    92088018.610        2686.223          39.000    17523769.651    71756929.209        2092.962          38.000  
G09  19257951.300   101201104.092       -2345.195          32.000    19257959.529    78858065.368       -1827.291          32.000  
G17  18136368.151    95307243.732        1755.154          37.000    18136371.601    74265409.492        1367.719          36.000  
G07  15980958.965    83980498.612         987.613          42.000    15980959.231    65439330.071         769.591          42.000  
G14  19283066.609   101333193.145        2206.245          34.000    19283072.384    78960933.077        1719.220          36.000  
> 2025 04 26 01 02 12.9860000  0  9                     
G01  16523976.065    86834083.093        1354.114          40.000    16523978.898    67662879.892        1055.121          42.000  
G02  17054286.204    89620812.232       -1360.135          42.000                                                                  
G04  20550815.488   107995235.728       -2560.843          27.000    20550827.285    84152656.178       -1995.526          32.000  
G08  18129190.790    95269499.415       -2512.909          37.000    18129197.773    74235994.328       -1957.472          37.000  
G30  17523254.136    92085332.435        2685.945          39.000    17523258.481    71754836.091        2092.729          38.000  
G09  19258397.443   101203449.000       -2344.817          32.000    19258405.693    78859892.558       -1826.940          33.000  
G17  18136034.053    95305488.457        1754.832          37.000    18136037.575    74264041.745        1367.649          37.000  
G07  15980770.883    83979511.173         987.156          42.000    15980771.315    65438560.641         769.312          42.000  
G14  19282646.894   101330987.051        2206.159          34.000    19282652.591    78959214.045        1719.233          36.000  
> 2025 04 26 01 02 13.9860000  0  9                     
G01  16523718.510    86832729.466        1353.479          40.000    16523721.267    67661825.107        1054.773          42.000  
G02  17054545.113    89622172.808       -1360.956          42.000                                                                  
G04  20551302.759   107997796.734       -2561.095          27.000    20551314.648    84154651.736       -1996.000          33.000  
G08  18129668.889    95272011.998       -2512.750          36.000    18129675.923    74237952.210       -1957.741          37.000  
G30  17522743.021    92082646.707        2685.718          39.000    17522747.423    71752743.313        2092.606          38.000  
G09  19258843.810   101205793.947       -2344.729          32.000    19258851.972    78861719.812       -1827.166          33.000  
G17  18135700.107    95303733.637        1754.308          37.000    18135703.670    74262674.358        1367.081          37.000  
G07  15980583.081    83978524.400         986.691          42.000    15980583.610    65437791.728         768.688          42.000  
G14  19282226.848   101328780.909        2206.078          34.000    19282232.689    78957494.979        1719.245          36.000  
> 2025 04 26 01 02 14.9860000  0  9                     
G01  16523460.973    86831376.437        1352.899          40.000    16523463.769    67660770.801        1054.193          42.000  
G02  17054804.173    89623533.985       -1361.696          42.000                                                                  
G04  20551790.037   108000357.473       -2560.620          27.000    20551801.981    84156647.101       -1995.261          33.000  
G08  18130146.954    95274524.606       -2512.440          36.000    18130153.996    74239910.070       -1957.732          37.000  
G30  17522232.074    92079961.385        2685.124          39.000    17522236.435    71750650.853        2092.213          38.000  
G09  19259290.101   101208138.836       -2344.813          33.000    19259298.299    78863546.958       -1826.894          33.000  
G17  18135366.295    95301979.186        1754.288          36.000    18135369.834    74261307.251        1367.184          37.000  
G07  15980395.612    83977538.243         985.737          42.000    15980395.927    65437023.292         768.319          42.000  
G14  19281806.887   101326574.728        2205.709          34.000    19281812.695    78955775.846        1719.639          36.000  
> 2025 04 26 01 02 15.9860000  0  9                     
G01  16523203.650    86830024.078        1351.526          40.000    16523206.379    67659716.998        1053.729          42.000  
G02  17055063.399    89624895.811       -1362.539          42.000                                                                  
G04  20552277.319   108002918.034       -2560.837          27.000    20552289.267    84158642.320       -1994.930          33.000  
G08  18130625.158    95277037.324       -2512.936          36.000    18130632.041    74241868.030       -1958.255          37.000  
G30  17521721.142    92077276.536        2684.427          39.000    17521725.492    71748558.754        2091.920          38.000  
G09  19259736.264   101210483.811       -2345.606          32.000    19259744.508    78865374.212       -1827.172          34.000  
G17  18135032.442    95300225.197        1754.043          36.000    18135036.050    74259940.513        1366.275          37.000  
G07  15980208.092    83976552.756         985.205          42.000    15980208.498    65436255.374         767.653          42.000  
G14  19281386.906   101324368.454        2206.250          34.000    19281392.903    78954056.733        1718.661          36.000  
> 2025 04 26 01 02 16.9860000  0  9                     
G01  16522946.442    86828672.302        1351.050          40.000    16522949.135    67658663.674        1053.033          42.000  
G02  17055322.677    89626258.224       -1362.536          42.000                                                                  
G04  20552764.517   108005478.324       -2559.960          27.000    20552776.459    84160637.400       -1995.670          33.000  
G08  18131103.367    95279550.035       -2512.413          37.000    18131110.226    74243826.002       -1958.178          37.000  
G30  17521210.281    92074592.093        2684.019          39.000    17521214.671    71746466.985        2091.318          38.000  
G09  19260182.500   101212828.727       -2345.488          32.000    19260190.695    78867201.404       -1827.779          34.000  
G17  18134698.809    95298471.635        1753.315          36.000    18134702.384    74258574.079        1366.218          37.000  
G07  15980020.610    83975567.905         984.440          42.000    15980021.074    65435487.966         766.875          42.000  
G14  19280967.131   101322162.146        2206.117          34.000    19280973.026    78952337.507        1719.307          36.000  
> 2025 04 26 01 02 17.9860000  0  9                     
G01  16522689.336    86827321.084        1350.897          40.000    16522692.016    67657610.798        1052.551          42.000  
G02  17055581.992    89627621.237       -1363.332          42.000                                                                  
G04  20553251.787   108008038.345       -2559.548          27.000    20553263.597    84162632.230       -1995.290          33.000  
G08  18131581.469    95282062.787       -2512.762          36.000    18131588.387    74245783.948       -1957.528          37.000  
G30  17520699.555    92071908.025        2683.412          39.000    17520703.827    71744375.494        2090.943          38.000  
G09  19260628.791   101215173.589       -2345.626          32.000    19260636.930    78869028.530       -1826.984          34.000  
G17  18134365.217    95296718.410        1753.327          36.000    18134368.716    74257207.979        1365.607          37.000  
G07  15979833.318    83974583.637         983.670          42.000    15979833.657    65434720.994         766.598          42.000  
G14  19280547.429   101319955.781        2205.849          34.000    19280553.070    78950618.237        1719.306          36.000  
> 2025 04 26 01 02 18.9860000  0  9                     
G01  16522432.318    86825970.419        1350.482          40.000    16522434.916    67656558.319        1052.405          42.000  
G02  17055841.415    89628984.768       -1363.818          42.000                                                                  
G04  20553738.880   108010598.148       -2559.773          27.000    20553750.700    84164626.811       -1993.925          33.000  
G08  18132059.653    95284575.488       -2512.707          36.000    18132066.576    74247741.899       -1957.526          37.000  
G30  17520188.918    92069224.261        2683.749          39.000    17520193.099    71742284.267        2091.448          38.000  
G09  19261075.088   101217518.312       -2345.227          32.000    19261083.134    78870855.613       -1827.002          34.000  
G17  18134031.584    95294965.555        1752.927          36.000    18134035.197    74255842.087        1365.801          37.000  
G07  15979646.145    83973599.899         983.451          42.000    15979646.442    65433954.453         766.282          42.000  
G14  19280127.490   101317749.230        2206.396          34.000    19280133.166    78948898.852        1719.346          36.000  
> 2025 04 26 01 02 19.9860000  0  9                     
G01  16522175.424    86824620.359        1349.713          40.000    16522177.967    67655506.333        1051.697          42.000  
G02  17056101.032    89630348.918       -1364.710          41.000                                                                  
G04  20554226.044   108013157.645       -2559.171          28.000    20554237.821    84166621.238       -1994.249          34.000  
G08  18132537.883    95287088.245       -2513.076          37.000    18132544.732    74249699.884       -1957.953          37.000  
G30  17519678.287    92066540.977        2682.672          39.000    17519682.542    71740193.389        2090.558          38.000  
G09  19261521.266   101219863.050       -2344.497          32.000    19261529.474    78872682.685       -1827.257          34.000  
G17  18133697.984    95293213.108        1751.992          36.000    18133701.617    74254476.542        1365.178          37.000  
G07  15979459.004    83972616.812         982.619          42.000    15979459.391    65433188.415         765.351          42.000  
G14  19279707.655   101315542.592        2207.021          34.000    19279713.289    78947179.426        1719.741          36.000  
> 2025 04 26 01 02 20.9860000  0  9                     
G01  16521918.691    86823270.949        1349.438          40.000    16521921.333    67654454.834        1051.331          42.000  
G02  17056360.672    89631713.710       -1365.079          41.000                                                                  
G04  20554712.998   108015717.038       -2559.635          28.000    20554724.951    84168615.513       -1994.260          33.000  
G08  18133015.991    95289601.062       -2512.658          36.000    18133022.875    74251657.922       -1958.170          37.000  
G30  17519167.772    92063858.101        2682.733          39.000    17519172.086    71738102.865        2089.941          38.000  
G09  19261967.650                       -2346.240          33.000    19261975.660    78874509.742       -1826.947          34.000  
G17  18133364.512    95291461.097        1751.723          36.000    18133368.230    74253111.335        1365.180          37.000  
G07  15979272.127    83971634.380         982.148          42.000    15979272.576    65432422.872         765.307          42.000  
G14  19279287.488   101313335.976        2206.374          34.000    19279293.303    78945459.997        1719.397          36.000  
> 2025 04 26 01 02 21.9860000  0  9                     
G01  16521662.073    86821922.059        1348.474          39.000    16521664.737    67653403.742        1051.025          42.000  
G02  17056620.485    89633079.033       -1365.772          41.000                                                                  
G04  20555200.049   108018276.008       -2558.816          27.000    20555211.865    84170609.545       -1993.615          33.000  
G08  18133494.135    95292113.845       -2512.912          36.000    18133501.014    74253615.929       -1958.003          37.000  
G30  17518657.326    92061175.568        2682.338          38.000    17518661.658    71736012.588        2089.525          38.000  
G09  19262413.734   101224666.9543      -2344.667          32.000    19262421.820    78876336.756       -1827.897          33.000  
G17  18133031.214    95289709.408        1751.298          36.000    18133034.887    74251746.390        1364.771          37.000  
G07  15979085.279    83970652.495         981.272          41.000    15979085.631    65431657.764         764.781          42.000  
G14  19278867.606   101311129.181        2207.201          34.000    19278873.386    78943740.428        1719.315          36.000  
> 2025 04 26 01 02 22.9860000  0  9                     
G01  16521405.509    86820573.813        1348.187          39.000    16521408.304    67652353.187        1050.397          42.000  
G02  17056880.476    89634445.001       -1365.956          41.000                                                                  
G04  20555687.029   108020834.858       -2558.077          27.000    20555698.803    84172603.458       -1993.443          33.000  
G08  18133972.291    95294626.702       -2512.944          36.000    18133979.207    74255573.986       -1957.659          37.000  
G30  17518146.960    92058493.501        2682.177          39.000    17518151.307    71733922.657        2089.653          38.000  
G09  19262859.841   101227011.6342      -2344.865          32.000    19262868.044    78878163.750       -1826.854          33.000  
G17  18132697.893    95287958.186        1750.983          36.000    18132701.633    74250381.802        1364.323          37.000  
G07  15978898.380    83969671.276         980.992          41.000    15978898.870    65430893.179         764.439          42.000  
G14  19278447.701   101308922.432        2206.424          34.000    19278453.386    78942020.845        1719.759          36.000  
> 2025 04 26 01 02 23.9860000  0  9                     
G01  16521149.024    86819226.095        1346.942          39.000    16521151.797    67651302.992        1049.768          42.000  
G02  17057140.439    89635811.484       -1367.170          41.000                                                                  
G04  20556173.962   108023422.3903      -2558.462          27.000    20556185.766    84174597.075       -1993.369          34.000  
G08  18134450.475    95297139.493       -2512.936          36.000    18134457.355    74257532.013       -1958.347          37.000  
G30  17517636.627    92055811.730        2681.606          39.000    17517640.954    71731832.929        2089.978          38.000  
G09  19263306.012   101229356.1732      -2344.782          32.000    19263314.158    78879990.646       -1827.119          33.000  
G17  18132364.693    95286207.225        1750.725          36.000    18132368.413    74249017.431        1364.153          37.000  
G07  15978711.797    83968690.562         980.224          41.000    15978712.309    65430128.990         763.727          42.000  
G14  19278027.793   101306715.419        2206.901          33.000    19278033.468    78940301.114        1719.824          36.000  
> 2025 04 26 01 02 24.9860000  0  9                     
G01  16520892.650    86817879.025        1346.844          40.000    16520895.510    67650253.334        1049.451          42.000  
G02  17057400.577    89637178.637       -1367.221          41.000                                                                  
G04  20556660.765   108025980.766       -2558.573          27.000    20556672.539    84176590.598       -1993.453          34.000  
G08  18134928.765    95299652.381       -2512.337          36.000    18134935.608    74259490.098       -1957.765          37.000  
G30  17517126.357    92053130.464        2681.214          39.000    17517130.805    71729743.669        2088.733          38.000  
G09  19263752.074   101231700.2691      -2344.930          32.000    19263760.277    78881817.586       -1826.460          32.000  
G17  18132031.571    95284456.795        1750.191          36.000    18132035.248    74247653.435        1363.823          37.000  
G07  15978525.444    83967710.556         980.060          41.000    15978525.727    65429365.357         763.576          42.000  
G14  19277607.749   101304508.470        2206.665          34.000    19277613.593    78938581.395        1720.199          36.000  
> 2025 04 26 01 02 25.9860000  0  9                     
G01  16520636.328    86816532.501        1346.228          40.000    16520639.390    67649204.085        1049.072          42.000  
G02  17057660.872    89638546.341       -1367.965          41.000                                                                  
G04  20557147.576   108028538.754       -2557.628          27.000    20557159.282    84178583.867       -1993.381          34.000  
G08  18135406.896    95302165.261       -2512.445          36.000    18135413.879    74261448.193       -1958.000          37.000  
G30  17516616.180    92050449.533        2680.803          39.000    17516620.612    71727654.605        2088.766          38.000  
G09  19264198.191   101234044.735       -2344.371          32.000    19264206.369    78883644.465       -1827.353          32.000  
G17  18131698.589    95282706.672        1749.850          36.000    18131702.222    74246289.695        1363.572          37.000  
G07  15978339.135    83966731.126         979.117          41.000    15978339.433    65428602.153         762.805          42.000  
G14  19277187.831   101302301.369        2207.419          34.000    19277193.592    78936861.591        1719.835          36.000  
> 2025 04 26 01 02 26.9860000  0  9                     
G01  16520380.177    86815186.679        1345.636          40.000    16520383.391    67648155.398        1048.517          42.000  
G02  17057921.366    89639914.751       -1368.680          41.000                                                                  
G04  20557634.375   108031096.702       -2557.830          27.000    20557646.169    84180577.034       -1992.798          34.000  
G08  18135885.106    95304678.267       -2512.981          36.000    18135892.140    74263406.372       -1958.238          37.000  
G30  17516106.092    92047769.120        2680.392          39.000    17516110.569    71725565.974        2088.740          38.000  
G09  19264644.403   101236389.333       -2344.651          32.000    19264652.592    78885471.378       -1827.396          32.000  
G17  18131365.680    95280957.041        1749.708          36.000    18131369.238    74244926.371        1362.859          37.000  
G07  15978152.814    83965752.398         978.623          41.000    15978153.103    65427839.509         762.514          42.000  
G14  19276767.801   101300094.295        2207.152          34.000    19276773.608    78935141.811        1720.228          36.000  
> 2025 04 26 01 02 27.9860000  0  9                     
G01  16520124.218    86813841.456        1344.983          40.000    16520127.479    67647107.172        1048.004          42.000  
G02  17058181.843    89641283.758       -1369.480          41.000                                                                  
G04  20558121.100   108033654.366       -2557.409          27.000    20558132.919    84182570.009       -1992.921          34.000  
G08  18136363.363    95307191.308       -2513.240          36.000    18136370.361    74265364.576       -1958.504          37.000  
G30  17515596.068    92045089.103        2679.720          39.000    17515600.544    71723477.655        2088.141          38.000  
G09  19265090.535   101238733.851       -2344.962          32.000    19265098.829    78887298.317       -1827.768          32.000  
G17  18131032.925    95279207.829        1748.910          36.000    18131036.358    74243563.327        1362.592          37.000  
G07  15977966.506    83964774.309         977.610          41.000    15977967.014    65427077.349         761.814          42.000  
G14  19276347.827   101297887.145        2206.953          34.000    19276353.603    78933421.953        1720.059          36.000  
> 2025 04 26 01 02 28.9860000  0  9                     
G01  16519868.418    86812496.912        1343.872          40.000    16519871.519    67646059.473        1047.211          42.000  
G02  17058442.562    89642653.420       -1369.989          41.000                                                                  
G04  20558607.940   108036211.880       -2557.603          27.000    20558619.692    84184562.875       -1993.131          34.000  
G08  18136841.579    95309704.433       -2513.213          36.000    18136848.634    74267322.847       -1958.617          37.000  
G30  17515086.191    92042409.556        2679.265          39.000    17515090.664    71721389.696        2087.640          38.000  
G09  19265536.600   101241078.375       -2344.282          33.000    19265545.058    78889125.223       -1827.232          32.000  
G17  18130700.120    95277459.053        1748.537          36.000    18130703.561    74242200.649        1362.653          37.000  
G07  15977780.603    83963796.874         977.197          41.000    15977781.063    65426315.715         761.261          42.000  
G14  19275927.910   101295680.030        2206.472          34.000    19275933.613    78931702.093        1719.916          36.000  
> 2025 04 26 01 02 29.9860000  0  9                     
G01  16519612.708    86811152.889        1343.903          40.000    16519615.747    67645012.198        1046.960          42.000  
G02  17058703.250    89644023.655       -1370.581          41.000                                                                  
G04  20559094.400   108038769.117       -2557.376          28.000    20559106.415    84186555.484       -1992.275          35.000  
G08  18137319.749    95312217.552       -2513.165          36.000    18137326.900    74269281.144       -1958.756          37.000  
G30  17514576.321    92039730.390        2678.938          39.000    17514580.864    71719302.015        2087.715          38.000  
G09  19265982.959   101243422.884       -2344.484          33.000    19265991.268    78890952.100       -1826.816          32.000  
G17  18130367.345    95275710.668        1748.231          36.000    18130370.831    74240838.253        1362.411          37.000  
G07  15977594.726    83962820.027         976.655          41.000    15977595.171    65425554.548         760.894          42.000  
G14  19275507.740   101293472.744        2207.196          34.000    19275513.529    78929982.169        1719.804          36.000  
> 2025 04 26 01 02 30.9860000  0  9                     
G01  16519357.064    86809809.555        1342.889          40.000    16519360.109    67643965.433        1046.423          42.000  
G02  17058964.158    89645394.534       -1371.486          41.000                                                                  
G04  20559580.902   108041326.133       -2557.173          27.000    20559593.146    84188547.983       -1992.683          35.000  
G08  18137797.938    95314730.782       -2513.645          36.000    18137805.124    74271239.453       -1958.631          37.000  
G30  17514066.623    92037051.670        2678.534          39.000    17514071.159    71717214.729        2087.092          38.000  
G09  19266429.259   101245767.427       -2344.700          33.000    19266437.350    78892778.947       -1826.144          32.000  
G17  18130034.587    95273962.704        1747.860          36.000    18130038.181    74239476.244        1361.597          37.000  
G07  15977408.982    83961843.872         975.593          41.000    15977409.471    65424793.893         760.339          42.000  
G14  19275087.841   101291265.466        2206.963          34.000    19275093.540    78928262.235        1719.474          36.000  
> 2025 04 26 01 02 31.9860000  0  9                     
G01  16519101.592    86808466.843        1342.328          40.000    16519104.595    67642919.170        1045.947          42.000  
G02  17059225.127    89646766.045       -1371.732          41.000                                                                  
G04  20560067.621   108043882.962       -2557.000          27.000    20560079.714    84190540.261       -1991.615          35.000  
G08  18138276.263    95317244.019       -2513.342          36.000    18138283.372    74273197.823       -1958.616          37.000  
G30  17513556.981    92034373.418        2677.610          39.000    17513561.455    71715127.774        2086.672          38.000  
G09  19266875.333   101248111.929       -2344.821          33.000    19266883.451    78894605.900       -1826.574          32.000  
G17  18129702.105    95272215.181        1747.685          36.000    18129705.650    74238114.527        1361.665          37.000  
G07  15977223.419    83960868.345         975.149          41.000    15977223.852    65424033.731         760.064          42.000  
G14  19274667.809   101289058.136        2207.342          34.000    19274673.625    78926542.220        1719.376          36.000  
> 2025 04 26 01 02 32.9860000  0  9                     
G01  16518846.161    86807124.641        1341.626          40.000    16518849.278    67641873.295        1045.410          42.000  
G02  17059486.301    89648138.081       -1372.660          41.000                                                                  
G04  20560553.942   108046439.460       -2556.164          27.000    20560566.294    84192532.368       -1992.439          35.000  
G08  18138754.506    95319757.241       -2513.403          35.000    18138761.612    74275156.174       -1958.453          37.000  
G30  17513047.425    92031695.447        2677.540          38.000    17513051.925    71713041.066        2085.961          38.000  
G09  19267321.445   101250456.329       -2344.429          33.000    19267329.581    78896432.721       -1827.483          32.000  
G17  18129369.624    95270468.009        1746.642          36.000    18129373.194    74236753.086        1361.014          37.000  
G07  15977037.751    83959893.371         974.408          41.000    15977038.361    65423274.018         759.373          42.000  
G14  19274247.940   101286850.662        2207.020          34.000    19274253.667    78924822.099        1719.993          36.000  
> 2025 04 26 01 02 33.9860000  0  9                     
G01  16518590.901    86805783.031        1341.064          40.000    16518594.004    67640827.895        1044.830          42.000  
G02  17059747.485    89649510.697       -1372.864          41.000                                                                  
G04  20561040.330   108048995.773       -2556.574          27.000    20561052.759    84194524.243       -1991.723          35.000  
G08  18139232.741    95322270.479       -2513.260          35.000    18139239.892    74277114.540       -1958.522          37.000  
G30  17512537.921    92029017.909        2677.117          39.000    17512542.403    71710954.647        2086.141          38.000  
G09  19267767.653   101252800.717       -2344.674          33.000    19267775.687    78898259.513       -1827.794          32.000  
G17  18129037.312    95268721.185        1746.779          36.000    18129040.851    74235391.929        1360.788          37.000  
G07  15976852.353    83958918.993         973.945          42.000    15976852.921    65422514.770         758.825          42.000  
G14  19273827.821   101284643.095        2207.742          34.000    19273833.547    78923101.929        1720.080          36.000  
> 2025 04 26 01 02 34.9860000  0  9                     
G01  16518335.739    86804442.024        1340.662          40.000    16518338.842    67639782.947        1044.672          42.000  
G02  17060008.777    89650883.917       -1373.461          41.000                                                                  
G04  20561526.652   108051551.764       -2555.940          27.000    20561539.126    84196515.950       -1991.312          35.000  
G08  18139710.976    95324783.737       -2513.365          35.000    18139718.182    74279072.916       -1958.374          37.000  
G30  17512028.459    92026340.770        2676.550          39.000    17512033.039    71708868.574        2085.629          38.000  
G09  19268213.864   101255145.045       -2344.321          33.000    19268221.826    78900086.216       -1827.043          32.000  
G17  18128704.967    95266974.795        1746.147          36.000    18128708.558    74234031.083        1361.080          37.000  
G07  15976666.916    83957945.230         973.549          42.000    15976667.611    65421755.990         758.556          42.000  
G14  19273407.571   101282435.464        2207.444          34.000    19273413.454    78921381.692        1720.282          36.000  
> 2025 04 26 01 02 35.9860000  0  9                     
G01  16518080.602    86803101.608        1340.234          40.000    16518083.833    67638738.473        1044.073          42.000  
G02  17060270.192    89652257.742       -1374.255          41.000                                                                  
G04  20562012.966   108054107.570       -2555.619          27.000    20562025.433    84198507.449       -1990.712          35.000  
G08  18140189.323    95327297.009       -2513.223          36.000    18140196.434    74281031.309       -1958.447          37.000  
G30  17511519.137    92023664.031        2676.405          38.000    17511523.665    71706782.788        2085.716          38.000  
G09  19268660.041   101257489.313       -2344.233          33.000    19268667.985    78901912.935       -1826.511          32.000  
G17  18128372.663    95265228.773        1745.827          36.000    18128376.403    74232670.570        1359.810          36.000  
G07  15976481.797    83956972.095         972.807          42.000    15976482.355    65420997.698         758.161          42.000  
G14  19272987.224   101280227.728        2208.639          34.000    19272993.414    78919661.402        1720.318          36.000  
> 2025 04 26 01 02 36.9860000  0  9                     
G01  16517825.664    86801761.846        1339.276          40.000    16517828.884    67637694.503        1043.555          42.000  
G02  17060531.722    89653632.209       -1375.042          41.000                                                                  
G04  20562499.289   108056663.192       -2555.929          27.000    20562511.919    84200498.814       -1991.014          35.000  
G08  18140667.653    95329810.390       -2513.155          36.000    18140674.794    74282989.774       -1958.415          37.000  
G30  17511009.861    92020987.744        2675.917          39.000    17511014.307    71704697.377        2085.250          38.000  
G09  19269106.295   101259833.651       -2344.422          33.000    19269114.112    78903739.667       -1827.030          32.000  
G17  18128040.505    95263483.183        1745.519          36.000    18128044.189    74231310.357        1360.442          37.000  
G07  15976296.644    83955999.611         972.249          42.000    15976297.322    65420239.925         757.537          42.000  
G14  19272567.302   101278020.034        2207.413          34.000    19272573.241    78917941.099        1719.967          36.000  
> 2025 04 26 01 02 37.9860000  0  9                     
G01  16517570.800    86800422.704        1338.763          40.000    16517573.951    67636651.002        1043.195          42.000  
G02  17060793.315    89655007.291       -1375.829          41.000                                                                  
G04  20562985.465   108059218.471       -2554.679          27.000    20562998.188    84202490.000       -1990.734          35.000  
G08  18141145.973    95332323.827       -2513.959          36.000    18141153.139    74284948.281       -1958.611          37.000  
G30  17510500.611    92018311.885        2675.494          39.000    17510505.199    71702612.304        2084.659          38.000  
G09  19269552.582   101262177.920       -2344.023          33.000    19269560.231    78905566.366       -1826.526          33.000  
G17  18127708.418    95261738.031        1745.468          36.000    18127712.149    74229950.528        1359.400          37.000  
G07  15976111.876    83955027.780         971.325          42.000    15976112.523    65419482.648         756.859          42.000  
G14  19272147.154   101275812.240        2207.702          34.000    19272153.129    78916220.744        1720.429          36.000  
> 2025 04 26 01 02 38.9860000  0  9                     
G01  16517315.954    86799084.188        1338.318          40.000    16517319.186    67635608.005        1042.938          42.000  
G02  17061055.126    89656382.998       -1376.059          41.000                                                                  
G04  20563471.587   108061773.674       -2554.771          27.000    20563484.503    84204481.058       -1991.311          35.000  
G08  18141624.268    95334837.274       -2513.466          36.000    18141631.385    74286906.824       -1958.776          37.000  
G30  17509991.529    92015636.463        2675.199          39.000    17509996.063    71700527.562        2084.296          38.000  
G09  19269998.604   101264522.241       -2344.804          33.000    19270006.312    78907393.080       -1826.797          33.000  
G17  18127376.317    95259993.318        1744.764          36.000    18127380.160    74228591.001        1359.246          37.000  
G07  15975926.985    83954056.573         971.158          42.000    15975927.673    65418725.866         756.697          42.000  
G14  19271727.119   101273604.367        2207.907          34.000    19271733.002    78914500.354        1720.299          36.000  
> 2025 04 26 01 02 39.9860000  0  9                     
G01  16517061.437    86797746.265        1337.549          40.000    16517064.599    67634565.482        1041.919          42.000  
G02  17061317.062    89657759.305       -1376.801          41.000                                                                  
G04  20563957.873   108064328.605       -2554.738          27.000    20563970.707    84206471.871       -1990.426          34.000  
G08  18142102.590    95337350.772       -2513.604          36.000    18142109.727    74288865.384       -1959.056          37.000  
G30  17509482.529    92012961.461        2674.628          39.000    17509486.937    71698443.134        2084.178          38.000  
G09  19270444.573   101266866.481       -2344.209          32.000    19270452.472    78909219.759       -1826.481          33.000  
G17  18127044.514    95258248.994        1744.183          36.000    18127048.287    74227231.765        1359.038          37.000  
G07  15975742.242    83953086.012         970.100          42.000    15975742.958    65417969.578         755.933          42.000  
G14  19271306.909   101271396.495        2207.743          34.000    19271312.773    78912779.931        1720.115          36.000  
> 2025 04 26 01 02 40.9860000  0  9                     
G01  16516807.004    86796409.001        1336.902          40.000    16516810.115    67633523.436        1041.992          42.000  
G02  17061579.094    89659136.248       -1377.092          41.000                                                                  
G04  20564444.069   108066883.308       -2554.519          27.000    20564456.853    84208462.569       -1990.611          34.000  
G08  18142580.886    95339864.356       -2513.740          36.000    18142588.006    74290824.005       -1958.616          37.000  
G30  17508973.537    92010286.886        2674.370          39.000    17508977.973    71696359.060        2083.999          38.000  
G09  19270890.583   101269210.742       -2344.178          32.000    19270898.569    78911046.486       -1826.915          33.000  
G17  18126712.749    95256505.123        1743.558          36.000    18126716.415    74225872.909        1358.646          37.000  
G07  15975557.664    83952116.106         969.585          42.000    15975558.365    65417213.806         755.421          42.000  
G14  19270886.781   101269188.556        2207.717          34.000    19270892.613    78911059.450        1720.241          36.000  
> 2025 04 26 01 02 41.9860000  0  9                     
G01  16516552.695    86795072.335        1336.359          40.000    16516555.784    67632481.871        1041.559          42.000  
G02  17061841.245    89660513.806       -1377.764          41.000                                                                  
G04  20564930.264   108069437.855       -2554.461          28.000    20564942.884    84210453.083       -1990.089          34.000  
G08  18143059.214    95342377.949       -2513.467          36.000    18143066.349    74292782.659       -1959.116          37.000  
G30  17508464.659    92007612.746        2674.079          39.000    17508469.055    71694275.297        2083.748          38.000  
G09  19271336.600   101271554.992       -2344.613          32.000    19271344.582    78912873.148       -1826.525          33.000  
G17  18126380.993    95254761.614        1743.675          36.000    18126384.681    74224514.350        1358.336          37.000  
G07  15975373.255    83951146.819         968.947          41.000    15975373.889    65416458.518         755.113          42.000  
G14  19270466.545   101266980.556        2207.913          34.000    19270472.424    78909338.935        1720.278          36.000  
> 2025 04 26 01 02 42.9860000  0  9                     
G01  16516298.473    86793736.314        1335.834          40.000    16516301.526    67631440.833        1040.784          42.000  
G02  17062103.519    89661892.015       -1378.540          41.000                                                                  
G04  20565416.349   108071992.145       -2554.353          28.000    20565428.956    84212443.432       -1990.258          34.000  
G08  18143537.552    95344891.662       -2513.396          36.000    18143544.751    74294741.371       -1958.929          37.000  
G30  17507955.925    92004939.059        2673.401          39.000    17507960.264    71692191.924        2083.211          38.000  
G09  19271782.673   101273899.285       -2344.594          32.000    19271790.638    78914699.854       -1826.981          33.000  
G17  18126049.373    95253018.610        1742.661          37.000    18126052.937    74223156.150        1358.035          37.000  
G07  15975188.965    83950178.199         968.234          42.000    15975189.592    65415703.748         754.741          42.000  
G14  19270046.353   101264772.540        2207.761          34.000    19270052.359    78907618.390        1720.648          36.000  
> 2025 04 26 01 02 43.9860000  0  9                     
G01  16516044.387    86792400.912        1335.175          40.000    16516047.406    67630400.259        1040.350          42.000  
G02  17062365.876    89663270.830       -1379.227          41.000                                                                  
G04  20565902.421   108074546.213       -2553.810          28.000    20565914.941    84214433.626       -1989.705          34.000  
G08  18144015.866    95347405.374       -2513.584          36.000    18144023.071    74296700.100       -1958.541          37.000  
G30  17507447.186    92002265.795        2673.013          39.000    17507451.490    71690108.861        2083.023          38.000  
G09  19272228.599   101276243.529       -2344.351          32.000    19272236.817    78916526.515       -1826.389          34.000  
G17  18125717.766    95251276.002        1742.479          37.000    18125721.289    74221798.241        1358.002          37.000  
G07  15975004.708    83949210.216         967.660          42.000    15975005.389    65414949.470         754.162          42.000  
G14  19269626.159   101262564.437        2208.264          34.000    19269632.179    78905897.816        1720.662          36.000  
> 2025 04 26 01 02 44.9860000  0  9                     
G01  16515790.400    86791066.075        1334.430          40.000    16515793.282    67629360.128        1039.941          42.000  
G02  17062628.378    89664650.208       -1379.773          41.000                                                                  
G04  20566388.348   108077100.005       -2553.266          28.000    20566400.977    84216423.626       -1990.112          34.000  
G08  18144494.168    95349919.129       -2513.960          36.000    18144501.450    74298658.853       -1958.747          37.000  
G30  17506938.565    91999592.921        2672.292          39.000    17506942.868    71688026.102        2082.315          38.000  
G09  19272674.650   101278587.711       -2344.694          32.000    19272682.988    78918353.158       -1826.475          33.000  
G17  18125386.283    95249533.735        1742.072          37.000    18125389.762    74220440.664        1357.570          37.000  
G07  15974820.595    83948242.813         966.994          42.000    15974821.355    65414195.667         753.550          42.000  
G14  19269205.735   101260356.256        2208.172          34.000    19269211.927    78904177.148        1720.518          36.000  
> 2025 04 26 01 02 45.9860000  0  9                     
G01  16515536.596    86789731.938        1333.875          40.000    16515539.386    67628320.549        1039.215          42.000  
G02  17062890.997    89666030.284       -1380.496          41.000                                                                  
G04  20566874.208   108079653.715       -2553.615          27.000    20566886.918    84218413.480       -1989.866          34.000  
G08  18144972.520    95352432.974       -2513.854          36.000    18144979.804    74300617.692       -1958.786          37.000  
G30  17506430.042    91996920.537        2672.048          39.000    17506434.319    71685943.707        2082.241          38.000  
G09  19273120.796   101280931.945       -2344.144          32.000    19273129.200    78920179.849       -1827.306          33.000  
G17  18125054.853    95247791.989        1741.560          37.000    18125058.309    74219083.461        1356.927          37.000  
G07  15974636.779    83947276.146         966.279          42.000    15974637.442    65413442.410         752.802          42.000  
G14  19268785.633   101258148.113        2207.777          34.000    19268791.747    78902456.502        1720.635          36.000  
> 2025 04 26 01 02 46.9860000  0  9                     
G01  16515282.893    86788398.346        1333.490          40.000    16515285.614    67627281.386        1038.928          42.000  
G02  17063153.707    89667410.907       -1380.827          41.000                                                                  
G04  20567359.967   108082207.156       -2553.677          27.000    20567372.792    84220403.106       -1989.260          34.000  
G08  18145450.852    95354946.806       -2513.451          36.000    18145458.228    74302576.526       -1958.648          37.000  
G30  17505921.577    91994248.518        2671.906          39.000    17505925.855    71683861.618        2082.174          38.000  
G09  19273566.731   101283276.119       -2344.277          32.000    19273575.339    78922006.434       -1826.958          33.000  
G17  18124723.489    95246050.584        1741.642          37.000    18124726.992    74217726.526        1356.741          37.000  
G07  15974452.955    83946310.044         965.706          42.000    15974453.502    65412689.610         752.293          42.000  
G14  19268365.447   101255939.809        2208.545          34.000    19268371.546    78900735.771        1720.814          36.000  
> 2025 04 26 01 02 47.9860000  0  9                     
G01  16515029.271    86787065.263        1332.928          40.000    16515032.042    67626242.624        1038.354          42.000  
G02  17063416.540    89668792.015       -1381.399          41.000                                                                  
G04  20567845.809   108084760.148       -2552.790          26.000    20567858.661    84222392.473       -1988.915          34.000  
G08  18145929.180    95357460.573       -2513.748          36.000    18145936.607    74304535.304       -1958.716          37.000  
G30  17505413.209    91991576.806        2671.730          39.000    17505417.402    71681779.778        2081.548          38.000  
G09  19274012.616   101285620.152       -2343.864          32.000    19274021.395    78923832.919       -1825.977          33.000  
G17  18124392.183    95244309.471        1740.890          37.000    18124395.591    74216369.814        1356.324          37.000  
G07  15974269.183    83945344.442         965.436          42.000    15974269.751    65411937.190         752.291          42.000  
G14  19267945.070   101253731.338        2208.729          34.000    19267951.282    78899014.896        1720.910          36.000  
> 2025 04 26 01 02 48.9860000  0  9                     
G01  16514775.776    86785732.725        1332.239          40.000    16514778.562    67625204.269        1038.019          42.000  
G02  17063679.520    89670173.661       -1381.843          41.000                                                                  
G04  20568331.601   108087312.908       -2552.237          26.000    20568344.490    84224381.617       -1988.854          34.000  
G08  18146407.523    95359974.299       -2513.609          36.000    18146414.945    74306494.018       -1958.399          37.000  
G30  17504904.776    91988905.434        2671.279          39.000    17504909.109    71679698.197        2081.278          38.000  
G09  19274458.744   101287964.056       -2343.392          32.000    19274467.457    78925659.348       -1826.034          33.000  
G17  18124060.862    95242568.690        1740.750          36.000    18124064.353    74215013.368        1356.084          37.000  
G07  15974085.504    83944379.403         964.867          42.000    15974086.148    65411185.210         751.788          42.000  
G14  19267524.728   101251522.765        2208.420          34.000    19267531.077    78897293.904        1721.286          36.000  
> 2025 04 26 01 02 49.9860000  0  9                     
G01  16514522.276    86784400.741        1331.561          40.000    16514525.101    67624166.361        1037.573          42.000  
G02  17063942.597    89671555.868       -1382.342          41.000                                                                  
G04  20568817.226   108089865.379       -2552.499          26.000    20568830.250    84226370.513       -1988.341          34.000  
G08  18146885.809    95362487.999       -2513.228          36.000    18146893.323    74308452.767       -1958.562          37.000  
G30  17504396.512    91986234.446        2670.650          39.000    17504400.884    71677616.893        2081.160          38.000  
G09  19274904.757   101290307.942       -2344.153          32.000    19274913.548    78927485.756       -1826.835          33.000  
G17  18123729.800    95240828.276        1740.473          36.000    18123733.112    74213657.191        1356.133          37.000  
G07  15973902.028    83943414.950         964.197          42.000    15973902.629    65410433.682         751.448          42.000  
G14  19267104.562   101249314.039        2209.556          34.000    19267110.709    78895572.827        1721.358          36.000  
> 2025 04 26 01 02 50.9860000  0  9                     
G01  16514268.878    86783069.264        1331.110          40.000    16514271.683    67623128.843        1037.225          42.000  
G02  17064205.726    89672938.604       -1383.157          41.000                                                                  
G04  20569302.860   108092417.523       -2552.110          26.000    20569315.895    84228359.223       -1988.742          34.000  
G08  18147364.216    95365001.688       -2513.193          36.000    18147371.704    74310411.481       -1958.720          37.000  
G30  17503888.210    91983563.767        2670.426          39.000    17503892.710    71675535.860        2080.702          38.000  
G09  19275350.585   101292651.659       -2343.830          32.000    19275359.581    78929312.023       -1826.090          32.000  
G17  18123398.639    95239088.191        1739.614          36.000    18123401.995    74212301.266        1355.678          36.000  
G07  15973718.645    83942451.044         963.611          42.000    15973719.155    65409682.591         750.605          42.000  
G14  19266684.190   101247105.220        2208.209          34.000    19266690.451    78893851.655        1720.968          36.000  
> 2025 04 26 01 02 51.9860000  0  9                     
G01  16514015.615    86781738.473        1330.371          40.000    16514018.345    67622091.854        1036.877          42.000  
G02  17064468.896    89674321.983       -1383.670          41.000                                                                  
G04  20569788.532   108094969.473       -2551.533          26.000    20569801.587    84230347.735       -1987.997          35.000  
G08  18147842.505    95367515.456       -2513.794          36.000    18147850.056    74312370.241       -1958.565          37.000  
G30  17503380.154    91980893.584        2669.827          39.000    17503384.549    71673455.206        2079.987          38.000  
G09  19275796.501   101294995.428       -2343.352          32.000    19275805.694    78931138.351       -1826.022          33.000  
G17  18123067.593    95237348.529        1739.561          37.000    18123071.016    74210945.727        1354.821          36.000  
G07  15973535.312    83941487.814         962.957          42.000    15973535.837    65408932.018         750.303          42.000  
G14  19266263.794   101244896.302        2209.479          34.000    19266270.091    78892130.463        1721.246          36.000  
> 2025 04 26 01 02 52.9860000  0  9                     
G01  16513762.490    86780408.230        1329.895          40.000    16513765.320    67621055.296        1036.444          42.000  
G02  17064732.250    89675705.927       -1384.089          41.000                                                                  
G04  20570273.970   108097521.194       -2551.510          26.000    20570287.175    84232336.082       -1988.282          35.000  
G08  18148320.845    95370029.210       -2513.979          36.000    18148328.345    74314329.028       -1959.106          37.000  
G30  17502872.090    91978223.750        2669.670          39.000    17502876.548    71671374.809        2079.951          38.000  
G09  19276242.400   101297339.133       -2343.029          32.000    19276251.626    78932964.599       -1826.196          33.000  
G17  18122736.741    95235609.279        1739.152          36.000    18122740.086    74209590.428        1355.606          36.000  
G07  15973352.257    83940525.166         962.316          42.000    15973352.635    65408181.897         749.770          42.000  
G14  19265843.477   101242687.329        2209.205          34.000    19265849.696    78890409.178        1721.293          36.000  
> 2025 04 26 01 02 53.9860000  0  9                     
G01  16513509.398    86779078.525        1329.102          40.000    16513512.207    67620019.168        1035.828          42.000  
G02  17064995.748    89677090.400       -1384.580          41.000                                                                  
G04  20570759.466   108100072.523       -2551.036          26.000    20570772.752    84234324.161       -1988.035          35.000  
G08  18148799.256    95372542.894       -2513.306          36.000    18148806.748    74316287.732       -1958.956          37.000  
G30  17502364.119    91975554.247        2669.708          39.000    17502368.699    71669294.678        2080.022          38.000  
G09  19276688.214   101299682.764       -2343.906          32.000    19276697.573    78934790.764       -1826.298          32.000  
G17  18122405.843    95233870.348        1738.486          37.000    18122409.129    74208235.408        1354.707          36.000  
G07  15973169.202    83939563.063         961.833          42.000    15973169.524    65407432.212         749.354          42.000  
G14  19265423.197   101240478.227        2208.549          34.000    19265429.265    78888687.771        1721.620          36.000  
> 2025 04 26 01 02 54.9860000  0  9                     
G01  16513256.484    86777749.409        1328.674          40.000    16513259.301    67618983.501        1035.260          42.000  
G02  17065259.328    89678475.476       -1385.315          41.000                                                                  
G04  20571244.848   108102623.698       -2550.983          27.000    20571258.276    84236312.058       -1988.237          35.000  
G08  18149277.583    95375056.646       -2514.000          36.000    18149285.109    74318246.473       -1958.829          37.000  
G30  17501856.302    91972885.184        2668.854          39.000    17501860.732    71667214.873        2079.903          38.000  
G09  19277134.099   101302026.322       -2343.363          32.000    19277143.482    78936616.932       -1826.480          32.000  
G17  18122074.906    95232131.798        1738.360          37.000    18122078.293    74206880.708        1354.085          36.000  
G07  15972986.209    83938601.567         961.241          42.000    15972986.540    65406683.007         749.000          42.000  
G14  19265002.858   101238269.021        2209.019          34.000    19265008.839    78886966.329        1721.417          36.000  
> 2025 04 26 01 02 55.9860000  0  9                     
G01  16513003.594    86776420.850        1328.210          40.000    16513006.383    67617948.254        1035.065          42.000  
G02  17065523.007    89679861.092       -1385.841          41.000                                                                  
G04  20571730.084   108105174.580       -2551.221          27.000    20571743.698    84238299.687       -1987.680          34.000  
G08  18149755.955    95377570.339       -2513.655          36.000    18149763.467    74320205.215       -1958.592          37.000  
G30  17501348.522    91970216.465        2668.471          39.000    17501352.840    71665135.350        2079.699          38.000  
G09  19277579.999   101304369.783       -2342.964          32.000    19277589.375    78938442.939       -1825.047          31.000  
G17  18121744.193    95230393.566        1738.359          37.000    18121747.609    74205526.268        1353.772          36.000  
G07  15972803.320    83937640.666         960.601          42.000    15972803.731    65405934.234         748.521          42.000  
G14  19264582.397   101236059.671        2209.571          34.000    19264588.465    78885244.764        1721.679          36.000  
> 2025 04 26 01 02 56.9860000  0  9                     
G01  16512750.816    86775092.927        1327.502          40.000    16512753.781    67616913.515        1034.473          42.000  
G02  17065786.804    89681247.363       -1386.696          41.000                                                                  
G04  20572215.489   108107725.222       -2550.713          27.000    20572229.129    84240287.196       -1987.522          34.000  
G08  18150234.347    95380084.156       -2514.163          36.000    18150241.772    74322163.982       -1958.888          37.000  
G30  17500840.791    91967548.210        2667.941          39.000    17500845.032    71663056.196        2078.894          38.000  
G09  19278026.033   101306713.282       -2343.113          32.000    19278035.271    78940269.061       -1825.364          31.000  
G17  18121413.520    95228655.830        1737.242          36.000    18121416.922    74204172.145        1354.033          37.000  
G07  15972620.500    83936680.417         959.842          42.000    15972620.987    65405185.990         747.865          42.000  
G14  19264161.842   101233850.324        2209.017          34.000    19264167.996    78883523.221        1721.349          36.000  
> 2025 04 26 01 02 57.9860000  0  9                     
G01  16512498.308    86773765.677        1326.996          40.000    16512501.211    67615879.298        1033.942          42.000  
G02  17066050.754    89682634.282       -1386.991          41.000                                                                  
G04  20572700.858   108110275.683       -2550.312          28.000    20572714.482    84242274.593       -1987.488          34.000  
G08  18150712.796    95382598.023       -2514.316          36.000    18150720.187    74324122.841       -1958.744          37.000  
G30  17500333.130    91964880.412        2667.485          39.000    17500337.419    71660977.397        2078.742          38.000  
G09  19278471.997   101309056.788       -2343.579          32.000    19278481.161    78942095.181       -1825.422          31.000  
G17  18121082.972    95226918.530        1736.971          36.000    18121086.249    74202818.420        1353.743          37.000  
G07  15972437.845    83935720.888         959.189          42.000    15972438.420    65404438.291         747.603          42.000  
G14  19263741.547   101231640.980        2209.091          34.000    19263747.531    78881801.628        1721.791          36.000  
> 2025 04 26 01 02 58.9860000  0  9                     
G01  16512245.835    86772438.993        1326.605          40.000    16512248.696    67614845.524        1033.411          42.000  
G02  17066314.723    89684021.780       -1387.728          41.000                                                                  
G04  20573186.154   108112825.898       -2550.066          27.000    20573199.789    84244261.742       -1986.926          34.000  
G08  18151191.192    95385111.892       -2514.089          36.000    18151198.585    74326081.694       -1958.591          37.000  
G30  17499825.500    91962212.998        2667.534          39.000    17499829.706    71658898.880        2078.879          38.000  
G09  19278917.983   101311400.301       -2344.173          32.000    19278927.023    78943921.275       -1825.902          31.000  
G17  18120752.486    95225181.607        1736.488          36.000    18120755.704    74201464.959        1353.463          37.000  
G07  15972255.374    83934761.939         958.565          42.000    15972255.914    65403691.062         747.026          42.000  
G14  19263321.158   101229431.500        2209.576          34.000    19263327.084    78880079.972        1721.517          36.000  
> 2025 04 26 01 02 59.9860000  0  9                     
G01  16511993.502    86771112.844        1325.842          40.000    16511996.364    67613812.161        1032.977          42.000  
G02  17066578.887    89685409.806       -1388.581          41.000                                                                  
G04  20573671.308   108115375.732       -2549.443          27.000    20573684.912    84246248.670       -1986.979          34.000  
G08  18151669.558    95387625.716       -2514.186          36.000    18151676.941    74328040.509       -1958.501          37.000  
G30  17499317.885    91959545.931        2666.823          38.000    17499322.240    71656820.652        2078.176          38.000  
G09  19279364.020   101313743.610       -2343.240          32.000    19279372.847    78945747.261       -1826.650          31.000  
G17  18120422.025    95223445.002        1736.194          37.000    18120425.271    74200111.766        1353.036          37.000  
G07  15972073.003    83933803.522         958.230          42.000    15972073.549    65402944.261         746.446          42.000  
G14  19262900.693   101227221.881        2210.014          34.000    19262906.592    78878358.195        1722.118          35.000  
> 2025 04 26 01 03 00.9860000  0  9                     
G01  16511741.262    86769787.360        1325.220          40.000    16511744.127    67612779.309        1032.562          42.000  
G02  17066843.064    89686798.509       -1389.293          41.000                                                                  
G04  20574156.473   108117925.517       -2549.578          27.000    20574170.057    84248235.489       -1986.972          33.000  
G08  18152147.868    95390139.639       -2513.789          36.000    18152155.316    74329999.433       -1959.026          37.000  
G30  17498810.512    91956879.339        2666.444          39.000    17498814.842    71654742.800        2077.817          38.000  
G09  19279810.089   101316086.977       -2343.341          32.000    19279818.717    78947573.251       -1826.188          31.000  
G17  18120091.729    95221708.890        1735.810          37.000    18120094.904    74198758.952        1352.630          37.000  
G07  15971890.806    83932845.821         957.118          42.000    15971891.266    65402197.981         746.066          42.000  
G14  19262480.142   101225012.292        2209.211          34.000    19262486.069    78876636.422        1721.778          35.000  
> 2025 04 26 01 03 01.9860000  0  9                     
G01  16511489.143    86768462.453        1324.799          40.000    16511492.013    67611746.909        1032.257          42.000  
G02  17067107.317    89688187.730       -1389.299          41.000                                                                  
G04  20574641.418   108120474.983       -2549.655          27.000    20574655.079    84250222.066       -1986.863          33.000  
G08  18152626.267    95392653.555       -2513.685          36.000    18152633.701    74331958.309       -1958.666          38.000  
G30  17498303.117    91954213.110        2666.308          39.000    17498307.472    71652665.230        2077.520          38.000  
G09  19280255.992   101318430.248       -2342.805          32.000    19280264.415    78949399.195       -1825.757          31.000  
G17  18119761.491    95219973.150        1735.592          37.000    18119764.604    74197406.414        1352.708          37.000  
G07  15971708.650    83931888.671         957.169          42.000    15971709.023    65401452.149         745.914          42.000  
G14  19262059.724   101222802.540        2210.225          34.000    19262065.631    78874914.553        1722.175          36.000  
> 2025 04 26 01 03 02.9860000  0  9                     
G01  16511237.083    86767138.015        1324.078          40.000    16511239.938    67610714.878        1031.665          42.000  
G02  17067371.757    89689577.464       -1390.052          41.000                                                                  
G04  20575126.634   108123023.997       -2548.764          27.000    20575140.095    84252208.348       -1986.327          33.000  
G08  18153104.702    95395167.393       -2514.252          36.000    18153112.177    74333917.121       -1958.676          37.000  
G30  17497795.838    91951547.194        2665.593          39.000    17497800.138    71650587.878        2076.979          38.000  
G09  19280701.923   101320773.441       -2343.214          32.000    19280710.217    78951225.040       -1825.798          31.000  
G17  18119431.170    95218237.661        1735.371          37.000    18119434.374    74196054.092        1352.087          37.000  
G07  15971526.522    83930932.038         956.358          42.000    15971526.944    65400706.728         745.251          42.000  
G14  19261639.186   101220592.667        2209.921          34.000    19261645.064    78873192.560        1721.891          36.000  
> 2025 04 26 01 03 03.9860000  0  9                     
G01  16510985.204    86765814.206        1323.859          40.000    16510987.999    67609683.340        1031.494          42.000  
G02  17067636.407    89690967.823       -1390.449          41.000                                                                  
G04  20575611.743   108125572.917       -2548.867          27.000    20575624.984    84254194.458       -1985.759          33.000  
G08  18153583.029    95397681.267       -2513.384          36.000    18153590.505    74335876.007       -1958.795          37.000  
G30  17497288.654    91948881.702        2665.252          39.000    17497292.958    71648510.871        2076.929          38.000  
G09  19281147.866   101323116.603       -2343.284          32.000    19281156.174    78953050.875       -1826.001          31.000  
G17  18119101.007    95216502.631        1734.779          37.000    18119104.172    74194702.111        1352.129          37.000  
G07  15971344.487    83929976.057         955.959          42.000    15971345.037    65399961.805         744.911          42.000  
G14  19261218.779   101218382.682        2210.316          34.000    19261224.517    78871470.494        1722.444          36.000  
> 2025 04 26 01 03 04.9860000  0  9                     
G01  16510733.370    86764490.975        1323.157          40.000    16510736.166    67608652.256        1030.853          42.000  
G02  17067901.146    89692358.746       -1391.230          41.000                                                                  
G04  20576096.668   108128121.529       -2548.682          27.000    20576109.960    84256180.414       -1986.482          33.000  
G08  18154061.379    95400195.127       -2513.518          35.000    18154068.753    74337834.864       -1958.929          37.000  
G30  17496781.417    91946216.596        2664.902          39.000    17496785.878    71646434.151        2076.958          38.000  
G09  19281593.790   101325459.655       -2342.793          32.000    19281602.072    78954876.629       -1825.781          31.000  
G17  18118770.906    95214767.967        1734.067          36.000    18118774.085    74193350.434        1351.594          36.000  
G07  15971162.744    83929020.667         955.126          42.000    15971163.211    65399217.350         744.227          42.000  
G14  19260798.291   101216172.631        2209.921          34.000    19260804.040    78869748.374        1722.481          36.000  
> 2025 04 26 01 03 05.9860000  0  9                     
G01  16510481.797    86763168.435        1322.339          40.000    16510484.442    67607621.711        1030.322          42.000  
G02  17068166.000    89693750.350       -1392.010          41.000                                                                  
G04  20576581.587   108130670.046       -2548.511          27.000    20576594.936    84258166.175       -1985.343          33.000  
G08  18154539.848    95402709.167       -2514.297          35.000    18154547.091    74339793.826       -1959.074          37.000  
G30  17496274.308    91943551.977        2664.405          39.000    17496278.884    71644357.857        2075.841          38.000  
G09  19282039.881   101327802.814       -2342.843          32.000    19282047.847    78956702.434       -1825.513          32.000  
G17  18118440.903    95213033.762        1733.936          36.000    18118444.110    74191999.101        1351.465          36.000  
G07  15970981.188    83928065.983         954.478          42.000    15970981.582    65398473.429         743.815          42.000  
G14  19260377.767   101213962.550        2210.932          34.000    19260383.465    78868026.286        1722.303          36.000  
> 2025 04 26 01 03 06.9860000  0  9                     
G01  16510230.224    86761846.467        1321.753          40.000    16510232.869    67606591.603        1029.968          42.000  
G02  17068430.852    89695142.520       -1392.300          41.000                                                                  
G04  20577066.407   108133218.166       -2547.727          27.000    20577079.820    84260151.783       -1985.696          33.000  
G08  18155018.249    95405223.160       -2513.867          36.000    18155025.541    74341752.763       -1958.509          37.000  
G30  17495767.275    91940887.762        2664.031          39.000    17495771.871    71642281.834        2076.005          38.000  
G09  19282485.815   101330145.884       -2342.990          32.000    19282493.841    78958528.248       -1826.435          32.000  
G17  18118110.905    95211299.921        1733.816          36.000    18118114.099    74190648.059        1351.498          36.000  
G07  15970799.641    83927111.889         953.967          42.000    15970800.124    65397729.981         743.378          42.000  
G14  19259957.174   101211752.447        2210.024          34.000    19259962.798    78866304.104        1722.080          35.000  
> 2025 04 26 01 03 07.9860000  0  9                     
G01  16509978.847    86760524.911        1321.332          40.000    16509981.374    67605561.817        1029.614          42.000  
G02  17068695.909    89696535.111       -1392.825          41.000                                                                  
G04  20577551.494   108135765.943       -2547.566          27.000    20577564.712    84262137.016       -1984.582          33.000  
G08  18155496.680    95407736.979       -2513.534          36.000    18155503.944    74343711.589       -1958.421          37.000  
G30  17495260.323    91938223.751        2663.877          39.000    17495264.875    71640205.981        2075.919          38.000  
G09  19282931.813   101332488.718       -2342.969          32.000    19282939.690    78960353.771       -1825.219          32.000  
G17  18117780.943    95209566.332        1733.175          36.000    18117784.191    74189297.218        1350.594          36.000  
G07  15970618.159    83926158.217         953.628          42.000    15970618.626    65396986.858         743.142          42.000  
G14  19259536.442   101209542.015        2210.352          34.000    19259542.211    78864581.680        1723.015          36.000  
> 2025 04 26 01 03 08.9860000  0  9                     
G01  16509727.497    86759203.941        1320.435          40.000    16509730.021    67604532.493        1029.041          42.000  
G02  17068960.992    89697928.266       -1393.366          41.000                                                                  
G04  20578036.312   108138313.428       -2547.618          27.000    20578049.476    84264122.085       -1984.865          33.000  
G08  18155975.042    95410250.825       -2513.842          36.000    18155982.393    74345670.423       -1958.791          37.000  
G30  17494753.445    91935560.149        2663.359          39.000    17494757.889    71638130.431        2075.500          38.000  
G09  19283377.581   101334831.517       -2342.694          32.000    19283385.616    78962179.349       -1825.592          32.000  
G17  18117451.165    95207833.096        1732.223          36.000    18117454.386    74187946.628        1350.148          36.000  
G07  15970436.802    83925205.158         952.651          42.000    15970437.310    65396244.214         742.392          42.000  
G14  19259115.708   101207331.520        2210.986          34.000    19259121.521    78862859.219        1722.688          36.000  
> 2025 04 26 01 03 09.9860000  0  9                     
G01  16509476.309    86757883.516        1320.013          40.000    16509478.650    67603503.585        1028.546          42.000  
G02  17069226.221    89699321.990       -1393.958          41.000                                                                  
G04  20578521.070   108140860.613       -2547.342          26.000    20578534.124    84266106.904       -1984.853          33.000  
G08  18156453.348    95412764.628       -2513.800          36.000    18156460.734    74347629.255       -1959.068          37.000  
G30  17494246.591    91932896.902        2662.800          39.000    17494251.048    71636055.164        2075.454          38.000  
G09  19283823.508   101337174.263       -2342.938          32.000    19283831.354    78964004.831       -1825.613          32.000  
G17  18117121.370    95206100.187        1732.442          36.000    18117124.573    74186596.315        1350.283          36.000  
G07  15970255.570    83924252.660         952.227          42.000    15970256.076    65395502.021         741.704          42.000  
G14  19258695.004   101205120.899        2211.131          34.000    19258700.852    78861136.669        1722.459          36.000  
> 2025 04 26 01 03 10.9860000  0  9                     
G01  16509225.113    86756563.696        1319.427          40.000    16509227.510    67602475.154        1028.076          42.000  
G02  17069491.624    89700716.308       -1394.878          41.000                                                                  
G04  20579005.572   108143407.567       -2546.485          26.000    20579018.829    84268091.527       -1984.369          33.000  
G08  18156931.690    95415278.494       -2513.863          36.000    18156939.147    74349588.076       -1959.043          37.000  
G30  17493739.913    91930234.045        2662.916          38.000    17493744.296    71633980.237        2074.694          38.000  
G09  19284269.486   101339516.922       -2342.834          33.000    19284276.995    78965830.309       -1825.653          32.000  
G17  18116791.618    95204367.698        1732.077          36.000    18116794.921    74185246.337        1349.667          36.000  
G07  15970074.345    83923300.789         951.575          42.000    15970074.964    65394760.305         741.144          42.000  
G14  19258274.386   101202910.218        2210.638          35.000    19258280.145    78859414.063        1722.781          35.000  
> 2025 04 26 01 03 11.9860000  0  9                     
G01  16508974.155    86755244.446        1319.092          40.000    16508976.464    67601447.180        1027.612          42.000  
G02  17069757.053    89702111.186       -1395.247          41.000                                                                  
G04  20579490.306   108145954.330       -2546.735          26.000    20579503.522    84270075.954       -1984.140          33.000  
G08  18157410.088    95417792.354       -2513.938          35.000    18157417.549    74351546.914       -1958.591          37.000  
G30  17493233.217    91927571.623        2661.944          38.000    17493237.615    71631905.626        2074.087          38.000  
G09  19284715.106   101341859.506       -2342.777          32.000    19284722.844    78967655.701       -1825.937          32.000  
G17  18116462.065    95202635.578        1731.769          36.000    18116465.229    74183896.600        1350.111          36.000  
G07  15969893.362    83922349.509         951.132          42.000    15969893.957    65394019.049         740.852          42.000  
G14  19257853.723   101200699.440        2210.851          34.000    19257859.453    78857691.361        1722.678          35.000  
> 2025 04 26 01 03 12.9860000  0  9                     
G01  16508723.247    86753925.918        1318.158          40.000    16508725.530    67600419.737        1027.271          42.000  
G02  17070022.648    89703506.766       -1395.840          41.000                                                                  
G04  20579974.971   108148500.861       -2546.544          26.000    20579988.046    84272060.274       -1983.853          33.000  
G08  18157888.522    95420306.344       -2514.044          35.000    18157895.953    74353505.866       -1958.972          37.000  
G30  17492726.736    91924909.685        2661.286          38.000    17492731.142    71629831.370        2074.156          38.000  
G09  19285160.887   101344202.216       -2343.009          32.000    19285168.670    78969481.141       -1825.173          32.000  
G17  18116132.484    95200903.912        1731.967          36.000    18116135.736    74182547.319        1348.769          36.000  
G07  15969712.444    83921398.962         950.223          42.000    15969713.110    65393278.351         740.473          42.000  
G14  19257433.067   101198488.697        2210.016          34.000    19257438.722    78855968.693        1722.725          35.000  
> 2025 04 26 01 03 13.9860000  0  9                     
G01  16508472.371    86752607.914        1317.920          40.000    16508474.684    67599392.724        1026.862          42.000  
G02  17070288.386    89704902.891       -1396.462          41.000                                                                  
G04  20580459.631   108151047.121       -2546.025          26.000    20580472.467    84274044.380       -1983.655          32.000  
G08  18158366.916    95422820.294       -2514.296          36.000    18158374.284    74355464.786       -1959.055          37.000  
G30  17492220.251    91922248.078        2661.303          39.000    17492224.584    71627757.375        2074.423          38.000  
G09  19285606.627   101346544.780       -2342.256          32.000    19285614.686    78971306.512       -1825.134          33.000  
G17  18115803.082    95199172.643        1730.948          36.000    18115806.243    74181198.229        1348.988          36.000  
G07  15969531.614    83920448.970         949.572          42.000    15969532.273    65392538.095         739.882          42.000  
G14  19257012.369   101196277.771        2210.653          35.000    19257018.058    78854245.910        1722.831          35.000  
> 2025 04 26 01 03 14.9860000  0  9                     
G01  16508221.677    86751290.471        1316.913          40.000    16508223.979    67598366.137        1026.459          42.000  
G02  17070554.131    89706299.548       -1396.944          41.000                                                                  
G04  20580943.786   108153593.100       -2545.990          26.000    20580956.955    84276028.197       -1983.643          32.000  
G08  18158845.335    95425334.181       -2513.932          36.000    18158852.723    74357423.648       -1958.652          37.000  
G30  17491713.847    91919586.819        2661.494          38.000    17491718.178    71625683.695        2073.638          38.000  
G09  19286052.390   101348887.273       -2342.912          32.000    19286060.761    78973131.812       -1824.943          33.000  
G17  18115473.682    95197441.666        1731.008          36.000    18115476.915    74179849.446        1348.690          36.000  
G07  15969350.932    83919499.517         949.191          42.000    15969351.664    65391798.259         739.774          42.000  
G14  19256591.649   101194066.758        2210.831          35.000    19256597.352    78852523.049        1722.692          35.000  
> 2025 04 26 01 03 15.9860000  0  9                     
G01  16507971.113    86749973.527        1316.632          40.000    16507973.424    67597339.957        1025.830          42.000  
G02  17070820.012    89707696.708       -1397.520          41.000                                                                  
G04  20581428.262   108156138.698       -2545.710          26.000    20581441.370    84278011.825       -1983.730          33.000  
G08  18159323.702    95427848.059       -2514.228          35.000    18159331.019    74359382.472       -1958.725          37.000  
G30  17491207.570    91916925.919        2660.884          39.000    17491211.770    71623610.251        2073.455          38.000  
G09  19286498.153   101351229.654       -2342.592          32.000    19286506.869    78974957.029       -1825.528          33.000  
G17  18115144.386    95195711.044        1730.469          36.000    18115147.533    74178500.897        1348.337          36.000  
G07  15969170.440    83918550.630         948.213          42.000    15969171.135    65391058.848         739.300          42.000  
G14  19256170.769   101191855.536        2211.421          35.000    19256176.624    78850800.028        1723.100          36.000  
> 2025 04 26 01 03 16.9860000  0  9                     
G01  16507720.654    86748657.221        1315.942          40.000    16507722.991    67596314.254        1025.653          42.000  
G02  17071085.903    89709094.502       -1398.216          41.000                                                                  
G04  20581912.837   108158684.117       -2545.550          26.000    20581925.726    84279995.228       -1982.774          33.000  
G08  18159802.131    95430361.967       -2514.433          36.000    18159809.539    74361341.393       -1959.363          37.000  
G30  17490701.336    91914265.471        2659.847          38.000    17490705.567    71621537.173        2072.936          38.000  
G09  19286943.988   101353572.006       -2342.546          32.000    19286952.756    78976782.218       -1824.852          33.000  
G17  18114815.140    95193980.816        1730.117          36.000    18114818.332    74177152.695        1347.671          36.000  
G07  15968989.908    83917602.361         948.067          42.000    15968990.781    65390319.957         738.764          42.000  
G14  19255750.166   101189644.309        2211.654          35.000    19255755.839    78849077.004        1723.139          36.000  
> 2025 04 26 01 03 17.9860000  0  9                     
G01  16507470.365    86747341.408        1315.344          40.000    16507472.568    67595288.951        1025.092          42.000  
G02  17071351.979    89710492.792       -1398.905          41.000                                                                  
G04  20582397.273   108161229.195       -2544.566          26.000    20582409.976    84281978.390       -1982.450          32.000  
G08  18160280.611    95432875.824       -2514.448          35.000    18160287.826    74363300.211       -1959.015          37.000  
G30  17490195.100    91911605.298        2659.803          38.000    17490199.334    71619464.304        2072.969          38.000  
G09  19287389.573   101355914.202       -2341.927          33.000    19287398.493    78978607.350       -1825.066          33.000  
G17  18114485.814    95192250.919        1729.455          36.000    18114489.115    74175804.670        1347.844          36.000  
G07  15968809.460    83916654.627         947.515          42.000    15968810.453    65389581.468         738.049          42.000  
G14  19255329.312   101187432.913        2211.538          35.000    19255335.042    78847353.819        1723.303          36.000  
> 2025 04 26 01 03 18.9860000  0  9                     
G01  16507220.095    86746026.298        1314.642          40.000    16507222.273    67594264.189        1024.573          42.000  
G02  17071618.161    89711891.743       -1399.029          41.000                                                                  
G04  20582881.636   108163774.126       -2545.002          26.000    20582894.225    84283961.465       -1982.536          32.000  
G08  18160758.970    95435389.746       -2513.780          36.000    18160766.150    74365259.133       -1958.863          37.000  
G30  17489688.914    91908945.632        2659.654          38.000    17489693.128    71617391.871        2072.229          38.000  
G09  19287835.347   101358256.483       -2342.219          32.000    19287844.375    78980432.485       -1824.832          33.000  
G17  18114156.636    95190521.467        1729.301          36.000    18114160.115    74174457.063        1347.533          36.000  
G07  15968629.327    83915707.607         946.900          42.000    15968630.172    65388843.523         737.736          42.000  
G14  19254908.520   101185221.533        2211.387          35.000    19254914.223    78845630.656        1723.401          36.000  
> 2025 04 26 01 03 19.9860000  0  9                     
G01  16506969.907    86744711.743        1314.142          40.000    16506972.185    67593239.878        1023.706          42.000  
G02  17071884.528    89713291.289       -1399.988          41.000                                                                  
G04  20583366.159   108166318.802       -2545.060          26.000    20583378.376    84285944.298       -1982.626          32.000  
G08  18161237.344    95437903.677       -2514.148          36.000    18161244.566    74367218.040       -1959.130          37.000  
G30  17489182.847    91906286.366        2658.910          38.000    17489187.070    71615319.713        2071.350          38.000  
G09  19288281.243   101360598.677       -2342.446          32.000    19288290.058    78982257.558       -1825.313          33.000  
G17  18113827.565    95188792.398        1728.719          37.000    18113830.969    74173109.741        1347.097          36.000  
G07  15968449.266    83914761.157         946.083          42.000    15968450.024    65388106.022         737.250          42.000  
G14  19254487.686   101183010.028        2211.235          35.000    19254493.312    78843907.402        1723.153          35.000  
> 2025 04 26 01 03 20.9860000  0  9                     
G01  16506719.897    86743397.865        1313.776          40.000    16506722.176    67592216.064        1023.657          42.000  
G02  17072150.982    89714691.482       -1400.409          41.000                                                                  
G04  20583850.286   108168863.311       -2544.712          27.000    20583862.634    84287927.017       -1982.349          32.000  
G08  18161715.722    95440417.748       -2514.191          35.000    18161722.953    74369177.015       -1958.602          37.000  
G30  17488676.874    91903627.567        2658.086          39.000    17488681.085    71613247.909        2071.339          38.000  
G09  19288727.073   101362940.900       -2342.122          33.000    19288735.691    78984082.699       -1825.824          33.000  
G17  18113498.515    95187063.795        1728.386          37.000    18113502.032    74171762.782        1346.614          36.000  
G07  15968269.264    83913815.413         945.457          42.000    15968270.052    65387369.085         736.691          42.000  
G14  19254066.928   101180798.523        2211.245          34.000    19254072.393    78842184.157        1723.654          35.000  
> 2025 04 26 01 03 21.9860000  0  9                     
G01  16506470.051    86742084.597        1312.964          40.000    16506472.286    67591192.742        1023.047          42.000  
G02  17072417.527    89716092.269       -1401.098          41.000                                                                  
G04  20584334.494   108171407.525       -2544.330          27.000    20584346.704    84289909.510       -1982.424          32.000  
G08  18162194.097    95442931.797       -2514.137          35.000    18162201.370    74371136.048       -1959.419          37.000  
G30  17488171.017    91900969.168        2658.077          38.000    17488175.131    71611176.433        2071.439          38.000  
G09  19289172.651   101365283.126       -2342.397          33.000    19289181.253    78985907.748       -1824.423          33.000  
G17  18113169.634    95185335.588        1728.158          37.000    18113173.121    74170416.132        1346.061          37.000  
G07  15968089.424    83912870.285         944.668          42.000    15968090.206    65386632.618         736.173          42.000  
G14  19253646.138   101178586.937        2211.566          34.000    19253651.491    78840460.865        1723.635          35.000  
> 2025 04 26 01 03 22.9860000  0  9                     
G01  16506220.236    86740771.956        1312.158          40.000    16506222.445    67590169.896        1022.534          42.000  
G02  17072684.101    89717493.684       -1401.574          41.000                                                                  
G04  20584818.636   108173951.521       -2544.323          27.000    20584830.692    84291891.870       -1982.834          32.000  
G08  18162672.529    95445445.914       -2513.958          35.000    18162679.757    74373095.072       -1958.952          37.000  
G30  17487665.193    91898311.203        2657.755          38.000    17487669.325    71609105.298        2070.981          38.000  
G09  19289618.375   101367625.277       -2341.732          32.000    19289627.092    78987732.827       -1824.517          33.000  
G17  18112840.886    95183607.799        1727.423          37.000    18112844.236    74169069.798        1346.183          37.000  
G07  15967909.650    83911925.788         944.051          42.000    15967910.492    65385896.646         735.515          42.000  
G14  19253225.346   101176375.281        2212.173          34.000    19253230.561    78838737.556        1722.778          36.000  
> 2025 04 26 01 03 23.9860000  0  9                     
G01  16505970.518    86739459.899        1312.042          40.000    16505972.649    67589147.520        1022.199          42.000  
G02  17072950.937    89718895.692       -1401.893          41.000                                                                  
G04  20585302.707   108176495.279       -2543.523          27.000    20585314.720    84293874.044       -1982.063          32.000  
G08  18163150.942    95447960.050       -2514.059          35.000    18163158.199    74375054.166       -1959.261          37.000  
G30  17487159.479    91895653.664        2657.708          38.000    17487163.636    71607034.500        2070.553          38.000  
G09  19290064.122   101369967.415       -2341.210          32.000    19290072.889    78989557.883       -1824.890          33.000  
G17  18112512.144    95181880.434        1727.125          37.000    18112515.538    74167723.794        1345.697          37.000  
G07  15967730.038    83910981.914         943.862          42.000    15967730.777    65385161.162         735.381          42.000  
G14  19252804.514   101174163.623        2211.901          34.000    19252809.682    78837014.147        1723.363          36.000  
> 2025 04 26 01 03 24.9860000  0  9                     
G01  16505720.913    86738148.399        1311.078          40.000    16505723.144    67588125.562        1021.790          42.000  
G02  17073217.879    89720298.248       -1403.065          41.000                                                                  
G04  20585786.629   108179038.704       -2542.889          27.000    20585798.851    84295855.913       -1981.125          33.000  
G08  18163629.388    95450474.175       -2514.304          35.000    18163636.658    74377013.179       -1958.879          37.000  
G30  17486653.800    91892996.483        2656.799          38.000    17486657.965    71604963.956        2070.481          38.000  
G09  19290509.765   101372309.497       -2341.843          32.000    19290518.729    78991382.824       -1824.428          33.000  
G17  18112183.401    95180153.365        1726.961          36.000    18112186.852    74166378.019        1345.553          37.000  
G07  15967550.600    83910038.614         942.789          42.000    15967551.329    65384426.117         734.825          42.000  
G14  19252383.754   101171951.795        2211.708          35.000    19252388.867    78835290.644        1723.744          36.000  
> 2025 04 26 01 03 25.9860000  0  9                     
G01  16505471.429    86736837.439        1310.583          40.000    16505473.755    67587104.037        1021.204          42.000  
G02  17073484.907    89721701.320       -1403.337          41.000                                                                  
G04  20586270.465   108181581.920       -2542.992          27.000    20586282.725    84297837.609       -1981.593          33.000  
G08  18164107.793    95452988.247       -2514.211          35.000    18164115.145    74378972.189       -1958.825          37.000  
G30  17486148.252    91890339.631        2656.502          38.000    17486152.360    71602893.672        2070.190          38.000  
G09  19290955.411   101374651.445       -2342.247          32.000    19290964.424    78993207.699       -1824.949          33.000  
G17  18111854.800    95178426.631        1726.409          36.000    18111858.226    74165032.508        1345.292          37.000  
G07  15967371.148    83909095.857         942.410          42.000    15967371.887    65383691.518         734.095          42.000  
G14  19251962.768   101169739.834        2212.023          34.000    19251967.895    78833567.047        1723.373          36.000  
> 2025 04 26 01 03 26.9860000  0  9                     
G01  16505222.003    86735527.069        1309.985          40.000    16505224.308    67586082.963        1021.021          42.000  
G02  17073751.968    89723104.992       -1403.805          41.000                                                                  
G04  20586754.371   108184124.819       -2542.564          27.000    20586766.702    84299819.036       -1981.238          32.000  
G08  18164586.258    95455502.322       -2513.806          35.000    18164593.557    74380931.210       -1959.059          37.000  
G30  17485642.778    91887683.192        2656.309          38.000    17485646.799    71600823.716        2070.339          38.000  
G09  19291401.163   101376993.341       -2341.993          32.000    19291410.267    78995032.554       -1824.236          33.000  
G17  18111526.401    95176700.239        1726.868          36.000    18111529.710    74163687.297        1345.132          37.000  
G07  15967191.803    83908153.703         942.030          42.000    15967192.562    65382957.360         733.983          42.000  
G14  19251541.793   101167527.788        2211.769          35.000    19251547.009    78831843.347        1724.043          36.000  
> 2025 04 26 01 03 27.9860000  0  9                     
G01  16504972.636    86734217.231        1309.540          40.000    16504975.141    67585062.324        1020.264          42.000  
G02  17074019.155    89724509.211       -1404.828          41.000                                                                  
G04  20587238.288   108186667.391       -2542.261          27.000    20587250.420    84301800.286       -1981.181          32.000  
G08  18165064.782    95458016.377       -2513.948          35.000    18165072.058    74382890.240       -1959.324          37.000  
G30  17485137.417    91885027.127        2655.681          38.000    17485141.457    71598754.043        2069.352          38.000  
G09  19291846.882   101379335.155       -2342.149          33.000    19291855.908    78996857.350       -1824.616          33.000  
G17  18111197.947    95174974.246        1725.743          36.000    18111201.339    74162342.369        1344.117          37.000  
G07  15967012.645    83907212.132         940.930          42.000    15967013.375    65382223.658         733.569          42.000  
G14  19251120.713   101165315.597        2211.983          35.000    19251125.904    78830119.589        1723.958          35.000  
> 2025 04 26 01 03 28.9860000  0  9                     
G01  16504723.547    86732908.062        1308.606          41.000    16504726.003    67584042.183        1019.800          42.000  
G02  17074286.421    89725914.046       -1405.213          41.000                                                                  
G04  20587722.209   108189209.867       -2542.668          26.000    20587734.244    84303781.396       -1981.135          32.000  
G08  18165543.128    95460530.510       -2514.188          35.000    18165550.487    74384849.263       -1958.853          37.000  
G30  17484632.070    91882371.473        2655.338          38.000    17484636.056    71596684.743        2069.120          38.000  
G09  19292292.644   101381676.951       -2341.906          33.000    19292301.448    78998682.119       -1824.732          33.000  
G17  18110869.563    95173248.675        1725.206          36.000    18110873.013    74160997.751        1344.244          37.000  
G07  15966833.554    83906271.211         940.474          42.000    15966834.276    65381490.482         732.953          42.000  
G14  19250699.844   101163103.378        2212.564          35.000    19250704.932    78828395.787        1723.895          35.000  
> 2025 04 26 01 03 29.9860000  0  9                     
G01  16504474.451    86731599.496        1308.203          41.000    16504476.995    67583022.518        1019.635          42.000  
G02  17074553.905    89727319.499       -1405.678          41.000                                                                  
G04  20588205.976   108191752.106       -2543.176          26.000    20588217.967    84305762.300       -1980.912          32.000  
G08  18166021.549    95463044.659       -2513.894          35.000    18166028.865    74386808.351       -1958.956          37.000  
G30  17484126.866    91879716.281        2654.757          38.000    17484130.942    71594615.749        2068.715          38.000  
G09  19292738.383   101384018.721       -2341.402          33.000    19292747.131    79000506.904       -1825.288          33.000  
G17  18110541.281    95171523.535        1724.492          36.000    18110544.892    74159653.452        1344.337          37.000  
G07  15966654.608    83905330.941         939.853          42.000    15966655.355    65380757.788         732.457          42.000  
G14  19250278.930   101160891.118        2212.025          35.000    19250284.031    78826671.951        1723.700          35.000  
> 2025 04 26 01 03 30.9860000  0  9                     
G01  16504225.550    86730291.534        1307.770          40.000    16504228.047    67582003.336        1018.707          42.000  
G02  17074821.379    89728725.563       -1406.327          41.000                                                                  
G04  20588689.752   108194293.975       -2541.874          26.000    20588701.709    84307742.999       -1980.152          32.000  
G08  18166499.918    95465558.847       -2513.921          35.000    18166507.324    74388767.444       -1958.641          37.000  
G30  17483621.637    91877061.489        2654.507          38.000    17483625.712    71592547.085        2068.307          38.000  
G09  19293183.969   101386360.515       -2342.423          33.000    19293192.633    79002331.626       -1824.558          33.000  
G17  18110213.054    95169798.759        1724.570          36.000    18110216.621    74158309.494        1343.633          37.000  
G07  15966475.853    83904391.273         939.420          42.000    15966476.559    65380025.586         731.966          42.000  
G14  19249857.858   101158678.774        2212.282          35.000    19249863.014    78824948.049        1723.666          35.000  
> 2025 04 26 01 03 31.9860000  0  9                     
G01  16503976.810    86728984.213        1307.074          40.000    16503979.236    67580984.641        1018.304          42.000  
G02  17075089.095    89730132.251       -1406.978          41.000                                                                  
G04  20589173.573   108196835.736       -2542.144          26.000    20589185.330    84309723.594       -1980.176          32.000  
G08  18166978.207    95468073.127       -2514.009          35.000    18166985.716    74390726.599       -1958.752          37.000  
G30  17483116.579    91874407.161        2653.916          39.000    17483120.542    71590478.771        2068.082          38.000  
G09  19293629.685   101388702.201       -2341.582          33.000    19293638.221    79004156.355       -1825.296          33.000  
G17  18109884.976    95168074.448        1724.187          37.000    18109888.535    74156965.864        1343.558          37.000  
G07  15966297.266    83903452.270         938.730          42.000    15966297.855    65379293.904         731.386          42.000  
G14  19249436.859   101156466.357        2213.561          35.000    19249441.995    78823224.109        1724.346          36.000  
> 2025 04 26 01 03 32.9860000  0  9                     
G01  16503728.105    86727677.433        1306.366          40.000    16503730.553    67579966.364        1017.914          42.000  
G02  17075356.917    89731539.458       -1407.395          41.000                                                                  
G04  20589657.124   108199377.101       -2541.211          26.000    20589668.976    84311703.925       -1980.155          32.000  
G08  18167456.598    95470587.352       -2514.350          35.000    18167464.130    74392685.726       -1959.113          37.000  
G30  17482611.472    91871753.147        2654.395          39.000    17482615.475    71588410.712        2067.858          38.000  
G09  19294075.378   101391043.866       -2342.168          33.000    19294084.176    79005981.051       -1825.750          34.000  
G17  18109556.924    95166350.449        1723.531          37.000    18109560.426    74155622.499        1342.971          37.000  
G07  15966118.673    83902513.817         938.013          42.000    15966119.268    65378562.625         731.083          42.000  
G14  19249015.765   101154253.876        2212.759          35.000    19249020.927    78821500.070        1724.163          36.000  
> 2025 04 26 01 03 33.9860000  0  9                     
G01  16503479.638    86726371.139        1305.975          40.000    16503481.971    67578948.477        1017.682          42.000  
G02  17075624.830    89732947.173       -1408.256          41.000                                                                  
G04  20590140.751   108201918.240       -2541.005          26.000    20590152.605    84313683.993       -1979.930          32.000  
G08  18167935.069    95473101.481       -2514.198          35.000    18167942.665    74394644.791       -1959.526          37.000  
G30  17482106.535    91869099.495        2653.231          39.000    17482110.522    71586342.913        2067.740          38.000  
G09  19294521.206   101393385.351       -2341.264          33.000    19294530.075    79007805.537       -1824.958          34.000  
G17  18109228.896    95164626.756        1723.444          37.000    18109232.480    74154279.366        1342.557          37.000  
G07  15965940.137    83901575.889         937.608          42.000    15965940.844    65377831.779         730.740          42.000  
G14  19248594.651   101152041.201        2212.549          35.000    19248599.944    78819775.884        1724.646          36.000  
> 2025 04 26 01 03 34.9860000  0  9                     
G01  16503231.143    86725065.475        1305.286          40.000    16503233.358    67577931.076        1017.102          42.000  
G02  17075892.820    89734355.451       -1408.678          41.000                                                                  
G04  20590624.178   108204459.097       -2540.654          26.000    20590636.126    84315663.824       -1979.324          32.000  
G08  18168413.376    95475615.646       -2514.088          35.000    18168421.031    74396603.879       -1958.968          37.000  
G30  17481601.662    91866446.227        2653.184          39.000    17481605.501    71584275.458        2067.171          38.000  
G09  19294966.924   101395726.805       -2340.734          32.000    19294975.551    79009630.031       -1824.179          33.000  
G17  18108901.023    95162903.469        1723.042          37.000    18108904.467    74152936.545        1342.716          37.000  
G07  15965761.774    83900638.597         936.903          42.000    15965762.533    65377101.422         730.088          42.000  
G14  19248173.642   101149828.431        2212.747          35.000    19248178.841    78818051.677        1724.346          36.000  
> 2025 04 26 01 03 35.9860000  0  9                     
G01  16502982.784    86723760.321        1304.944          41.000    16502985.057    67576914.083        1016.742          42.000  
G02  17076160.918    89735764.250       -1409.109          41.000                                                                  
G04  20591107.671   108206999.596       -2540.050          26.000    20591119.638    84317643.457       -1978.869          32.000  
G08  18168891.697    95478129.762       -2514.394          35.000    18168899.391    74398562.907       -1958.717          37.000  
G30  17481096.853    91863793.304        2652.827          39.000    17481100.687    71582208.253        2066.770          38.000  
G09  19295412.344   101398068.174       -2341.270          32.000    19295420.951    79011454.454       -1824.082          33.000  
G17  18108573.160    95161180.488        1722.795          36.000    18108576.598    74151593.963        1342.473          37.000  
G07  15965583.454    83899701.839         936.349          42.000    15965584.301    65376371.462         729.845          42.000  
G14  19247752.464   101147615.544        2212.801          35.000    19247757.741    78816327.324        1724.308          36.000  
> 2025 04 26 01 03 36.9860000  0  9                     
G01  16502734.538    86722455.870        1303.790          41.000    16502736.828    67575897.614        1016.016          42.000  
G02  17076429.066    89737173.729       -1409.875          41.000                                                                  
G04  20591591.050   108209540.071       -2541.067          26.000    20591603.119    84319622.954       -1979.043          33.000  
G08  18169370.142    95480643.983       -2514.413          35.000    18169377.815    74400522.056       -1959.514          37.000  
G30  17480592.122    91861140.869        2652.256          39.000    17480595.891    71580141.409        2066.294          38.000  
G09  19295857.810   101400409.601       -2341.577          32.000    19295866.297    79013278.920       -1824.148          33.000  
G17  18108245.435    95159458.019        1721.864          36.000    18108248.851    74150251.770        1342.031          37.000  
G07  15965405.300    83898765.778         935.692          42.000    15965406.253    65375642.074         728.990          42.000  
G14  19247331.287   101145402.632        2212.720          35.000    19247336.584    78814602.986        1724.221          36.000  
> 2025 04 26 01 03 37.9860000  0  9                     
G01  16502486.353    86721151.891        1303.833          40.000    16502488.653    67574881.527        1015.973          42.000  
G02  17076697.431    89738583.715       -1410.204          41.000                                                                  
G04  20592074.324   108212080.039       -2540.022          27.000    20592086.442    84321602.207       -1979.000          33.000  
G08  18169848.416    95483158.134       -2514.204          36.000    18169856.213    74402481.124       -1959.354          37.000  
G30  17480087.539    91858488.764        2652.020          38.000    17480091.239    71578074.821        2066.670          38.000  
G09  19296303.343   101402750.819       -2340.688          32.000    19296311.708    79015103.239       -1823.560          33.000  
G17  18107917.667    95157735.822        1721.857          36.000    18107921.128    74148909.790        1342.219          37.000  
G07  15965227.320    83897830.233         935.338          42.000    15965228.278    65374913.087         728.939          42.000  
G14  19246910.123   101143189.540        2213.128          34.000    19246915.399    78812878.517        1724.579          36.000  
> 2025 04 26 01 03 38.9860000  0  9                     
G01  16502238.345    86719848.447        1303.094          40.000    16502240.651    67573865.858        1015.411          42.000  
G02  17076965.773    89739994.187       -1410.673          41.000                                                                  
G04  20592557.606   108214619.669       -2539.341          27.000    20592569.770    84323581.150       -1978.970          33.000  
G08  18170326.831    95485672.219       -2514.230          36.000    18170334.636    74404440.149       -1959.141          37.000  
G30  17479582.852    91855836.961        2651.662          39.000    17479586.613    71576008.495        2065.999          38.000  
G09  19296748.893   101405091.950       -2341.062          32.000    19296757.214    79016927.520       -1824.371          33.000  
G17  18107590.077    95156013.912        1721.830          36.000    18107593.461    74147568.080        1341.333          37.000  
G07  15965049.381    83896895.228         934.726          42.000    15965050.325    65374184.516         728.219          42.000  
G14  19246488.893   101140976.307        2212.859          35.000    19246494.261    78811153.933        1724.381          36.000  
> 2025 04 26 01 03 39.9860000  0  9                     
G01  16501990.393    86718545.671        1302.588          40.000    16501992.771    67572850.711        1014.868          42.000  
G02  17077234.232    89741405.358       -1411.412          41.000                                                                  
G04  20593040.937   108217159.209       -2539.108          27.000    20593053.052    84325559.976       -1978.425          33.000  
G08  18170805.179    95488186.399       -2514.265          36.000    18170813.152    74406399.223       -1958.878          37.000  
G30  17479078.283    91853185.670        2651.043          39.000    17479082.068    71573942.536        2065.792          38.000  
G09  19297194.467   101407433.111       -2340.697          32.000    19297202.591    79018751.785       -1823.693          33.000  
G17  18107262.451    95154292.523        1721.101          36.000    18107265.964    74146226.717        1340.926          37.000  
G07  15964871.551    83895960.917         934.113          42.000    15964872.571    65373456.475         727.899          42.000  
G14  19246067.556   101138763.080        2213.318          35.000    19246073.115    78809429.315        1725.103          36.000  
> 2025 04 26 01 03 40.9860000  0  9                     
G01  16501742.546    86717243.486        1301.831          40.000    16501745.065    67571836.011        1014.642          42.000  
G02  17077502.854    89742817.100       -1411.926          41.000                                                                  
G04  20593524.244   108219698.465       -2538.990          27.000    20593536.281    84327538.609       -1978.068          33.000  
G08  18171283.487    95490700.564       -2514.603          36.000    18171291.543    74408358.308       -1958.492          37.000  
G30  17478573.857    91850534.753        2650.424          39.000    17478577.716    71571876.895        2065.264          38.000  
G09  19297639.939   101409774.242       -2340.873          32.000    19297648.253    79020576.042       -1824.207          33.000  
G17  18106935.032    95152571.471        1720.743          36.000    18106938.345    74144885.642        1340.968          37.000  
G07  15964693.916    83895027.219         933.287          42.000    15964694.824    65372728.914         727.399          42.000  
G14  19245646.387   101136549.755        2213.137          35.000    19245651.930    78807704.666        1724.558          36.000  
> 2025 04 26 01 03 41.9860000  0  9                     
G01  16501494.867    86715941.788        1301.593          40.000    16501497.306    67570821.710        1014.069          42.000  
G02  17077771.617    89744229.361       -1412.601          41.000                                                                  
G04  20594007.325   108222237.357       -2538.783          27.000    20594019.406    84329516.990       -1977.927          33.000  
G08  18171761.882    95493214.670       -2514.037          35.000    18171769.994    74410317.390       -1959.375          37.000  
G30  17478069.461    91847884.132        2650.553          38.000    17478073.288    71569811.490        2065.025          38.000  
G09  19298085.292   101412115.220       -2341.059          32.000    19298093.872    79022400.180       -1824.842          33.000  
G17  18106607.576    95150850.723        1720.778          36.000    18106610.893    74143544.826        1340.230          37.000  
G07  15964516.395    83894094.039         932.654          42.000    15964517.255    65372001.755         726.990          42.000  
G14  19245225.165   101134336.261        2213.120          35.000    19245230.735    78805979.872        1724.775          36.000  
> 2025 04 26 01 03 42.9860000  0  9                     
G01  16501247.232    86714640.686        1301.147          40.000    16501249.721    67569807.870        1013.861          42.000  
G02  17078040.371    89745642.203       -1413.121          41.000                                                                  
G04  20594490.450   108224776.000       -2538.426          28.000    20594502.547    84331495.161       -1978.073          33.000  
G08  18172240.331    95495728.788       -2513.882          35.000    18172248.510    74412276.430       -1959.290          37.000  
G30  17477565.189    91845233.918        2650.443          39.000    17477568.942    71567746.378        2065.107          38.000  
G09  19298530.599   101414456.124       -2340.905          32.000    19298539.467    79024224.228       -1823.879          33.000  
G17  18106280.103    95149130.375        1720.457          37.000    18106283.584    74142204.254        1340.502          37.000  
G07  15964338.962    83893161.449         932.541          42.000    15964339.770    65371275.053         726.799          42.000  
G14  19244803.934   101132122.661        2213.717          35.000    19244809.583    78804255.006        1724.335          36.000  
> 2025 04 26 01 03 43.9860000  0  9                     
G01  16500999.812    86713340.111        1300.177          40.000    16501002.333    67568794.430        1013.391          42.000  
G02  17078309.354    89747055.541       -1413.768          41.000                                                                  
G04  20594973.476   108227314.338       -2538.129          28.000    20594985.582    84333473.062       -1977.820          34.000  
G08  18172718.661    95498242.854       -2514.105          35.000    18172726.983    74414235.411       -1958.542          37.000  
G30  17477060.986    91842584.060        2649.592          39.000    17477064.686    71565681.560        2064.512          38.000  
G09  19298976.072   101416796.918       -2341.158          32.000    19298985.028    79026048.204       -1823.728          33.000  
G17  18105952.808    95147410.345        1719.706          37.000    18105956.304    74140863.973        1339.995          37.000  
G07  15964161.702    83892229.392         931.761          42.000    15964162.398    65370548.802         725.807          42.000  
G14  19244382.680   101129908.887        2213.478          35.000    19244388.296    78802529.993        1724.968          36.000  
> 2025 04 26 01 03 44.9860000  0  9                     
G01  16500752.563    86712040.130        1299.628          41.000    16500754.954    67567781.453        1012.756          42.000  
G02  17078578.421    89748469.447       -1413.955          41.000                                                                  
G04  20595456.440   108229852.403       -2537.901          28.000    20595468.627    84335450.744       -1977.262          34.000  
G08  18173197.128    95500756.913       -2514.161          35.000    18173205.374    74416194.428       -1958.807          37.000  
G30  17476556.653    91839934.566        2649.494          39.000    17476560.514    71563617.025        2064.210          38.000  
G09  19299421.471   101419137.626       -2340.389          33.000    19299430.459    79027872.127       -1824.120          33.000  
G17  18105625.619    95145690.661        1719.689          37.000    18105629.075    74139523.963        1339.876          37.000  
G07  15963984.534    83891297.964         930.967          42.000    15963985.040    65369823.004         725.333          42.000  
G14  19243961.521   101127695.036        2214.130          35.000    19243967.042    78800804.917        1724.915          36.000  
> 2025 04 26 01 03 45.9860000  0  9                     
G01  16500505.270    86710740.717        1299.011          41.000    16500507.617    67566768.927        1012.323          42.000  
G02  17078847.598    89749883.963       -1414.872          41.000                                                                  
G04  20595939.382   108232390.202       -2537.513          28.000    20595951.616    84337428.241       -1977.563          34.000  
G08  18173675.634    95503270.996       -2513.911          35.000    18173683.800    74418153.451       -1959.046          37.000  
G30  17476052.555    91837285.488        2649.179          39.000    17476056.451    71561552.786        2064.439          38.000  
G09  19299866.751   101421478.287       -2340.469          32.000    19299875.801    79029696.030       -1824.095          33.000  
G17  18105298.407    95143971.389        1719.382          37.000    18105301.870    74138184.275        1339.526          37.000  
G07  15963807.297    83890367.110         930.662          42.000    15963807.909    65369097.651         725.338          42.000  
G14  19243540.165   101125481.124        2213.852          35.000    19243545.881    78799079.777        1725.245          36.000  
> 2025 04 26 01 03 46.9860000  0  9                     
G01  16500258.084    86709441.837        1298.663          41.000    16500260.316    67565756.826        1011.719          42.000  
G02  17079116.828    89751298.985       -1415.254          41.000                                                                  
G04  20596422.382   108234927.664       -2536.803          28.000    20596434.567    84339405.486       -1976.828          34.000  
G08  18174153.952    95505785.027       -2514.186          35.000    18174162.199    74420112.410       -1958.857          37.000  
G30  17475548.462    91834636.766        2648.548          39.000    17475552.403    71559488.869        2063.679          38.000  
G09  19300312.102   101423818.858       -2340.872          32.000    19300321.327    79031519.859       -1824.279          33.000  
G17  18104971.302    95142252.418        1719.158          37.000    18104974.837    74136844.810        1339.655          37.000  
G07  15963630.225    83889436.831         929.981          42.000    15963630.842    65368372.755         724.734          42.000  
G14  19243118.732   101123267.052        2213.980          35.000    19243124.510    78797354.530        1725.027          36.000  
> 2025 04 26 01 03 47.9860000  0  9                     
G01  16500011.079    86708143.546        1297.772          41.000    16500013.248    67564745.154        1011.420          42.000  
G02  17079386.194    89752714.588       -1416.084          41.000                                                                  
G04  20596905.155   108237464.886       -2537.111          28.000    20596917.459    84341382.572       -1977.306          34.000  
G08  18174632.392    95508299.068       -2514.420          35.000    18174640.654    74422071.399       -1959.035          37.000  
G30  17475044.513    91831988.421        2647.819          39.000    17475048.317    71557425.197        2063.373          38.000  
G09  19300757.389   101426159.326       -2340.453          32.000    19300766.878    79033343.566       -1823.734          33.000  
G17  18104644.347    95140533.832        1718.464          37.000    18104647.830    74135505.678        1338.384          37.000  
G07  15963453.423    83888507.142         929.103          42.000    15963453.833    65367648.323         724.141          42.000  
G14  19242697.411   101121052.866        2214.097          35.000    19242703.198    78795629.200        1725.359          36.000  
> 2025 04 26 01 03 48.9860000  0  9                     
G01  16499764.021    86706845.732        1297.211          41.000    16499766.263    67563733.865        1010.950          42.000  
G02  17079655.677    89754130.634       -1416.368          41.000                                                                  
G04  20597387.902   108240001.758       -2537.052          28.000    20597400.283    84343359.294       -1976.734          34.000  
G08  18175110.736    95510812.985       -2513.995          35.000    18175119.062    74424030.295       -1959.006          37.000  
G30  17474540.657    91829340.354        2647.511          39.000    17474544.406    71555361.778        2063.189          38.000  
G09  19301202.791   101428499.667       -2340.387          32.000    19301212.152    79035167.189       -1822.755          33.000  
G17  18104317.369    95138815.523        1717.915          36.000    18104320.780    74134166.687        1338.933          36.000  
G07  15963276.604    83887577.938         928.962          42.000    15963276.984    65366924.273         723.834          42.000  
G14  19242276.056   101118838.499        2214.188          35.000    19242281.740    78793903.708        1725.543          36.000  
> 2025 04 26 01 03 49.9860000  0  9                     
G01  16499517.129    86705548.549        1296.893          41.000    16499519.342    67562723.078        1010.724          42.000  
G02  17079925.257    89755547.327       -1416.810          41.000                                                                  
G04  20597870.532   108242538.366       -2536.492          27.000    20597883.040    84345335.858       -1976.475          34.000  
G08  18175589.113    95513326.996       -2514.698          35.000    18175597.468    74425989.253       -1959.036          38.000  
G30  17474036.761    91826692.745        2647.357          39.000    17474040.721    71553298.715        2062.824          38.000  
G09  19301648.098   101430840.015       -2341.179          32.000    19301657.555    79036990.856       -1823.761          33.000  
G17  18103990.536    95137097.637        1717.754          36.000    18103993.756    74132828.103        1338.414          37.000  
G07  15963099.932    83886649.420         928.051          42.000    15963100.390    65366200.741         723.327          42.000  
G14  19241854.666   101116624.088        2214.496          35.000    19241860.291    78792178.203        1725.506          36.000  
> 2025 04 26 01 03 50.9860000  0  9                     
G01  16499270.465    86704251.931        1296.234          41.000    16499272.598    67561712.733        1010.059          42.000  
G02  17080194.995    89756964.573       -1417.557          41.000                                                                  
G04  20598353.220   108245074.660       -2535.547          27.000    20598365.699    84347312.262       -1976.778          33.000  
G08  18176067.534    95515840.935       -2513.912          35.000    18176075.863    74427948.201       -1959.254          37.000  
G30  17473532.968    91824045.500        2647.060          39.000    17473537.037    71551235.940        2062.454          38.000  
G09  19302093.447   101433180.226       -2340.193          32.000    19302102.910    79038814.415       -1824.106          34.000  
G17  18103663.617    95135380.102        1717.386          36.000    18103666.906    74131489.759        1338.265          37.000  
G07  15962923.415    83885721.461         927.512          42.000    15962923.772    65365477.656         722.693          42.000  
G14  19241433.343   101114409.573        2214.423          35.000    19241438.892    78790452.593        1726.085          36.000  
> 2025 04 26 01 03 51.9860000  0  9                     
G01  16499023.760    86702955.864        1295.673          41.000    16499025.959    67560702.809        1009.552          42.000  
G02  17080464.783    89758382.352       -1417.951          41.000                                                                  
G04  20598835.796   108247610.746       -2535.229          27.000    20598848.417    84349288.360       -1975.745          33.000  
G08  18176545.651    95518354.873       -2513.711          35.000    18176554.376    74429907.084       -1958.964          37.000  
G30  17473029.330    91821398.632        2646.798          39.000    17473033.395    71549173.429        2062.647          38.000  
G09  19302538.797   101435520.365       -2339.731          32.000    19302548.314    79040637.905       -1823.555          34.000  
G17  18103336.894    95133662.922        1717.174          36.000    18103340.070    74130151.695        1337.897          37.000  
G07  15962746.950    83884794.061         927.117          42.000    15962747.231    65364755.014         722.297          42.000  
G14  19241011.926   101112194.907        2214.602          35.000    19241017.525    78788726.916        1725.609          36.000  
> 2025 04 26 01 03 52.9860000  0  9                     
G01  16498777.252    86701660.410        1295.142          41.000    16498779.422    67559693.365        1009.149          42.000  
G02  17080734.704    89759800.744       -1418.675          41.000                                                                  
G04  20599318.521   108250146.600       -2536.023          27.000    20599330.944    84351264.355       -1976.503          33.000  
G08  18177023.991    95520868.862       -2514.154          35.000    18177032.842    74431866.026       -1959.068          37.000  
G30  17472525.704    91818752.192        2645.937          39.000    17472529.632    71547111.250        2062.271          38.000  
G09  19302984.197   101437860.472       -2339.115          32.000    19302993.665    79042461.370       -1823.751          34.000  
G17  18103010.261    95131946.153        1716.464          36.000    18103013.488    74128813.939        1337.829          37.000  
G07  15962570.535    83883867.321         926.392          42.000    15962570.943    65364032.871         721.624          42.000  
G14  19240590.518   101109980.210        2214.345          35.000    19240595.999    78787001.169        1725.324          36.000  
> 2025 04 26 01 03 53.9860000  0  9                     
G01  16498530.886    86700365.625        1294.690          41.000    16498533.059    67558684.442        1008.740          42.000  
G02  17081004.733    89761219.789       -1419.270          41.000                                                                  
G04  20599800.985   108252682.264       -2535.528          28.000    20599813.451    84353240.158       -1975.904          33.000  
G08  18177502.453    95523382.925       -2514.036          35.000    18177511.166    74433825.012       -1958.599          37.000  
G30  17472022.146    91816106.206        2645.972          39.000    17472026.143    71545049.452        2061.946          37.000  
G09  19303429.388   101440200.639       -2339.914          32.000    19303439.424    79044284.827       -1823.266          34.000  
G17  18102683.653    95130229.844        1716.133          36.000    18102686.945    74127476.578        1337.031          37.000  
G07  15962394.289    83882941.243         925.961          42.000    15962394.739    65363311.252         721.429          42.000  
G14  19240169.106   101107765.495        2214.519          35.000    19240174.608    78785275.410        1725.763          36.000  
> 2025 04 26 01 03 54.9860000  0  9                     
G01  16498284.619    86699071.394        1293.958          41.000    16498286.757    67557675.943        1008.099          42.000  
G02  17081274.878    89762639.382       -1419.974          41.000                                                                  
G04  20600283.388   108255217.576       -2535.032          28.000    20600295.895    84355215.711       -1974.939          33.000  
G08  18177980.925    95525896.939       -2514.010          35.000    18177989.543    74435784.004       -1959.104          37.000  
G30  17471518.784    91813460.609        2645.221          39.000    17471522.739    71542987.956        2061.475          37.000  
G09  19303874.650   101442540.678       -2339.756          32.000    19303884.881    79046108.212       -1823.041          34.000  
G17  18102357.045    95128513.875        1715.375          36.000    18102360.384    74126139.439        1337.219          37.000  
G07  15962218.140    83882015.741         925.149          42.000    15962218.677    65362590.085         721.091          42.000  
G14  19239747.588   101105550.625        2214.712          34.000    19239753.055    78783549.568        1725.380          36.000  
> 2025 04 26 01 03 55.9860000  0  9                     
G01  16498038.504    86697777.743        1293.341          41.000    16498040.623    67556667.905        1007.794          42.000  
G02  17081545.088    89764059.526       -1420.502          41.000                                                                  
G04  20600765.957   108257752.664       -2534.883          27.000    20600778.272    84357191.113       -1975.465          33.000  
G08  18178459.351    95528410.995       -2513.870          35.000    18178467.896    74437742.989       -1958.988          37.000  
G30  17471015.411    91810815.382        2645.021          39.000    17471019.380    71540926.740        2061.399          37.000  
G09  19304320.007   101444880.675       -2339.900          31.000    19304330.581    79047931.596       -1823.558          34.000  
G17  18102030.628    95126798.285        1715.311          36.000    18102033.970    74124802.648        1336.108          37.000  
G07  15962042.213    83881090.840         924.484          42.000    15962042.724    65361869.387         720.195          42.000  
G14  19239326.147   101103335.698        2214.663          34.000    19239331.534    78781823.653        1725.547          36.000  
> 2025 04 26 01 03 56.9860000  0  9                     
G01  16497792.473    86696484.697        1293.127          41.000    16497794.595    67555660.333        1007.538          42.000  
G02  17081815.448    89765480.295       -1421.006          41.000                                                                  
G04  20601248.379   108260287.523       -2534.284          27.000    20601260.676    84359166.302       -1975.121          33.000  
G08  18178937.859    95530925.095       -2514.242          35.000    18178946.261    74439701.999       -1958.949          37.000  
G30  17470512.114    91808170.593        2644.641          39.000    17470516.109    71538865.870        2060.899          38.000  
G09  19304765.319   101447220.696       -2340.700          31.000    19304776.131    79049754.938       -1823.488          34.000  
G17  18101704.204    95125083.107        1715.097          36.000    18101707.579    74123466.111        1336.629          37.000  
G07  15961866.275    83880166.568         924.214          42.000    15961866.864    65361149.171         720.113          42.000  
G14  19238904.663   101101120.680        2215.358          35.000    19238910.003    78780097.635        1726.537          36.000  
> 2025 04 26 01 03 57.9860000  0  9                     
G01  16497546.590    86695192.288        1291.992          40.000    16497548.648    67554653.254        1006.982          42.000  
G02  17082085.842    89766901.638       -1421.517          41.000                                                                  
G04  20601730.737   108262822.131       -2534.544          27.000    20601743.017    84361141.286       -1975.041          33.000  
G08  18179416.377    95533439.188       -2514.559          35.000    18179424.668    74441661.034       -1959.144          37.000  
G30  17470008.837    91805526.234        2643.951          39.000    17470013.002    71536805.324        2060.625          37.000  
G09  19305210.617   101449560.564       -2340.244          32.000    19305221.358    79051578.208       -1823.095          34.000  
G17  18101377.836    95123368.311        1714.506          36.000    18101381.251    74122129.916        1335.968          37.000  
G07  15961690.531    83879242.931         923.328          42.000    15961691.167    65360429.439         719.694          42.000  
G14  19238483.180   101098905.624        2214.922          35.000    19238488.462    78778371.609        1726.525          36.000  
> 2025 04 26 01 03 58.9860000  0  9                     
G01  16497300.742    86693900.426        1291.235          41.000    16497302.750    67553646.601        1006.287          42.000  
G02  17082356.486    89768323.529       -1422.031          41.000                                                                  
G04  20602213.115   108265356.426       -2533.999          28.000    20602225.236    84363116.097       -1974.855          33.000  
G08  18179894.687    95535953.218       -2513.871          35.000    18179903.152    74443620.033       -1958.977          37.000  
G30  17469505.729    91802882.218        2643.724          39.000    17469509.803    71534745.043        2060.302          37.000  
G09  19305655.803   101451900.398       -2339.634          32.000    19305666.495    79053401.470       -1823.323          33.000  
G17  18101051.584    95121653.895        1714.213          36.000    18101054.980    74120794.008        1335.578          37.000  
G07  15961514.819    83878319.854         922.719          42.000    15961515.554    65359710.173         719.035          42.000  
G14  19238061.735   101096690.449        2214.908          35.000    19238066.871    78776645.500        1725.844          36.000  
> 2025 04 26 01 03 59.9860000  0  9                     
G01  16497055.007    86692609.078        1291.119          41.000    16497057.079    67552640.381        1005.811          42.000  
G02  17082627.127    89769745.969       -1422.503          41.000                                                                  
G04  20602695.338   108267890.436       -2533.827          27.000    20602707.376    84365090.605       -1974.003          32.000  
G08  18180373.147    95538467.288       -2514.112          35.000    18180381.533    74445579.042       -1959.056          37.000  
G30  17469002.660    91800238.565        2643.327          39.000    17469006.754    71532685.087        2059.618          37.000  
G09  19306100.973   101454240.146       -2339.753          32.000    19306111.385    79055224.664       -1823.821          34.000  
G17  18100725.372    95119939.779        1714.114          36.000    18100728.703    74119458.348        1335.386          37.000  
G07  15961339.226    83877397.354         922.243          42.000    15961339.991    65358991.348         718.365          42.000  
G14  19237640.209   101094475.104        2215.256          35.000    19237645.312    78774919.276        1726.264          36.000  
> 2025 04 26 01 04 00.9860000  0  9                     
G01  16496809.419    86691318.424        1290.503          41.000    16496811.434    67551634.666        1005.475          42.000  
G02  17082898.000    89771169.078       -1423.490          41.000                                                                  
G04  20603177.368   108270424.250       -2533.800          27.000    20603189.549    84367065.005       -1974.190          32.000  
G08  18180851.527    95540981.432       -2514.691          35.000    18180859.979    74447538.094       -1959.179          37.000  
G30  17468499.653    91797595.404        2642.940          39.000    17468503.700    71530625.469        2059.306          37.000  
G09  19306546.216   101456579.865       -2339.559          32.000    19306556.200    79057047.826       -1823.373          33.000  
G17  18100399.265    95118226.147        1713.477          36.000    18100402.665    74118123.067        1334.829          37.000  
G07  15961163.837    83876475.561         921.217          42.000    15961164.610    65358273.052         717.998          42.000  
G14  19237218.722   101092259.765        2215.356          35.000    19237223.631    78773193.027        1726.603          36.000  
> 2025 04 26 01 04 01.9860000  0  9                     
G01  16496563.890    86690028.424        1290.009          41.000    16496565.939    67550629.457        1005.109          42.000  
G02  17083168.918    89772592.817       -1424.240          41.000                                                                  
G04  20603659.504   108272957.872       -2533.114          27.000    20603671.597    84369039.262       -1973.473          32.000  
G08  18181329.971    95543495.597       -2513.816          35.000    18181338.331    74449497.196       -1959.270          37.000  
G30  17467996.747    91794952.694        2642.641          39.000    17468000.780    71528566.228        2058.925          37.000  
G09  19306991.421   101458919.609       -2338.469          32.000    19307001.381    79058871.008       -1823.187          33.000  
G17  18100073.261    95116512.951        1713.558          36.000    18100076.690    74116788.098        1334.598          37.000  
G07  15960988.467    83875554.391         921.008          42.000    15960989.307    65357555.255         717.625          42.000  
G14  19236797.170   101090044.338        2216.821          35.000    19236802.007    78771466.767        1726.291          36.000  
> 2025 04 26 01 04 02.9860000  0  9                     
G01  16496318.511    86688738.916        1289.276          41.000    16496320.513    67549624.647        1004.675          42.000  
G02  17083439.979    89774017.033       -1424.563          41.000                                                                  
G04  20604141.543   108275491.125       -2532.909          27.000    20604153.578    84371013.255       -1973.726          32.000  
G08  18181808.368    95546009.713       -2513.995          35.000    18181816.756    74451456.228       -1958.934          37.000  
G30  17467493.983    91792310.293        2642.495          39.000    17467497.905    71526507.215        2058.551          37.000  
G09  19307436.578   101461259.237       -2339.196          32.000    19307446.444    79060694.081       -1823.286          33.000  
G17  18099747.304    95114800.042        1712.789          36.000    18099750.641    74115453.365        1334.375          37.000  
G07  15960813.278    83874633.760         920.359          42.000    15960814.066    65356837.888         717.006          42.000  
G14  19236375.642   101087828.849        2215.847          35.000    19236380.378    78769740.398        1726.349          36.000  
> 2025 04 26 01 04 03.9860000  0  9                     
G01  16496073.262    86687450.042        1288.727          41.000    16496075.258    67548620.323        1004.327          42.000  
G02  17083711.232    89775441.855       -1424.943          41.000                                                                  
G04  20604623.622   108278024.135       -2532.253          26.000    20604635.615    84372987.042       -1973.410          32.000  
G08  18182286.802    95548523.914       -2514.903          35.000    18182295.198    74453415.335       -1959.437          38.000  
G30  17466991.227    91789668.333        2641.594          39.000    17466995.055    71524448.544        2058.168          37.000  
G09  19307881.888   101463598.840       -2339.075          32.000    19307891.681    79062517.106       -1822.366          33.000  
G17  18099421.365    95113087.578        1712.464          36.000    18099424.692    74114118.967        1334.162          37.000  
G07  15960638.165    83873713.793         919.769          42.000    15960639.031    65356121.035         716.326          42.000  
G14  19235953.993   101085613.261        2215.512          35.000    19235958.798    78768013.955        1726.614          36.000  
> 2025 04 26 01 04 04.9860000  0  9                     
G01  16495828.007    86686161.740        1288.165          41.000    16495830.157    67547616.476        1003.448          42.000  
G02  17083982.446    89776867.273       -1425.642          41.000                                                                  
G04  20605105.628   108280557.037       -2532.979          26.000    20605117.690    84374960.646       -1973.063          32.000  
G08  18182765.215    95551038.035       -2513.687          35.000    18182773.652    74455374.393       -1959.142          38.000  
G30  17466488.561    91787026.776        2641.578          39.000    17466492.344    71522390.180        2058.239          37.000  
G09  19308327.134   101465938.413       -2339.939          32.000    19308336.773    79064340.108       -1822.618          33.000  
G17  18099095.455    95111375.467        1712.346          36.000    18099098.928    74112784.847        1334.040          37.000  
G07  15960463.224    83872794.417         919.252          42.000    15960464.019    65355404.624         716.259          42.000  
G14  19235532.394   101083397.573        2216.032          35.000    19235537.115    78766287.445        1726.654          36.000  
> 2025 04 26 01 04 05.9860000  0  9                     
G01  16495582.962    86684874.121        1287.018          41.000    16495585.182    67546613.130        1002.820          42.000  
G02  17084253.762    89778293.329       -1426.236          41.000                                                                  
G04  20605587.508   108283089.601       -2532.067          25.000    20605599.610    84376934.098       -1973.344          33.000  
G08  18183243.692    95553552.293       -2514.356          35.000    18183252.108    74457333.544       -1959.197          38.000  
G30  17465985.974    91784385.691        2640.985          39.000    17465989.849    71520332.212        2057.285          37.000  
G09  19308772.366   101468277.926       -2339.581          33.000    19308782.063    79066163.138       -1822.743          33.000  
G17  18098769.632    95109663.817        1711.670          36.000    18098773.229    74111451.098        1333.610          37.000  
G07  15960288.465    83871875.732         918.229          42.000    15960289.090    65354688.752         715.774          42.000  
G14  19235110.757   101081181.901        2215.584          35.000    19235115.558    78764560.921        1726.854          36.000  
> 2025 04 26 01 04 06.9860000  0  9                     
G01  16495338.046    86683587.099        1286.676          40.000    16495340.215    67545610.250        1002.777          42.000  
G02  17084525.254    89779720.003       -1426.895          41.000                                                                  
G04  20606069.541   108285622.031       -2532.159          25.000    20606081.574    84378907.380       -1972.557          33.000  
G08  18183722.050    95556066.580       -2514.397          35.000    18183730.540    74459292.707       -1959.031          37.000  
G30  17465483.499    91781745.040        2640.354          39.000    17465487.368    71518274.535        2057.504          37.000  
G09  19309217.635   101470617.440       -2339.490          32.000    19309227.474    79067986.143       -1823.396          33.000  
G17  18098444.085    95107952.586        1711.046          36.000    18098447.608    74110117.680        1333.353          36.000  
G07  15960113.692    83870957.679         917.741          42.000    15960114.521    65353973.400         715.094          42.000  
G14  19234689.138   101078966.128        2215.592          35.000    19234693.943    78762834.341        1727.433          36.000  
> 2025 04 26 01 04 07.9860000  0  9                     
G01  16495093.290    86682300.676        1285.889          40.000    16495095.437    67544607.847        1001.971          42.000  
G02  17084796.920    89781147.222       -1427.326          41.000                                                                  
G04  20606551.462   108288154.139       -2532.059          25.000    20606563.540    84380880.421       -1972.665          34.000  
G08  18184200.437    95558580.850       -2514.070          35.000    18184208.988    74461251.911       -1959.542          37.000  
G30  17464981.062    91779104.785        2639.865          39.000    17464984.972    71516217.168        2057.841          37.000  
G09  19309662.777   101472956.887       -2339.333          32.000    19309672.679    79069809.073       -1822.812          33.000  
G17  18098118.533    95106241.700        1710.695          36.000    18098121.993    74108784.516        1333.076          36.000  
G07  15959939.091    83870040.211         917.398          42.000    15959939.897    65353258.501         714.466          42.000  
G14  19234267.357   101076750.257        2216.126          35.000    19234272.275    78761107.727        1726.837          36.000  
> 2025 04 26 01 04 08.9860000  0  9                     
G01  16494848.673    86681014.874        1285.632          40.000    16494850.712    67543605.923        1001.801          42.000  
G02  17085068.657    89782575.099       -1428.130          41.000                                                                  
G04  20607033.277   108290686.061       -2532.366          26.000    20607045.442    84382853.325       -1973.208          34.000  
G08  18184678.856    95561095.236       -2514.932          35.000    18184687.508    74463211.121       -1959.274          37.000  
G30  17464478.668    91776464.939        2639.863          39.000    17464482.603    71514160.185        2057.026          37.000  
G09  19310108.049   101475296.345       -2339.834          32.000    19310117.921    79071632.015       -1822.778          33.000  
G17  18097792.999    95104531.254        1710.935          36.000    18097796.469    74107451.707        1332.901          36.000  
G07  15959764.643    83869123.435         916.365          42.000    15959765.480    65352544.104         714.068          42.000  
G14  19233845.746   101074534.370        2216.317          35.000    19233850.660    78759381.067        1726.732          36.000  
> 2025 04 26 01 04 09.9860000  0  9                     
G01  16494604.180    86679729.599        1285.181          41.000    16494605.984    67542604.401        1001.703          42.000  
G02  17085340.517    89784003.454       -1428.532          42.000                                                                  
G04  20607515.017   108293217.542       -2531.262          26.000    20607527.208    84384825.939       -1972.542          34.000  
G08  18185157.186    95563609.504       -2514.587          35.000    18185165.912    74465170.282       -1959.000          37.000  
G30  17463976.366    91773825.458        2639.385          39.000    17463980.329    71512103.440        2056.593          37.000  
G09  19310553.306   101477635.656       -2338.963          33.000    19310562.900    79073454.844       -1822.742          33.000  
G17  18097467.588    95102821.113        1710.621          36.000    18097471.069    74106119.100        1332.963          36.000  
G07  15959590.377    83868207.149         916.138          42.000    15959590.940    65351830.125         714.099          42.000  
G14  19233423.997   101072318.335        2215.878          35.000    19233428.958    78757654.286        1726.899          36.000  
> 2025 04 26 01 04 10.9860000  0  9                     
G01  16494359.695    86678444.864        1284.528          41.000    16494361.520    67541603.321        1000.885          42.000  
G02  17085612.435    89785432.360       -1429.472          41.000                                                                  
G04  20607996.893   108295748.862       -2531.659          26.000    20608008.916    84386798.296       -1972.228          34.000  
G08  18185635.689    95566123.688       -2513.789          35.000    18185644.398    74467129.425       -1959.190          37.000  
G30  17463474.136    91771186.316        2639.112          39.000    17463478.177    71510046.982        2056.433          37.000  
G09  19310998.570   101479974.903       -2340.061          33.000    19311007.952    79075277.622       -1823.211          33.000  
G17  18097142.153    95101111.345        1709.700          36.000    18097145.700    74104786.813        1332.219          36.000  
G07  15959416.100    83867291.458         915.328          42.000    15959416.671    65351116.607         713.050          42.000  
G14  19233002.350   101070102.136        2216.179          35.000    19233007.131    78755927.361        1726.684          36.000  
> 2025 04 26 01 04 11.9860000  0  9                     
G01  16494115.369    86677160.709        1284.052          40.000    16494117.144    67540602.686        1000.201          42.000  
G02  17085884.476    89786861.795       -1429.662          41.000                                                                  
G04  20608478.616   108298279.753       -2530.582          27.000    20608490.634    84388770.498       -1972.571          33.000  
G08  18186114.208    95568637.938       -2514.155          35.000    18186122.868    74469088.541       -1958.978          37.000  
G30  17462971.896    91768547.582        2638.311          39.000    17462976.051    71507990.823        2055.587          37.000  
G09  19311443.703   101482314.055       -2339.528          33.000    19311453.188    79077100.295       -1822.427          33.000  
G17  18096816.921    95099401.931        1708.938          36.000    18096820.369    74103454.823        1331.433          37.000  
G07  15959242.014    83866376.340         914.838          42.000    15959242.429    65350403.528         712.756          42.000  
G14  19232580.702   101067885.861        2215.827          35.000    19232585.329    78754200.389        1727.076          35.000  
> 2025 04 26 01 04 12.9860000  0  9                     
G01  16493871.139    86675877.115        1283.081          41.000    16493872.902    67539602.468        1000.006          42.000  
G02  17086156.653    89788291.799       -1430.285          42.000                                                                  
G04  20608960.154   108300810.464       -2530.569          27.000    20608972.299    84390742.435       -1971.690          33.000  
G08  18186592.671    95571152.171       -2514.470          35.000    18186601.238    74471047.684       -1959.349          37.000  
G30  17462469.752    91765909.230        2637.596          39.000    17462473.991    71505934.937        2055.857          37.000  
G09  19311888.826   101484653.060       -2339.311          33.000    19311898.456    79078922.934       -1822.439          34.000  
G17  18096491.674    95097692.866        1708.684          36.000    18096495.154    74102123.048        1331.773          37.000  
G07  15959067.999    83865461.815         914.076          42.000    15959068.397    65349690.890         712.375          42.000  
G14  19232158.986   101065669.446        2215.992          35.000    19232163.505    78752473.318        1727.372          35.000  
> 2025 04 26 01 04 13.9860000  0  9                     
G01  16493626.943    86674594.176        1282.861          41.000    16493628.704    67538602.775         999.426          42.000  
G02  17086428.848    89789722.441       -1430.703          41.000                                                                  
G04  20609441.473   108303340.910       -2530.120          28.000    20609453.859    84392714.210       -1971.195          34.000  
G08  18187071.110    95573666.425       -2513.967          35.000    18187079.780    74473006.840       -1959.248          38.000  
G30  17461967.858    91763271.300        2637.900          39.000    17461972.040    71503879.437        2055.337          37.000  
G09  19312333.793   101486992.136       -2339.435          33.000    19312343.677    79080745.566       -1822.560          33.000  
G17  18096166.587    95095984.226        1708.446          36.000    18096170.018    74100791.677        1331.217          37.000  
G07  15958894.153    83864547.951         913.638          42.000    15958894.562    65348978.791         712.176          42.000  
G14  19231737.225   101063452.995        2217.004          35.000    19231741.723    78750746.226        1727.408          35.000  
> 2025 04 26 01 04 14.9860000  0  9                     
G01  16493382.922    86673311.668        1282.312          41.000    16493384.606    67537603.402         999.329          42.000  
G02  17086701.255    89791153.504       -1431.347          41.000                                                                  
G04  20609922.902   108305871.008       -2529.862          28.000    20609935.381    84394685.696       -1971.698          34.000  
G08  18187549.626    95576180.561       -2514.090          35.000    18187558.186    74474965.908       -1959.259          37.000  
G30  17461465.932    91760633.615        2637.749          39.000    17461470.160    71501824.117        2054.890          37.000  
G09  19312778.917   101489330.969       -2339.116          32.000    19312788.877    79082568.032       -1822.234          33.000  
G17  18095841.563    95094275.816        1708.612          36.000    18095844.912    74099460.438        1331.281          37.000  
G07  15958720.416    83863634.549         913.113          42.000    15958720.730    65348267.049         711.554          42.000  
G14  19231315.493   101061236.303        2217.058          34.000    19231319.874    78749018.955        1727.363          36.000  
> 2025 04 26 01 04 15.9860000  0  9                     
G01  16493138.913    86672029.705        1281.635          41.000    16493140.675    67536604.482         998.663          42.000  
G02  17086973.698    89792585.096       -1431.994          41.000                                                                  
G04  20610404.420   108308400.779       -2530.091          27.000    20610416.962    84396656.930       -1971.105          34.000  
G08  18188028.085    95578694.653       -2514.092          35.000    18188036.654    74476924.936       -1959.118          37.000  
G30  17460964.029    91757996.315        2637.328          39.000    17460968.277    71499769.058        2055.044          37.000  
G09  19313223.906   101491669.662       -2338.343          32.000    19313233.960    79084390.423       -1822.451          33.000  
G17  18095516.497    95092567.759        1708.350          36.000    18095519.959    74098129.496        1330.762          37.000  
G07  15958546.691    83862721.704         912.591          42.000    15958547.112    65347555.747         711.077          42.000  
G14  19230893.585   101059019.503        2216.765          35.000    19230898.040    78747291.574        1727.237          36.000  
