     3.03           OBSERVATION DATA    M: Mixed            RINEX VERSION / TYPE
RTKCONV 2.4.3 b34                       20250227 094649 UTC PGM / RUN BY / DATE 
format: RINEX                                               COMMENT             
log: E:\Nguyends_doa\RX\RX2\RinexObservables_20180216_082103COMMENT             
                                                            MARKER NAME         
                                                            MARKER NUMBER       
                                                            MARKER TYPE         
                                                            OBSERVER / AGENCY   
                                                            REC # / TYPE / VERS 
                                                            ANT # / TYPE        
        0.0000        0.0000        0.0000                  APPROX POSITION XYZ 
        0.0000        0.0000        0.0000                  ANTENNA: DELTA H/E/N
G    4 C1C L1C D1C S1C                                      SYS / # / OBS TYPES 
  2018    02    16    08    21   04.0000000     GPS         TIME OF FIRST OBS   
  2018    02    16    08    25   04.0000000     GPS         TIME OF LAST OBS    
G L1C                                                       SYS / PHASE SHIFT   
  0                                                         GLONASS SLOT / FRQ #
 C1C    0.000 C1P    0.000 C2C    0.000 C2P    0.000        GLONASS COD/PHS/BIS 
                                                            END OF HEADER       
> 2018 02 16 08 21 04.0000000  0  8                     
G23  22690947.123      107528.0141      -2122.189          39.000  
G11  21507275.381     -118338.5751       2228.431          38.000  
G09  20497235.326       34376.9181       -702.140          38.000  
G03  25100227.526      153885.8291      -3089.046          39.000  
G30  22801027.042     -187645.7471       3536.780          38.000  
G01  22486017.341      -68639.4521       1301.055          38.000  
G10  21429789.043       68427.6111      -1383.896          38.000  
G05  24384754.598     -185210.1421       3557.578          39.000  
> 2018 02 16 08 21 05.0000000  0  8                     
G23  22691351.035      109650.758       -2122.802          38.000  
G11  21506851.403     -120566.589        2227.953          38.000  
G09  20497369.022       35079.618        -702.941          38.000  
G03  25100815.452      156975.364       -3089.684          38.000  
G30  22800354.166     -191182.014        3536.161          38.000  
G01  22485769.855      -69939.811        1300.174          38.000  
G10  21430052.433       69812.119       -1384.717          38.000  
G05  24384077.701     -188767.502        3557.490          38.000  
> 2018 02 16 08 21 06.0000000  0  8                     
G23  22691755.053      111774.103       -2123.333          38.000  
G11  21506427.478     -122794.182        2227.946          38.000  
G09  20497502.879       35782.964        -703.313          38.000  
G03  25101403.468      160065.503       -3090.102          38.000  
G30  22799681.325     -194717.751        3535.677          39.000  
G01  22485522.477      -71239.574        1299.747          38.000  
G10  21430316.036       71197.214       -1385.067          38.000  
G05  24383400.805     -192324.787        3557.662          38.000  
> 2018 02 16 08 21 07.0000000  0  8                     
G23  22692159.161      113897.777       -2123.672          38.000  
G11  21506003.553     -125021.818        2227.523          38.000  
G09  20497636.772       36486.717        -703.801          38.000  
G03  25101991.520      163155.975       -3090.540          38.000  
G30  22799008.557     -198253.223        3535.392          38.000  
G01  22485275.277      -72538.987        1299.503          38.000  
G10  21430579.640       72582.670       -1385.548          38.000  
G05  24382723.873     -195882.236        3557.647          38.000  
> 2018 02 16 08 21 08.0000000  0  8                     
G23  22692563.412      116022.084       -2124.595          38.000  
G11  21505579.700     -127249.014        2226.949          38.000  
G09  20497770.825       37191.163        -704.780          38.000  
G03  25102579.750      166247.113       -3091.479          38.000  
G30  22798335.877     -201788.122        3534.697          38.000  
G01  22485028.148      -73837.709        1298.431          38.000  
G10  21430843.369       73968.787       -1386.361          38.000  
G05  24382046.976     -199439.599        3557.394          38.000  
> 2018 02 16 08 21 09.0000000  0  8                     
G23  22692967.806      118147.101       -2125.335          38.000  
G11  21505155.936     -129475.700        2226.643          38.000  
G09  20497904.986       37896.373        -705.499          38.000  
G03  25103168.106      169338.978       -3092.223          38.000  
G30  22797663.305     -205322.306        3533.964          38.000  
G01  22484781.091      -75135.693        1297.724          38.000  
G10  21431107.241       75355.683       -1387.206          38.000  
G05  24381370.080     -202996.753        3557.149          38.000  
> 2018 02 16 08 21 10.0000000  0  8                     
G23  22693372.218      120272.470       -2125.105          38.000  
G11  21504732.297     -131702.119        2226.803          38.000  
G09  20498039.325       38602.045        -705.598          38.000  
G03  25103756.568      172431.235       -3092.068          38.000  
G30  22796990.804     -208856.123        3533.872          38.000  
G01  22484534.159      -76433.274        1297.768          38.000  
G10  21431371.202       76742.994       -1387.314          38.000  
G05  24380693.130     -206554.062        3557.762          38.000  
> 2018 02 16 08 21 11.0000000  0  8                     
G23  22693776.683      122398.096       -2125.531          38.000  
G11  21504308.641     -133928.585        2226.521          38.000  
G09  20498173.665       39308.021        -706.121          38.000  
G03  25104345.085      175523.811       -3092.718          38.000  
G30  22796318.393     -212389.698        3533.450          38.000  
G01  22484287.298      -77730.545        1297.194          38.000  
G10  21431635.235       78130.655       -1387.803          38.000  
G05  24380016.180     -210111.609        3557.617          38.000  
> 2018 02 16 08 21 12.0000000  0  8                     
G23  22694181.309      124524.413       -2126.326          38.000  
G11  21503885.109     -136154.477        2225.846          38.000  
G09  20498308.183       40014.738        -706.750          38.000  
G03  25104933.762      178617.093       -3093.295          38.000  
G30  22795646.107     -215922.545        3532.712          38.000  
G01  22484040.545      -79027.079        1296.338          38.000  
G10  21431899.446       79519.068       -1388.520          38.000  
G05  24379339.248     -213669.016        3557.712          38.000  
> 2018 02 16 08 21 13.0000000  0  8                     
G23  22694586.007      126651.247       -2126.864          38.000  
G11  21503461.649     -138379.940        2225.416          38.000  
G09  20498442.754       40722.089        -707.479          38.000  
G03  25105522.510      181710.994       -3094.093          38.000  
G30  22794973.910     -219454.820        3532.101          38.000  
G01  22483793.970      -80323.007        1295.603          38.000  
G10  21432163.765       80908.149       -1389.220          38.000  
G05  24378662.315     -217226.359        3557.463          38.000  
> 2018 02 16 08 21 14.0000000  0  8                     
G23  22694990.758      128778.377       -2127.173          38.000  
G11  21503038.242     -140605.145        2225.194          38.000  
G09  20498577.487       41429.824        -707.851          38.000  
G03  25106111.348      184805.249       -3094.190          38.000  
G30  22794301.749     -222986.740        3531.958          38.000  
G01  22483547.449      -81618.609        1295.644          38.000  
G10  21432428.155       82297.636       -1389.633          38.000  
G05  24377985.330     -220783.915        3557.896          38.000  
> 2018 02 16 08 21 15.0000000  0  8                     
G23  22695395.563      130905.523       -2127.132          38.000  
G11  21502614.764     -142830.517        2225.352          38.000  
G09  20498712.273       42137.651        -707.872          38.000  
G03  25106700.204      187899.622       -3094.415          38.000  
G30  22793629.659     -226518.531        3531.810          38.000  
G01  22483300.910      -82914.060        1295.450          38.000  
G10  21432692.670       83687.336       -1389.737          38.000  
G05  24377308.201     -224341.898        3558.120          38.000  
> 2018 02 16 08 21 16.0000000  0  8                     
G23  22695800.404      133033.244       -2128.031          38.000  
G11  21502191.412     -145055.328        2224.676          38.000  
G09  20498847.148       42846.154        -708.760          38.000  
G03  25107289.238      190994.657       -3095.318          38.000  
G30  22792957.712     -230049.652        3530.848          38.000  
G01  22483054.514      -84208.864        1294.575          39.000  
G10  21432957.257       85077.751       -1390.758          38.000  
G05  24376631.090     -227899.830        3558.012          38.000  
> 2018 02 16 08 21 17.0000000  0  8                     
G23  22696205.441      135161.428       -2128.165          38.000  
G11  21501768.094     -147279.673        2224.383          38.000  
G09  20498982.113       43555.217        -708.976          38.000  
G03  25107878.326      194090.252       -3095.682          38.000  
G30  22792285.855     -233580.176        3530.565          38.000  
G01  22482808.244      -85503.069        1294.149          38.000  
G10  21433221.951       86468.841       -1391.135          38.000  
G05  24375953.979     -231457.711        3558.101          38.000  
> 2018 02 16 08 21 18.0000000  0  8                     
G23  22696610.496      137290.088       -2128.662          38.000  
G11  21501344.902     -149503.497        2223.876          38.000  
G09  20499117.131       44264.878        -709.668          38.000  
G03  25108467.522      197186.428       -3096.338          38.000  
G30  22791614.158     -237110.080        3529.792          38.000  
G01  22482562.080      -86796.699        1293.740          38.000  
G10  21433486.787       87860.617       -1392.100          38.000  
G05  24375276.940     -235015.591        3558.088          38.000  
> 2018 02 16 08 21 19.0000000  0  8                     
G23  22697015.676      139419.318       -2129.158          38.000  
G11  21500921.800     -151726.768        2223.177          38.000  
G09  20499252.275       44975.198        -710.338          38.000  
G03  25109056.860      200283.275       -3096.948          38.000  
G30  22790942.623     -240639.251        3529.108          38.000  
G01  22482316.023      -88089.589        1292.806          38.000  
G10  21433751.749       89253.206       -1392.608          38.000  
G05  24374599.918     -238573.328        3557.894          38.000  
> 2018 02 16 08 21 20.0000000  0  8                     
G23  22697420.945      141548.947       -2129.725          38.000  
G11  21500498.840     -153949.570        2222.778          38.000  
G09  20499387.525       45686.063        -711.108          38.000  
G03  25109646.288      203380.654       -3097.591          38.000  
G30  22790271.176     -244167.840        3528.384          38.000  
G01  22482070.074      -89381.951        1292.174          38.000  
G10  21434016.890       90646.471       -1393.414          38.000  
G05  24373922.950     -242131.082        3557.780          38.000  
> 2018 02 16 08 21 21.0000000  0  8                     
G23  22697826.233      143678.849       -2129.919          38.000  
G11  21500075.969     -156171.977        2222.345          38.000  
G09  20499522.883       46397.311        -711.436          38.000  
G03  25110235.805      206478.424       -3097.825          38.000  
G30  22789599.766     -247695.947        3527.989          38.000  
G01  22481824.268      -90673.877        1292.008          38.000  
G10  21434282.155       92040.281       -1393.879          38.000  
G05  24373245.875     -245688.986        3558.043          38.000  
> 2018 02 16 08 21 22.0000000  0  8                     
G23  22698231.627      145809.149       -2130.393          38.000  
G11  21499653.224     -158393.843        2221.747          38.000  
G09  20499658.330       47109.066        -711.816          38.000  
G03  25110825.411      209576.727       -3098.489          38.000  
G30  22788928.498     -251223.454        3527.307          38.000  
G01  22481578.515      -91965.205        1291.058          38.000  
G10  21434547.510       93434.749       -1394.885          38.000  
G05  24372568.818     -249246.899        3557.929          38.000  
> 2018 02 16 08 21 23.0000000  0  8                     
G23  22698637.111      147939.947       -2130.785          38.000  
G11  21499230.532     -160615.085        2221.341          38.000  
G09  20499793.867       47821.479        -712.364          38.000  
G03  25111415.106      212675.646       -3098.830          38.000  
G30  22788257.373     -254750.214        3526.776          38.000  
G01  22481332.906      -93255.849        1290.684          38.000  
G10  21434813.062       94830.107       -1395.141          38.000  
G05  24371891.814     -252804.679        3558.016          38.000  
> 2018 02 16 08 21 24.0000000  0  8                     
G23  22699042.613      150070.901       -2130.853          38.000  
G11  21498807.930     -162835.955        2220.855          38.000  
G09  20499929.475       48534.184        -712.622          38.000  
G03  25112004.874      215774.894       -3099.173          38.000  
G30  22787586.373     -258276.546        3526.290          38.000  
G01  22481087.385      -94546.108        1290.270          38.000  
G10  21435078.685       96225.975       -1395.795          38.000  
G05  24371214.757     -256362.663        3558.118          38.000  
> 2018 02 16 08 21 25.0000000  0  8                     
G23  22699448.168      152202.064       -2131.039          38.000  
G11  21498385.399     -165056.400        2220.451          38.000  
G09  20500065.226       49247.254        -712.892          38.000  
G03  25112594.712      218874.488       -3099.557          38.000  
G30  22786915.445     -261802.413        3525.931          38.000  
G01  22480841.918      -95835.931        1289.734          38.000  
G10  21435344.469       97622.428       -1396.477          38.000  
G05  24370537.699     -259920.799        3558.448          38.000  
> 2018 02 16 08 21 29.0000000  0  8                     
G23  22701071.086      160729.978       -2132.464          38.000  
G11  21496696.365     -173932.055        2217.970          38.000  
G09  20500608.944       52104.392        -714.944          38.000  
G03  25114954.924      231277.589       -3101.467          38.000  
G30  22784232.930     -275899.554        3523.373          38.000  
G01  22479861.195     -100989.348        1287.634          38.000  
G10  21436408.873      103215.690       -1399.673          38.000  
G05  24367829.327     -274153.224        3558.420          38.000  
> 2018 02 16 08 21 30.0000000  0  8                     
G23  22701476.910      162862.646       -2132.839          38.000  
G11  21496274.406     -176149.388        2216.832          38.000  
G09  20500745.088       52819.822        -715.638          38.000  
G03  25115545.156      234379.450       -3102.102          38.000  
G30  22783562.591     -279422.301        3522.513          38.000  
G01  22479616.282     -102276.228        1286.644          38.000  
G10  21436675.246      104615.828       -1400.680          38.000  
G05  24367152.234     -277711.307        3557.940          38.000  
> 2018 02 16 08 21 31.0000000  0  8                     
G23  22701882.769      164995.587       -2133.117          38.000  
G11  21495852.572     -178365.993        2216.228          38.000  
G09  20500881.322       53535.724        -716.203          38.000  
G03  25116135.477      237481.766       -3102.634          38.000  
G30  22782892.360     -282944.375        3521.713          38.000  
G01  22479371.530     -103562.473        1285.814          38.000  
G10  21436941.834      106016.872       -1401.355          38.000  
G05  24366475.159     -281269.370        3557.977          38.000  
> 2018 02 16 08 21 32.0000000  0  8                     
G23  22702288.700      167128.752       -2132.953          38.000  
G11  21495430.881     -180581.980        2215.900          38.000  
G09  20501017.627       54252.013        -716.213          38.000  
G03  25116725.887      240584.423       -3102.587          38.000  
G30  22782222.254     -286465.880        3521.405          38.000  
G01  22479126.867     -104848.177        1285.599          38.000  
G10  21437208.601      107418.620       -1401.759          38.000  
G05  24365798.066     -284827.454        3558.348          38.000  
> 2018 02 16 08 21 33.0000000  0  8                     
G23  22702694.666      169262.047       -2133.074          38.000  
G11  21495009.333     -182797.344        2215.283          39.000  
G09  20501154.021       54968.649        -716.616          38.000  
G03  25117316.369      243687.388       -3103.041          38.000  
G30  22781552.219     -289986.841        3520.692          38.000  
G01  22478882.258     -106133.379        1285.096          38.000  
G10  21437475.511      108821.082       -1402.641          38.000  
G05  24365120.955     -288385.587        3558.338          38.000  
> 2018 02 16 08 21 34.0000000  0  8                     
G23  22703100.614      171395.411       -2133.459          38.000  
G11  21494587.874     -185012.123        2214.113          38.000  
G09  20501290.469       55685.580        -717.316          38.000  
G03  25117906.869      246790.585       -3103.479          38.000  
G30  22780882.291     -293507.332        3519.928          38.000  
G01  22478637.774     -107418.077        1284.222          38.000  
G10  21437742.510      110224.163       -1403.878          38.000  
G05  24364443.862     -291943.811        3558.114          39.000  
> 2018 02 16 08 21 35.0000000  0  8                     
G23  22703506.634      173529.102       -2133.588          38.000  
G11  21494166.594     -187226.033        2213.771          38.000  
G09  20501426.988       56403.027        -717.430          38.000  
G03  25118497.476      249894.240       -3103.594          38.000  
G30  22780212.525     -297027.114        3519.667          38.000  
G01  22478393.416     -108702.078        1283.910          38.000  
G10  21438009.705      111628.223       -1404.172          38.000  
G05  24363766.805     -295501.902        3558.116          38.000  
> 2018 02 16 08 21 36.0000000  0  8                     
G23  22703912.672      175662.874       -2133.830          38.000  
G11  21493745.439     -189439.283        2212.926          38.000  
G09  20501563.561       57120.805        -717.906          38.000  
G03  25119088.119      252998.167       -3104.194          38.000  
G30  22779542.883     -300546.346        3519.007          38.000  
G01  22478149.200     -109985.517        1283.087          38.000  
G10  21438277.026      113033.006       -1405.030          38.000  
G05  24363089.712     -299060.064        3558.395          38.000  
> 2018 02 16 08 21 37.0000000  0  8                     
G23  22704318.799      177797.003       -2134.241          38.000  
G11  21493324.427     -191651.578        2211.932          38.000  
G09  20501700.295       57839.172        -718.713          38.000  
G03  25119678.886      256102.583       -3104.840          38.000  
G30  22778873.366     -304064.784        3517.945          38.000  
G01  22477905.091     -111268.174        1282.303          38.000  
G10  21438544.525      114438.789       -1406.303          38.000  
G05  24362412.690     -302617.936        3557.693          38.000  
> 2018 02 16 08 21 38.0000000  0  8                     
G23  22704724.944      179931.281       -2134.378          38.000  
G11  21492903.594     -193863.137        2210.936          38.000  
G09  20501837.082       58557.894        -718.898          38.000  
G03  25120269.708      259207.267       -3104.683          38.000  
G30  22778203.957     -307582.663        3517.723          38.000  
G01  22477661.125     -112550.207        1281.863          38.000  
G10  21438812.203      115845.344       -1407.291          38.000  
G05  24361735.651     -306175.796        3557.964          38.000  
> 2018 02 16 08 21 39.0000000  0  8                     
G23  22705131.143      182065.778       -2134.549          38.000  
G11  21492482.903     -196073.737        2210.307          38.000  
G09  20501973.959       59277.109        -719.272          38.000  
G03  25120860.618      262312.367       -3105.245          38.000  
G30  22777534.637     -311099.792        3516.764          38.000  
G01  22477417.338     -113831.497        1280.945          38.000  
G10  21439080.060      117252.897       -1407.787          38.000  
G05  24361058.612     -309733.494        3557.741          38.000  
> 2018 02 16 08 21 40.0000000  0  8                     
G23  22705537.377      184200.554       -2134.530          38.000  
G11  21492062.410     -198283.405        2209.552          38.000  
G09  20502110.943       59996.860        -719.691          39.000  
G03  25121451.583      265417.892       -3105.448          38.000  
G30  22776865.478     -314616.219        3516.361          38.000  
G01  22477173.658     -115112.001        1280.411          38.000  
G10  21439348.113      118661.433       -1408.640          38.000  
G05  24360381.644     -313290.942        3557.534          38.000  
> 2018 02 16 08 21 41.0000000  0  8                     
G23  22705943.629      186335.444       -2134.922          38.000  
G11  21491642.077     -200492.260        2208.522          38.000  
G09  20502247.998       60716.968        -720.301          38.000  
G03  25122042.618      268523.641       -3105.890          38.000  
G30  22776196.444     -318132.058        3515.463          38.000  
G01  22476930.103     -116391.877        1279.489          38.000  
G10  21439616.309      120070.799       -1409.788          38.000  
G05  24359704.676     -316848.362        3557.438          38.000  
> 2018 02 16 08 21 42.0000000  0  8                     
G23  22706349.917      188470.475       -2135.056          38.000  
G11  21491221.904     -202700.270        2207.438          38.000  
G09  20502385.143       61437.476        -720.503          38.000  
G03  25122633.672      271629.677       -3106.072          38.000  
G30  22775527.553     -321647.279        3515.031          38.000  
G01  22476686.674     -117671.060        1278.917          38.000  
G10  21439884.630      121481.011       -1410.841          38.000  
G05  24359027.726     -320405.634        3557.346          38.000  
> 2018 02 16 08 21 43.0000000  0  8                     
G23  22706756.223      190605.572       -2135.060          38.000  
G11  21490801.893     -204907.365        2206.764          38.000  
G09  20502522.306       62158.309        -720.738          38.000  
G03  25123224.779      274735.903       -3106.283          38.000  
G30  22774858.751     -325161.958        3514.498          38.000  
G01  22476443.369     -118949.605        1278.303          38.000  
G10  21440153.148      122892.142       -1411.469          38.000  
G05  24358350.865     -323962.844        3557.282          38.000  
> 2018 02 16 08 21 44.0000000  0  8                     
G23  22707162.529      192740.651       -2135.181          38.000  
G11  21490382.024     -207113.748        2206.030          38.000  
G09  20502659.504       62879.433        -721.229          38.000  
G03  25123815.905      277842.245       -3106.584          38.000  
G30  22774190.021     -328676.142        3513.790          38.000  
G01  22476200.154     -120227.586        1277.596          38.000  
G10  21440421.862      124304.013       -1412.309          38.000  
G05  24357673.951     -327520.028        3557.013          38.000  
> 2018 02 16 08 21 45.0000000  0  8                     
G23  22707568.906      194875.835       -2135.054          38.000  
G11  21489962.317     -209319.186        2205.098          38.000  
G09  20502796.845       63600.942        -721.532          38.000  
G03  25124407.048      280948.787       -3106.416          38.000  
G30  22773521.380     -332189.754        3513.483          38.000  
G01  22475957.081     -121504.866        1277.012          38.000  
G10  21440690.702      125716.806       -1413.062          38.000  
G05  24356997.072     -331077.077        3557.068          38.000  
> 2018 02 16 08 21 46.0000000  0  8                     
G23  22707975.266      197011.168       -2135.357          38.000  
G11  21489542.806     -211523.709        2203.696          38.000  
G09  20502934.240       64322.894        -722.215          38.000  
G03  25124998.262      284055.625       -3106.986          38.000  
G30  22772852.899     -335702.700        3512.634          38.000  
G01  22475714.170     -122781.359        1276.117          38.000  
G10  21440959.738      127130.519       -1414.565          38.000  
G05  24356320.193     -334633.905        3556.702          38.000  
> 2018 02 16 08 21 47.0000000  0  8                     
G23  22708381.661      199146.678       -2135.367          38.000  
G11  21489123.509     -213727.157        2203.394          38.000  
G09  20503071.725       65045.263        -722.273          38.000  
G03  25125589.512      287162.711       -3107.058          38.000  
G30  22772184.509     -339214.997        3512.182          38.000  
G01  22475471.384     -124057.061        1275.494          38.000  
G10  21441228.970      128545.273       -1414.853          38.000  
G05  24355643.386     -338190.493        3556.738          38.000  
> 2018 02 16 08 21 48.0000000  0  8                     
G23  22708788.038      201282.135       -2135.404          38.000  
G11  21488704.373     -215929.764        2202.405          38.000  
G09  20503209.262       65767.922        -722.771          38.000  
G03  25126180.780      290269.855       -3107.199          38.000  
G30  22771516.207     -342726.850        3511.741          38.000  
G01  22475228.704     -125332.173        1274.894          38.000  
G10  21441498.382      129960.846       -1415.920          38.000  
G05  24354966.615     -341747.020        3556.561          38.000  
> 2018 02 16 08 21 49.0000000  0  8                     
G23  22709194.434      203417.670       -2135.325          38.000  
G11  21488285.398     -218131.440        2201.421          38.000  
G09  20503346.854       66490.955        -722.991          38.000  
G03  25126772.084      293377.162       -3107.199          38.000  
G30  22770848.049     -346238.109        3511.261          38.000  
G01  22474986.204     -126606.521        1274.172          38.000  
G10  21441767.936      131377.318       -1416.675          38.000  
G05  24354289.861     -345303.340        3556.542          38.000  
> 2018 02 16 08 21 50.0000000  0  8                     
G23  22709600.811      205553.165       -2135.431          38.000  
G11  21487866.584     -220332.321        2200.309          38.000  
G09  20503484.517       67214.237        -723.241          38.000  
G03  25127363.406      296484.509       -3107.250          38.000  
G30  22770179.944     -349748.922        3510.643          38.000  
G01  22474743.828     -127880.239        1273.468          38.000  
G10  21442037.633      132794.566       -1417.718          38.000  
G05  24353613.126     -348859.584        3556.369          38.000  
> 2018 02 16 08 21 51.0000000  0  8                     
G23  22710007.188      207688.614       -2135.689          38.000  
G11  21487447.949     -222532.244        2199.427          38.000  
G09  20503622.216       67937.786        -723.833          38.000  
G03  25127954.728      299591.879       -3107.543          38.000  
G30  22769511.910     -353259.314        3509.988          38.000  
G01  22474501.560     -129153.336        1272.674          38.000  
G10  21442307.491      134212.723       -1418.509          38.000  
G05  24352936.426     -352415.718        3555.977          38.000  
> 2018 02 16 08 21 52.0000000  0  8                     
G23  22710413.583      209824.191       -2135.554          38.000  
G11  21487029.492     -224731.116        2198.455          38.000  
G09  20503759.950       68661.783        -723.990          38.000  
G03  25128546.103      302699.432       -3107.548          38.000  
G30  22768844.038     -356769.072        3509.555          38.000  
G01  22474259.453     -130425.572        1271.914          38.000  
G10  21442577.546      135631.899       -1419.452          38.000  
G05  24352259.762     -355971.546        3555.788          38.000  
> 2018 02 16 08 21 53.0000000  0  8                     
G23  22710819.961      211959.691       -2135.354          38.000  
G11  21486611.196     -226929.167        2197.671          38.000  
G09  20503897.774       69386.026        -724.228          38.000  
G03  25129137.460      305806.974       -3107.418          38.000  
G30  22768176.237     -360278.420        3509.291          38.000  
G01  22474017.524     -131697.180        1271.448          38.000  
G10  21442847.779      137051.865       -1420.221          38.000  
G05  24351583.115     -359527.277        3555.873          38.000  
> 2018 02 16 08 21 54.0000000  0  8                     
G23  22711226.356      214095.266       -2135.443          38.000  
G11  21486193.115     -229126.235        2196.423          38.000  
G09  20504035.687       70110.652        -724.676          38.000  
G03  25129728.836      308914.640       -3107.637          38.000  
G30  22767508.525     -363787.215        3508.662          38.000  
G01  22473775.721     -132967.975        1270.461          38.000  
G10  21443118.173      138472.741       -1421.396          38.000  
G05  24350906.559     -363082.732        3555.489          38.000  
> 2018 02 16 08 21 55.0000000  0  8                     
G23  22711632.751      216231.062       -2135.843          38.000  
G11  21485775.301     -231322.057        2195.519          38.000  
G09  20504173.689       70835.806        -725.177          38.000  
G03  25130320.265      312022.527       -3107.796          38.000  
G30  22766840.938     -367295.336        3507.869          38.000  
G01  22473534.060     -134237.845        1269.471          38.000  
G10  21443388.799      139894.822       -1422.480          38.000  
G05  24350230.037     -366637.772        3554.997          38.000  
> 2018 02 16 08 21 56.0000000  0  8                     
G23  22712039.164      218366.793       -2135.617          38.000  
G11  21485357.613     -233516.980        2194.357          38.000  
G09  20504311.728       71561.241        -725.517          38.000  
G03  25130911.694      315130.417       -3107.905          38.000  
G30  22766173.441     -370803.022        3507.365          38.000  
G01  22473292.524     -135506.992        1268.672          38.000  
G10  21443659.586      141317.718       -1423.165          38.000  
G05  24349553.552     -370192.628        3554.757          38.000  
> 2018 02 16 08 21 57.0000000  0  8                     
G23  22712445.631      220502.590       -2136.048          38.000  
G11  21484940.121     -235710.908        2193.313          38.000  
G09  20504449.837       72287.079        -726.111          38.000  
G03  25131503.105      318238.364       -3108.124          38.000  
G30  22765506.068     -374310.225        3506.938          38.000  
G01  22473051.149     -136775.355        1267.769          38.000  
G10  21443930.534      142741.595       -1424.444          38.000  
G05  24348877.120     -373747.180        3554.131          38.000  
> 2018 02 16 08 21 58.0000000  0  8                     
G23  22712852.080      222638.413       -2135.444          38.000  
G11  21484522.825     -237903.874        2192.539          38.000  
G09  20504588.000       73013.273        -726.055          38.000  
G03  25132094.551      321346.347       -3107.676          38.000  
G30  22764838.768     -377816.921        3506.814          38.000  
G01  22472809.953     -138042.909        1267.444          38.000  
G10  21444201.643      144166.360       -1424.955          38.000  
G05  24348200.760     -377301.471        3554.459          38.000  
> 2018 02 16 08 21 59.0000000  0  8                     
G23  22713258.528      224774.211       -2135.924          38.000  
G11  21484105.709     -240095.833        2191.495          38.000  
G09  20504726.235       73739.736        -726.691          38.000  
G03  25132685.998      324454.272       -3107.853          38.000  
G30  22764171.538     -381323.234        3506.085          38.000  
G01  22472568.900     -139309.729        1266.263          38.000  
G10  21444472.966      145592.067       -1426.171          38.000  
G05  24347524.435     -380855.532        3553.718          38.000  
> 2018 02 16 08 22 00.0000000  0  8                     
G23  22713664.942      226909.937       -2135.542          38.000  
G11  21483688.753     -242286.893        2190.892          38.000  
G09  20504864.506       74466.505        -726.730          38.000  
G03  25133277.391      327562.158       -3107.527          38.000  
G30  22763504.381     -384829.177        3506.149          38.000  
G01  22472327.972     -140575.843        1265.901          38.000  
G10  21444744.450      147018.615       -1426.788          38.000  
G05  24346848.164     -384409.390        3553.985          38.000  
> 2018 02 16 08 22 01.0000000  0  8                     
G23  22714071.372      229045.678       -2135.502          38.000  
G11  21483271.994     -244476.990        2189.938          38.000  
G09  20505002.883       75193.596        -727.025          38.000  
G03  25133868.785      330670.014       -3107.595          38.000  
G30  22762837.294     -388334.674        3505.752          38.000  
G01  22472087.169     -141841.168        1265.222          38.000  
G10  21445016.095      148446.068       -1427.640          38.000  
G05  24346171.911     -387962.965        3553.573          38.000  
> 2018 02 16 08 22 02.0000000  0  8                     
G23  22714477.803      231181.403       -2135.486          38.000  
G11  21482855.413     -246666.153        2188.575          38.000  
G09  20505141.297       75921.008        -727.266          38.000  
G03  25134460.178      333777.804       -3107.507          38.000  
G30  22762170.297     -391839.750        3505.012          38.000  
G01  22471846.527     -143105.703        1264.351          38.000  
G10  21445287.883      149874.372       -1428.671          38.000  
G05  24345495.729     -391516.255        3553.263          38.000  
> 2018 02 16 08 22 03.0000000  0  8                     
G23  22714884.288      233317.405       -2136.035          38.000  
G11  21482439.083     -248854.038        2187.292          38.000  
G09  20505279.853       76649.049        -728.208          38.000  
G03  25135051.607      336885.852       -3108.144          38.000  
G30  22761503.425     -395344.196        3504.121          38.000  
G01  22471606.099     -144369.177        1262.976          38.000  
G10  21445559.921      151303.884       -1429.896          38.000  
G05  24344819.655     -395068.991        3552.501          38.000  
> 2018 02 16 08 22 04.0000000  0  8                     
G23  22715290.808      235453.599       -2136.140          38.000  
G11  21482022.949     -251040.797        2186.250          38.000  
G09  20505418.463       77377.589        -728.644          38.000  
G03  25135643.054      339993.992       -3108.095          38.000  
G30  22760836.643     -398848.076        3503.780          38.000  
G01  22471365.833     -145631.692        1262.136          38.000  
G10  21445832.156      152734.486       -1430.000          38.000  
G05  24344143.669     -398621.251        3552.121          38.000  
> 2018 02 16 08 22 05.0000000  0  8                     
G23  22715697.293      237589.677       -2135.922          38.000  
G11  21481606.958     -253226.724        2185.584          38.000  
G09  20505557.127       78106.352        -728.707          38.000  
G03  25136234.482      343101.961       -3107.845          38.000  
G30  22760169.949     -402351.679        3503.449          38.000  
G01  22471125.691     -146893.518        1261.534          38.000  
G10  21446104.569      154165.853       -1431.658          38.000  
G05  24343467.756     -402173.290        3551.983          38.000  
> 2018 02 16 08 22 06.0000000  0  8                     
G23  22716103.741      239725.582       -2135.770          38.000  
G11  21481191.110     -255411.932        2184.851          38.000  
G09  20505695.826       78835.273        -728.858          38.000  
G03  25136825.858      346209.666       -3107.510          38.000  
G30  22759503.292     -405855.125        3503.335          38.000  
G01  22470885.692     -148154.722        1260.862          38.000  
G10  21446377.072      155597.877       -1432.317          38.000  
G05  24342791.878     -405725.229        3551.837          38.000  
> 2018 02 16 08 22 07.0000000  0  8                     
G23  22716510.244      241861.723       -2136.294          38.000  
G11  21480775.495     -257595.906        2183.296          38.000  
G09  20505834.615       79564.767        -729.766          38.000  
G03  25137417.251      349317.521       -3107.970          38.000  
G30  22758836.742     -409357.978        3502.398          38.000  
G01  22470645.890     -149414.910        1259.553          38.000  
G10  21446649.824      157031.066       -1433.828          38.000  
G05  24342116.089     -409276.600        3550.781          38.000  
> 2018 02 16 08 22 08.0000000  0  8                     
G23  22716916.746      243997.860       -2135.965          38.000  
G11  21480360.094     -259778.998        2182.745          38.000  
G09  20505973.493       80294.588        -729.735          38.000  
G03  25138008.662      352425.270       -3107.449          38.000  
G30  22758170.245     -412860.522        3502.442          38.000  
G01  22470406.212     -150674.300        1259.167          38.000  
G10  21446922.702      158465.098       -1434.392          38.000  
G05  24341440.372     -412827.678        3550.794          38.000  
> 2018 02 16 08 22 09.0000000  0  8                     
G23  22717323.249      246133.965       -2136.335          38.000  
G11  21479944.818     -261961.208        2181.484          38.000  
G09  20506112.425       81024.694        -730.430          38.000  
G03  25138600.002      355532.878       -3107.694          38.000  
G30  22757503.802     -416362.808        3501.956          38.000  
G01  22470166.714     -151932.947        1258.002          38.000  
G10  21447195.759      159899.918       -1435.462          38.000  
G05  24340764.691     -416378.511        3550.564          38.000  
> 2018 02 16 08 22 10.0000000  0  8                     
G23  22717729.751      248270.211       -2136.002          38.000  
G11  21479529.756     -264142.435        2180.947          38.000  
G09  20506251.446       81755.283        -730.516          38.000  
G03  25139191.341      358640.513       -3107.381          38.000  
G30  22756837.430     -419864.640        3502.008          38.000  
G01  22469927.358     -153190.666        1257.593          38.000  
G10  21447468.958      161335.692       -1435.886          38.000  
G05  24340089.099     -419928.854        3550.387          38.000  
> 2018 02 16 08 22 11.0000000  0  8                     
G23  22718136.254      250406.498       -2136.034          38.000  
G11  21479114.855     -266322.719        2179.993          38.000  
G09  20506390.520       82486.217        -730.861          38.000  
G03  25139782.663      361748.022       -3107.194          38.000  
G30  22756171.076     -423366.161        3501.579          38.000  
G01  22469688.182     -154447.564        1256.694          38.000  
G10  21447742.390      162772.376       -1436.956          38.000  
G05  24339413.560     -423478.858        3549.940          38.000  
> 2018 02 16 08 22 12.0000000  0  8                     
G23  22718542.810      252542.961       -2136.120          38.000  
G11  21478700.186     -268501.970        2178.958          38.000  
G09  20506529.702       83217.670        -731.457          38.000  
G03  25140373.985      364855.599       -3107.361          38.000  
G30  22755504.812     -426867.231        3501.103          38.000  
G01  22469449.165     -155703.513        1255.793          38.000  
G10  21448015.965      164210.023       -1437.810          38.000  
G05  24338738.111     -427028.369        3549.489          38.000  
> 2018 02 16 08 22 14.0000000  0  8                     
G23  22719355.957      256816.185       -2136.794          38.000  
G11  21477871.314     -272857.759        2177.043          38.000  
G09  20506808.316       84681.771        -732.346          38.000  
G03  25141556.682      371070.512       -3107.263          38.000  
G30  22754172.498     -433868.443        3500.379          38.000  
G01  22468971.669     -158212.834        1253.900          38.000  
G10  21448563.633      167087.937       -1439.693          38.000  
G05  24337387.463     -434126.236        3548.571          38.000  
> 2018 02 16 08 22 15.0000000  0  8                     
G23  22719762.549      258952.780       -2136.452          38.000  
G11  21477457.092     -275034.459        2176.412          38.000  
G09  20506947.694       85414.299        -732.580          38.000  
G03  25142147.950      374177.748       -3107.094          38.000  
G30  22753506.412     -437368.726        3500.408          38.000  
G01  22468733.154     -159466.355        1253.279          38.000  
G10  21448837.672      168528.052       -1440.382          38.000  
G05  24336712.211     -437674.718        3548.449          38.000  
> 2018 02 16 08 22 16.0000000  0  8                     
G23  22720169.159      261089.573       -2136.559          38.000  
G11  21477043.085     -277210.178        2175.549          38.000  
G09  20507087.180       86147.310        -732.937          38.000  
G03  25142739.236      377284.963       -3106.910          38.000  
G30  22752840.380     -440868.627        3500.032          38.000  
G01  22468494.781     -160718.944        1252.457          38.000  
G10  21449111.890      169969.091       -1441.159          38.000  
G05  24336037.065     -441222.732        3548.133          38.000  
> 2018 02 16 08 22 17.0000000  0  8                     
G23  22720575.786      263226.505       -2136.859          38.000  
G11  21476629.220     -279385.048        2174.440          38.000  
G09  20507226.737       86880.754        -733.485          38.000  
G03  25143330.522      380392.120       -3106.988          38.000  
G30  22752174.437     -444368.240        3499.566          38.000  
G01  22468256.569     -161970.670        1251.205          38.000  
G10  21449386.287      171410.970       -1442.305          38.000  
G05  24335362.010     -444770.334        3547.437          38.000  
> 2018 02 16 08 22 18.0000000  0  8                     
G23  22720982.449      265363.455       -2136.873          38.000  
G11  21476215.517     -281559.192        2173.840          38.000  
G09  20507366.366       87614.522        -733.797          38.000  
G03  25143921.772      383499.116       -3106.927          38.000  
G30  22751508.530     -447867.681        3499.417          38.000  
G01  22468018.536     -163221.660        1250.557          38.000  
G10  21449660.826      172853.575       -1442.864          38.000  
G05  24334686.971     -448317.638        3547.062          38.000  
> 2018 02 16 08 22 19.0000000  0  8                     
G23  22721389.095      267500.375       -2136.848          38.000  
G11  21475801.920     -283732.671        2173.164          38.000  
G09  20507506.048       88348.544        -734.052          38.000  
G03  25144512.951      386605.860       -3106.592          38.000  
G30  22750842.659     -451367.010        3499.281          38.000  
G01  22467780.592     -164471.967        1250.024          38.000  
G10  21449935.437      174296.810       -1443.497          38.000  
G05  24334011.951     -451864.719        3546.997          38.000  
> 2018 02 16 08 22 20.0000000  0  8                     
G23  22721795.776      269637.595       -2137.193          38.000  
G11  21475388.503     -285905.171        2172.072          38.000  
G09  20507645.837       89083.143        -734.536          38.000  
G03  25145104.183      389712.689       -3106.753          38.000  
G30  22750176.823     -454865.962        3498.964          38.000  
G01  22467542.827     -165721.281        1249.014          38.000  
G10  21450210.227      175741.016       -1444.498          38.000  
G05  24333337.056     -455411.259        3546.435          38.000  
> 2018 02 16 08 22 21.0000000  0  8                     
G23  22722202.475      271774.967       -2137.393          38.000  
G11  21474975.228     -288076.893        2171.390          38.000  
G09  20507785.716       89818.213        -735.304          38.000  
G03  25145695.397      392819.459       -3106.795          38.000  
G30  22749511.041     -458364.650        3498.680          38.000  
G01  22467305.240     -166969.749        1248.181          38.000  
G10  21450485.214      177186.022       -1445.334          38.000  
G05  24332662.250     -458957.377        3545.976          38.000  
> 2018 02 16 08 22 22.0000000  0  8                     
G23  22722609.245      273912.545       -2137.627          38.000  
G11  21474562.096     -290247.813        2170.817          38.000  
G09  20507925.702       90553.724        -735.657          38.000  
G03  25146286.576      395926.167       -3106.455          38.000  
G30  22748845.313     -461863.070        3498.427          38.000  
G01  22467067.832     -168217.343        1247.220          38.000  
G10  21450760.325      178631.821       -1445.829          38.000  
G05  24331987.480     -462503.101        3545.596          38.000  
> 2018 02 16 08 22 23.0000000  0  8                     
G23  22723016.016      276050.196       -2137.623          38.000  
G11  21474149.071     -292418.101        2170.149          38.000  
G09  20508065.723       91289.610        -736.015          38.000  
G03  25146877.755      399032.759       -3106.410          38.000  
G30  22748179.638     -465361.336        3498.299          38.000  
G01  22466830.549     -169464.194        1246.571          38.000  
G10  21451035.562      180078.309       -1446.813          38.000  
G05  24331312.835     -466048.500        3545.154          38.000  
> 2018 02 16 08 22 24.0000000  0  8                     
G23  22723422.840      278188.018       -2137.967          38.000  
G11  21473736.208     -294587.649        2169.226          38.000  
G09  20508205.834       92025.893        -736.507          38.000  
G03  25147468.898      402139.251       -3106.326          38.000  
G30  22747513.982     -468859.427        3498.074          38.000  
G01  22466593.445     -170710.249        1245.632          38.000  
G10  21451310.905      181525.520       -1447.518          38.000  
G05  24330638.244     -469593.549        3544.774          38.000  
> 2018 02 16 08 22 25.0000000  0  8                     
G23  22723829.682      280325.929       -2138.056          38.000  
G11  21473323.469     -296756.579        2168.632          38.000  
G09  20508345.981       92762.551        -736.840          38.000  
G03  25148060.023      405245.621       -3106.361          38.000  
G30  22746848.378     -472357.373        3497.862          38.000  
G01  22466356.484     -171955.581        1244.982          38.000  
G10  21451586.410      182973.375       -1448.049          38.000  
G05  24329963.670     -473138.328        3544.697          38.000  
> 2018 02 16 08 22 26.0000000  0  8                     
G23  22724236.559      282464.016       -2138.195          38.000  
G11  21472910.837     -298924.836        2168.097          38.000  
G09  20508486.235       93499.632        -737.393          38.000  
G03  25148651.130      408351.875       -3106.181          38.000  
G30  22746182.775     -475855.174        3497.713          38.000  
G01  22466119.666     -173200.105        1244.154          38.000  
G10  21451862.075      184421.946       -1448.805          38.000  
G05  24329289.204     -476682.740        3544.218          38.000  
> 2018 02 16 08 22 27.0000000  0  8                     
G23  22724643.455      284602.321       -2138.447          38.000  
G11  21472498.331     -301092.486        2167.161          38.000  
G09  20508626.578       94237.151        -737.682          38.000  
G03  25149242.256      411458.112       -3106.206          38.000  
G30  22745517.225     -479352.757        3497.428          38.000  
G01  22465883.009     -174443.849        1243.306          38.000  
G10  21452137.848      185871.171       -1449.540          38.000  
G05  24328614.792     -480226.792        3543.914          38.000  
> 2018 02 16 08 22 28.0000000  0  8                     
G23  22725050.386      286740.822       -2138.742          38.000  
G11  21472085.950     -303259.478        2166.687          38.000  
G09  20508767.047       94975.143        -738.289          38.000  
G03  25149833.345      414564.292       -3106.180          38.000  
G30  22744851.694     -482850.171        3497.273          38.000  
G01  22465646.494     -175686.789        1242.470          38.000  
G10  21452413.764      187321.135       -1450.251          38.000  
G05  24327940.450     -483770.487        3543.532          38.000  
> 2018 02 16 08 22 29.0000000  0  8                     
G23  22725457.389      288879.582       -2138.948          38.000  
G11  21471673.694     -305425.831        2165.964          38.000  
G09  20508907.551       95713.594        -738.680          38.000  
G03  25150424.434      417670.443       -3106.151          38.000  
G30  22744186.216     -486347.385        3497.008          38.000  
G01  22465410.105     -176928.921        1241.649          38.000  
G10  21452689.804      188771.806       -1451.127          38.000  
G05  24327266.181     -487313.810        3543.001          38.000  
> 2018 02 16 08 22 30.0000000  0  8                     
G23  22725864.463      291018.694       -2138.931          39.000  
G11  21471261.598     -307591.436        2165.867          38.000  
G09  20509048.144       96452.634        -738.914          38.000  
G03  25151015.506      420776.697       -3106.057          38.000  
G30  22743520.755     -489844.335        3497.180          38.000  
G01  22465173.877     -178170.174        1241.089          38.000  
G10  21452966.006      190223.231       -1451.415          38.000  
G05  24326591.982     -490856.676        3542.825          38.000  
> 2018 02 16 08 22 31.0000000  0  8                     
G23  22726271.609      293158.042       -2139.301          38.000  
G11  21470849.610     -309756.541        2164.903          38.000  
G09  20509188.863       97192.133        -739.590          38.000  
G03  25151606.577      423882.900       -3106.096          38.000  
G30  22742855.349     -493341.098        3496.748          38.000  
G01  22464937.809     -179410.654        1240.268          38.000  
G10  21453242.332      191675.282       -1452.332          38.000  
G05  24325917.874     -494399.234        3542.556          38.000  
> 2018 02 16 08 22 32.0000000  0  8                     
G23  22726678.790      295297.676       -2139.802          38.000  
G11  21470437.711     -311921.058        2164.101          38.000  
G09  20509329.671       97932.104        -740.118          38.000  
G03  25152197.667      426989.118       -3106.248          38.000  
G30  22742189.995     -496837.690        3496.483          38.000  
G01  22464701.884     -180650.345        1239.253          38.000  
G10  21453518.766      193127.995       -1453.212          38.000  
G05  24325243.800     -497941.434        3542.025          38.000  
> 2018 02 16 08 22 33.0000000  0  8                     
G23  22727086.025      297437.568       -2139.868          38.000  
G11  21470025.919     -314085.039        2163.922          38.000  
G09  20509470.604       98672.575        -740.497          38.000  
G03  25152788.756      430095.328       -3105.933          38.000  
G30  22741524.660     -500334.121        3496.514          38.000  
G01  22464466.102     -181889.275        1238.726          38.000  
G10  21453795.361      194581.316       -1453.387          38.000  
G05  24324569.799     -501483.318        3542.043          38.000  
> 2018 02 16 08 22 34.0000000  0  8                     
G23  22727493.242      299577.597       -2139.943          38.000  
G11  21469614.217     -316248.618        2164.027          38.000  
G09  20509611.555       99413.358        -740.789          38.000  
G03  25153379.828      433201.407       -3105.738          38.000  
G30  22740859.307     -503830.570        3496.695          38.000  
G01  22464230.428     -183127.614        1238.183          38.000  
G10  21454072.009      196035.144       -1453.712          38.000  
G05  24323895.815     -505025.031        3541.905          38.000  
> 2018 02 16 08 22 35.0000000  0  8                     
G23  22727900.549      301717.966       -2140.402          38.000  
G11  21469202.586     -318411.737        2162.881          38.000  
G09  20509752.648      100154.671        -741.385          38.000  
G03  25153970.899      436307.538       -3105.951          38.000  
G30  22740194.008     -507326.805        3496.399          38.000  
G01  22463994.914     -184365.168        1237.385          38.000  
G10  21454348.782      197489.573       -1454.651          38.000  
G05  24323221.903     -508566.385        3541.322          38.000  
> 2018 02 16 08 22 36.0000000  0  8                     
G23  22728307.891      303858.572       -2140.654          38.000  
G11  21468791.045     -320574.433        2162.519          38.000  
G09  20509893.832      100896.417        -741.937          38.000  
G03  25154562.007      439413.657       -3106.083          38.000  
G30  22739528.708     -510822.937        3496.097          38.000  
G01  22463759.543     -185602.036        1236.535          38.000  
G10  21454625.663      198944.536       -1455.163          38.000  
G05  24322548.044     -512107.519        3541.065          38.000  
> 2018 02 16 08 22 37.0000000  0  8                     
G23  22728715.305      305999.492       -2141.079          38.000  
G11  21468379.611     -322736.667        2162.186          39.000  
G09  20510035.051      101638.629        -742.397          38.000  
G03  25155153.078      442519.776       -3106.123          38.000  
G30  22738863.445     -514318.927        3495.900          39.000  
G01  22463524.298     -186838.201        1235.856          38.000  
G10  21454902.633      200400.078       -1455.741          38.000  
G05  24321874.257     -515648.375        3540.811          38.000  
> 2018 02 16 08 22 38.0000000  0  8                     
G23  22729122.754      308140.651       -2140.946          38.000  
G11  21467968.230     -324898.466        2162.131          38.000  
G09  20510176.359      102381.280        -742.617          38.000  
G03  25155744.168      445625.908       -3105.978          38.000  
G30  22738198.199     -517814.854        3496.159          38.000  
G01  22463289.195     -188073.703        1235.326          38.000  
G10  21455179.710      201856.155       -1455.986          38.000  
G05  24321200.487     -519189.012        3540.768          39.000  
> 2018 02 16 08 22 39.0000000  0  8                     
G23  22729530.257      310282.023       -2141.592          38.000  
G11  21467556.867     -327060.150        2161.284          38.000  
G09  20510317.774      103124.285        -743.480          38.000  
G03  25156335.221      448731.928       -3106.215          38.000  
G30  22737532.953     -521310.779        3495.806          38.000  
G01  22463054.182     -189308.656        1234.584          38.000  
G10  21455456.858      203312.541       -1456.774          38.000  
G05  24320526.754     -522729.540        3540.264          38.000  
> 2018 02 16 08 22 40.0000000  0  8                     
G23  22729937.832      312423.865       -2141.870          38.000  
G11  21467145.629     -329221.241        2160.878          38.000  
G09  20510459.279      103867.905        -743.736          38.000  
G03  25156926.311      451838.180       -3106.234          38.000  
G30  22736867.743     -524806.404        3495.575          38.000  
G01  22462819.347     -190542.767        1233.894          38.000  
G10  21455734.132      204769.667       -1457.425          38.000  
G05  24319853.074     -526269.676        3540.051          38.000  
> 2018 02 16 08 22 41.0000000  0  8                     
G23  22730345.460      314565.848       -2142.049          38.000  
G11  21466734.428     -331382.191        2160.802          38.000  
G09  20510600.855      104611.836        -744.025          38.000  
G03  25157517.364      454944.287       -3106.072          38.000  
G30  22736202.515     -528302.104        3495.609          38.000  
G01  22462584.584     -191776.414        1233.444          38.000  
G10  21456011.495      206227.080       -1457.554          38.000  
G05  24319179.411     -529809.794        3540.079          38.000  
> 2018 02 16 08 22 42.0000000  0  8                     
G23  22730753.106      316708.040       -2142.350          38.000  
G11  21466323.279     -333542.833        2160.949          38.000  
G09  20510742.467      105356.133        -744.570          38.000  
G03  25158108.418      458050.380       -3106.232          39.000  
G30  22735537.323     -531797.793        3495.641          38.000  
G01  22462349.928     -193009.502        1232.652          38.000  
G10  21456288.911      207684.909       -1457.876          39.000  
G05  24318505.767     -533349.808        3539.886          38.000  
> 2018 02 16 08 22 43.0000000  0  8                     
G23  22731160.859      318850.705       -2142.703          38.000  
G11  21465912.167     -335703.208        2160.203          38.000  
G09  20510884.169      106101.008        -745.020          38.000  
G03  25158699.525      461156.643       -3106.218          39.000  
G30  22734872.184     -535293.260        3495.535          39.000  
G01  22462115.433     -194241.856        1232.183          38.000  
G10  21456566.417      209143.248       -1458.428          38.000  
G05  24317832.176     -536889.523        3539.810          38.000  
> 2018 02 16 08 22 44.0000000  0  8                     
G23  22731568.648      320993.649       -2143.155          38.000  
G11  21465501.072     -337863.317        2159.850          38.000  
G09  20511025.977      106846.290        -745.430          38.000  
G03  25159290.650      464262.917       -3106.051          38.000  
G30  22734207.045     -538788.668        3495.377          39.000  
G01  22461880.991     -195473.658        1231.681          38.000  
G10  21456844.013      210602.018       -1459.024          38.000  
G05  24317158.621     -540429.145        3539.728          38.000  
> 2018 02 16 08 22 45.0000000  0  8                     
G23  22731976.491      323136.986       -2143.373          38.000  
G11  21465090.084     -340023.120        2159.762          38.000  
G09  20511167.929      107592.103        -745.947          38.000  
G03  25159881.793      467369.379       -3106.416          38.000  
G30  22733541.960     -542283.903        3495.272          38.000  
G01  22461646.710     -196704.772        1230.816          38.000  
G10  21457121.662      212061.293       -1459.429          38.000  
G05  24316485.084     -543968.532        3539.436          38.000  
> 2018 02 16 08 22 46.0000000  0  8                     
G23  22732384.423      325280.566       -2143.736          38.000  
G11  21464679.150     -342182.696        2159.919          38.000  
G09  20511309.916      108338.262        -746.302          38.000  
G03  25160472.919      470475.816       -3106.511          38.000  
G30  22732876.822     -545779.150        3495.217          38.000  
G01  22461412.537     -197935.431        1230.460          38.000  
G10  21457399.418      213520.921       -1459.716          38.000  
G05  24315811.565     -547507.900        3539.307          38.000  
> 2018 02 16 08 22 47.0000000  0  8                     
G23  22732792.390      327424.435       -2143.958          38.000  
G11  21464268.216     -344342.253        2159.296          38.000  
G09  20511451.975      109084.858        -746.766          38.000  
G03  25161064.062      473582.322       -3106.507          38.000  
G30  22732211.719     -549274.333        3495.222          38.000  
G01  22461178.452     -199165.522        1229.749          38.000  
G10  21457677.263      214980.853       -1460.063          38.000  
G05  24315138.046     -551047.194        3539.240          38.000  
> 2018 02 16 08 22 48.0000000  0  8                     
G23  22733200.465      329568.831       -2144.473          38.000  
G11  21463857.336     -346501.407        2158.914          38.000  
G09  20511594.176      109832.055        -747.361          38.000  
G03  25161655.258      476689.102       -3106.878          38.000  
G30  22731546.634     -552769.239        3494.852          38.000  
G01  22460944.529     -200394.929        1229.053          38.000  
G10  21457955.180      216441.362       -1460.811          38.000  
G05  24314464.598     -554586.221        3538.910          38.000  
> 2018 02 16 08 22 49.0000000  0  8                     
G23  22733608.612      331713.608       -2144.969          38.000  
G11  21463446.492     -348660.356        2158.800          38.000  
G09  20511736.467      110579.742        -747.827          38.000  
G03  25162246.473      479796.030       -3106.885          38.000  
G30  22730881.602     -556264.010        3494.834          38.000  
G01  22460710.695     -201623.748        1228.593          38.000  
G10  21458233.168      217902.294       -1461.153          38.000  
G05  24313791.150     -558125.154        3538.932          38.000  
> 2018 02 16 08 22 50.0000000  0  8                     
G23  22734016.829      333858.778       -2145.202          38.000  
G11  21463035.683     -350819.025        2159.216          38.000  
G09  20511878.848      111327.927        -748.274          38.000  
G03  25162837.723      482903.160       -3107.161          38.000  
G30  22730216.589     -559758.640        3494.781          38.000  
G01  22460476.932     -202851.993        1228.151          38.000  
G10  21458511.246      219363.658       -1461.270          38.000  
G05  24313117.721     -561663.977        3538.877          38.000  
> 2018 02 16 08 22 51.0000000  0  8                     
G23  22734425.101      336004.267       -2145.599          38.000  
G11  21462624.856     -352977.731        2158.521          38.000  
G09  20512021.300      112076.513        -748.677          38.000  
G03  25163428.991      486010.375       -3107.295          38.000  
G30  22729551.593     -563253.206        3494.708          38.000  
G01  22460243.277     -204079.751        1227.563          38.000  
G10  21458789.360      220825.308       -1461.806          38.000  
G05  24312444.309     -565202.775        3538.814          38.000  
> 2018 02 16 08 22 52.0000000  0  8                     
G23  22734833.444      338150.251       -2145.884          38.000  
G11  21462214.137     -355136.131        2158.450          38.000  
G09  20512163.859      112825.690        -749.075          38.000  
G03  25164020.313      489117.892       -3107.418          38.000  
G30  22728886.651     -566747.477        3494.348          38.000  
G01  22460009.765     -205306.858        1227.171          38.000  
G10  21459067.598      222287.456       -1462.124          38.000  
G05  24311770.914     -568741.387        3538.775          38.000  
> 2018 02 16 08 22 53.0000000  0  8                     
G23  22735241.894      340296.628       -2146.199          38.000  
G11  21461803.453     -357294.378        2158.385          38.000  
G09  20512306.525      113575.339        -749.545          38.000  
G03  25164611.706      492225.586       -3107.436          38.000  
G30  22728221.762     -570241.660        3494.476          38.000  
G01  22459776.342     -206533.452        1226.673          38.000  
G10  21459345.944      223749.996       -1462.495          38.000  
G05  24311097.538     -572279.986        3538.892          38.000  
> 2018 02 16 08 22 54.0000000  0  8                     
G23  22735650.451      342443.517       -2147.086          38.000  
G11  21461392.787     -359452.297        2158.356          38.000  
G09  20512449.298      114325.564        -750.349          38.000  
G03  25165203.153      495333.612       -3108.112          38.000  
G30  22727556.910     -573735.562        3493.906          38.000  
G01  22459543.079     -207759.409        1225.879          38.000  
G10  21459624.361      225213.033       -1462.850          38.000  
G05  24310424.198     -575818.422        3538.519          38.000  
> 2018 02 16 08 22 55.0000000  0  8                     
G23  22736059.062      344590.849       -2147.294          38.000  
G11  21460982.157     -361610.191        2157.965          38.000  
G09  20512592.161      115076.336        -750.747          38.000  
G03  25165794.635      498441.919       -3108.192          38.000  
G30  22726892.093     -577229.239        3493.810          38.000  
G01  22459309.907     -208984.806        1225.413          38.000  
G10  21459902.868      226676.442       -1463.408          38.000  
G05  24309750.857     -579356.750        3538.418          38.000  
> 2018 02 16 08 22 56.0000000  0  8                     
G23  22736467.691      346738.364       -2147.338          38.000  
G11  21460571.509     -363768.130        2158.212          38.000  
G09  20512735.060      115827.337        -750.849          38.000  
G03  25166386.154      501550.221       -3107.993          38.000  
G30  22726227.276     -580722.975        3494.052          38.000  
G01  22459076.787     -210209.927        1225.329          38.000  
G10  21460181.392      228140.002       -1463.304          38.000  
G05  24309077.499     -582895.316        3538.946          38.000  
> 2018 02 16 08 22 57.0000000  0  8                     
G23  22736876.409      348886.210       -2148.349          38.000  
G11  21460160.843     -365926.052        2157.596          38.000  
G09  20512878.048      116578.741        -751.846          38.000  
G03  25166977.672      504658.690       -3108.712          38.000  
G30  22725562.477     -584216.624        3493.357          38.000  
G01  22458843.722     -211434.645        1224.344          38.000  
G10  21460459.952      229603.862       -1464.295          38.000  
G05  24308404.140     -586433.953        3538.453          38.000  
> 2018 02 16 08 22 58.0000000  0  8                     
G23  22737285.217      351034.477       -2148.077          38.000  
G11  21459750.284     -368083.714        2158.367          38.000  
G09  20513021.125      117330.659        -751.948          38.000  
G03  25167569.226      507767.456       -3108.582          38.000  
G30  22724897.713     -587710.032        3493.502          38.000  
G01  22458610.745     -212658.826        1224.274          38.000  
G10  21460738.566      231068.143       -1464.164          38.000  
G05  24307730.764     -589972.559        3538.950          38.000  
> 2018 02 16 08 22 59.0000000  0  8                     
G23  22737694.060      353183.005       -2148.285          38.000  
G11  21459339.654     -370241.611        2158.150          38.000  
G09  20513164.238      118082.860        -751.986          38.000  
G03  25168160.833      510876.327       -3108.624          38.000  
G30  22724232.932     -591203.445        3493.731          38.000  
G01  22458377.840     -213882.715        1224.283          38.000  
G10  21461017.234      232532.539       -1464.244          38.000  
G05  24307057.370     -593511.354        3539.164          38.000  
> 2018 02 16 08 23 00.0000000  0  8                     
G23  22738102.993      355331.966       -2148.989          38.000  
G11  21458929.060     -372399.347        2157.865          38.000  
G09  20513307.458      118835.565        -752.648          38.000  
G03  25168752.495      513985.483       -3109.079          38.000  
G30  22723568.222     -594696.629        3493.255          38.000  
G01  22458145.025     -215106.092        1223.311          38.000  
G10  21461296.008      233997.330       -1464.808          38.000  
G05  24306383.976     -597050.152        3538.903          38.000  
> 2018 02 16 08 23 01.0000000  0  8                     
G23  22738512.014      357481.343       -2149.501          38.000  
G11  21458518.483     -374556.957        2157.714          38.000  
G09  20513450.768      119588.763        -753.268          38.000  
G03  25169344.210      517094.966       -3109.604          38.000  
G30  22722903.512     -598189.558        3492.801          38.000  
G01  22457912.317     -216329.010        1222.831          38.000  
G10  21461574.801      235462.505       -1465.253          38.000  
G05  24305710.564     -600588.990        3538.992          38.000  
> 2018 02 16 08 23 02.0000000  0  8                     
G23  22738921.108      359631.110       -2149.701          38.000  
G11  21458107.942     -376714.424        2158.263          38.000  
G09  20513594.185      120342.399        -753.596          38.000  
G03  25169935.978      520204.713       -3109.670          38.000  
G30  22722238.874     -601682.330        3493.102          38.000  
G01  22457679.698     -217551.485        1222.626          38.000  
G10  21461853.683      236928.019       -1465.115          38.000  
G05  24305037.152     -604127.892        3539.356          38.000  
> 2018 02 16 08 23 03.0000000  0  8                     
G23  22739330.255      361781.298       -2150.299          38.000  
G11  21457697.401     -378871.881        2157.226          38.000  
G09  20513737.709      121096.542        -754.509          38.000  
G03  25170527.818      523314.795       -3110.348          38.000  
G30  22721574.236     -605174.821        3492.345          38.000  
G01  22457447.186     -218773.478        1221.703          38.000  
G10  21462132.654      238393.898       -1466.236          38.000  
G05  24304363.722     -607666.823        3538.949          38.000  
> 2018 02 16 08 23 04.0000000  0  8                     
G23  22739739.527      363932.070       -2150.659          38.000  
G11  21457286.879     -381029.101        2157.390          38.000  
G09  20513881.340      121851.275        -754.735          38.000  
G03  25171119.747      526425.348       -3110.428          39.000  
G30  22720909.705     -608666.927        3492.345          38.000  
G01  22457214.746     -219994.881        1221.395          38.000  
G10  21462411.696      239860.246       -1466.091          38.000  
G05  24303690.310     -611205.672        3539.102          38.000  
> 2018 02 16 08 23 05.0000000  0  8                     
G23  22740148.871      366083.184       -2151.230          38.000  
G11  21456876.427     -383186.242        2157.114          38.000  
G09  20514025.043      122606.398        -755.138          38.000  
G03  25171711.748      529536.172       -3110.815          38.000  
G30  22720245.263     -612158.838        3491.966          38.000  
G01  22456982.413     -221215.922        1220.955          38.000  
G10  21462690.775      241326.941       -1466.670          38.000  
G05  24303016.862     -614744.676        3539.246          38.000  
> 2018 02 16 08 23 06.0000000  0  8                     
G23  22740558.304      368234.677       -2151.806          39.000  
G11  21456465.976     -385343.230        2157.344          39.000  
G09  20514168.799      123361.997        -755.865          38.000  
G03  25172303.784      532647.319       -3111.454          38.000  
G30  22719580.821     -615650.504        3491.522          38.000  
G01  22456750.133     -222436.529        1220.385          38.000  
G10  21462969.978      242793.975       -1467.162          39.000  
G05  24302343.379     -618283.761        3539.014          38.000  
> 2018 02 16 08 23 07.0000000  0  8                     
G23  22740967.844      370386.684       -2152.129          38.000  
G11  21456055.524     -387500.138        2156.807          38.000  
G09  20514312.698      124118.169        -756.565          38.000  
G03  25172895.910      535758.918       -3111.691          38.000  
G30  22718916.487     -619141.795        3491.303          38.000  
G01  22456517.979     -223656.591        1219.950          39.000  
G10  21463249.218      244261.466       -1467.481          38.000  
G05  24301669.913     -621822.851        3539.152          38.000  
> 2018 02 16 08 23 08.0000000  0  8                     
G23  22741377.420      372539.032       -2152.226          38.000  
G11  21455645.091     -389656.983        2157.101          38.000  
G09  20514456.651      124874.710        -756.503          38.000  
G03  25173488.107      538870.812       -3111.718          38.000  
G30  22718252.170     -622632.857        3491.296          38.000  
G01  22456285.896     -224876.314        1219.957          38.000  
G10  21463528.528      245729.261       -1467.658          38.000  
G05  24300996.412     -625362.096        3539.569          38.000  
> 2018 02 16 08 23 09.0000000  0  8                     
G23  22741787.067      374691.726       -2152.743          38.000  
G11  21455234.675     -391813.716        2156.697          38.000  
G09  20514600.675      125631.650        -757.024          38.000  
G03  25174080.340      541983.004       -3112.082          38.000  
G30  22717587.889     -626123.669        3490.910          38.000  
G01  22456053.849     -226095.644        1219.311          38.000  
G10  21463807.910      247197.381       -1468.093          38.000  
G05  24300322.893     -628901.507        3539.642          38.000  
> 2018 02 16 08 23 10.0000000  0  8                     
G23  22742196.821      376844.813       -2153.256          38.000  
G11  21454824.277     -393970.260        2156.613          38.000  
G09  20514744.789      126389.074        -757.673          38.000  
G03  25174672.663      545095.609       -3112.768          38.000  
G30  22716923.697     -629614.154        3490.156          38.000  
G01  22455821.873     -227314.540        1218.530          38.000  
G10  21464087.382      248665.922       -1468.882          38.000  
G05  24299649.320     -632441.023        3539.548          38.000  
> 2018 02 16 08 23 11.0000000  0  8                     
G23  22742606.612      378998.309       -2153.540          38.000  
G11  21454413.897     -396126.791        2156.428          38.000  
G09  20514889.010      127146.924        -757.898          39.000  
G03  25175265.039      548208.568       -3112.878          38.000  
G30  22716259.542     -633104.331        3490.124          38.000  
G01  22455590.005     -228533.027        1218.483          39.000  
G10  21464366.907      250134.818       -1469.006          38.000  
G05  24298975.729     -635980.632        3539.719          38.000  
> 2018 02 16 08 23 12.0000000  0  8                     
G23  22743016.474      381152.097       -2153.720          38.000  
G11  21454003.535     -398283.261        2156.650          38.000  
G09  20515033.302      127905.155        -758.132          38.000  
G03  25175857.486      551321.839       -3113.226          38.000  
G30  22715595.421     -636594.272        3490.029          38.000  
G01  22455358.226     -229751.164        1218.056          38.000  
G10  21464646.522      251604.023       -1469.205          38.000  
G05  24298302.120     -639520.469        3539.981          38.000  
> 2018 02 16 08 23 13.0000000  0  8                     
G23  22743426.389      383306.277       -2154.240          38.000  
G11  21453593.226     -400439.528        2156.230          38.000  
G09  20515177.702      128663.836        -758.762          38.000  
G03  25176450.023      554435.501       -3113.688          38.000  
G30  22714931.355     -640083.849        3489.628          38.000  
G01  22455126.482     -230968.900        1217.671          38.000  
G10  21464926.172      253073.637       -1469.693          38.000  
G05  24297628.458     -643060.443        3540.214          38.000  
> 2018 02 16 08 23 14.0000000  0  8                     
G23  22743836.376      385460.814       -2154.232          38.000  
G11  21453182.954     -402595.593        2156.673          38.000  
G09  20515322.137      129422.928        -758.885          38.000  
G03  25177042.613      557549.530       -3113.732          38.000  
G30  22714267.378     -643573.090        3489.500          38.000  
G01  22454894.828     -232186.212        1217.461          38.000  
G10  21465205.893      254543.644       -1469.688          38.000  
G05  24296954.760     -646600.533        3540.544          38.000  
> 2018 02 16 08 23 15.0000000  0  8                     
G23  22744246.381      387615.556       -2154.731          38.000  
G11  21452772.645     -404751.745        2156.259          38.000  
G09  20515466.644      130182.314        -759.370          38.000  
G03  25177635.240      560663.812       -3114.355          38.000  
G30  22713603.418     -647062.122        3489.084          38.000  
G01  22454663.246     -233403.292        1217.048          38.000  
G10  21465485.687      256013.929       -1470.224          38.000  
G05  24296281.063     -650140.929        3540.523          38.000  
> 2018 02 16 08 23 16.0000000  0  8                     
G23  22744656.439      389770.600       -2155.186          38.000  
G11  21452362.390     -406907.747        2155.929          38.000  
G09  20515611.204      130942.058        -759.982          38.000  
G03  25178227.937      563778.421       -3114.824          38.000  
G30  22712939.549     -650550.841        3488.476          38.000  
G01  22454431.717     -234620.014        1216.493          38.000  
G10  21465765.569      257484.561       -1470.748          38.000  
G05  24295607.311     -653681.557        3540.794          38.000  
> 2018 02 16 08 23 17.0000000  0  8                     
G23  22745066.604      391925.967       -2155.461          38.000  
G11  21451952.171     -409063.565        2155.778          38.000  
G09  20515755.854      131702.214        -760.293          38.000  
G03  25178820.706      566893.396       -3115.021          38.000  
G30  22712275.732     -654039.220        3488.332          38.000  
G01  22454200.242     -235836.351        1216.288          38.000  
G10  21466045.505      258955.598       -1471.054          38.000  
G05  24294933.488     -657222.332        3541.059          38.000  
> 2018 02 16 08 23 18.0000000  0  8                     
G23  22745476.859      394081.724       -2155.916          38.000  
G11  21451541.988     -411219.052        2155.412          38.000  
G09  20515900.593      132462.830        -760.857          38.000  
G03  25179413.547      570008.845       -3115.760          38.000  
G30  22711612.005     -657527.119        3487.645          38.000  
G01  22453968.909     -237052.216        1215.580          38.000  
G10  21466325.531      260427.127       -1471.788          38.000  
G05  24294259.683     -660763.192        3540.869          38.000  
> 2018 02 16 08 23 19.0000000  0  8                     
G23  22745887.186      396237.922       -2156.020          38.000  
G11  21451131.858     -413374.310        2155.335          38.000  
G09  20516045.404      133223.976        -761.194          38.000  
G03  25180006.495      573124.770       -3115.930          38.000  
G30  22710948.368     -661014.530        3487.425          38.000  
G01  22453737.630     -238267.565        1215.294          38.000  
G10  21466605.681      261899.221       -1471.916          38.000  
G05  24293585.878     -664304.110        3541.188          38.000  
> 2018 02 16 08 23 20.0000000  0  8                     
G23  22746297.548      398394.359       -2156.440          38.000  
G11  21450721.764     -415529.401        2155.085          38.000  
G09  20516190.321      133985.437        -761.486          38.000  
G03  25180599.532      576241.028       -3116.359          38.000  
G30  22710284.784     -664501.618        3487.053          38.000  
G01  22453506.423     -239482.598        1214.992          38.000  
G10  21466885.903      263371.695       -1472.484          38.000  
G05  24292912.019     -667845.275        3541.370          38.000  
> 2018 02 16 08 23 21.0000000  0  8                     
G23  22746707.946      400551.068       -2156.755          38.000  
G11  21450311.688     -417684.249        2154.735          38.000  
G09  20516335.275      134747.278        -761.932          38.000  
G03  25181192.605      579357.625       -3116.673          38.000  
G30  22709621.289     -667988.317        3486.575          38.000  
G01  22453275.252     -240697.242        1214.512          38.000  
G10  21467166.179      264844.597       -1473.067          38.000  
G05  24292238.089     -671386.618        3541.579          38.000  
> 2018 02 16 08 23 22.0000000  0  8                     
G23  22747118.433      402708.222       -2157.071          38.000  
G11  21449901.719     -419838.644        2154.523          38.000  
G09  20516480.336      135509.658        -762.445          38.000  
G03  25181785.785      582474.774       -3117.273          38.000  
G30  22708957.901     -671474.452        3486.194          38.000  
G01  22453044.259     -241911.340        1214.107          38.000  
G10  21467446.580      266318.110       -1473.781          38.000  
G05  24291564.177     -674927.974        3541.725          38.000  
> 2018 02 16 08 23 23.0000000  0  8                     
G23  22747528.956      404865.588       -2157.318          38.000  
G11  21449491.785     -421992.893        2154.165          38.000  
G09  20516625.450      136272.360        -762.774          38.000  
G03  25182379.018      585592.225       -3117.490          38.000  
G30  22708294.585     -674960.219        3485.672          38.000  
G01  22452813.302     -243125.090        1213.689          38.000  
G10  21467727.016      267792.055       -1474.133          38.000  
G05  24290890.246     -678469.551        3541.691          38.000  
> 2018 02 16 08 23 24.0000000  0  8                     
G23  22747939.568      407023.397       -2157.955          38.000  
G11  21449081.941     -424146.676        2153.579          38.000  
G09  20516770.689      137035.601        -763.593          38.000  
G03  25182972.324      588710.232       -3118.221          38.000  
G30  22707631.394     -678445.391        3485.000          38.000  
G01  22452582.452     -244338.261        1212.813          38.000  
G10  21468007.613      269266.628       -1474.767          38.000  
G05  24290216.298     -682011.158        3541.754          38.000  
> 2018 02 16 08 23 25.0000000  0  8                     
G23  22748350.180      409181.261       -2157.754          38.000  
G11  21448672.097     -426300.343        2153.738          38.000  
G09  20516915.982      137798.987        -763.160          38.000  
G03  25183565.700      591828.394       -3118.093          38.000  
G30  22706968.221     -681930.344        3485.130          38.000  
G01  22452351.620     -245551.253        1213.034          38.000  
G10  21468288.264      270741.518       -1474.884          38.000  
G05  24289542.314     -685553.114        3542.181          38.000  
> 2018 02 16 08 23 26.0000000  0  8                     
G23  22748760.828      411339.207       -2157.893          38.000  
G11  21448262.289     -428453.781        2153.341          38.000  
G09  20517061.293      138562.622        -763.686          38.000  
G03  25184159.131      594946.775       -3118.346          38.000  
G30  22706305.102     -685414.970        3484.604          38.000  
G01  22452120.841     -246763.957        1212.687          38.000  
G10  21468569.004      272216.739       -1475.472          38.000  
G05  24288868.223     -689095.389        3542.538          38.000  
> 2018 02 16 08 23 27.0000000  0  8                     
G23  22749171.548      413497.444       -2158.362          38.000  
G11  21447852.588     -430606.898        2153.108          38.000  
G09  20517206.694      139326.639        -764.183          38.000  
G03  25184752.597      598065.562       -3118.863          38.000  
G30  22705642.090     -688899.106        3483.928          38.000  
G01  22451890.152     -247976.223        1212.270          38.000  
G10  21468849.852      273692.554       -1475.899          38.000  
G05  24288194.115     -692637.783        3542.487          38.000  
> 2018 02 16 08 23 28.0000000  0  8                     
G23  22749582.321      415656.038       -2158.377          38.000  
G11  21447442.977     -432759.477        2152.848          38.000  
G09  20517352.165      140091.148        -764.402          38.000  
G03  25185346.188      601184.833       -3119.075          38.000  
G30  22704979.185     -692382.656        3483.691          38.000  
G01  22451659.588     -249187.916        1211.859          38.000  
G10  21469130.824      275169.040       -1476.263          38.000  
G05  24287520.041     -696180.195        3542.835          38.000  
> 2018 02 16 08 23 29.0000000  0  8                     
G23  22749993.130      417814.855       -2158.846          38.000  
G11  21447033.437     -434911.671        2152.136          38.000  
G09  20517497.708      140856.036        -765.067          38.000  
G03  25185939.832      604304.489       -3119.935          38.000  
G30  22704316.369     -695865.718        3482.961          38.000  
G01  22451429.096     -250399.152        1210.982          38.000  
G10  21469411.886      276646.099       -1477.303          38.000  
G05  24286845.915     -699722.745        3542.540          38.000  
> 2018 02 16 08 23 30.0000000  0  8                     
G23  22750404.010      419974.031       -2159.175          38.000  
G11  21446623.986     -437063.248        2151.242          38.000  
G09  20517643.359      141621.416        -765.458          38.000  
G03  25186533.602      607424.624       -3120.396          38.000  
G30  22703653.696     -699348.135        3482.120          38.000  
G01  22451198.710     -251609.826        1210.466          38.000  
G10  21469693.109      278123.831       -1478.240          38.000  
G05  24286171.788     -703265.286        3542.513          38.000  
> 2018 02 16 08 23 31.0000000  0  8                     
G23  22750814.944      422133.370       -2159.381          38.000  
G11  21446214.624     -439214.496        2151.242          38.000  
G09  20517789.045      142387.099        -765.832          38.000  
G03  25187127.390      610545.044       -3120.503          38.000  
G30  22702991.113     -702830.117        3481.762          38.000  
G01  22450968.432     -252820.091        1210.121          38.000  
G10  21469974.439      279602.150       -1478.530          38.000  
G05  24285497.661     -706808.009        3542.785          38.000  
> 2018 02 16 08 23 35.0000000  0  8                     
G23  22752458.823      430771.862       -2159.773          38.000  
G11  21444578.001     -447815.169        2149.356          38.000  
G09  20518372.379      145452.638        -766.971          38.000  
G03  25189503.076      623029.488       -3121.524          38.000  
G30  22700341.512     -716753.665        3480.029          38.000  
G01  22450047.999     -257657.126        1208.497          38.000  
G10  21471100.670      285520.818       -1480.818          38.000  
G05  24282800.654     -720980.739        3543.582          38.000  
> 2018 02 16 08 23 36.0000000  0  8                     
G23  22752869.828      432931.836       -2159.972          38.000  
G11  21444169.068     -449964.069        2148.814          38.000  
G09  20518518.351      146219.817        -767.262          38.000  
G03  25190097.114      626151.349       -3121.916          38.000  
G30  22699679.358     -720233.303        3479.529          38.000  
G01  22449818.114     -258865.218        1207.812          38.000  
G10  21471382.536      287002.035       -1481.483          38.000  
G05  24282126.313     -724524.206        3543.497          38.000  
> 2018 02 16 08 23 37.0000000  0  8                     
G23  22753280.887      435092.003       -2160.330          38.000  
G11  21443760.278     -452112.347        2147.957          38.000  
G09  20518664.395      146987.372        -767.692          38.000  
G03  25190691.241      629273.546       -3122.359          38.000  
G30  22699017.292     -723712.384        3478.844          38.000  
G01  22449588.300     -260072.799        1207.421          38.000  
G10  21471664.527      288483.958       -1482.235          38.000  
G05  24281451.989     -728067.733        3543.531          38.000  
> 2018 02 16 08 23 38.0000000  0  8                     
G23  22753691.982      437252.338       -2160.211          38.000  
G11  21443351.596     -454259.988        2147.329          38.000  
G09  20518810.528      147755.285        -767.755          38.000  
G03  25191285.422      632396.075       -3122.446          38.000  
G30  22698355.352     -727190.877        3478.479          38.000  
G01  22449358.612     -261279.793        1206.883          38.000  
G10  21471946.661      289966.565       -1482.911          38.000  
G05  24280777.684     -731611.284        3543.744          38.000  
> 2018 02 16 08 23 39.0000000  0  8                     
G23  22754103.094      439412.757       -2160.338          38.000  
G11  21442943.039     -456407.018        2146.850          38.000  
G09  20518956.714      148523.523        -768.353          38.000  
G03  25191879.656      635518.843       -3122.741          38.000  
G30  22697693.502     -730668.902        3477.000          38.000  
G01  22449129.013     -262486.319        1206.409          38.000  
G10  21472228.938      291449.929       -1483.496          38.000  
G05  24280103.378     -735154.926        3543.908          38.000  
> 2018 02 16 08 23 40.0000000  0  8                     
G23  22754514.243      441573.329       -2160.545          38.000  
G11  21442534.588     -458553.407        2146.233          38.000  
G09  20519102.972      149292.092        -768.709          38.000  
G03  25192473.962      638641.919       -3123.028          38.000  
G30  22697031.794     -734146.326        3477.272          38.000  
G01  22448899.539     -263692.288        1205.924          38.000  
G10  21472511.322      292933.981       -1484.077          38.000  
G05  24279429.037     -738698.587        3543.873          38.000  
> 2018 02 16 08 23 41.0000000  0  8                     
G23  22754925.427      443734.031       -2160.767          38.000  
G11  21442126.281     -460699.092        2145.369          38.000  
G09  20519249.302      150061.027        -769.096          38.000  
G03  25193068.304      641765.289       -3123.357          38.000  
G30  22696370.140     -737623.202        3476.740          38.000  
G01  22448670.154     -264897.674        1205.183          38.000  
G10  21472793.885      294418.807       -1485.039          38.000  
G05  24278754.696     -742242.261        3543.692          38.000  
> 2018 02 16 08 23 42.0000000  0  8                     
G23  22755336.575      445894.628       -2160.630          38.000  
G11  21441718.028     -462844.305        2144.699          38.000  
G09  20519395.613      150830.070        -769.155          38.000  
G03  25193662.663      644888.737       -3123.571          38.000  
G30  22695708.575     -741099.709        3476.223          38.000  
G01  22448440.841     -266102.710        1204.983          38.000  
G10  21473076.537      295904.124       -1485.974          38.000  
G05  24278080.319     -745786.161        3544.119          38.000  
> 2018 02 16 08 23 43.0000000  0  8                     
G23  22755747.759      448055.390       -2160.615          38.000  
G11  21441309.935     -464988.698        2144.281          38.000  
G09  20519542.032      151599.534        -769.562          38.000  
G03  25194257.094      648012.485       -3123.804          38.000  
G30  22695047.135     -744575.626        3475.767          38.000  
G01  22448211.653     -267307.092        1204.246          38.000  
G10  21473359.332      297390.335       -1486.462          38.000  
G05  24277405.960     -749329.973        3544.039          38.000  
> 2018 02 16 08 23 44.0000000  0  8                     
G23  22756158.943      450216.230       -2160.680          38.000  
G11  21440902.021     -467132.400        2143.743          38.000  
G09  20519688.522      152369.275        -769.645          38.000  
G03  25194851.597      651136.444       -3123.883          38.000  
G30  22694385.820     -748050.983        3475.270          38.000  
G01  22447982.572     -268510.928        1203.838          38.000  
G10  21473642.270      298877.266       -1486.936          38.000  
G05  24276731.583     -752873.818        3544.231          38.000  
> 2018 02 16 08 23 45.0000000  0  8                     
G23  22756570.127      452377.039       -2160.798          38.000  
G11  21440494.214     -469275.443        2142.818          38.000  
G09  20519835.030      153139.244        -769.948          38.000  
G03  25195446.081      654260.520       -3124.173          38.000  
G30  22693724.559     -751525.916        3474.692          38.000  
G01  22447753.563     -269714.271        1203.091          38.000  
G10  21473925.333      300364.886       -1487.909          38.000  
G05  24276057.188     -756417.751        3544.176          38.000  
> 2018 02 16 08 23 46.0000000  0  8                     
G23  22756981.347      454537.882       -2161.145          38.000  
G11  21440086.550     -471417.780        2141.571          38.000  
G09  20519981.628      153909.520        -770.665          38.000  
G03  25196040.619      657384.780       -3124.424          38.000  
G30  22693063.405     -755000.316        3474.005          38.000  
G01  22447524.696     -270917.045        1202.351          38.000  
G10  21474208.540      301853.198       -1488.896          38.000  
G05  24275382.847     -759961.659        3543.722          38.000  
> 2018 02 16 08 23 47.0000000  0  8                     
G23  22757392.567      456698.850       -2161.048          38.000  
G11  21439679.029     -473559.190        2141.137          38.000  
G09  20520128.261      154680.166        -770.697          38.000  
G03  25196635.193      660509.310       -3124.513          38.000  
G30  22692402.377     -758474.101        3473.507          38.000  
G01  22447295.937     -272119.124        1201.730          38.000  
G10  21474491.924      303342.502       -1489.643          38.000  
G05  24274708.506     -763505.464        3543.692          38.000  
> 2018 02 16 08 23 48.0000000  0  8                     
G23  22757803.805      458859.876       -2160.994          38.000  
G11  21439271.705     -475699.850        2140.504          38.000  
G09  20520274.948      155451.132        -771.082          38.000  
G03  25197229.803      663634.038       -3124.862          38.000  
G30  22691741.437     -761947.352        3473.029          38.000  
G01  22447067.285     -273320.618        1201.375          38.000  
G10  21474775.488      304832.551       -1490.236          38.000  
G05  24274034.165     -767049.248        3543.970          38.000  
> 2018 02 16 08 23 49.0000000  0  8                     
G23  22758215.042      461020.981       -2161.031          38.000  
G11  21438864.523     -477839.613        2139.480          38.000  
G09  20520421.706      156222.440        -771.288          38.000  
G03  25197824.466      666758.969       -3124.889          38.000  
G30  22691080.587     -765420.026        3472.622          38.000  
G01  22446838.794     -274521.408        1200.545          38.000  
G10  21475059.194      306323.479       -1491.233          38.000  
G05  24273359.806     -770592.894        3543.769          38.000  
> 2018 02 16 08 23 50.0000000  0  8                     
G23  22758626.262      463182.114       -2161.354          38.000  
G11  21438457.503     -479978.597        2137.896          38.000  
G09  20520568.536      156994.052        -771.909          38.000  
G03  25198419.165      669884.057       -3125.351          38.000  
G30  22690419.880     -768892.153        3471.816          38.000  
G01  22446610.410     -275721.580        1199.694          38.000  
G10  21475343.044      307815.165       -1492.508          38.000  
G05  24272685.464     -774136.475        3543.360          38.000  
> 2018 02 16 08 23 51.0000000  0  8                     
G23  22759037.500      465343.239       -2160.661          38.000  
G11  21438050.643     -482116.704        2138.139          38.000  
G09  20520715.401      157765.953        -771.614          38.000  
G03  25199013.900      673009.244       -3124.806          38.000  
G30  22689759.262     -772363.775        3471.770          38.000  
G01  22446382.151     -276921.122        1199.536          38.000  
G10  21475627.054      309307.733       -1492.441          38.000  
G05  24272011.123     -777680.009        3543.939          38.000  
> 2018 02 16 08 23 52.0000000  0  8                     
G23  22759448.756      467504.348       -2161.008          38.000  
G11  21437643.926     -484254.016        2136.984          38.000  
G09  20520862.338      158538.104        -772.251          38.000  
G03  25199608.616      676134.528       -3125.329          38.000  
G30  22689098.734     -775834.921        3470.776          38.000  
G01  22446153.999     -278120.085        1198.608          38.000  
G10  21475911.261      310801.099       -1493.699          38.000  
G05  24271336.800     -781223.479        3543.378          38.000  
> 2018 02 16 08 23 53.0000000  0  8                     
G23  22759859.993      469665.436       -2161.058          38.000  
G11  21437237.370     -486390.494        2136.310          38.000  
G09  20521009.293      159310.513        -772.381          38.000  
G03  25200203.333      679259.884       -3125.291          38.000  
G30  22688438.295     -779305.597        3470.523          38.000  
G01  22445925.955     -279318.415        1198.187          38.000  
G10  21476195.611      312295.242       -1494.405          38.000  
G05  24270662.494     -784766.878        3543.475          38.000  
> 2018 02 16 08 23 54.0000000  0  8                     
G23  22760271.249      471826.618       -2161.344          38.000  
G11  21436830.993     -488526.010        2134.717          38.000  
G09  20521156.337      160083.359        -773.116          38.000  
G03  25200798.104      682385.436       -3125.657          38.000  
G30  22687777.981     -782775.644        3469.680          38.000  
G01  22445698.071     -280515.958        1197.216          38.000  
G10  21476480.103      313790.311       -1495.783          38.000  
G05  24269988.225     -788310.051        3542.924          38.000  
> 2018 02 16 08 23 55.0000000  0  8                     
G23  22760682.469      473987.616       -2160.891          38.000  
G11  21436424.776     -490660.761        2134.583          38.000  
G09  20521303.417      160856.275        -772.846          38.000  
G03  25201392.856      685510.909       -3125.331          38.000  
G30  22687117.738     -786245.385        3469.700          38.000  
G01  22445470.295     -281713.015        1196.968          38.000  
G10  21476764.775      315286.111       -1495.977          38.000  
G05  24269313.955     -791853.305        3543.565          38.000  
> 2018 02 16 08 23 56.0000000  0  8                     
G23  22761093.688      476148.678       -2161.241          38.000  
G11  21436018.721     -492794.570        2133.528          38.000  
G09  20521450.551      161629.571        -773.352          38.000  
G03  25201987.644      688636.502       -3125.569          38.000  
G30  22686457.585     -789714.542        3468.847          38.000  
G01  22445242.625     -282909.297        1195.893          38.000  
G10  21477049.607      316782.837       -1497.186          38.000  
G05  24268639.739     -795396.315        3542.957          38.000  
> 2018 02 16 08 23 57.0000000  0  8                     
G23  22761504.873      478309.632       -2160.957          38.000  
G11  21435612.808     -494927.525        2132.665          39.000  
G09  20521597.738      162403.075        -773.412          38.000  
G03  25202582.397      691762.077       -3125.490          38.000  
G30  22685797.485     -793183.307        3468.651          38.000  
G01  22445015.117     -284104.990        1195.522          38.000  
G10  21477334.546      318280.330       -1497.819          38.000  
G05  24267965.559     -798939.268        3543.083          38.000  
> 2018 02 16 08 23 58.0000000  0  8                     
G23  22761916.075      480470.667       -2161.124          38.000  
G11  21435207.074     -497059.526        2131.216          38.000  
G09  20521745.032      163176.984        -774.112          38.000  
G03  25203177.221      694887.808       -3125.939          38.000  
G30  22685137.529     -796651.485        3467.918          38.000  
G01  22444787.752     -285299.875        1194.550          38.000  
G10  21477619.682      319778.739       -1499.005          38.000  
G05  24267291.414     -802481.939        3542.490          38.000  
> 2018 02 16 08 23 59.0000000  0  8                     
G23  22762327.276      482631.485       -2160.764          38.000  
G11  21434801.501     -499190.701        2130.842          38.000  
G09  20521892.309      163950.979        -774.103          38.000  
G03  25203771.974      698013.351       -3125.533          38.000  
G30  22684477.590     -800119.393        3467.783          38.000  
G01  22444560.476     -286494.231        1193.968          38.000  
G10  21477904.979      321277.912       -1499.502          38.000  
G05  24266617.269     -806024.653        3542.713          38.000  
> 2018 02 16 08 24 00.0000000  0  8                     
G23  22762738.478      484792.278       -2160.450          38.000  
G11  21434396.106     -501320.978        2130.181          38.000  
G09  20522039.639      164725.279        -774.212          38.000  
G03  25204366.744      701138.929       -3125.357          38.000  
G30  22683817.759     -803586.804        3467.381          38.000  
G01  22444333.342     -287687.885        1193.510          38.000  
G10  21478190.419      322777.942       -1500.227          38.000  
G05  24265943.143     -809567.150        3542.667          38.000  
> 2018 02 16 08 24 01.0000000  0  8                     
G23  22763149.609      486952.965       -2160.312          38.000  
G11  21433990.890     -503450.398        2129.277          38.000  
G09  20522187.040      165499.773        -774.363          38.000  
G03  25204961.497      704264.417       -3125.256          38.000  
G30  22683158.034     -807053.870        3467.221          38.000  
G01  22444106.334     -288880.894        1192.867          38.000  
G10  21478476.002      324278.734       -1500.866          38.000  
G05  24265269.034     -813109.557        3542.593          38.000  
> 2018 02 16 08 24 02.0000000  0  8                     
G23  22763560.811      489113.707       -2160.627          38.000  
G11  21433585.853     -505578.840        2127.888          38.000  
G09  20522334.478      166274.656        -775.028          38.000  
G03  25205556.303      707389.987       -3125.450          38.000  
G30  22682498.381     -810520.402        3466.534          38.000  
G01  22443879.469     -290073.083        1191.920          38.000  
G10  21478761.763      325780.466       -1502.178          38.000  
G05  24264594.978     -816651.673        3542.193          38.000  
> 2018 02 16 08 24 03.0000000  0  8                     
G23  22763972.013      491274.532       -2160.709          38.000  
G11  21433181.013     -507706.145        2127.030          38.000  
G09  20522482.058      167049.929        -775.338          38.000  
G03  25206151.109      710515.642       -3125.426          38.000  
G30  22681838.818     -813986.375        3465.869          38.000  
G01  22443652.747     -291264.423        1191.045          39.000  
G10  21479047.739      327283.246       -1503.113          38.000  
G05  24263920.995     -820193.426        3541.599          38.000  
> 2018 02 16 08 24 04.0000000  0  8                     
G23  22764383.179      493435.147       -2160.538          38.000  
G11  21432776.351     -509832.677        2126.083          38.000  
G09  20522629.602      167825.336        -775.414          38.000  
G03  25206745.915      713641.121       -3125.414          38.000  
G30  22681179.326     -817452.095        3465.635          38.000  
G01  22443426.132     -292455.198        1190.511          38.000  
G10  21479333.858      328786.732       -1503.954          38.000  
G05  24263247.011     -823735.143        3541.606          38.000  
> 2018 02 16 08 24 07.0000000  0  8                     
G23  22765616.588      499916.906       -2160.625          38.000  
G11  21431563.473     -516206.564        2123.291          38.000  
G09  20523072.593      170153.439        -776.425          38.000  
G03  25208530.155      723017.332       -3125.223          38.000  
G30  22679201.296     -827846.662        3464.223          38.000  
G01  22442747.234     -296022.842        1188.006          38.000  
G10  21480193.161      333302.458       -1506.604          38.000  
G05  24261225.435     -834358.704        3540.696          38.000  
> 2018 02 16 08 24 09.0000000  0  8                     
G23  22766438.903      504238.115       -2160.738          38.000  
G11  21430755.811     -520450.831        2121.125          38.000  
G09  20523368.254      171707.206        -777.174          38.000  
G03  25209719.660      729268.016       -3125.271          38.000  
G30  22677883.045     -834774.219        3463.411          38.000  
G01  22442295.452     -298397.267        1186.461          38.000  
G10  21480766.918      336317.524       -1508.328          38.000  
G05  24259878.003     -841439.553        3540.013          38.000  
> 2018 02 16 08 24 10.0000000  0  8                     
G23  22766850.016      506398.546       -2160.371          38.000  
G11  21430352.221     -522571.736        2120.390          38.000  
G09  20523516.138      172484.444        -777.453          38.000  
G03  25210314.359      732393.122       -3125.054          38.000  
G30  22677223.000     -838237.553        3463.067          38.000  
G01  22442069.748     -299583.426        1185.880          38.000  
G10  21481054.019      337826.195       -1509.151          38.000  
G05  24259204.323     -844979.684        3540.039          38.000  
> 2018 02 16 08 24 11.0000000  0  8                     
G23  22767261.092      508558.765       -2160.423          38.000  
G11  21429948.774     -524691.848        2119.571          38.000  
G09  20523664.076      173261.763        -777.714          38.000  
G03  25210908.969      735517.914       -3124.961          38.000  
G30  22676564.972     -841700.745        3462.838          38.000  
G01  22441844.152     -300769.018        1185.049          38.000  
G10  21481341.264      339335.570       -1509.953          38.000  
G05  24258530.643     -848519.730        3539.815          38.000  
> 2018 02 16 08 24 12.0000000  0  8                     
G23  22767672.187      510719.031       -2160.041          38.000  
G11  21429545.524     -526810.939        2118.721          38.000  
G09  20523812.085      174039.467        -777.629          38.000  
G03  25211503.596      738642.686       -3124.730          38.000  
G30  22675906.034     -845163.512        3462.598          38.000  
G01  22441618.680     -301953.727        1184.395          38.000  
G10  21481628.669      340845.869       -1510.542          38.000  
G05  24257857.070     -852059.378        3539.530          38.000  
> 2018 02 16 08 24 13.0000000  0  8                     
G23  22768083.193      512878.988       -2159.729          38.000  
G11  21429142.399     -528929.440        2118.270          39.000  
G09  20523960.076      174817.175        -777.587          38.000  
G03  25212098.134      741767.025       -3124.044          38.000  
G30  22675247.096     -848626.252        3462.612          38.000  
G01  22441393.316     -303137.981        1184.004          38.000  
G10  21481916.182      342356.706       -1511.120          38.000  
G05  24257183.479     -855599.038        3539.619          38.000  
> 2018 02 16 08 24 14.0000000  0  8                     
G23  22768494.269      515039.268       -2160.237          38.000  
G11  21428739.506     -531046.731        2116.944          38.000  
G09  20524108.211      175595.550        -778.418          39.000  
G03  25212692.762      744891.608       -3124.476          38.000  
G30  22674588.283     -852088.343        3461.977          38.000  
G01  22441168.184     -304321.096        1182.777          38.000  
G10  21482203.909      343868.683       -1512.203          38.000  
G05  24256510.014     -859138.043        3538.806          38.000  
> 2018 02 16 08 24 15.0000000  0  8                     
G23  22768905.346      517199.461       -2159.908          38.000  
G11  21428336.774     -533163.121        2116.206          38.000  
G09  20524256.363      176374.166        -778.504          38.000  
G03  25213287.336      748015.986       -3124.048          38.000  
G30  22673929.488     -855550.192        3462.099          38.000  
G01  22440943.178     -305503.508        1182.413          38.000  
G10  21482491.779      345381.479       -1512.932          38.000  
G05  24255836.602     -862676.845        3538.914          38.000  
> 2018 02 16 08 24 16.0000000  0  8                     
G23  22769316.441      519359.631       -2159.866          38.000  
G11  21427934.221     -535278.655        2115.190          38.000  
G09  20524404.586      177153.087        -778.891          39.000  
G03  25213881.874      751140.225       -3124.005          38.000  
G30  22673270.782     -859011.737        3461.625          38.000  
G01  22440718.296     -306685.140        1181.560          38.000  
G10  21482779.792      346895.060       -1513.903          38.000  
G05  24255163.243     -866215.318        3538.568          38.000  
> 2018 02 16 08 24 17.0000000  0  8                     
G23  22769727.518      521519.813       -2160.030          38.000  
G11  21427531.828     -537393.315        2114.198          38.000  
G09  20524552.881      177932.322        -779.250          38.000  
G03  25214476.394      754264.332       -3123.959          38.000  
G30  22672612.112     -862472.000        3461.285          38.000  
G01  22440493.575     -307865.961        1180.562          38.000  
G10  21483067.965      348409.449       -1514.805          38.000  
G05  24254489.974     -869753.455        3538.162          39.000  
> 2018 02 16 08 24 18.0000000  0  8                     
G23  22770138.613      523680.003       -2160.055          38.000  
G11  21427129.561     -539507.128        2113.349          38.000  
G09  20524701.230      178711.891        -779.601          38.000  
G03  25215070.878      757388.310       -3124.076          38.000  
G30  22671953.496     -865933.992        3460.853          38.000  
G01  22440269.015     -309046.003        1179.649          39.000  
G10  21483356.300      349924.639       -1515.599          38.000  
G05  24253816.741     -873291.270        3537.682          38.000  
> 2018 02 16 08 24 19.0000000  0  8                     
G23  22770549.725      525840.274       -2160.127          38.000  
G11  21426727.508     -541619.995        2112.333          38.000  
G09  20524849.650      179491.855        -780.125          38.000  
G03  25215665.345      760512.195       -3123.869          38.000  
G30  22671294.951     -869394.645        3460.506          38.000  
G01  22440044.634     -310225.177        1178.657          38.000  
G10  21483644.813      351440.698       -1516.405          38.000  
G05  24253143.579     -876828.713        3537.376          38.000  
> 2018 02 16 08 24 20.0000000  0  8                     
G23  22770960.802      528000.552       -2160.106          38.000  
G11  21426325.562     -543732.056        2111.892          38.000  
G09  20524998.141      180272.129        -780.326          38.000  
G03  25216259.758      763635.909       -3123.529          38.000  
G30  22670636.441     -872855.092        3460.541          38.000  
G01  22439820.396     -311403.620        1178.153          38.000  
G10  21483933.451      352957.537       -1517.091          38.000  
G05  24252470.471     -880365.826        3537.145          38.000  
> 2018 02 16 08 24 21.0000000  0  8                     
G23  22771371.825      530160.761       -2160.145          38.000  
G11  21425923.795     -545843.385        2111.118          38.000  
G09  20525146.687      181052.638        -780.537          38.000  
G03  25216854.135      766759.403       -3123.333          38.000  
G30  22669977.968     -876315.347        3460.217          38.000  
G01  22439596.300     -312581.328        1177.296          38.000  
G10  21484222.197      354475.040       -1517.712          38.000  
G05  24251797.416     -883902.695        3536.723          38.000  
> 2018 02 16 08 24 22.0000000  0  8                     
G23  22771782.902      532320.950       -2160.266          38.000  
G11  21425522.153     -547953.961        2110.275          38.000  
G09  20525295.250      181833.444        -780.966          38.000  
G03  25217448.495      769882.685       -3123.174          38.000  
G30  22669319.530     -879775.436        3459.984          38.000  
G01  22439372.294     -313758.318        1176.497          38.000  
G10  21484511.121      355993.258       -1518.548          38.000  
G05  24251124.415     -887439.309        3536.447          38.000  
> 2018 02 16 08 24 23.0000000  0  8                     
G23  22772194.033      534481.423       -2160.457          38.000  
G11  21425120.725     -550063.474        2109.192          38.000  
G09  20525443.920      182614.826        -781.383          38.000  
G03  25218042.854      773006.077       -3123.218          38.000  
G30  22668661.182     -883235.072        3459.683          38.000  
G01  22439148.502     -314934.295        1175.781          38.000  
G10  21484800.188      357512.466       -1519.491          38.000  
G05  24250451.557     -890975.325        3535.895          38.000  
> 2018 02 16 08 24 24.0000000  0  8                     
G23  22772605.145      536641.884       -2160.434          38.000  
G11  21424719.476     -552172.290        2108.480          38.000  
G09  20525592.680      183396.498        -781.761          38.000  
G03  25218637.196      776129.244       -3123.040          38.000  
G30  22668002.869     -886694.553        3459.555          38.000  
G01  22438924.854     -316109.551        1175.027          38.000  
G10  21485089.434      359032.364       -1520.102          39.000  
G05  24249778.699     -894511.100        3535.724          38.000  
> 2018 02 16 08 24 25.0000000  0  8                     
G23  22773016.258      538802.295       -2160.381          38.000  
G11  21424318.281     -554280.460        2107.763          38.000  
G09  20525741.475      184178.402        -781.994          38.000  
G03  25219231.484      779252.174       -3122.995          38.000  
G30  22667344.592     -890153.937        3459.286          38.000  
G01  22438701.330     -317284.116        1174.147          38.000  
G10  21485378.787      360552.901       -1520.978          38.000  
G05  24249105.895     -898046.632        3535.468          38.000  
> 2018 02 16 08 24 26.0000000  0  8                     
G23  22773427.406      540962.817       -2160.233          38.000  
G11  21423917.264     -556387.854        2107.379          38.000  
G09  20525890.360      184960.700        -782.186          38.000  
G03  25219825.754      782374.978       -3122.535          38.000  
G30  22666686.333     -893613.098        3459.261          38.000  
G01  22438477.949     -318457.895        1173.692          38.000  
G10  21485668.283      362074.163       -1521.162          39.000  
G05  24248433.198     -901581.785        3535.146          38.000  
> 2018 02 16 08 24 27.0000000  0  8                     
G23  22773838.590      543123.477       -2160.706          38.000  
G11  21423516.355     -558494.474        2106.152          38.000  
G09  20526039.298      185743.420        -782.933          38.000  
G03  25220420.006      785497.680       -3122.730          38.000  
G30  22666028.163     -897072.021        3458.843          38.000  
G01  22438254.747     -319630.845        1172.663          38.000  
G10  21485957.922      363596.189       -1522.423          38.000  
G05  24247760.554     -905116.583        3534.645          38.000  
> 2018 02 16 08 24 28.0000000  0  8                     
G23  22774249.810      545284.344       -2160.693          38.000  
G11  21423115.642     -560600.264        2105.582          38.000  
G09  20526188.343      186526.609        -783.185          38.000  
G03  25221014.241      788620.376       -3122.436          38.000  
G30  22665369.994     -900530.631        3458.751          38.000  
G01  22438031.688     -320802.900        1171.997          38.000  
G10  21486247.704      365119.038       -1523.074          38.000  
G05  24247087.000     -908650.924        3534.467          38.000  
> 2018 02 16 08 24 29.0000000  0  8                     
G23  22774661.012      547445.221       -2160.849          38.000  
G11  21422715.037     -562705.463        2104.893          38.000  
G09  20526337.443      187310.084        -783.556          38.000  
G03  25221608.403      791742.860       -3122.420          38.000  
G30  22664711.878     -903989.167        3458.471          38.000  
G01  22437808.808     -321974.271        1171.037          38.000  
G10  21486537.594      366642.473       -1523.792          38.000  
G05  24246415.481     -912185.018        3533.876          38.000  
> 2018 02 16 08 24 30.0000000  0  8                     
G23  22775072.250      549606.262       -2161.023          38.000  
G11  21422314.574     -564809.966        2104.628          38.000  
G09  20526486.649      188093.971        -783.894          38.000  
G03  25222202.602      794865.225       -3122.164          38.000  
G30  22664053.761     -907447.507        3458.282          38.000  
G01  22437586.089     -323144.853        1170.255          38.000  
G10  21486827.644      368166.621       -1524.261          38.000  
G05  24245743.070     -915718.769        3533.726          38.000  
> 2018 02 16 08 24 31.0000000  0  8                     
G23  22775483.541      551767.508       -2161.372          38.000  
G11  21421914.254     -566913.711        2103.313          38.000  
G09  20526635.909      188878.346        -784.557          38.000  
G03  25222796.747      797987.574       -3122.244          38.000  
G30  22663395.717     -910905.591        3457.842          38.000  
G01  22437363.512     -324314.589        1169.298          38.000  
G10  21487117.819      369691.498       -1525.316          38.000  
G05  24245070.694     -919252.092        3533.151          38.000  
> 2018 02 16 08 24 32.0000000  0  8                     
G23  22775894.797      553928.811       -2161.503          38.000  
G11  21421514.006     -569016.923        2102.845          38.000  
G09  20526785.222      189663.004        -784.903          38.000  
G03  25223390.892      801109.744       -3122.287          38.000  
G30  22662737.672     -914363.622        3457.880          38.000  
G01  22437141.061     -325483.666        1168.648          38.000  
G10  21487408.101      371216.957       -1525.929          38.000  
G05  24244398.372     -922785.178        3532.703          38.000  
> 2018 02 16 08 24 33.0000000  0  8                     
G23  22776306.106      556090.222       -2161.268          38.000  
G11  21421113.865     -571119.563        2102.525          38.000  
G09  20526934.607      190448.024        -785.047          38.000  
G03  25223985.001      804231.737       -3121.803          38.000  
G30  22662079.663     -917821.536        3457.959          38.000  
G01  22436918.716     -326652.020        1168.119          38.000  
G10  21487698.508      372743.007       -1526.236          38.000  
G05  24243726.086     -926318.017        3532.865          38.000  
> 2018 02 16 08 24 34.0000000  0  8                     
G23  22776717.415      558251.595       -2161.033          38.000  
G11  21420713.813     -573221.760        2102.262          38.000  
G09  20527084.064      191233.260        -785.225          38.000  
G03  25224579.057      807353.459       -3121.498          38.000  
G30  22661421.636     -921279.485        3458.023          38.000  
G01  22436696.461     -327819.822        1167.623          38.000  
G10  21487989.005      374269.517       -1526.538          38.000  
G05  24243053.818     -929850.711        3532.848          38.000  
> 2018 02 16 08 24 35.0000000  0  8                     
G23  22777128.778      560413.273       -2161.497          38.000  
G11  21420313.887     -575323.353        2101.362          38.000  
G09  20527233.592      192019.009        -785.816          38.000  
G03  25225173.113      810475.175       -3121.555          38.000  
G30  22660763.628     -924737.208        3457.720          38.000  
G01  22436474.385     -328986.773        1166.573          38.000  
G10  21488279.627      375796.699       -1527.486          38.000  
G05  24242381.639     -933382.996        3532.283          38.000  
> 2018 02 16 08 24 36.0000000  0  8                     
G23  22777540.141      562575.024       -2161.764          38.000  
G11  21419914.049     -577424.491        2100.837          38.000  
G09  20527383.156      192805.035        -786.153          38.000  
G03  25225767.097      813596.714       -3121.501          38.000  
G30  22660105.637     -928194.906        3457.688          38.000  
G01  22436252.416     -330153.135        1166.083          38.000  
G10  21488570.320      377324.380       -1527.975          38.000  
G05  24241709.513     -936915.088        3531.979          38.000  
> 2018 02 16 08 24 37.0000000  0  8                     
G23  22777951.521      564736.889       -2161.790          38.000  
G11  21419514.319     -579525.154        2100.592          38.000  
G09  20527532.809      193591.410        -786.282          38.000  
G03  25226361.063      816718.076       -3120.969          38.000  
G30  22659447.681     -931652.563        3457.967          38.000  
G01  22436030.590     -331318.846        1165.706          38.000  
G10  21488861.156      378852.569       -1528.177          38.000  
G05  24241037.423     -940446.979        3531.965          38.000  
> 2018 02 16 08 24 38.0000000  0  8                     
G23  22778362.938      566898.984       -2162.177          38.000  
G11  21419114.679     -581625.273        2100.358          38.000  
G09  20527682.498      194378.221        -786.875          38.000  
G03  25226955.030      819839.431       -3121.215          38.000  
G30  22658789.744     -935110.041        3457.553          38.000  
G01  22435808.925     -332483.793        1164.772          38.000  
G10  21489152.082      380381.373       -1528.625          38.000  
G05  24240365.352     -943978.565        3531.538          38.000  
> 2018 02 16 08 24 39.0000000  0  8                     
G23  22778774.372      569061.095       -2162.061          38.000  
G11  21418715.091     -583725.145        2099.579          38.000  
G09  20527832.276      195165.281        -787.337          38.000  
G03  25227548.960      822960.538       -3121.102          38.000  
G30  22658131.788     -938567.602        3457.599          38.000  
G01  22435587.349     -333648.233        1164.109          38.000  
G10  21489443.097      381910.516       -1529.336          38.000  
G05  24239693.333     -947510.046        3531.330          38.000  
> 2018 02 16 08 24 40.0000000  0  8                     
G23  22779185.913      571223.621       -2162.532          38.000  
G11  21418315.594     -585824.369        2098.882          38.000  
G09  20527982.143      195952.907        -787.693          38.000  
G03  25228142.891      826081.750       -3121.125          38.000  
G30  22657473.905     -942024.880        3457.431          38.000  
G01  22435365.898     -334811.815        1163.444          38.000  
G10  21489734.237      383440.388       -1530.194          38.000  
G05  24239021.387     -951041.106        3530.782          38.000  
> 2018 02 16 08 24 41.0000000  0  8                     
G23  22779597.473      573386.386       -2162.922          38.000  
G11  21417916.221     -587923.138        2098.372          38.000  
G09  20528132.118      196740.989        -788.351          38.000  
G03  25228736.839      829202.928       -3121.313          38.000  
G30  22656816.021     -945482.036        3457.013          38.000  
G01  22435144.608     -335974.687        1162.379          38.000  
G10  21490025.430      384970.787       -1530.751          38.000  
G05  24238349.493     -954571.915        3530.654          38.000  
> 2018 02 16 08 24 42.0000000  0  8                     
G23  22780009.068      575549.254       -2162.919          38.000  
G11  21417516.902     -590021.583        2098.678          38.000  
G09  20528282.146      197529.342        -788.458          38.000  
G03  25229330.734      832323.926       -3120.926          38.000  
G30  22656158.155     -948939.225        3457.128          38.000  
G01  22434923.408     -337137.038        1162.014          38.000  
G10  21490316.749      386501.589       -1530.739          38.000  
G05  24237677.618     -958102.609        3530.608          38.000  
> 2018 02 16 08 24 43.0000000  0  8                     
G23  22780420.699      577712.355       -2163.255          38.000  
G11  21417117.637     -592119.758        2097.877          38.000  
G09  20528432.228      198318.119        -789.038          38.000  
G03  25229924.629      835444.894       -3121.025          38.000  
G30  22655500.289     -952396.349        3457.121          38.000  
G01  22434702.332     -338298.733        1161.213          38.000  
G10  21490608.121      388032.809       -1531.473          38.000  
G05  24237005.797     -961633.090        3530.239          38.000  
> 2018 02 16 08 24 44.0000000  0  8                     
G23  22780832.329      579875.641       -2163.108          38.000  
G11  21416718.443     -594217.606        2097.936          38.000  
G09  20528582.382      199107.232        -789.023          38.000  
G03  25230518.488      838565.757       -3120.481          38.000  
G30  22654842.441     -955853.436        3457.295          38.000  
G01  22434481.382     -339459.899        1161.273          38.000  
G10  21490899.601      389564.452       -1531.456          38.000  
G05  24236333.975     -965163.466        3530.699          38.000  
> 2018 02 16 08 24 45.0000000  0  8                     
G23  22781243.996      582039.021       -2163.451          38.000  
G11  21416319.249     -596315.282        2097.521          38.000  
G09  20528732.553      199896.607        -789.575          38.000  
G03  25231112.329      841686.459       -3120.601          38.000  
G30  22654184.539     -959310.609        3457.319          38.000  
G01  22434260.538     -340620.562        1160.458          38.000  
G10  21491191.116      391096.408       -1532.219          38.000  
G05  24235662.153     -968693.787        3530.526          38.000  
> 2018 02 16 08 24 46.0000000  0  8                     
G23  22781655.770      584202.888       -2163.792          38.000  
G11  21415920.198     -598412.335        2097.573          38.000  
G09  20528882.885      200686.614        -789.925          38.000  
G03  25231706.224      844807.369       -3120.603          38.000  
G30  22653526.709     -962767.454        3457.048          38.000  
G01  22434039.838     -341780.371        1159.718          38.000  
G10  21491482.738      392629.071       -1532.469          38.000  
G05  24234990.439     -972223.686        3530.160          38.000  
> 2018 02 16 08 24 47.0000000  0  8                     
G23  22782067.544      586366.744       -2163.637          38.000  
G11  21415521.129     -600509.493        2097.270          38.000  
G09  20529033.235      201476.784        -790.084          38.000  
G03  25232300.083      847928.006       -3120.330          38.000  
G30  22652868.843     -966224.525        3457.422          38.000  
G01  22433819.209     -342939.872        1159.536          38.000  
G10  21491774.432      394161.811       -1532.724          38.000  
G05  24234318.689     -975753.701        3530.211          38.000  
> 2018 02 16 08 24 48.0000000  0  8                     
G23  22782479.407      588531.076       -2164.427          38.000  
G11  21415122.131     -602606.150        2096.418          38.000  
G09  20529183.728      202267.565        -791.101          38.000  
G03  25232893.960      851048.853       -3120.850          38.000  
G30  22652211.013     -969681.315        3456.914          38.000  
G01  22433598.705     -344098.584        1158.408          38.000  
G10  21492066.198      395695.175       -1533.612          38.000  
G05  24233646.992     -979283.393        3529.773          38.000  
> 2018 02 16 08 24 49.0000000  0  8                     
G23  22782891.323      590695.737       -2164.639          38.000  
G11  21414723.205     -604702.497        2096.264          38.000  
G09  20529334.292      203058.815        -791.561          38.000  
G03  25233487.855      854169.767       -3120.857          38.000  
G30  22651553.254     -973137.951        3456.670          38.000  
G01  22433378.327     -345256.673        1157.965          38.000  
G10  21492358.053      397229.018       -1534.172          38.000  
G05  24232975.367     -982812.864        3529.362          38.000  
> 2018 02 16 08 24 50.0000000  0  8                     
G23  22783303.329      592860.759       -2165.162          38.000  
G11  21414324.333     -606798.476        2096.300          38.000  
G09  20529484.946      203850.522        -791.950          38.000  
G03  25234081.768      857290.779       -3121.009          38.000  
G30  22650895.513     -976594.457        3456.322          38.000  
G01  22433158.091     -346414.119        1157.196          38.000  
G10  21492649.997      398763.306       -1534.212          38.000  
G05  24232303.760     -986342.187        3529.403          38.000  
> 2018 02 16 08 24 51.0000000  0  8                     
G23  22783715.371      595026.060       -2165.181          38.000  
G11  21413925.496     -608894.390        2095.820          38.000  
G09  20529635.689      204642.674        -792.256          38.000  
G03  25234675.663      860411.832       -3120.988          38.000  
G30  22650237.754     -980050.924        3456.805          38.000  
G01  22432937.927     -347571.009        1156.707          38.000  
G10  21492942.012      400297.927       -1534.662          38.000  
G05  24231632.242     -989871.374        3529.340          38.000  
> 2018 02 16 08 24 52.0000000  0  8                     
G23  22784127.467      597191.630       -2165.809          38.000  
G11  21413526.678     -610990.103        2095.432          38.000  
G09  20529786.504      205435.169        -792.670          38.000  
G03  25235269.593      863532.877       -3121.145          38.000  
G30  22649580.014     -983507.323        3456.299          38.000  
G01  22432717.816     -348727.420        1156.011          38.000  
G10  21493234.099      401832.887       -1535.148          38.000  
G05  24230960.653     -993400.531        3529.051          38.000  
> 2018 02 16 08 24 53.0000000  0  8                     
G23  22784539.616      599357.464       -2165.994          38.000  
G11  21413127.895     -613085.655        2095.185          38.000  
G09  20529937.390      206228.065        -793.140          38.000  
G03  25235863.506      866653.968       -3121.238          38.000  
G30  22648922.291     -986963.680        3456.092          38.000  
G01  22432497.849     -349883.319        1155.466          38.000  
G10  21493526.294      403368.183       -1535.541          38.000  
G05  24230289.063     -996929.629        3528.871          38.000  
> 2018 02 16 08 24 54.0000000  0  8                     
G23  22784951.818      601523.634       -2166.272          38.000  
G11  21412729.165     -615180.978        2095.759          38.000  
G09  20530088.365      207021.399        -793.511          38.000  
G03  25236457.436      869775.149       -3121.096          38.000  
G30  22648264.585     -990419.957        3456.325          38.000  
G01  22432277.988     -351038.694        1155.229          38.000  
G10  21493818.559      404903.867       -1535.564          38.000  
G05  24229617.510    -1000458.652        3529.014          38.000  
> 2018 02 16 08 24 55.0000000  0  8                     
G23  22785364.110      603690.099       -2166.537          38.000  
G11  21412330.436     -617276.295        2095.203          38.000  
G09  20530239.394      207815.145        -794.000          38.000  
G03  25237051.385      872896.401       -3121.098          38.000  
G30  22647606.898     -993876.134        3456.162          38.000  
G01  22432058.199     -352193.549        1154.623          38.000  
G10  21494110.825      406439.816       -1536.199          38.000  
G05  24228945.974    -1003987.636        3529.027          38.000  
> 2018 02 16 08 24 56.0000000  0  8                     
G23  22785776.438      605856.849       -2166.849          38.000  
G11  21411931.724     -619371.470        2094.854          38.000  
G09  20530390.548      208609.267        -794.296          38.000  
G03  25237645.387      876017.739       -3121.333          38.000  
G30  22646949.211     -997332.266        3456.028          38.000  
G01  22431838.517     -353347.953        1154.135          38.000  
G10  21494403.144      407976.065       -1536.613          38.000  
G05  24228274.438    -1007516.613        3528.971          38.000  
> 2018 02 16 08 24 57.0000000  0  8                     
G23  22786188.873      608024.148       -2167.368          38.000  
G11  21411533.084     -621466.315        2094.673          38.000  
G09  20530541.774      209404.028        -794.988          38.000  
G03  25238239.461      879139.415       -3121.781          38.000  
G30  22646291.577    -1000788.088        3455.784          38.000  
G01  22431618.979     -354501.659        1153.541          38.000  
G10  21494695.571      409512.866       -1536.952          38.000  
G05  24227602.956    -1011045.345        3528.723          38.000  
> 2018 02 16 08 24 58.0000000  0  8                     
G23  22786601.326      610191.736       -2167.492          38.000  
G11  21411134.462     -623561.006        2095.128          38.000  
G09  20530693.106      210199.170        -795.321          38.000  
G03  25238833.498      882261.165       -3121.809          38.000  
G30  22645633.979    -1004243.832        3455.668          38.000  
G01  22431399.493     -355654.913        1153.240          38.000  
G10  21494988.069      411049.975       -1537.064          38.000  
G05  24226931.456    -1014574.097        3528.806          38.000  
> 2018 02 16 08 24 59.0000000  0  8                     
G23  22787013.850      612359.580       -2167.899          38.000  
G11  21410735.858     -625655.786        2093.325          38.000  
G09  20530844.457      210994.624        -795.530          38.000  
G03  25239427.572      885382.956       -3122.185          38.000  
G30  22644976.381    -1007699.594        3455.656          38.000  
G01  22431180.098     -356807.781        1152.590          38.000  
G10  21495280.603      412587.232       -1537.510          38.000  
G05  24226259.956    -1018102.931        3528.554          38.000  
> 2018 02 16 08 25 00.0000000  0  8                     
G23  22787426.517      614528.177       -2168.831          38.000  
G11  21410337.343     -627750.130        2094.329          38.000  
G09  20530995.986      211790.916        -796.334          38.000  
G03  25240021.753      888505.289       -3122.328          38.000  
G30  22644318.873    -1011154.829        3455.378          38.000  
G01  22430960.862     -357959.785        1151.827          38.000  
G10  21495573.262      414125.200       -1537.954          38.000  
G05  24225588.509    -1021631.400        3528.535          38.000  
> 2018 02 16 08 25 01.0000000  0  8                     
G23  22787839.166      616696.671       -2168.111          38.000  
G11  21409938.774     -629844.764        2095.077          38.000  
G09  20531147.533      212587.200        -795.856          38.000  
G03  25240615.880      891627.384       -3121.748          38.000  
G30  22643661.293    -1014610.344        3455.959          38.000  
G01  22430741.663     -359111.773        1152.356          38.000  
G10  21495865.938      415663.078       -1537.324          38.000  
G05  24224916.992    -1025160.300        3529.511          38.000  
> 2018 02 16 08 25 02.0000000  0  8                     
G23  22788251.852      618865.273       -2168.698          38.000  
G11  21409540.259     -631938.970        2092.368          38.000  
G09  20531299.116      213383.663        -796.484          38.000  
G03  25241209.989      894749.391       -3121.945          38.000  
G30  22643003.695    -1018065.986        3455.799          38.000  
G01  22430522.500     -360263.542        1151.690          38.000  
G10  21496158.615      417201.219       -1538.747          38.000  
G05  24224245.420    -1028689.495        3529.517          38.000  
> 2018 02 16 08 25 03.0000000  0  8                     
G23  22788664.412      621033.236       -2167.885          38.000  
G11  21409141.637     -634033.718        2095.960          38.000  
G09  20531450.574      214179.572        -796.196          38.000  
G03  25241803.937      897870.625       -3121.097          38.000  
G30  22642345.936    -1021522.472        3456.481          38.000  
G01  22430303.247     -361415.876        1152.361          38.000  
G10  21496451.220      418738.868       -1537.516          38.000  
G05  24223573.652    -1032219.684        3530.239          38.000  
> 2018 02 16 08 25 04.0000000  0  8                     
G23  22789077.061      623201.656       -2168.549          38.000  
G11  21408743.122     -636127.896        2094.238          38.000  
G09  20531602.139      214975.955        -796.469          38.000  
G03  25242397.957      900992.134       -3121.540          38.000  
G30  22641688.249    -1024978.725        3456.194          38.000  
G01  22430084.065     -362567.662        1151.523          38.000  
G10  21496743.915      420276.996       -1538.202          38.000  
G05  24222901.866    -1035749.846        3530.128          38.000  
