     2.11           O                   G                   RINEX VERSION / TYPE
WALKEGNOS           ISMB                  20180216  082058  PGM / RUN BY / DATE 
                                                            COMMENT             
                                                            MARKER NAME         
1                                                           MARKER NUMBER       
NavSAS              ISMB / POLITO                           OBSERVER / AGENCY   
1                                    NVSFW ver              REC # / TYPE / VERS 
1                   PATCH                                   ANT # / TYPE        
        0.0000        0.0000        0.0000                  APPROX POSITION XYZ 
        0.0000        0.0000        0.0000                  ANTENNA: DELTA H/E/N
     1     0                                                WAVELENGTH FACT L1/2
     4    L1    C1    D1    S1                              # / TYPES OF OBSERV 
     1.000                                                  INTERVAL            
  2018    02    16     8    20   58.0000000     GPS         TIME OF FIRST OBS   
                                                            END OF HEADER       
 18  2 16  8 20 58.0000000  2  1
            *** FROM NOW ON KINEMATIC DATA! ***             COMMENT             
 18  2 16  8 20 58.0000000  0  8G01G11G05G03G23G09G10G30            -0.000579346
    -62677.527    22425107.650        1362.382          53.000  
   -108565.456    21447423.660        2288.206          53.000  
   -160594.089    24326419.618        3615.882          53.000  
    136998.016    25034306.252       -3027.955          53.000  
     96979.448    22626129.709       -2060.905          53.000  
     29466.504    20434039.025        -640.480          53.000  
     61688.147    21365814.635       -1322.800          53.000  
   -167160.756    22742670.225        3597.281          53.000  
 18  2 16  8 20 59.0000000  0  8G01G11G05G03G23G09G10G30            -0.000579159
    -64039.599    22424848.459        1361.907          53.000  
   -110853.311    21446988.317        2287.712          53.000  
   -164209.938    24325731.553        3615.896          53.000  
    140026.238    25034882.492       -3028.355          52.000  
     99040.632    22626521.934       -2061.365          53.000  
     30107.314    20434160.963        -641.049          53.000  
     63011.188    21366066.410       -1323.190          53.000  
   -170757.838    22741985.735        3596.979          53.000  
 18  2 16  8 21  0.0000000  0  8G01G11G05G03G23G09G10G30            -0.000578972
    -65401.059    22424589.376        1361.240          53.000  
   -113140.864    21446553.028        2287.418          53.000  
   -167825.701    24325043.524        3615.754          52.000  
    143054.977    25035458.822       -3028.940          52.000  
    101102.401    22626914.284       -2061.991          53.000  
     30748.755    20434283.044        -641.668          53.000  
     64334.780    21366318.274       -1323.775          52.000  
   -174354.499    22741301.315        3596.535          52.000  
 18  2 16  8 21  1.0000000  0  8G01G11G05G03G23G09G10G30            -0.000578785
    -66761.911    22424330.401        1360.653          53.000  
   -115428.124    21446117.810        2287.183          53.000  
   -171441.388    24324355.478        3615.753          53.000  
    146084.248    25036035.241       -3029.447          53.000  
    103164.755    22627306.759       -2062.536          52.000  
     31390.842    20434405.269        -642.304          53.000  
     65658.938    21366570.245       -1324.335          53.000  
   -177950.715    22740616.968        3596.097          53.000  
 18  2 16  8 21  2.0000000  0  8G01G11G05G03G23G09G10G30            -0.000578598
    -68122.173    22424071.550        1360.139          53.000  
   -117715.037    21445682.628        2287.297          53.000  
   -175057.018    24323667.431        3615.806          53.000  
    149114.039    25036611.802       -3029.893          52.000  
    105227.678    22627699.306       -2063.003          53.000  
     32033.544    20434527.600        -642.786          53.000  
     66983.642    21366822.305       -1324.761          53.000  
   -181546.498    22739932.709        3595.717          52.000  
 18  2 16  8 21  3.0000000  0  8G01G11G05G03G23G09G10G30            -0.000578411
    -69481.991    22423812.753        1359.426          52.000  
   -120001.943    21445247.428        2286.550          53.000  
   -178672.733    24322979.366        3615.586          52.000  
    152144.222    25037188.436       -3030.574          53.000  
    107291.032    22628091.942       -2063.779          53.000  
     32676.733    20434650.021        -643.627          53.000  
     68308.739    21367074.473       -1325.466          53.000  
   -185141.975    22739248.522        3595.111          53.000  
 18  2 16  8 21  4.0000000  0  8G01G11G05G03G23G09G10G30            -0.000578225
    -70841.298    22423554.045        1359.237          53.000  
   -122288.609    21444812.281        2286.597          53.000  
   -182288.466    24322291.337        3615.855          53.000  
    155174.882    25037765.141       -3030.783          53.000  
    109354.879    22628484.703       -2063.989          53.000  
     33320.486    20434772.495        -643.988          53.000  
     69634.323    21367326.730       -1325.703          53.000  
   -188737.058    22738564.389        3594.977          53.000  
 18  2 16  8 21  5.0000000  0  8G01G11G05G03G23G09G10G30            -0.000578038
    -72200.019    22423295.498        1358.824          53.000  
   -124574.980    21444377.224        2286.565          53.000  
   -185904.171    24321603.291        3616.062          53.000  
    158206.076    25038341.953       -3031.097          53.000  
    111419.276    22628877.553       -2064.304          53.000  
     33964.826    20434895.076        -644.279          53.000  
     70960.470    21367579.112       -1326.034          53.000  
   -192331.680    22737880.362        3594.717          53.000  
 18  2 16  8 21  6.0000000  0  8G01G11G05G03G23G09G10G30            -0.000577852
    -73558.079    22423037.059        1357.826          53.000  
   -126860.887    21443942.221        2286.088          53.000  
   -189519.753    24320915.244        3615.616          53.000  
    161237.913    25038918.908       -3032.059          53.000  
    113484.313    22629270.529       -2065.232          53.000  
     34609.879    20435017.801        -645.289          53.000  
     72287.269    21367831.619       -1327.026          53.000  
   -195925.727    22737196.461        3593.840          53.000  
 18  2 16  8 21  7.0000000  0  8G01G11G05G03G23G09G10G30            -0.000577666
    -74915.624    22422778.744        1357.435          53.000  
   -129146.668    21443507.235        2285.731          53.000  
   -193135.364    24320227.215        3615.673          53.000  
    164270.244    25039495.970       -3032.455          53.000  
    115549.838    22629663.576       -2065.576          53.000  
     35255.475    20435140.650        -645.653          53.000  
     73614.570    21368084.162       -1327.307          53.000  
   -199519.358    22736512.596        3593.667          53.000  
 18  2 16  8 21  8.0000000  0  8G01G11G05G03G23G09G10G30            -0.000577480
    -76272.686    22422520.501        1356.959          53.000  
   -131432.188    21443072.303        2285.463          53.000  
   -196751.052    24319539.168        3615.935          53.000  
    167303.052    25040073.086       -3033.062          52.000  
    117615.817    22630056.694       -2066.066          53.000  
     35901.596    20435263.625        -646.258          53.000  
     74942.369    21368336.830       -1327.889          53.000  
   -203112.554    22735828.820        3593.042          53.000  
 18  2 16  8 21  9.0000000  0  8G01G11G05G03G23G09G10G30            -0.000577294
    -77629.339    22422262.347        1356.533          53.000  
   -133717.527    21442637.407        2285.142          53.000  
   -200366.867    24318851.122        3615.964          53.000  
    170336.245    25040650.273       -3033.358          53.000  
    119682.167    22630449.920       -2066.505          53.000  
     36548.157    20435386.671        -646.850          53.000  
     76270.593    21368589.587       -1328.426          53.000  
   -206705.409    22735145.115        3592.577          53.000  
 18  2 16  8 21 10.0000000  0  8G01G11G05G03G23G09G10G30            -0.000577108
    -78985.459    22422004.265        1355.930          53.000  
   -136002.505    21442202.600        2285.032          53.000  
   -203982.720    24318163.057        3615.936          53.000  
    173369.972    25041227.568       -3033.966          53.000  
    121749.006    22630843.217       -2067.061          53.000  
     37195.272    20435509.806        -647.443          53.000  
     77599.369    21368842.452       -1329.123          53.000  
   -210297.778    22734461.518        3592.102          53.000  
 18  2 16  8 21 11.0000000  0  8G01G11G05G03G23G09G10G30            -0.000576922
    -80341.133    22421746.308        1355.499          53.000  
   -138287.363    21441767.811        2284.736          53.000  
   -207598.680    24317474.975        3616.082          53.000  
    176404.135    25041804.952       -3034.350          53.000  
    123816.232    22631236.586       -2067.395          53.000  
     37842.842    20435633.049        -647.765          53.000  
     78928.611    21369095.406       -1329.395          53.000  
   -213889.751    22733777.939        3591.771          53.000  
 18  2 16  8 21 12.0000000  0  8G01G11G05G03G23G09G10G30            -0.000576736
    -81696.386    22421488.440        1355.172          53.000  
   -140571.970    21441333.040        2284.619          53.000  
   -211214.783    24316786.874        3616.342          53.000  
    179438.719    25042382.407       -3034.640          53.000  
    125883.825    22631630.044       -2067.644          53.000  
     38490.863    20435756.345        -648.124          53.000  
     80258.326    21369348.431       -1329.728          53.000  
   -217481.316    22733094.466        3591.455          53.000  
 18  2 16  8 21 13.0000000  0  8G01G11G05G03G23G09G10G30            -0.000576551
    -83051.101    22421230.661        1354.565          53.000  
   -142856.210    21440898.358        2284.188          53.000  
   -214830.910    24316098.774        3616.318          53.000  
    182473.840    25042959.952       -3035.264          53.000  
    127951.886    22632023.573       -2068.175          53.000  
     39139.434    20435879.749        -648.724          53.000  
     81588.636    21369601.582       -1330.504          53.000  
   -221072.364    22732411.119        3590.907          53.000  
 18  2 16  8 21 14.0000000  0  8G01G11G05G03G23G09G10G30            -0.000576365
    -84405.247    22420972.954        1353.860          53.000  
   -145139.999    21440463.783        2283.696          53.000  
   -218447.022    24315410.638        3616.084          52.000  
    185509.532    25043537.639       -3036.007          53.000  
    130020.442    22632417.192       -2068.814          53.000  
     39788.589    20436003.295        -649.498          52.000  
     82919.555    21369854.857       -1331.388          53.000  
   -224662.847    22731727.861        3590.164          53.000  
 18  2 16  8 21 15.0000000  0  8G01G11G05G03G23G09G10G30            -0.000576180
    -85758.908    22420715.336        1353.573          53.000  
   -147423.559    21440029.244        2283.624          53.000  
   -222063.235    24314722.520        3616.499          53.000  
    188545.690    25044115.416       -3036.118          53.000  
    132089.386    22632810.900       -2068.892          53.000  
     40438.211    20436126.913        -649.539          53.000  
     84251.041    21370108.222       -1331.480          53.000  
   -228252.854    22731044.711        3590.033          53.000  
 18  2 16  8 21 16.0000000  0  8G01G11G05G03G23G09G10G30            -0.000575994
    -87111.926    22420457.862        1352.620          53.000  
   -149706.586    21439594.777        2282.700          53.000  
   -225679.365    24314034.401        3616.081          53.000  
    191582.505    25044693.300       -3037.234          53.000  
    134158.887    22633204.716       -2069.826          53.000  
     41088.506    20436250.656        -650.700          53.000  
     85583.245    21370361.730       -1332.616          53.000  
   -231842.181    22730361.685        3588.868          53.000  
 18  2 16  8 21 17.0000000  0  8G01G11G05G03G23G09G10G30            -0.000575809
    -88464.655    22420200.441        1352.361          53.000  
   -151989.456    21439160.345        2282.570          53.000  
   -229295.774    24313346.230        3616.311          53.000  
    194619.577    25045271.238       -3037.421          53.000  
    136228.556    22633598.585       -2069.975          53.000  
     41739.055    20436374.435        -650.880          53.000  
     86915.818    21370615.291       -1332.932          53.000  
   -235431.230    22729678.695        3588.727          53.000  
 18  2 16  8 21 18.0000000  0  8G01G11G05G03G23G09G10G30            -0.000575624
    -89816.327    22419943.234        1351.417          53.000  
   -154271.334    21438726.128        2281.727          53.000  
   -232911.704    24312658.129        3615.942          53.000  
    197657.696    25045849.408       -3038.376          53.000  
    138299.159    22633992.615       -2070.766          53.000  
     42390.649    20436498.428        -651.805          53.000  
     88249.527    21370869.085       -1334.166          53.000  
   -239019.194    22728995.920        3587.730          53.000  
 18  2 16  8 21 19.0000000  0  8G01G11G05G03G23G09G10G30            -0.000575439
    -91167.037    22419686.206        1350.407          53.000  
   -156552.409    21438292.054        2280.844          53.000  
   -236527.248    24311970.118        3615.525          53.000  
    200696.751    25046427.721       -3039.340          53.000  
    140370.589    22634386.787       -2071.656          53.000  
     43043.181    20436622.600        -652.809          53.000  
     89584.329    21371123.111       -1335.085          53.000  
   -242606.163    22728313.341        3586.666          53.000  
 18  2 16  8 21 20.0000000  0  8G01G11G05G03G23G09G10G30            -0.000575254
    -92517.139    22419429.285        1349.922          53.000  
   -158832.944    21437858.069        2280.395          52.000  
   -240142.753    24311282.107        3615.578          53.000  
    203736.380    25047006.142       -3039.784          52.000  
    142442.476    22634781.067       -2072.012          52.000  
     43696.288    20436746.879        -653.287          53.000  
     90919.842    21371377.226       -1335.701          53.000  
   -246192.493    22727630.870        3586.098          52.000  
 18  2 16  8 21 21.0000000  0  8G01G11G05G03G23G09G10G30            -0.000575070
    -93866.417    22419172.525        1349.014          53.000  
   -161112.723    21437424.244        2279.514          53.000  
   -243758.016    24310594.150        3615.260          53.000  
    206776.794    25047584.705       -3040.698          53.000  
    144515.018    22635175.455       -2072.780          53.000  
     44350.178    20436871.337        -654.189          53.000  
     92256.288    21371631.538       -1336.768          53.000  
   -249777.967    22726948.577        3585.169          53.000  
 18  2 16  8 21 22.0000000  0  8G01G11G05G03G23G09G10G30            -0.000574886
    -95215.271    22418915.854        1348.843          53.000  
   -163392.106    21436990.492        2279.399          53.000  
   -247373.440    24309906.157        3615.685          53.000  
    209817.569    25048163.357       -3040.724          53.000  
    146587.789    22635569.895       -2072.634          53.000  
     45004.419    20436995.848        -654.182          53.000  
     93593.244    21371885.940       -1337.137          53.000  
   -253362.983    22726266.373        3584.976          53.000  
 18  2 16  8 21 23.0000000  0  8G01G11G05G03G23G09G10G30            -0.000574702
    -96563.778    22418659.255        1348.223          53.000  
   -165671.210    21436556.775        2278.911          53.000  
   -250989.093    24309218.110        3615.736          53.000  
    212858.639    25048742.046       -3041.251          53.000  
    148660.724    22635964.372       -2073.055          53.000  
     45658.960    20437120.377        -654.641          53.000  
     94930.745    21372140.448       -1337.677          53.000  
   -256947.609    22725584.259        3584.365          53.000  
 18  2 16  8 21 25.0000000  0  8G01G11G05G03G23G09G10G30            -0.000574333
    -99258.759    22418146.396        1346.640          53.000  
   -170227.428    21435689.788        2277.343          53.000  
   -258220.102    24307842.070        3615.285          53.000  
    218942.573    25049899.780       -3042.675          53.000  
    152807.955    22636753.575       -2074.202          53.000  
     46969.845    20437369.847        -656.070          53.000  
     97608.158    21372649.947       -1339.612          53.000  
   -264114.705    22724220.406        3582.697          53.000  
 18  2 16  8 21 26.0000000  0  8G01G11G05G03G23G09G10G30            -0.000574150
   -100605.190    22417890.155        1346.368          53.000  
   -172504.452    21435256.482        2276.815          53.000  
   -261835.410    24307154.095        3615.461          53.000  
    221985.460    25050478.825       -3042.936          53.000  
    154882.271    22637148.284       -2074.300          53.000  
     47626.228    20437494.769        -656.487          53.000  
     98948.118    21372904.938       -1340.366          53.000  
   -267697.122    22723538.720        3582.280          53.000  
 18  2 16  8 21 27.0000000  0  8G01G11G05G03G23G09G10G30            -0.000573966
   -101951.101    22417634.038        1345.931          53.000  
   -174780.953    21434823.265        2276.534          53.000  
   -265450.792    24306466.120        3615.671          53.000  
    225028.746    25051057.943       -3043.218          53.000  
    156956.834    22637543.064       -2074.432          53.000  
     48283.011    20437619.763        -656.744          53.000  
    100288.810    21373160.037       -1340.688          53.000  
   -271278.991    22722857.124        3581.837          53.000  
 18  2 16  8 21 28.0000000  0  8G01G11G05G03G23G09G10G30            -0.000573777
   -103296.336    22417378.046        1345.162          53.000  
   -177056.750    21434390.192        2275.756          53.000  
   -269066.075    24305778.144        3615.509          53.000  
    228072.574    25051637.167       -3043.802          53.000  
    159031.786    22637937.916       -2074.868          53.000  
     48940.350    20437744.846        -657.326          53.000  
    101630.320    21373415.313       -1341.557          53.000  
   -274860.147    22722175.653        3581.108          53.000  
 18  2 16  8 21 29.0000000  0  8G01G11G05G03G23G09G10G30            -0.000573594
   -104641.091    22417122.162        1344.577          53.000  
   -179332.001    21433957.225        2275.005          53.000  
   -272681.455    24305090.133        3615.446          53.000  
    231116.746    25052216.427       -3044.345          53.000  
    161106.921    22638332.804       -2075.207          53.000  
     49598.061    20437869.983        -657.958          53.000  
    102972.488    21373670.715       -1342.465          53.000  
   -278440.775    22721494.290        3580.365          53.000  
 18  2 16  8 21 30.0000000  0  8G01G11G05G03G23G09G10G30            -0.000573412
   -105985.047    22416866.420        1343.615          53.000  
   -181606.406    21433524.420        2273.899          53.000  
   -276296.619    24304402.194        3615.071          53.000  
    234161.537    25052795.848       -3045.040          53.000  
    163182.524    22638727.781       -2075.760          53.000  
     50256.407    20437995.245        -658.572          53.000  
    104315.565    21373926.296       -1343.690          53.000  
   -282020.588    22720813.069        3579.502          53.000  
 18  2 16  8 21 31.0000000  0  8G01G11G05G03G23G09G10G30            -0.000573230
   -107328.477    22416610.786        1343.507          53.000  
   -183880.187    21433091.739        2273.830          53.000  
   -279911.840    24303714.254        3615.540          53.000  
    237206.682    25053375.305       -3044.998          53.000  
    165258.321    22639122.793       -2075.566          52.000  
     50915.149    20438120.596        -658.650          52.000  
    105659.442    21374182.020       -1343.811          53.000  
   -285599.837    22720131.955        3579.270          53.000  
 18  2 16  8 21 32.0000000  0  8G01G11G05G03G23G09G10G30            -0.000573047
   -108671.555    22416355.206        1343.058          53.000  
   -186153.555    21432659.112        2273.404          53.000  
   -283527.297    24303026.261        3615.771          53.000  
    240251.967    25053954.797       -3045.175          53.000  
    167334.095    22639517.806       -2075.537          53.000  
     51574.055    20438246.001        -658.764          53.000  
    107003.809    21374437.868       -1344.371          53.000  
   -289178.723    22719450.913        3578.891          53.000  
 18  2 16  8 21 33.0000000  0  8G01G11G05G03G23G09G10G30            -0.000572864
   -110014.218    22416099.696        1342.644          52.000  
   -188426.377    21432226.610        2272.813          53.000  
   -287142.901    24302338.250        3615.918          53.000  
    243297.459    25054534.325       -3045.368          53.000  
    169409.922    22639912.801       -2075.597          53.000  
     52233.233    20438371.459        -659.067          53.000  
    108348.801    21374693.806       -1345.021          53.000  
   -292757.167    22718769.961        3578.444          53.000  
 18  2 16  8 21 34.0000000  0  8G01G11G05G03G23G09G10G30            -0.000572682
   -111356.116    22415844.330        1341.542          53.000  
   -190698.349    21431794.287        2271.262          53.000  
   -290758.326    24301650.275        3615.378          53.000  
    246343.471    25055113.979       -3046.283          53.000  
    171486.109    22640307.885       -2076.337          52.000  
     52892.969    20438497.025        -660.016          52.000  
    109694.694    21374949.941       -1346.749          53.000  
   -296334.843    22718089.151        3577.299          52.000  
 18  2 16  8 21 35.0000000  0  8G01G11G05G03G23G09G10G30            -0.000572500
   -112697.449    22415589.089        1341.073          53.000  
   -192969.601    21431362.089        2270.967          53.000  
   -294373.760    24300962.300        3615.438          53.000  
    249389.787    25055693.668       -3046.457          53.000  
    173562.445    22640703.005       -2076.419          53.000  
     53553.079    20438622.626        -660.285          53.000  
    111041.416    21375206.201       -1347.019          53.000  
   -299911.949    22717408.448        3576.815          53.000  
 18  2 16  8 21 36.0000000  0  8G01G11G05G03G23G09G10G30            -0.000572318
   -114038.327    22415333.919        1340.615          53.000  
   -195240.283    21430929.998        2270.389          53.000  
   -297989.321    24300274.289        3615.569          53.000  
    252436.272    25056273.410       -3046.620          53.000  
    175638.792    22641098.124       -2076.410          53.000  
     54213.421    20438748.281        -660.532          53.000  
    112388.768    21375462.585       -1347.695          53.000  
   -303488.615    22716727.835        3576.375          53.000  
 18  2 16  8 21 37.0000000  0  8G01G11G05G03G23G09G10G30            -0.000572135
   -115378.558    22415078.875        1340.020          52.000  
   -197510.162    21430498.050        2269.671          53.000  
   -301604.799    24299586.296        3615.523          53.000  
    255483.104    25056853.206       -3046.876          53.000  
    177715.336    22641493.262       -2076.501          53.000  
     54874.196    20438874.025        -660.875          53.000  
    113736.961    21375719.131       -1348.439          53.000  
   -307064.645    22716047.329        3575.835          53.000  
 18  2 16  8 21 38.0000000  0  8G01G11G05G03G23G09G10G30            -0.000571953
   -116718.163    22414823.955        1339.285          53.000  
   -199779.293    21430066.245        2268.494          53.000  
   -305220.242    24298898.303        3615.584          53.000  
    258530.239    25057433.056       -3047.383          53.000  
    179792.029    22641888.453       -2076.890          53.000  
     55535.353    20438999.841        -661.490          53.000  
    115085.939    21375975.819       -1349.815          53.000  
   -310640.081    22715366.948        3575.179          53.000  
 18  2 16  8 21 39.0000000  0  8G01G11G05G03G23G09G10G30            -0.000571771
   -118057.049    22414569.179        1338.668          53.000  
   -202047.487    21429634.619        2267.952          53.000  
   -308835.517    24298210.345        3615.334          53.000  
    261577.741    25058012.977       -3047.526          53.000  
    181868.944    22642283.681       -2076.890          53.000  
     56196.981    20439125.746        -661.716          53.000  
    116435.915    21376232.704       -1350.232          53.000  
   -314214.825    22714686.710        3574.545          53.000  
 18  2 16  8 21 40.0000000  0  8G01G11G05G03G23G09G10G30            -0.000571589
   -119395.323    22414314.510        1338.081          53.000  
   -204314.921    21429203.136        2267.226          53.000  
   -312450.748    24297522.388        3615.293          53.000  
    264625.487    25058592.952       -3047.725          53.000  
    183945.959    22642678.925       -2076.923          53.000  
     56858.958    20439251.723        -661.970          53.000  
    117786.671    21376489.732       -1350.923          53.000  
   -317789.011    22714006.561        3574.057          53.000  
 18  2 16  8 21 41.0000000  0  8G01G11G05G03G23G09G10G30            -0.000571407
   -120732.873    22414059.983        1337.378          53.000  
   -206581.443    21428771.849        2266.323          53.000  
   -316065.834    24296834.448        3615.236          53.000  
    267673.567    25059172.981       -3048.020          53.000  
    186023.168    22643074.206       -2077.092          53.000  
     57521.395    20439377.771        -662.457          53.000  
    119138.366    21376746.957       -1351.931          53.000  
   -321362.526    22713326.520        3573.390          53.000  
 18  2 16  8 21 42.0000000  0  8G01G11G05G03G23G09G10G30            -0.000571225
   -122069.781    22413805.600        1336.628          53.000  
   -208847.178    21428340.670        2265.165          53.000  
   -319680.837    24296146.545        3615.047          53.000  
    270721.871    25059753.063       -3048.331          53.000  
    188100.467    22643469.505       -2077.241          53.000  
     58184.178    20439503.890        -662.823          53.000  
    120490.849    21377004.342       -1353.074          53.000  
   -324935.474    22712646.622        3572.758          53.000  
 18  2 16  8 21 43.0000000  0  8G01G11G05G03G23G09G10G30            -0.000571043
   -123406.068    22413551.306        1336.218          53.000  
   -211112.025    21427909.687        2264.767          53.000  
   -323295.778    24295458.641        3615.128          53.000  
    273770.364    25060333.163       -3048.349          53.000  
    190177.827    22643864.821       -2077.169          53.000  
     58847.292    20439630.064        -663.053          53.000  
    121844.244    21377261.871       -1353.485          53.000  
   -328507.879    22711966.813        3572.334          53.000  
 18  2 16  8 21 44.0000000  0  8G01G11G05G03G23G09G10G30            -0.000570861
   -124741.729    22413297.137        1335.423          53.000  
   -213376.073    21427478.864        2263.772          53.000  
   -326910.656    24294770.737        3614.937          53.000  
    276819.015    25060913.298       -3048.654          53.000  
    192255.224    22644260.137       -2077.342          53.000  
     59510.721    20439756.326        -663.473          53.000  
    123198.439    21377519.578       -1354.451          53.000  
   -332079.761    22711287.111        3571.700          53.000  
 18  2 16  8 21 45.0000000  0  8G01G11G05G03G23G09G10G30            -0.000570680
   -126076.476    22413043.146        1334.414          53.000  
   -215639.008    21427048.239        2262.603          53.000  
   -330525.175    24294082.905        3614.380          53.000  
    279868.097    25061493.524       -3049.175          53.000  
    194332.936    22644655.507       -2077.729          53.000  
     60174.746    20439882.696        -664.163          53.000  
    124553.755    21377777.481       -1355.678          53.000  
   -335650.840    22710607.552        3570.920          53.000  
 18  2 16  8 21 46.0000000  0  8G01G11G05G03G23G09G10G30            -0.000570497
   -127410.726    22412789.263        1334.216          53.000  
   -217901.259    21426617.738        2261.754          53.000  
   -334139.744    24293395.072        3614.739          52.000  
    282917.180    25062073.749       -3048.915          52.000  
    196410.530    22645050.860       -2077.370          52.000  
     60838.948    20440009.101        -664.156          53.000  
    125909.713    21378035.510       -1356.400          53.000  
   -339221.528    22709928.082        3570.657          52.000  
 18  2 16  8 21 47.0000000  0  8G01G11G05G03G23G09G10G30            -0.000570315
   -128744.157    22412535.505        1332.935          53.000  
   -220162.431    21426187.452        2260.623          53.000  
   -337754.062    24292707.294        3614.099          53.000  
    285966.536    25062654.009       -3049.613          52.000  
    198488.302    22645446.247       -2077.962          52.000  
     61503.604    20440135.578        -664.999          53.000  
    127266.752    21378293.753       -1357.577          53.000  
   -342791.559    22709248.738        3569.586          53.000  
 18  2 16  8 21 48.0000000  0  8G01G11G05G03G23G09G10G30            -0.000570134
   -130076.647    22412281.944        1332.186          52.000  
   -222422.440    21425757.399        2259.691          52.000  
   -341367.974    24292019.569        3613.868          53.000  
    289016.291    25063234.359       -3049.799          53.000  
    200566.370    22645841.689       -2078.041          53.000  
     62168.861    20440262.162        -665.379          53.000  
    128624.926    21378552.193       -1358.522          53.000  
   -346360.794    22708569.554        3569.015          53.000  
 18  2 16  8 21 49.0000000  0  8G01G11G05G03G23G09G10G30            -0.000569952
   -131408.712    22412028.436        1331.924          53.000  
   -224681.831    21425327.434        2259.195          53.000  
   -344982.014    24291331.826        3614.201          53.000  
    292065.887    25063814.674       -3049.417          53.000  
    202644.199    22646237.095       -2077.637          53.000  
     62834.177    20440388.764        -665.239          53.000  
    129983.695    21378810.776       -1358.984          53.000  
   -349929.774    22707890.388        3568.959          53.000  
 18  2 16  8 21 50.0000000  0  8G01G11G05G03G23G09G10G30            -0.000569761
   -132739.995    22411775.125        1330.772          53.000  
   -226940.266    21424897.666        2257.587          53.000  
   -348595.814    24290644.136        3613.625          53.000  
    295115.672    25064395.024       -3049.950          53.000  
    204722.131    22646632.518       -2078.074          53.000  
     63499.905    20440515.456        -665.980          53.000  
    131343.390    21379069.501       -1360.504          53.000  
   -353498.152    22707211.365        3567.989          53.000  
 18  2 16  8 21 51.0000000  0  8G01G11G05G03G23G09G10G30            -0.000569579
   -134070.515    22411521.939        1330.144          53.000  
   -229197.628    21424468.095        2256.986          53.000  
   -352209.382    24289956.501        3613.456          53.000  
    298165.604    25064975.410       -3049.997          53.000  
    206800.142    22647027.942       -2078.036          53.000  
     64166.021    20440642.201        -666.293          53.000  
    132704.113    21379328.459       -1361.128          53.000  
   -357065.968    22706532.432        3567.535          53.000  
 18  2 16  8 21 52.0000000  0  8G01G11G05G03G23G09G10G30            -0.000569396
   -135400.075    22411268.931        1329.151          53.000  
   -231453.823    21424038.756        2255.744          53.000  
   -355822.530    24289268.936        3612.993          53.000  
    301215.854    25065555.849       -3050.357          53.000  
    208878.405    22647423.419       -2078.333          53.000  
     64832.700    20440769.071        -666.869          53.000  
    134065.965    21379587.614       -1362.327          53.000  
   -360633.040    22705853.623        3566.748          53.000  
 18  2 16  8 21 53.0000000  0  8G01G11G05G03G23G09G10G30            -0.000569214
   -136729.083    22411016.031        1328.885          53.000  
   -233709.263    21423609.560        2255.255          53.000  
   -359435.659    24288581.390        3613.273          53.000  
    304265.990    25066136.271       -3049.916          53.000  
    210956.504    22647818.861       -2077.850          53.000  
     65499.534    20440895.959        -666.699          53.000  
    135428.527    21379846.893       -1362.711          53.000  
   -364199.794    22705174.886        3566.766          53.000  
 18  2 16  8 21 54.0000000  0  8G01G11G05G03G23G09G10G30            -0.000569032
   -138057.263    22410763.291        1327.916          53.000  
   -235963.711    21423180.578        2253.849          53.000  
   -363048.487    24287893.879        3612.811          53.000  
    307316.276    25066716.728       -3050.204          53.000  
    213034.706    22648214.338       -2078.093          53.000  
     66166.790    20441022.936        -667.282          53.000  
    136792.029    21380106.351       -1363.962          53.000  
   -367765.965    22704496.256        3566.018          53.000  
 18  2 16  8 21 55.0000000  0  8G01G11G05G03G23G09G10G30            -0.000568849
   -139384.689    22410510.695        1327.043          53.000  
   -238217.096    21422751.757        2253.014          53.000  
   -366661.092    24287206.440        3612.533          53.000  
    310366.611    25067297.186       -3050.300          53.000  
    215112.927    22648609.815       -2078.220          53.000  
     66834.385    20441149.967        -667.669          53.000  
    138156.544    21380366.006       -1364.896          53.000  
   -371331.653    22703817.734        3565.494          53.000  
 18  2 16  8 21 56.0000000  0  8G01G11G05G03G23G09G10G30            -0.000568667
   -140711.370    22410258.241        1326.458          53.000  
   -240469.548    21422323.133        2252.176          53.000  
   -370273.469    24286519.037        3612.435          53.000  
    313416.972    25067877.643       -3050.190          53.000  
    217191.145    22649005.292       -2078.037          53.000  
     67502.309    20441277.087        -667.879          53.000  
    139521.937    21380625.822       -1365.614          53.000  
   -374896.868    22703139.301        3565.161          53.000  
 18  2 16  8 21 57.0000000  0  8G01G11G05G03G23G09G10G30            -0.000568485
   -142037.120    22410005.949        1325.319          53.000  
   -242720.861    21421894.723        2250.766          53.000  
   -373885.427    24285831.705        3611.730          53.000  
    316467.528    25068458.154       -3050.689          53.000  
    219269.542    22649400.787       -2078.437          53.000  
     68170.741    20441404.279        -668.716          53.000  
    140888.404    21380885.852       -1366.964          53.000  
   -378461.451    22702460.975        3564.234          53.000  
 18  2 16  8 21 58.0000000  0  8G01G11G05G03G23G09G10G30            -0.000568303
   -143362.143    22409753.799        1324.866          53.000  
   -244971.300    21421466.474        2249.974          53.000  
   -377497.183    24285144.408        3611.835          53.000  
    319518.045    25069038.647       -3050.306          53.000  
    221347.900    22649796.300       -2078.116          53.000  
     68839.458    20441531.542        -668.668          53.000  
    142255.705    21381146.042       -1367.685          53.000  
   -382025.624    22701782.738        3564.182          53.000  
 18  2 16  8 21 59.0000000  0  8G01G11G05G03G23G09G10G30            -0.000568121
   -144686.424    22409501.774        1323.740          53.000  
   -247220.710    21421038.422        2248.863          53.000  
   -381108.707    24284457.166        3611.246          53.000  
    322568.528    25069619.140       -3050.623          53.000  
    223426.234    22650191.795       -2078.480          53.000  
     69508.479    20441658.841        -669.341          53.000  
    143623.953    21381406.412       -1368.814          53.000  
   -385589.385    22701104.591        3563.413          53.000  
 18  2 16  8 22  0.0000000  0  8G01G11G05G03G23G09G10G30            -0.000567939
   -146009.710    22409249.982        1322.855          53.000  
   -249468.948    21420610.602        2247.759          53.000  
   -384719.740    24283770.012        3610.836          53.000  
    325619.219    25070199.687       -3050.727          53.000  
    225504.786    22650587.326       -2078.581          53.000  
     70178.055    20441786.265        -669.761          53.000  
    144993.312    21381666.996       -1369.814          53.000  
   -389152.493    22700426.551        3562.868          53.000  
 18  2 16  8 22  1.0000000  0  8G01G11G05G03G23G09G10G30            -0.000567758
   -147331.988    22408998.350        1321.715          52.000  
   -251716.004    21420182.996        2246.422          53.000  
   -388330.272    24283082.931        3610.217          53.000  
    328670.106    25070780.251       -3051.021          53.000  
    227583.566    22650982.911       -2078.941          52.000  
     70848.190    20441913.778        -670.446          53.000  
    146363.804    21381927.794       -1371.068          53.000  
   -392714.957    22699748.636        3562.106          53.000  
 18  2 16  8 22  2.0000000  0  8G01G11G05G03G23G09G10G30            -0.000567576
   -148653.097    22408746.951        1320.975          53.000  
   -253961.750    21419755.640        2245.301          53.000  
   -391940.134    24282395.992        3609.946          52.000  
    331721.338    25071360.869       -3050.933          53.000  
    229662.731    22651378.567       -2078.907          53.000  
     71519.044    20442041.453        -670.754          53.000  
    147735.544    21382188.825       -1372.047          52.000  
   -396276.626    22699070.864        3561.678          53.000  
 18  2 16  8 22  5.0000000  0  8G01G11G05G03G23G09G10G30            -0.000567032
   -152612.021    22407993.593        1318.728          53.000  
   -260693.425    21418474.664        2242.810          53.000  
   -402768.292    24280335.479        3609.253          53.000  
    340874.373    25073102.635       -3050.608          53.000  
    235899.891    22652565.445       -2078.754          53.000  
     73533.269    20442424.743        -671.564          53.000  
    151855.909    21382972.918       -1374.453          53.000  
   -406959.667    22697037.959        3560.767          53.000  
 18  2 16  8 22  6.0000000  0  8G01G11G05G03G23G09G10G30            -0.000566850
   -153930.301    22407742.730        1318.035          53.000  
   -262935.696    21418047.969        2241.845          53.000  
   -406377.289    24279648.701        3608.968          53.000  
    343925.018    25073683.163       -3050.470          53.000  
    237978.726    22652961.029       -2078.704          53.000  
     74205.128    20442552.614        -671.881          53.000  
    153230.873    21383234.556       -1375.308          53.000  
   -410520.171    22696360.419        3560.469          53.000  
 18  2 16  8 22  7.0000000  0  8G01G11G05G03G23G09G10G30            -0.000566668
   -155247.583    22407492.063        1316.930          53.000  
   -265176.775    21417621.507        2240.684          53.000  
   -409985.780    24278962.030        3608.392          53.000  
    346975.771    25074263.692       -3050.687          53.000  
    240057.766    22653356.649       -2078.999          53.000  
     74877.520    20442680.556        -672.540          53.000  
    154606.961    21383496.409       -1376.501          53.000  
   -414080.135    22695682.968        3559.833          53.000  
 18  2 16  8 22  9.0000000  0  8G01G11G05G03G23G09G10G30            -0.000566306
   -157879.697    22406991.176        1315.519          53.000  
   -269656.156    21416769.119        2239.027          53.000  
   -417201.734    24277588.885        3607.867          53.000  
    353077.051    25075424.750       -3050.303          53.000  
    244215.933    22654147.926       -2078.870          53.000  
     76223.375    20442936.673        -673.030          52.000  
    157361.733    21384020.596       -1377.966          53.000  
   -421199.021    22694328.282        3559.359          53.000  
 18  2 16  8 22 10.0000000  0  8G01G11G05G03G23G09G10G30            -0.000566124
   -159194.619    22406740.956        1314.611          53.000  
   -271894.597    21416343.157        2238.059          53.000  
   -420809.297    24276902.393        3607.501          52.000  
    356127.466    25076005.207       -3050.290          53.000  
    246294.968    22654543.564       -2078.929          52.000  
     76896.748    20443064.794        -673.459          53.000  
    158740.311    21384282.932       -1378.939          53.000  
   -424758.065    22693651.010        3558.992          53.000  
 18  2 16  8 22 11.0000000  0  8G01G11G05G03G23G09G10G30            -0.000565943
   -160508.587    22406490.915        1313.691          53.000  
   -274131.945    21415917.392        2237.083          53.000  
   -424416.370    24276215.990        3607.034          53.000  
    359177.925    25076585.700       -3050.259          53.000  
    248374.187    22654939.237       -2079.075          52.000  
     77570.620    20443193.040        -673.913          53.000  
    160119.917    21384545.463       -1379.894          53.000  
   -428316.657    22692973.828        3558.598          53.000  
 18  2 16  8 22 12.0000000  0  8G01G11G05G03G23G09G10G30            -0.000565762
   -161821.704    22406241.035        1312.730          53.000  
   -276368.363    21415491.823        2235.906          53.000  
   -428023.055    24275529.677        3606.479          53.000  
    362228.321    25077166.176       -3050.368          53.000  
    250453.485    22655334.893       -2079.330          53.000  
     78244.893    20443321.339        -674.478          53.000  
    161500.401    21384808.174       -1380.935          53.000  
   -431874.909    22692296.717        3558.084          53.000  
 18  2 16  8 22 13.0000000  0  8G01G11G05G03G23G09G10G30            -0.000565580
   -163133.933    22405991.333        1311.849          53.000  
   -278603.846    21415066.416        2235.025          53.000  
   -431629.329    24274843.435        3606.109          53.000  
    365278.675    25077746.633       -3050.297          53.000  
    252532.897    22655730.585       -2079.433          53.000  
     78919.599    20443449.728        -674.885          53.000  
    162881.788    21385071.045       -1381.796          53.000  
   -435432.813    22691619.678        3557.788          53.000  
 18  2 16  8 22 14.0000000  0  8G01G11G05G03G23G09G10G30            -0.000565399
   -164445.587    22405741.739        1311.372          52.000  
   -280838.724    21414641.151        2234.695          53.000  
   -435235.485    24274157.193        3606.195          53.000  
    368328.680    25078327.019       -3049.714          53.000  
    254612.127    22656126.259       -2079.133          53.000  
     79594.432    20443578.153        -674.886          53.000  
    164263.742    21385334.041       -1382.070          53.000  
   -438990.679    22690942.638        3557.969          53.000  
 18  2 16  8 22 15.0000000  0  8G01G11G05G03G23G09G10G30            -0.000565217
   -165756.406    22405492.287        1310.245          53.000  
   -283072.706    21414216.029        2233.376          53.000  
   -438841.265    24273471.040        3605.483          53.000  
    371378.604    25078907.405       -3049.995          53.000  
    256691.441    22656521.915       -2079.508          53.000  
     80269.659    20443706.649        -675.546          53.000  
    165646.564    21385597.180       -1383.408          53.000  
   -442548.252    22690265.652        3557.290          53.000  
 18  2 16  8 22 16.0000000  0  8G01G11G05G03G23G09G10G30            -0.000565036
   -167066.289    22405243.032        1309.309          52.000  
   -285305.717    21413791.086        2232.399          53.000  
   -442446.562    24272784.977        3604.945          52.000  
    374428.539    25079487.790       -3050.068          53.000  
    258770.951    22656917.642       -2079.721          53.000  
     80945.390    20443835.234        -676.125          53.000  
    167030.322    21385860.498       -1384.360          53.000  
   -446105.446    22689588.738        3556.899          53.000  
 18  2 16  8 22 17.0000000  0  8G01G11G05G03G23G09G10G30            -0.000564855
   -168375.032    22404993.991        1308.289          53.000  
   -287537.604    21413366.375        2231.426          53.000  
   -446051.174    24272099.021        3604.360          53.000  
    377478.686    25080068.212       -3050.146          52.000  
    260850.864    22657313.441       -2080.001          53.000  
     81621.821    20443963.963        -676.663          53.000  
    168415.183    21386124.013       -1385.321          53.000  
   -449662.072    22688911.931        3556.466          53.000  
 18  2 16  8 22 18.0000000  0  8G01G11G05G03G23G09G10G30            -0.000564674
   -169682.748    22404745.147        1306.928          53.000  
   -289768.474    21412941.860        2230.200          53.000  
   -449655.217    24271413.190        3603.471          53.000  
    380528.941    25080648.669       -3050.597          53.000  
    262931.080    22657709.293       -2080.602          53.000  
     82298.852    20444092.798        -677.561          53.000  
    169801.051    21386387.742       -1386.550          53.000  
   -453218.245    22688235.213        3555.679          53.000  
 18  2 16  8 22 19.0000000  0  8G01G11G05G03G23G09G10G30            -0.000564494
   -170989.393    22404496.500        1306.416          53.000  
   -291998.287    21412517.542        2229.524          52.000  
   -453258.630    24270727.466        3603.367          53.000  
    383579.351    25081229.145       -3050.211          53.000  
    265011.668    22658105.217       -2080.497          53.000  
     82976.546    20444221.759        -677.753          53.000  
    171187.954    21386651.649       -1387.170          53.000  
   -456773.923    22687558.585        3555.718          53.000  
 18  2 16  8 22 20.0000000  0  8G01G11G05G03G23G09G10G30            -0.000564313
   -172295.327    22404247.995        1305.975          53.000  
   -294227.430    21412093.350        2229.177          53.000  
   -456861.791    24270041.814        3603.445          53.000  
    386629.552    25081809.566       -3049.706          53.000  
    267092.255    22658501.141       -2080.194          53.000  
     83654.526    20444350.774        -677.728          53.000  
    172575.536    21386915.682       -1387.513          53.000  
   -460329.486    22686881.992        3555.904          53.000  
 18  2 16  8 22 21.0000000  0  8G01G11G05G03G23G09G10G30            -0.000564132
   -173600.639    22403999.598        1305.214          53.000  
   -296455.983    21411669.282        2228.452          53.000  
   -460464.766    24269356.180        3603.055          53.000  
    389679.473    25082389.952       -3049.587          53.000  
    269172.788    22658897.047       -2080.299          53.000  
     84332.731    20444479.842        -678.118          53.000  
    173963.697    21387179.840       -1388.233          53.000  
   -463885.017    22686205.399        3555.712          53.000  
 18  2 16  8 22 22.0000000  0  8G01G11G05G03G23G09G10G30            -0.000563951
   -174905.080    22403751.380        1304.173          53.000  
   -298683.758    21411245.340        2227.999          53.000  
   -464067.321    24268670.634        3602.537          53.000  
    392729.357    25082970.338       -3049.654          53.000  
    271253.511    22659292.989       -2080.557          53.000  
     85011.404    20444608.981        -678.733          53.000  
    175352.661    21387444.158       -1388.965          53.000  
   -467440.278    22685528.860        3555.341          53.000  
 18  2 16  8 22 23.0000000  0  8G01G11G05G03G23G09G10G30            -0.000563771
   -176208.616    22403503.340        1303.288          53.000  
   -300910.705    21410821.558        2226.706          53.000  
   -467669.414    24267985.161        3602.061          53.000  
    395779.259    25083550.706       -3049.711          53.000  
    273334.489    22659689.002       -2080.903          53.000  
     85690.597    20444738.228        -679.265          53.000  
    176742.461    21387708.620       -1390.073          53.000  
   -470995.235    22684852.375        3555.008          53.000  
 18  2 16  8 22 24.0000000  0  8G01G11G05G03G23G09G10G30            -0.000563590
   -177511.150    22403255.461        1302.052          53.000  
   -303136.737    21410397.973        2225.559          53.000  
   -471270.946    24267299.812        3601.276          53.000  
    398829.274    25084131.128       -3050.043          53.000  
    275415.819    22660085.051       -2081.464          53.000  
     86370.406    20444867.581        -680.060          53.000  
    178133.193    21387973.278       -1391.183          53.000  
   -474549.801    22684175.961        3554.425          53.000  
 18  2 16  8 22 25.0000000  0  8G01G11G05G03G23G09G10G30            -0.000563410
   -178812.801    22403007.778        1301.746          53.000  
   -305361.999    21409974.512        2225.372          52.000  
   -474872.033    24266614.535        3601.371          53.000  
    401879.301    25084711.531       -3049.521          53.000  
    277497.411    22660481.172       -2081.188          53.000  
     87050.738    20444997.043        -680.069          53.000  
    179524.725    21388238.079       -1391.389          53.000  
   -478104.086    22683499.601        3554.682          53.000  
 18  2 16  8 22 26.0000000  0  8G01G11G05G03G23G09G10G30            -0.000563229
   -180113.939    22402760.185        1300.871          53.000  
   -307586.866    21409551.142        2224.935          53.000  
   -478473.051    24265929.294        3600.967          53.000  
    404928.976    25085291.846       -3049.532          52.000  
    279578.901    22660877.257       -2081.449          53.000  
     87731.216    20445126.539        -680.566          53.000  
    180916.689    21388502.969       -1392.029          53.000  
   -481658.471    22682823.204        3554.416          53.000  
 18  2 16  8 22 27.0000000  0  8G01G11G05G03G23G09G10G30            -0.000563049
   -181414.208    22402512.752        1299.924          53.000  
   -309811.042    21409127.896        2223.799          53.000  
   -482073.635    24265244.124        3600.444          53.000  
    407978.671    25085872.196       -3049.651          53.000  
    281660.667    22661273.413       -2081.819          53.000  
     88412.216    20445256.125        -681.178          53.000  
    182309.401    21388767.985       -1393.078          53.000  
   -485212.597    22682146.880        3554.066          53.000  
 18  2 16  8 22 28.0000000  0  8G01G11G05G03G23G09G10G30            -0.000562874
   -182713.631    22402265.499        1299.117          53.000  
   -312034.509    21408704.775        2223.147          53.000  
   -485673.812    24264559.026        3600.082          53.000  
    411028.370    25086452.528       -3049.604          53.000  
    283742.700    22661669.605       -2082.072          53.000  
     89093.721    20445385.819        -681.654          53.000  
    183702.873    21389033.161       -1393.760          53.000  
   -488766.493    22681470.609        3553.900          53.000  
 18  2 16  8 22 29.0000000  0  8G01G11G05G03G23G09G10G30            -0.000562693
   -184012.096    22402018.388        1298.211          53.000  
   -314257.189    21408281.816        2222.455          53.000  
   -489273.473    24263874.017        3599.643          53.000  
    414078.200    25087032.878       -3049.682          53.000  
    285825.128    22662065.886       -2082.396          53.000  
     89775.850    20445515.619        -682.197          53.000  
    185097.186    21389298.480       -1394.465          53.000  
   -492320.037    22680794.373        3553.583          53.000  
 18  2 16  8 22 30.0000000  0  8G01G11G05G03G23G09G10G30            -0.000562512
   -185309.874    22401771.456        1297.452          52.000  
   -316479.341    21407858.981        2222.271          53.000  
   -492872.879    24263189.062        3599.308          53.000  
    417127.902    25087613.210       -3049.581          53.000  
    287907.703    22662462.203       -2082.633          53.000  
     90458.347    20445645.509        -682.612          53.000  
    186492.088    21389563.925       -1394.933          53.000  
   -495873.508    22680118.156        3553.468          53.000  
 18  2 16  8 22 31.0000000  0  8G01G11G05G03G23G09G10G30            -0.000562331
   -186607.064    22401524.596        1296.891          52.000  
   -318701.158    21407436.182        2221.571          53.000  
   -496472.136    24262504.160        3599.198          53.000  
    420177.404    25088193.525       -3049.359          53.000  
    289990.342    22662858.502       -2082.669          53.000  
     91141.133    20445775.435        -682.903          52.000  
    187887.424    21389829.441       -1395.594          53.000  
   -499426.994    22679441.956        3553.504          53.000  
 18  2 16  8 22 32.0000000  0  8G01G11G05G03G23G09G10G30            -0.000562150
   -187903.388    22401277.914        1296.049          53.000  
   -320922.297    21407013.508        2220.858          53.000  
   -500070.965    24261819.329        3598.790          53.000  
    423226.998    25088773.857       -3049.495          53.000  
    292073.341    22663254.873       -2083.059          53.000  
     91824.487    20445905.468        -683.475          53.000  
    189283.517    21390095.099       -1396.343          53.000  
   -502980.220    22678765.810        3553.275          53.000  
 18  2 16  8 22 33.0000000  0  8G01G11G05G03G23G09G10G30            -0.000561969
   -189198.977    22401031.375        1295.654          53.000  
   -323142.930    21406590.942        2220.759          53.000  
   -503669.494    24261134.535        3598.860          53.000  
    426276.558    25089354.172       -3049.098          53.000  
    294156.584    22663651.297       -2082.944          53.000  
     92508.293    20446035.590        -683.590          53.000  
    190680.201    21390360.865       -1396.601          53.000  
   -506533.306    22678089.682        3553.459          53.000  
 18  2 16  8 22 34.0000000  0  8G01G11G05G03G23G09G10G30            -0.000561787
   -190493.922    22400784.961        1294.537          53.000  
   -325363.115    21406168.464        2220.274          53.000  
   -507267.810    24260449.794        3598.116          53.000  
    429326.025    25089934.450       -3049.525          53.000  
    296240.004    22664047.775       -2083.594          53.000  
     93192.469    20446165.802        -684.451          53.000  
    192077.415    21390626.739       -1397.386          53.000  
   -510086.347    22677413.572        3552.927          53.000  
 18  2 16  8 22 35.0000000  0  8G01G11G05G03G23G09G10G30            -0.000561606
   -191788.162    22400538.672        1294.011          53.000  
   -327582.932    21405746.041        2219.583          53.000  
   -510865.869    24259765.124        3598.016          53.000  
    432375.469    25090514.747       -3049.336          53.000  
    298323.684    22664444.289       -2083.723          53.000  
     93877.094    20446296.067        -684.755          53.000  
    193475.149    21390892.719       -1397.967          53.000  
   -513639.269    22676737.480        3552.959          53.000  
 18  2 16  8 22 36.0000000  0  8G01G11G05G03G23G09G10G30            -0.000561425
   -193081.466    22400292.562        1292.916          53.000  
   -329802.045    21405323.742        2218.736          53.000  
   -514463.427    24259080.526        3597.335          53.000  
    435425.144    25091095.097       -3049.793          53.000  
    300407.862    22664840.892       -2084.358          53.000  
     94562.405    20446426.493        -685.626          53.000  
    194873.687    21391158.842       -1398.885          53.000  
   -517191.841    22676061.441        3552.456          53.000  
 18  2 16  8 22 37.0000000  0  8G01G11G05G03G23G09G10G30            -0.000561244
   -194373.963    22400046.613        1292.129          53.000  
   -332020.619    21404901.568        2218.297          53.000  
   -518060.627    24258395.000        3597.060          53.000  
    438474.934    25091675.447       -3049.800          53.000  
    302492.439    22665237.566       -2084.723          53.000  
     95248.283    20446557.008        -686.101          53.000  
    196272.884    21391425.109       -1399.480          53.000  
   -520744.181    22675385.456        3552.252          53.000  
 18  2 16  8 22 38.0000000  0  8G01G11G05G03G23G09G10G30            -0.000561063
   -195665.732    22399800.807        1291.555          53.000  
   -334238.703    21404479.484        2218.459          53.000  
   -521657.532    24257711.509        3596.921          53.000  
    441524.792    25092255.815       -3049.735          53.000  
    304577.353    22665634.330       -2084.956          53.000  
     95934.674    20446687.613        -686.505          53.000  
    197672.689    21391691.482       -1399.775          53.000  
   -524296.361    22674709.507        3552.254          53.000  
 18  2 16  8 22 39.0000000  0  8G01G11G05G03G23G09G10G30            -0.000560882
   -196956.722    22399555.125        1290.846          53.000  
   -336456.402    21404057.471        2217.506          53.000  
   -525254.100    24257027.108        3596.696          53.000  
    444574.785    25092836.219       -3049.770          53.000  
    306662.671    22666031.165       -2085.256          53.000  
     96621.631    20446818.343        -687.006          53.000  
    199073.054    21391957.963       -1400.609          53.000  
   -527848.323    22674033.593        3552.158          53.000  
 18  2 16  8 22 40.0000000  0  8G01G11G05G03G23G09G10G30            -0.000560701
   -198247.130    22399309.587        1289.953          53.000  
   -338673.801    21403635.512        2216.987          53.000  
   -528850.532    24256342.724        3596.210          53.000  
    447624.736    25093416.605       -3050.119          53.000  
    308748.220    22666428.036       -2085.836          53.000  
     97308.970    20446949.126        -687.672          53.000  
    200473.866    21392224.515       -1401.218          53.000  
   -531400.250    22673357.679        3551.759          53.000  
 18  2 16  8 22 41.0000000  0  8G01G11G05G03G23G09G10G30            -0.000560521
   -199536.841    22399064.156        1289.295          53.000  
   -340890.808    21403213.643        2216.674          53.000  
   -532446.715    24255658.394        3596.005          53.000  
    450674.778    25093997.008       -3050.167          53.000  
    310834.129    22666824.961       -2086.139          53.000  
     97996.820    20447080.017        -688.151          53.000  
    201875.219    21392491.192       -1401.731          53.000  
   -534952.023    22672681.801        3551.637          53.000  
 18  2 16  8 22 42.0000000  0  8G01G11G05G03G23G09G10G30            -0.000560340
   -200825.659    22398818.904        1288.226          53.000  
   -343107.185    21402791.862        2216.378          53.000  
   -536042.449    24254974.153        3595.385          53.000  
    453725.143    25094577.466       -3050.714          53.000  
    312920.613    22667222.011       -2086.889          53.000  
     98685.393    20447211.050        -689.069          53.000  
    203277.325    21392758.013       -1402.396          53.000  
   -538503.428    22672005.977        3551.066          53.000  
 18  2 16  8 22 43.0000000  0  8G01G11G05G03G23G09G10G30            -0.000560160
   -202113.914    22398573.759        1288.084          53.000  
   -345323.460    21402370.117        2216.108          53.000  
   -539638.069    24254289.949        3595.711          53.000  
    456775.502    25095157.941       -3050.253          53.000  
    315007.370    22667619.078       -2086.808          53.000  
     99374.363    20447342.173        -689.055          53.000  
    204679.768    21393024.886       -1402.616          53.000  
   -542054.798    22671330.170        3551.464          53.000  
 18  2 16  8 22 44.0000000  0  8G01G11G05G03G23G09G10G30            -0.000559979
   -203401.585    22398328.739        1287.411          53.000  
   -347539.455    21401948.444        2215.757          53.000  
   -543233.557    24253605.726        3595.459          53.000  
    459825.915    25095738.416       -3050.413          53.000  
    317094.423    22668016.217       -2087.187          53.000  
    100063.769    20447473.367        -689.596          53.000  
    206082.655    21393291.850       -1403.145          53.000  
   -545606.084    22670654.364        3551.246          53.000  
 18  2 16  8 22 45.0000000  0  8G01G11G05G03G23G09G10G30            -0.000559798
   -204688.601    22398083.826        1286.741          53.000  
   -349755.131    21401526.825        2215.531          53.000  
   -546828.840    24252921.575        3595.231          53.000  
    462876.474    25096318.909       -3050.563          53.000  
    319181.875    22668413.463       -2087.579          53.000  
    100753.696    20447604.651        -690.111          53.000  
    207486.042    21393558.902       -1403.579          53.000  
   -549157.211    22669978.611        3551.109          53.000  
 18  2 16  8 22 46.0000000  0  8G01G11G05G03G23G09G10G30            -0.000559616
   -205974.931    22397839.056        1286.276          53.000  
   -351970.399    21401105.259        2215.788          53.000  
   -550423.893    24252237.477        3595.192          53.000  
    465927.231    25096899.456       -3050.589          53.000  
    321269.768    22668810.781       -2087.857          53.000  
    101444.182    20447736.042        -690.482          53.000  
    208889.986    21393826.044       -1403.769          53.000  
   -552708.130    22669302.894        3551.042          53.000  
 18  2 16  8 22 47.0000000  0  8G01G11G05G03G23G09G10G30            -0.000559437
   -207260.850    22397594.358        1285.358          53.000  
   -354185.763    21400683.675        2214.835          53.000  
   -554019.001    24251553.343        3594.775          53.000  
    468977.927    25097480.002       -3051.039          53.000  
    323357.842    22669208.117       -2088.507          53.000  
    102134.958    20447867.487        -691.243          53.000  
    210294.109    21394093.240       -1404.657          53.000  
   -556259.118    22668627.159        3550.658          53.000  
 18  2 16  8 22 48.0000000  0  8G01G11G05G03G23G09G10G30            -0.000559257
   -208546.160    22397349.766        1285.521          53.000  
   -356400.834    21400262.180        2215.323          53.000  
   -557613.951    24250869.246        3595.383          53.000  
    472028.793    25098060.567       -3050.475          53.000  
    325446.319    22669605.560       -2088.173          52.000  
    102826.250    20447999.038        -691.056          53.000  
    211698.700    21394360.507       -1404.345          53.000  
   -559809.941    22667951.460        3551.218          53.000  
 18  2 16  8 22 49.0000000  0  8G01G11G05G03G23G09G10G30            -0.000559076
   -209830.975    22397105.264        1284.698          52.000  
   -358615.786    21399840.686        2214.955          53.000  
   -561208.876    24250185.130        3595.026          53.000  
    475079.730    25098641.132       -3050.876          53.000  
    327535.094    22670003.038       -2088.799          53.000  
    103517.938    20448130.662        -691.795          53.000  
    213103.628    21394627.863       -1404.981          53.000  
   -563360.718    22667275.779        3550.877          53.000  
 18  2 16  8 22 51.0000000  0  8G01G11G05G03G23G09G10G30            -0.000558726
   -212398.504    22396616.690        1283.250          53.000  
   -363044.694    21398997.893        2214.236          53.000  
   -568398.025    24248817.096        3594.488          52.000  
    481182.536    25099802.475       -3051.558          53.000  
    331714.226    22670798.299       -2089.931          53.000  
    104903.179    20448394.248        -693.072          53.000  
    215915.122    21395162.879       -1406.123          53.000  
   -570461.429    22665924.559        3550.250          53.000  
 18  2 16  8 22 52.0000000  0  8G01G11G05G03G23G09G10G30            -0.000558547
   -213681.376    22396372.563        1282.747          52.000  
   -365258.856    21398576.560        2214.132          53.000  
   -571992.411    24248133.087        3594.586          53.000  
    484234.284    25100383.201       -3051.658          53.000  
    333804.452    22671196.046       -2090.242          52.000  
    105596.598    20448526.192        -693.652          53.000  
    217321.513    21395430.504       -1406.678          52.000  
   -574011.488    22665249.020        3549.982          53.000  
 18  2 16  8 22 53.0000000  0  8G01G11G05G03G23G09G10G30            -0.000558367
   -214963.478    22396128.579        1281.851          53.000  
   -367472.613    21398155.297        2213.628          53.000  
   -575586.502    24247449.133        3594.018          53.000  
    487286.481    25100963.997       -3052.282          53.000  
    335895.317    22671593.917       -2091.035          52.000  
    106290.727    20448658.280        -694.350          53.000  
    218728.533    21395698.271       -1407.225          52.000  
   -577561.167    22664573.536        3549.616          52.000  
 18  2 16  8 22 54.0000000  0  8G01G11G05G03G23G09G10G30            -0.000558188
   -216244.982    22395884.721        1281.329          53.000  
   -369686.062    21397734.089        2213.858          53.000  
   -579180.479    24246765.232        3594.015          53.000  
    490338.963    25101544.884       -3052.515          53.000  
    337986.656    22671991.896       -2091.447          53.000  
    106985.417    20448790.493        -694.854          53.000  
    220136.040    21395966.110       -1407.443          53.000  
   -581110.609    22663898.104        3549.457          53.000  
 18  2 16  8 22 55.0000000  0  8G01G11G05G03G23G09G10G30            -0.000558010
   -217525.859    22395640.970        1280.825          53.000  
   -371899.440    21397312.880        2213.368          53.000  
   -582774.312    24246081.348        3594.065          53.000  
    493391.778    25102125.805       -3052.710          53.000  
    340078.509    22672389.947       -2091.824          53.000  
    107680.689    20448922.795        -695.262          53.000  
    221543.957    21396234.038       -1407.920          53.000  
   -584659.775    22663222.727        3549.297          53.000  
 18  2 16  8 22 56.0000000  0  8G01G11G05G03G23G09G10G30            -0.000557831
   -218806.297    22395397.325        1280.199          53.000  
   -374112.709    21396891.707        2213.114          53.000  
   -586368.184    24245397.465        3593.888          53.000  
    496444.770    25102706.763       -3053.103          53.000  
    342170.707    22672788.104       -2092.379          53.000  
    108376.386    20449055.169        -695.926          53.000  
    222952.200    21396502.020       -1408.412          53.000  
   -588208.831    22662547.349        3548.979          53.000  
 18  2 16  8 22 57.0000000  0  8G01G11G05G03G23G09G10G30            -0.000557652
   -220086.231    22395153.735        1279.860          53.000  
   -376325.842    21396470.570        2213.219          53.000  
   -589962.042    24244713.582        3594.007          53.000  
    499498.016    25103287.792       -3053.186          53.000  
    344263.322    22673186.315       -2092.642          53.000  
    109072.563    20449187.668        -696.228          53.000  
    224360.830    21396770.073       -1408.628          53.000  
   -591757.702    22661872.025        3548.955          53.000  
 18  2 16  8 22 58.0000000  0  8G01G11G05G03G23G09G10G30            -0.000557472
   -221365.661    22394910.269        1279.054          53.000  
   -378538.752    21396049.487        2213.100          53.000  
   -593555.893    24244029.681        3593.702          53.000  
    502551.540    25103868.839       -3053.801          53.000  
    346356.362    22673584.616       -2093.373          53.000  
    109769.232    20449320.220        -697.048          53.000  
    225769.858    21397038.198       -1409.218          53.000  
   -595306.366    22661196.737        3548.394          53.000  
 18  2 16  8 22 59.0000000  0  8G01G11G05G03G23G09G10G30            -0.000557294
   -222644.677    22394666.893        1279.191          52.000  
   -380751.782    21395628.350        2213.240          53.000  
   -597149.824    24243345.780        3594.338          53.000  
    505605.271    25104449.958       -3053.492          53.000  
    348449.748    22673982.970       -2093.175          52.000  
    110466.309    20449452.898        -696.887          53.000  
    227179.131    21397306.358       -1409.056          52.000  
   -598854.905    22660521.484        3548.848          52.000  
 18  2 16  8 23  0.0000000  0  8G01G11G05G03G23G09G10G30            -0.000557114
   -223923.445    22394423.553        1278.618          52.000  
   -382964.897    21395207.212        2213.061          53.000  
   -600744.006    24242661.825        3594.284          53.000  
    508659.054    25105031.076       -3053.838          53.000  
    350543.322    22674381.360       -2093.689          52.000  
    111163.637    20449585.593        -697.499          53.000  
    228588.547    21397574.554       -1409.512          53.000  
   -602403.461    22659846.196        3548.545          52.000  
 18  2 16  8 23  2.0000000  0  8G01G11G05G03G23G09G10G30            -0.000556756
   -226479.227    22393937.194        1277.395          53.000  
   -387390.360    21394365.081        2212.943          53.000  
   -607932.130    24241293.969        3594.055          53.000  
    514767.877    25106193.546       -3054.743          53.000  
    354732.075    22675178.443       -2094.819          53.000  
    112560.070    20449851.323        -698.714          53.000  
    231408.848    21398111.250       -1410.479          53.000  
   -609499.554    22658495.852        3547.771          53.000  
 18  2 16  8 23  3.0000000  0  8G01G11G05G03G23G09G10G30            -0.000556577
   -227756.111    22393694.211        1276.862          53.000  
   -389602.725    21393944.087        2212.381          53.000  
   -611525.943    24240610.086        3593.962          53.000  
    517823.082    25106774.932       -3055.183          53.000  
    356827.397    22675577.173       -2095.366          53.000  
    113259.314    20449984.376        -699.262          53.000  
    232819.818    21398379.750       -1410.929          53.000  
   -613046.932    22657820.796        3547.416          53.000  
 18  2 16  8 23  4.0000000  0  8G01G11G05G03G23G09G10G30            -0.000556399
   -229032.481    22393451.335        1276.075          53.000  
   -391814.893    21393523.128        2211.941          53.000  
   -615119.763    24239926.202        3593.734          53.000  
    520878.672    25107356.390       -3055.830          53.000  
    358923.194    22675975.991       -2096.092          53.000  
    113959.093    20450117.554        -700.083          53.000  
    234231.234    21398648.322       -1411.649          53.000  
   -616594.000    22657145.812        3546.869          53.000  
 18  2 16  8 23  5.0000000  0  8G01G11G05G03G23G09G10G30            -0.000556220
   -230308.363    22393208.549        1275.669          53.000  
   -394026.892    21393102.188        2211.900          53.000  
   -618713.615    24239242.319        3593.918          53.000  
    523934.644    25107937.938       -3056.135          53.000  
    361019.447    22676374.899       -2096.445          53.000  
    114659.386    20450250.821        -700.527          53.000  
    235643.067    21398916.982       -1412.038          53.000  
   -620140.766    22656470.881        3546.652          53.000  
 18  2 16  8 23  6.0000000  0  8G01G11G05G03G23G09G10G30            -0.000556041
   -231583.838    22392965.834        1275.270          53.000  
   -396238.746    21392681.301        2212.225          53.000  
   -622307.578    24238558.400        3594.048          53.000  
    526990.925    25108519.538       -3056.416          53.000  
    363116.080    22676773.879       -2096.832          53.000  
    115360.107    20450384.142        -700.952          53.000  
    237055.244    21399185.732       -1412.322          53.000  
   -623687.298    22655796.021        3546.415          53.000  
 18  2 16  8 23  7.0000000  0  8G01G11G05G03G23G09G10G30            -0.000555862
   -232858.879    22392723.190        1274.737          53.000  
   -398450.628    21392260.396        2211.660          53.000  
   -625901.629    24237874.463        3594.024          53.000  
    530047.562    25109101.193       -3056.913          53.000  
    365213.118    22677172.948       -2097.332          53.000  
    116061.294    20450517.570        -701.534          53.000  
    238467.759    21399454.518       -1412.770          53.000  
   -627233.551    22655121.180        3546.032          53.000  
 18  2 16  8 23  8.0000000  0  8G01G11G05G03G23G09G10G30            -0.000555684
   -234133.413    22392480.654        1274.288          53.000  
   -400662.285    21391839.527        2211.485          53.000  
   -629495.701    24237190.527        3594.068          53.000  
    533104.627    25109682.955       -3057.266          53.000  
    367310.639    22677572.070       -2097.752          53.000  
    116763.014    20450651.105        -702.006          53.000  
    239880.720    21399723.394       -1413.165          52.000  
   -630779.439    22654446.428        3545.728          53.000  
 18  2 16  8 23  9.0000000  0  8G01G11G05G03G23G09G10G30            -0.000555506
   -235407.660    22392238.189        1273.853          53.000  
   -402873.946    21391418.658        2211.341          53.000  
   -633090.019    24236506.554        3594.184          53.000  
    536161.923    25110264.734       -3057.746          53.000  
    369408.425    22677971.264       -2098.291          53.000  
    117465.052    20450784.694        -702.509          53.000  
    241293.940    21399992.322       -1413.695          53.000  
   -634325.175    22653771.711        3545.537          53.000  
 18  2 16  8 23 10.0000000  0  8G01G11G05G03G23G09G10G30            -0.000555327
   -236681.428    22391995.796        1273.567          53.000  
   -405085.356    21390997.842        2211.737          53.000  
   -636684.391    24235822.563        3594.424          53.000  
    539219.644    25110846.586       -3057.862          53.000  
    371506.655    22678370.530       -2098.426          53.000  
    118167.601    20450918.390        -702.734          53.000  
    242707.602    21400261.323       -1413.867          53.000  
   -637870.528    22653097.066        3545.205          53.000  
 18  2 16  8 23 11.0000000  0  8G01G11G05G03G23G09G10G30            -0.000555148
   -237954.710    22391753.492        1273.287          53.000  
   -407296.689    21390577.045        2211.397          53.000  
   -640278.821    24235138.555        3594.684          53.000  
    542277.815    25111428.526       -3058.153          53.000  
    373605.344    22678769.902       -2098.659          53.000  
    118870.667    20451052.175        -703.045          53.000  
    244121.696    21400530.412       -1414.061          53.000  
   -641415.503    22652422.475        3545.016          53.000  
 18  2 16  8 23 12.0000000  0  8G01G11G05G03G23G09G10G30            -0.000554970
   -239227.445    22391511.295        1272.479          53.000  
   -409507.726    21390156.301        2210.876          53.000  
   -643873.243    24234454.547        3594.440          53.000  
    545336.491    25112010.592       -3058.899          53.000  
    375704.548    22679169.364       -2099.441          53.000  
    119574.305    20451186.086        -703.892          53.000  
    245536.317    21400799.609       -1414.826          53.000  
   -644960.019    22651747.991        3544.307          53.000  
 18  2 16  8 23 13.0000000  0  8G01G11G05G03G23G09G10G30            -0.000554792
   -240499.763    22391269.188        1272.057          53.000  
   -411718.598    21389735.575        2210.736          53.000  
   -647467.795    24233770.538        3594.569          53.000  
    548395.560    25112592.711       -3059.315          53.000  
    377804.133    22679568.916       -2099.820          53.000  
    120278.389    20451320.068        -704.335          53.000  
    246951.348    21401068.877       -1415.275          53.000  
   -648504.191    22651073.560        3543.962          53.000  
 18  2 16  8 23 14.0000000  0  8G01G11G05G03G23G09G10G30            -0.000554613
   -241771.675    22391027.152        1271.653          53.000  
   -413929.242    21389314.902        2210.750          53.000  
   -651062.489    24233086.494        3594.730          53.000  
    551455.005    25113174.901       -3059.653          53.000  
    379904.080    22679968.539       -2100.177          53.000  
    120982.900    20451454.139        -704.737          53.000  
    248366.773    21401338.217       -1415.693          53.000  
   -652048.020    22650399.183        3543.619          53.000  
 18  2 16  8 23 15.0000000  0  8G01G11G05G03G23G09G10G30            -0.000554435
   -243043.156    22390785.205        1271.566          53.000  
   -416139.792    21388894.247        2210.694          53.000  
   -654657.294    24232402.432        3595.098          53.000  
    554514.877    25113757.199       -3059.786          53.000  
    382004.419    22680368.215       -2100.247          53.000  
    121687.877    20451588.318        -704.905          53.000  
    249782.641    21401607.628       -1415.719          53.000  
   -655591.459    22649724.878        3543.524          53.000  
 18  2 16  8 23 16.0000000  0  8G01G11G05G03G23G09G10G30            -0.000554257
   -244314.318    22390543.295        1271.070          53.000  
   -418350.246    21388473.611        2210.426          53.000  
   -658252.346    24231718.335        3595.243          53.000  
    557575.041    25114339.533       -3060.249          53.000  
    384105.015    22680767.945       -2100.671          53.000  
    122393.180    20451722.532        -705.395          53.000  
    251198.839    21401877.111       -1416.297          53.000  
   -659134.626    22649050.626        3543.066          53.000  
 18  2 16  8 23 17.0000000  0  8G01G11G05G03G23G09G10G30            -0.000554078
   -245584.969    22390301.509        1270.287          53.000  
   -420560.390    21388053.045        2209.907          53.000  
   -661847.439    24231034.201        3594.990          53.000  
    560635.704    25114921.956       -3061.027          53.000  
    386206.063    22681167.765       -2101.385          53.000  
    123099.009    20451856.835        -706.162          52.000  
    252615.556    21402146.701       -1417.074          53.000  
   -662677.309    22648376.463        3542.376          53.000  
 18  2 16  8 23 18.0000000  0  8G01G11G05G03G23G09G10G30            -0.000553901
   -246855.302    22390059.759        1270.306          53.000  
   -422770.347    21387632.498        2210.173          53.000  
   -665442.774    24230350.032        3595.581          53.000  
    563696.674    25115504.432       -3060.993          53.000  
    388307.358    22681567.620       -2101.283          53.000  
    123805.169    20451991.210        -706.170          53.000  
    254032.619    21402416.363       -1417.155          53.000  
   -666219.688    22647702.372        3542.335          53.000  
 18  2 16  8 23 19.0000000  0  8G01G11G05G03G23G09G10G30            -0.000553722
   -248125.052    22389818.152        1269.851          53.000  
   -424979.999    21387212.004        2209.793          53.000  
   -669038.091    24229665.863        3595.697          53.000  
    566758.212    25116087.016       -3061.439          53.000  
    390409.160    22681967.582       -2101.660          53.000  
    124511.913    20452125.693        -706.639          53.000  
    255450.321    21402686.149       -1417.542          53.000  
   -669761.500    22647028.389        3541.892          53.000  
 18  2 16  8 23 20.0000000  0  8G01G11G05G03G23G09G10G30            -0.000553544
   -249394.382    22389576.598        1269.310          53.000  
   -427189.387    21386791.564        2209.459          53.000  
   -672633.551    24228981.676        3595.749          53.000  
    569820.158    25116669.689       -3061.926          53.000  
    392511.293    22682367.598       -2102.111          53.000  
    125219.078    20452260.264        -707.148          53.000  
    256868.486    21402956.025       -1418.155          53.000  
   -673302.886    22646354.476        3541.368          53.000  
 18  2 16  8 23 21.0000000  0  8G01G11G05G03G23G09G10G30            -0.000553366
   -250663.419    22389335.116        1268.899          53.000  
   -429398.627    21386371.159        2209.188          53.000  
   -676229.284    24228297.418        3595.907          53.000  
    572882.378    25117252.416       -3062.341          53.000  
    394613.614    22682767.650       -2102.393          53.000  
    125926.527    20452394.872        -707.554          53.000  
    258286.999    21403225.972       -1418.672          53.000  
   -676843.977    22645680.618        3540.961          53.000  
 18  2 16  8 23 22.0000000  0  8G01G11G05G03G23G09G10G30            -0.000553188
   -251932.081    22389093.706        1268.511          53.000  
   -431607.592    21385950.808        2209.013          53.000  
   -679825.211    24227613.123        3596.051          53.000  
    575944.952    25117835.214       -3062.702          53.000  
    396716.200    22683167.755       -2102.659          53.000  
    126634.338    20452529.568        -707.958          53.000  
    259705.933    21403495.973       -1419.225          53.000  
   -680384.676    22645006.848        3540.547          53.000  
 18  2 16  8 23 23.0000000  0  8G01G11G05G03G23G09G10G30            -0.000553010
   -253200.286    22388852.367        1268.033          53.000  
   -433816.290    21385530.511        2208.548          53.000  
   -683421.254    24226928.811        3596.138          53.000  
    579007.959    25118418.084       -3063.171          53.000  
    398819.122    22683567.932       -2103.040          53.000  
    127342.581    20452664.337        -708.399          53.000  
    261125.428    21403766.099       -1419.658          53.000  
   -683924.900    22644333.168        3540.054          53.000  
 18  2 16  8 23 24.0000000  0  8G01G11G05G03G23G09G10G30            -0.000552832
   -254467.898    22388611.153        1267.318          53.000  
   -436024.501    21385110.303        2207.932          53.000  
   -687017.275    24226244.499        3595.983          53.000  
    582071.529    25119001.078       -3063.883          53.000  
    400922.497    22683968.198       -2103.629          53.000  
    128051.392    20452799.230        -709.137          53.000  
    262545.582    21404036.350       -1420.500          53.000  
   -687464.499    22643659.613        3539.250          53.000  
 18  2 16  8 23 25.0000000  0  8G01G11G05G03G23G09G10G30            -0.000552653
   -255734.976    22388370.046        1266.660          53.000  
   -438232.277    21384690.167        2207.439          53.000  
   -690613.342    24225560.187        3595.932          53.000  
    585135.589    25119584.145       -3064.442          53.000  
    403026.245    22684368.518       -2104.038          53.000  
    128760.687    20452934.195        -709.653          53.000  
    263966.361    21404306.709       -1421.183          53.000  
   -691003.545    22642986.165        3538.654          53.000  
 18  2 16  8 23 26.0000000  0  8G01G11G05G03G23G09G10G30            -0.000552476
   -257001.404    22388129.047        1266.381          53.000  
   -440439.433    21384270.173        2207.126          53.000  
   -694209.333    24224875.893        3596.246          53.000  
    588200.255    25120167.318       -3064.690          53.000  
    405130.489    22684768.944       -2104.188          53.000  
    129470.592    20453069.302        -709.900          53.000  
    265387.877    21404577.210       -1421.808          53.000  
   -694541.896    22642312.825        3538.291          53.000  
 18  2 16  8 23 27.0000000  0  8G01G11G05G03G23G09G10G30            -0.000552297
   -258267.422    22387888.137        1266.056          53.000  
   -442646.294    21383850.197        2206.921          53.000  
   -697805.486    24224191.563        3596.452          53.000  
    591265.278    25120750.581       -3064.950          53.000  
    407234.958    22685169.407       -2104.343          53.000  
    130180.854    20453204.463        -710.221          53.000  
    266809.931    21404847.836       -1422.029          53.000  
   -698079.801    22641639.592        3537.937          53.000  
 18  2 16  8 23 29.0000000  0  8G01G11G05G03G23G09G10G30            -0.000551942
   -260798.224    22387406.549        1265.093          53.000  
   -447058.928    21383010.514        2206.048          53.000  
   -704998.309    24222822.831        3596.657          53.000  
    597396.342    25121917.285       -3065.785          53.000  
    411444.518    22685970.458       -2104.911          53.000  
    131602.394    20453474.983        -711.035          53.000  
    269655.610    21405389.339       -1423.264          53.000  
   -705154.254    22640293.375        3536.813          53.000  
 18  2 16  8 23 30.0000000  0  8G01G11G05G03G23G09G10G30            -0.000551764
   -262063.092    22387165.835        1264.540          53.000  
   -449264.726    21382590.753        2205.425          53.000  
   -708595.057    24222138.394        3596.685          53.000  
    600462.276    25122500.709       -3066.223          53.000  
    413549.492    22686371.010       -2105.181          53.000  
    132313.569    20453610.305        -711.464          53.000  
    271079.141    21405660.233       -1424.161          53.000  
   -708690.891    22639620.374        3536.286          53.000  
 18  2 16  8 23 31.0000000  0  8G01G11G05G03G23G09G10G30            -0.000551587
   -263327.434    22386925.246        1264.018          53.000  
   -451470.033    21382171.099        2205.014          53.000  
   -712191.866    24221453.939        3596.774          53.000  
    603528.635    25123084.222       -3066.636          53.000  
    415654.742    22686771.633       -2105.441          53.000  
    133025.170    20453745.734        -711.856          53.000  
    272503.377    21405931.235       -1424.588          53.000  
   -712226.955    22638947.498        3535.715          53.000  
 18  2 16  8 23 32.0000000  0  8G01G11G05G03G23G09G10G30            -0.000551409
   -264591.251    22386684.729        1263.486          53.000  
   -453674.814    21381751.534        2204.491          53.000  
   -715788.726    24220769.484        3596.831          53.000  
    606595.404    25123667.806       -3067.034          53.000  
    417760.256    22687172.292       -2105.713          53.000  
    133737.193    20453881.217        -712.276          53.000  
    273928.258    21406202.380       -1425.225          53.000  
   -715762.451    22638274.712        3535.143          53.000  
 18  2 16  8 23 33.0000000  0  8G01G11G05G03G23G09G10G30            -0.000551225
   -265854.465    22386444.355        1262.723          53.000  
   -455878.963    21381332.095        2203.679          53.000  
   -719385.570    24220085.029        3596.682          53.000  
    609662.640    25124251.480       -3067.658          53.000  
    419866.084    22687573.023       -2106.151          53.000  
    134449.695    20454016.789        -712.906          53.000  
    275353.892    21406473.685       -1426.157          53.000  
   -719297.307    22637602.068        3534.349          53.000  
 18  2 16  8 23 34.0000000  0  8G01G11G05G03G23G09G10G30            -0.000551048
   -267117.038    22386204.070        1262.413          53.000  
   -458082.431    21380912.798        2203.191          53.000  
   -722982.351    24219400.592        3596.908          53.000  
    612730.372    25124835.243       -3067.819          53.000  
    421972.255    22687973.825       -2106.173          53.000  
    135162.709    20454152.469        -713.108          53.000  
    276780.292    21406745.115       -1426.888          53.000  
   -722831.483    22636929.532        3533.975          53.000  
 18  2 16  8 23 35.0000000  0  8G01G11G05G03G23G09G10G30            -0.000550872
   -268379.358    22385963.875        1262.150          53.000  
   -460285.595    21380493.537        2202.985          52.000  
   -726579.464    24218716.083        3597.211          52.000  
    615798.194    25125419.024       -3067.954          53.000  
    424078.356    22688374.610       -2106.124          52.000  
    135875.831    20454288.166        -713.256          53.000  
    278207.160    21407016.653       -1427.069          53.000  
   -726365.372    22636257.067        3533.656          52.000  
 18  2 16  8 23 36.0000000  0  8G01G11G05G03G23G09G10G30            -0.000550695
   -269641.311    22385723.733        1261.878          53.000  
   -462488.343    21380074.384        2202.676          53.000  
   -730176.792    24218031.539        3597.502          53.000  
    618866.196    25126002.859       -3068.019          53.000  
    426184.482    22688775.376       -2106.041          52.000  
    136589.161    20454423.917        -713.356          53.000  
    279634.527    21407288.280       -1427.472          53.000  
   -729898.865    22635584.655        3533.353          53.000  
 18  2 16  8 23 37.0000000  0  8G01G11G05G03G23G09G10G30            -0.000550518
   -270902.605    22385483.717        1260.904          53.000  
   -464690.360    21379655.337        2201.597          53.000  
   -733774.046    24217346.994        3597.146          53.000  
    621934.655    25126586.765       -3068.756          53.000  
    428290.911    22689176.214       -2106.665          53.000  
    137302.980    20454559.757        -714.137          53.000  
    281062.723    21407560.050       -1428.644          53.000  
   -733431.678    22634912.387        3532.407          53.000  
 18  2 16  8 23 38.0000000  0  8G01G11G05G03G23G09G10G30            -0.000550341
   -272163.397    22385243.771        1260.703          53.000  
   -466891.782    21379236.416        2201.060          53.000  
   -737371.380    24216662.450        3597.549          53.000  
    625003.400    25127170.724       -3068.732          53.000  
    430397.459    22689577.088       -2106.445          53.000  
    138017.124    20454695.669        -714.137          53.000  
    282491.551    21407831.927       -1429.204          53.000  
   -736963.962    22634240.226        3532.141          53.000  
 18  2 16  8 23 39.0000000  0  8G01G11G05G03G23G09G10G30            -0.000550164
   -273423.587    22385003.969        1260.028          53.000  
   -469092.493    21378817.637        2200.520          53.000  
   -740968.692    24215977.888        3597.451          53.000  
    628072.511    25127754.773       -3069.175          52.000  
    432504.212    22689977.997       -2106.711          53.000  
    138731.673    20454831.652        -714.606          53.000  
    283921.234    21408103.983       -1429.840          53.000  
   -740495.639    22633568.190        3531.479          53.000  
 18  2 16  8 23 40.0000000  0  8G01G11G05G03G23G09G10G30            -0.000549988
   -274683.107    22384764.274        1259.501          53.000  
   -471292.433    21378399.002        2199.940          53.000  
   -744565.913    24215293.379        3597.463          53.000  
    631142.030    25128338.894       -3069.456          53.000  
    434611.220    22690378.942       -2106.862          53.000  
    139446.690    20454967.707        -715.007          53.000  
    285351.744    21408376.182       -1430.563          53.000  
   -744026.637    22632896.243        3530.939          53.000  
 18  2 16  8 23 41.0000000  0  8G01G11G05G03G23G09G10G30            -0.000549812
   -275942.043    22384524.722        1258.655          53.000  
   -473491.665    21377980.491        2198.919          53.000  
   -748163.128    24214608.853        3597.218          53.000  
    634211.853    25128923.050       -3069.952          53.000  
    436718.374    22690779.923       -2107.227          53.000  
    140162.071    20455103.851        -715.560          53.000  
    286783.009    21408648.542       -1431.601          53.000  
   -747557.052    22632224.421        3530.121          53.000  
 18  2 16  8 23 42.0000000  0  8G01G11G05G03G23G09G10G30            -0.000549635
   -277200.407    22384285.259        1258.302          52.000  
   -475690.209    21377562.124        2198.163          53.000  
   -751760.349    24213924.326        3597.428          53.000  
    637281.948    25129507.278       -3070.033          53.000  
    438825.645    22691180.922       -2107.156          53.000  
    140877.792    20455240.049        -715.696          52.000  
    288214.993    21408921.044       -1432.440          53.000  
   -751086.906    22631552.707        3529.769          53.000  
 18  2 16  8 23 43.0000000  0  8G01G11G05G03G23G09G10G30            -0.000549459
   -278458.425    22384045.868        1257.945          53.000  
   -477888.227    21377143.864        2197.957          53.000  
   -755357.805    24213239.746        3597.695          53.000  
    640352.065    25130091.505       -3069.976          52.000  
    440932.781    22691581.903       -2106.955          53.000  
    141593.612    20455376.265        -715.735          52.000  
    289647.576    21409193.654       -1432.678          53.000  
   -754616.436    22630881.064        3529.471          52.000  
 18  2 16  8 23 44.0000000  0  8G01G11G05G03G23G09G10G30            -0.000549282
   -279715.781    22383806.602        1257.083          53.000  
   -480085.450    21376725.764        2196.947          53.000  
   -758955.167    24212555.184        3597.350          53.000  
    643422.507    25130675.805       -3070.574          53.000  
    443040.089    22691982.901       -2107.349          53.000  
    142309.847    20455512.552        -716.431          53.000  
    291080.993    21409466.443       -1433.760          53.000  
   -758145.331    22630209.528        3528.610          53.000  
 18  2 16  8 23 45.0000000  0  8G01G11G05G03G23G09G10G30            -0.000549106
   -280972.654    22383567.425        1256.803          53.000  
   -482282.030    21376307.754        2196.476          53.000  
   -762552.623    24211870.621        3597.695          53.000  
    646493.059    25131260.104       -3070.416          53.000  
    445147.364    22692383.900       -2107.066          53.000  
    143026.287    20455648.892        -716.357          53.000  
    292515.077    21409739.356       -1434.185          53.000  
   -761673.785    22629538.082        3528.400          53.000  
 18  2 16  8 23 46.0000000  0  8G01G11G05G03G23G09G10G30            -0.000548929
   -282228.844    22383328.391        1255.965          53.000  
   -484477.783    21375889.905        2195.197          53.000  
   -766149.966    24211186.077        3597.431          53.000  
    649563.907    25131844.474       -3070.854          53.000  
    447254.789    22692784.935       -2107.334          53.000  
    143743.132    20455785.304        -716.893          53.000  
    293949.981    21410012.413       -1435.394          53.000  
   -765201.609    22628866.760        3527.645          53.000  
 18  2 16  8 23 47.0000000  0  8G01G11G05G03G23G09G10G30            -0.000548753
   -283484.504    22383089.428        1255.401          53.000  
   -486672.770    21375472.217        2194.769          53.000  
   -769747.347    24210501.515        3597.427          53.000  
    652634.874    25132428.863       -3070.982          53.000  
    449362.198    22693185.951       -2107.384          53.000  
    144460.214    20455921.752        -717.161          53.000  
    295385.696    21410285.612       -1435.968          53.000  
   -768728.964    22628195.528        3527.139          53.000  
 18  2 16  8 23 48.0000000  0  8G01G11G05G03G23G09G10G30            -0.000548577
   -284739.637    22382850.591        1255.088          53.000  
   -488867.063    21375054.653        2194.223          53.000  
   -773344.769    24209816.935        3597.669          53.000  
    655705.936    25133013.269       -3070.922          53.000  
    451469.564    22693586.986       -2107.134          53.000  
    145177.521    20456058.254        -717.239          53.000  
    296822.110    21410558.955       -1436.545          53.000  
   -772255.868    22627524.368        3526.876          53.000  
 18  2 16  8 23 49.0000000  0  8G01G11G05G03G23G09G10G30            -0.000548400
   -285993.837    22382611.932        1254.031          53.000  
   -491060.247    21374637.322        2192.968          53.000  
   -776941.819    24209132.426        3597.174          53.000  
    658777.469    25133597.765       -3071.450          53.000  
    453577.271    22693988.074       -2107.558          53.000  
    145895.438    20456194.862        -717.923          53.000  
    298259.624    21410832.494       -1437.771          53.000  
   -775781.928    22626853.404        3525.948          53.000  
 18  2 16  8 23 50.0000000  0  8G01G11G05G03G23G09G10G30            -0.000548224
   -287247.461    22382373.381        1253.583          53.000  
   -493252.683    21374220.099        2191.974          53.000  
   -780538.856    24208447.935        3597.271          53.000  
    661849.104    25134182.261       -3071.466          53.000  
    455684.958    22694389.162       -2107.447          53.000  
    146613.606    20456331.525        -718.051          53.000  
    299697.865    21411106.193       -1438.630          53.000  
   -779307.511    22626182.511        3525.595          53.000  
 18  2 16  8 23 51.0000000  0  8G01G11G05G03G23G09G10G30            -0.000548047
   -288500.305    22382134.972        1252.761          53.000  
   -495444.073    21373803.089        2191.267          53.000  
   -784135.671    24207763.480        3596.976          53.000  
    664921.011    25134766.828       -3071.750          53.000  
    457792.800    22694790.268       -2107.630          53.000  
    147332.213    20456468.276        -718.533          53.000  
    301137.151    21411380.090       -1439.410          53.000  
   -782832.430    22625511.744        3524.868          53.000  
 18  2 16  8 23 52.0000000  0  8G01G11G05G03G23G09G10G30            -0.000547871
   -289752.627    22381896.653        1252.116          53.000  
   -497634.757    21373386.205        2190.475          53.000  
   -787732.526    24207079.025        3596.968          53.000  
    667992.915    25135351.413       -3071.816          53.000  
    459900.527    22695191.338       -2107.573          53.000  
    148050.990    20456605.064        -718.794          53.000  
    302577.127    21411654.111       -1440.171          53.000  
   -786356.958    22624841.030        3524.415          53.000  
 18  2 16  8 23 53.0000000  0  8G01G11G05G03G23G09G10G30            -0.000547695
   -291004.313    22381658.459        1251.465          53.000  
   -499824.594    21372969.499        2189.562          53.000  
   -791329.293    24206394.588        3596.838          53.000  
    671064.906    25135935.998       -3071.932          53.000  
    462008.239    22695592.426       -2107.583          53.000  
    148770.042    20456741.887        -719.081          53.000  
    304017.918    21411928.258       -1441.058          53.000  
   -789880.992    22624170.424        3523.900          53.000  
 18  2 16  8 23 54.0000000  0  8G01G11G05G03G23G09G10G30            -0.000547518
   -292255.050    22381420.462        1250.642          53.000  
   -502013.316    21372552.990        2188.274          53.000  
   -794925.661    24205710.222        3596.551          53.000  
    674137.275    25136520.655       -3072.162          53.000  
    464116.234    22695993.568       -2107.739          53.000  
    149489.670    20456878.817        -719.478          53.000  
    305459.786    21412202.637       -1442.233          53.000  
   -793404.235    22623499.978        3523.250          53.000  
 18  2 16  8 23 55.0000000  0  8G01G11G05G03G23G09G10G30            -0.000547342
   -293505.207    22381182.553        1249.417          53.000  
   -504201.171    21372136.660        2187.192          53.000  
   -798521.998    24205025.874        3595.955          53.000  
    677209.630    25137105.311       -3072.684          53.000  
    466224.125    22696394.692       -2108.230          53.000  
    150209.499    20457015.819        -720.286          53.000  
    306902.483    21412477.159       -1443.450          53.000  
   -796927.074    22622829.604        3522.279          53.000  
 18  2 16  8 23 56.0000000  0  8G01G11G05G03G23G09G10G30            -0.000547156
   -294754.612    22380944.788        1249.102          53.000  
   -506388.073    21371720.526        2186.539          53.000  
   -802118.123    24204341.544        3596.083          53.000  
    680282.124    25137689.986       -3072.495          53.000  
    468332.074    22696795.815       -2107.888          53.000  
    150929.688    20457152.856        -720.291          53.000  
    308346.100    21412751.859       -1443.966          53.000  
   -800449.343    22622159.337        3522.042          53.000  
 18  2 16  8 23 57.0000000  0  8G01G11G05G03G23G09G10G30            -0.000546978
   -296003.275    22380707.166        1248.204          53.000  
   -508574.020    21371304.553        2185.426          53.000  
   -805714.050    24203657.268        3595.722          53.000  
    683354.718    25138274.678       -3072.717          53.000  
    470440.055    22697196.939       -2108.073          53.000  
    151650.217    20457289.965        -720.798          53.000  
    309790.617    21413026.756       -1445.038          53.000  
   -803971.083    22621489.177        3521.374          53.000  
 18  2 16  8 23 58.0000000  0  8G01G11G05G03G23G09G10G30            -0.000546802
   -297251.076    22380469.722        1247.529          53.000  
   -510758.934    21370888.777        2184.281          53.000  
   -809309.654    24202973.045        3595.601          53.000  
    686427.517    25138859.424       -3072.738          53.000  
    472548.178    22697598.117       -2108.034          53.000  
    152371.198    20457427.146        -721.044          53.000  
    311236.113    21413301.832       -1446.020          53.000  
   -807492.178    22620819.142        3520.951          53.000  
 18  2 16  8 23 59.0000000  0  8G01G11G05G03G23G09G10G30            -0.000546625
   -298498.043    22380232.440        1246.632          53.000  
   -512942.709    21370473.215        2183.433          53.000  
   -812904.953    24202288.894        3595.210          53.000  
    689500.472    25139444.188       -3072.934          53.000  
    474656.400    22697999.294       -2108.179          53.000  
    153092.597    20457564.416        -721.519          53.000  
    312682.681    21413577.086       -1446.893          52.000  
   -811012.675    22620149.215        3520.292          53.000  
 18  2 16  8 24  0.0000000  0  8G01G11G05G03G23G09G10G30            -0.000546447
   -299744.469    22379995.246        1245.972          53.000  
   -515125.756    21370057.796        2182.532          53.000  
   -816500.244    24201604.725        3595.108          53.000  
    692573.268    25140028.934       -3072.880          53.000  
    476764.422    22698400.436       -2108.096          53.000  
    153814.112    20457701.721        -721.751          53.000  
    314129.932    21413852.501       -1447.732          53.000  
   -814532.881    22619479.341        3519.876          53.000  
 18  2 16  8 24  1.0000000  0  8G01G11G05G03G23G09G10G30            -0.000546270
   -300990.327    22379758.178        1245.586          53.000  
   -517308.026    21369642.519        2181.917          53.000  
   -820095.489    24200920.573        3595.208          52.000  
    695645.913    25140613.644       -3072.565          52.000  
    478872.258    22698801.524       -2107.753          53.000  
    154535.760    20457839.045        -721.676          53.000  
    315577.892    21414128.060       -1448.274          53.000  
   -818052.789    22618809.520        3519.771          53.000  
 18  2 16  8 24  2.0000000  0  8G01G11G05G03G23G09G10G30            -0.000546093
   -302235.292    22379521.270        1244.307          53.000  
   -519489.242    21369227.440        2180.200          53.000  
   -823690.369    24200236.494        3594.455          53.000  
    698718.711    25141198.372       -3073.093          53.000  
    480980.222    22699202.666       -2108.234          53.000  
    155257.867    20457976.440        -722.547          53.000  
    317026.848    21414403.779       -1449.851          53.000  
   -821572.086    22618139.825        3518.769          53.000  
 18  2 16  8 24  3.0000000  0  8G01G11G05G03G23G09G10G30            -0.000545917
   -303479.582    22379284.488        1244.113          53.000  
   -521669.497    21368812.557        2180.024          53.000  
   -827285.094    24199552.467        3594.779          53.000  
    701791.428    25141783.100       -3072.527          53.000  
    483088.093    22699603.772       -2107.664          53.000  
    155980.198    20458113.888        -722.285          53.000  
    318476.669    21414679.659       -1450.042          53.000  
   -825091.014    22617470.183        3518.889          53.000  
 18  2 16  8 24  4.0000000  0  8G01G11G05G03G23G09G10G30            -0.000545740
   -304723.053    22379047.884        1243.450          53.000  
   -523848.747    21368397.853        2179.172          53.000  
   -830879.514    24198868.477        3594.652          53.000  
    704864.189    25142367.846       -3072.398          53.000  
    485196.001    22700004.895       -2107.536          53.000  
    156702.900    20458251.408        -722.482          53.000  
    319927.442    21414955.753       -1450.841          53.000  
   -828609.438    22616800.649        3518.580          53.000  
 18  2 16  8 24  5.0000000  0  8G01G11G05G03G23G09G10G30            -0.000545563
   -305965.585    22378811.441        1242.110          53.000  
   -526026.867    21367983.345        2177.641          53.000  
   -834473.505    24198184.558        3593.817          53.000  
    707937.095    25142952.592       -3072.938          52.000  
    487304.064    22700406.055       -2108.084          53.000  
    157426.084    20458389.035        -723.360          53.000  
    321379.263    21415232.026       -1452.292          53.000  
   -832127.254    22616131.222        3517.568          53.000  
 18  2 16  8 24  6.0000000  0  8G01G11G05G03G23G09G10G30            -0.000545386
   -307207.412    22378575.123        1241.725          53.000  
   -528204.127    21367569.034        2176.823          53.000  
   -838067.298    24197500.675        3593.918          53.000  
    711009.901    25143537.320       -3072.530          53.000  
    489412.043    22700807.197       -2107.684          53.000  
    158149.519    20458526.716        -723.351          53.000  
    322831.875    21415508.460       -1452.893          53.000  
   -835644.710    22615461.884        3517.510          53.000  
 18  2 16  8 24  7.0000000  0  8G01G11G05G03G23G09G10G30            -0.000545209
   -308448.474    22378338.966        1240.714          53.000  
   -530380.385    21367154.919        2175.884          53.000  
   -841660.837    24196816.845        3593.461          53.000  
    714082.646    25144122.048       -3072.670          53.000  
    491519.989    22701208.321       -2107.849          53.000  
    158873.245    20458664.433        -723.845          53.000  
    324285.414    21415785.054       -1453.944          53.000  
   -839161.772    22614792.618        3516.894          53.000  
 18  2 16  8 24  8.0000000  0  8G01G11G05G03G23G09G10G30            -0.000545033
   -309688.708    22378102.970        1239.808          53.000  
   -532555.631    21366740.983        2174.803          53.000  
   -845254.040    24196133.069        3593.028          53.000  
    717155.384    25144706.776       -3072.743          53.000  
    493627.971    22701609.462       -2108.016          53.000  
    159597.334    20458802.221        -724.245          53.000  
    325739.878    21416061.827       -1454.892          53.000  
   -842678.383    22614123.423        3516.392          53.000  
 18  2 16  8 24  9.0000000  0  8G01G11G05G03G23G09G10G30            -0.000544856
   -310928.020    22377867.153        1239.069          53.000  
   -534729.793    21366327.244        2173.878          53.000  
   -848846.822    24195449.382        3592.790          53.000  
    720228.188    25145291.504       -3072.588          53.000  
    495736.068    22702010.622       -2107.930          53.000  
    160321.877    20458940.098        -724.517          53.000  
    327195.349    21416338.797       -1455.709          53.000  
   -846194.468    22613454.335        3516.097          53.000  
 18  2 16  8 24 10.0000000  0  8G01G11G05G03G23G09G10G30            -0.000544679
   -312166.558    22377631.442        1238.184          53.000  
   -536903.065    21365913.683        2172.705          53.000  
   -852439.321    24194765.749        3592.400          53.000  
    723300.909    25145876.232       -3072.632          53.000  
    497844.134    22702411.781       -2107.999          53.000  
    161046.722    20459078.047        -724.946          53.000  
    328651.643    21416615.910       -1456.720          53.000  
   -849710.183    22612785.319        3515.578          53.000  
 18  2 16  8 24 11.0000000  0  8G01G11G05G03G23G09G10G30            -0.000544503
   -313404.287    22377395.929        1237.369          53.000  
   -539075.314    21365500.337        2171.831          53.000  
   -856031.503    24194082.170        3592.049          53.000  
    726373.560    25146460.942       -3072.582          53.000  
    499952.210    22702812.941       -2108.059          53.000  
    161771.905    20459216.050        -725.334          53.000  
    330108.879    21416893.202       -1457.652          53.000  
   -853225.518    22612116.374        3515.186          53.000  
 18  2 16  8 24 12.0000000  0  8G01G11G05G03G23G09G10G30            -0.000544326
   -314640.977    22377160.576        1236.315          53.000  
   -541246.386    21365087.187        2170.656          53.000  
   -859623.132    24193398.715        3591.517          53.000  
    729446.364    25147045.670       -3072.749          53.000  
    502060.515    22703214.118       -2108.245          53.000  
    162497.647    20459354.159        -725.870          53.000  
    331567.208    21417170.708       -1458.702          53.000  
   -856740.250    22611447.536        3514.563          53.000  
 18  2 16  8 24 13.0000000  0  8G01G11G05G03G23G09G10G30            -0.000544150
   -315876.733    22376925.437        1235.363          53.000  
   -543416.384    21364674.252        2169.532          53.000  
   -863214.304    24192715.332        3590.994          53.000  
    732519.204    25147630.416       -3072.792          52.000  
    504168.957    22703615.349       -2108.424          53.000  
    163223.856    20459492.358        -726.389          53.000  
    333026.538    21417448.410       -1459.726          53.000  
   -860254.499    22610778.806        3514.068          53.000  
 18  2 16  8 24 14.0000000  0  8G01G11G05G03G23G09G10G30            -0.000543973
   -317111.714    22376690.424        1234.641          53.000  
   -545585.546    21364261.460        2168.790          53.000  
   -866805.186    24192032.021        3590.804          53.000  
    735591.914    25148215.144       -3072.565          53.000  
    506277.370    22704016.580       -2108.352          53.000  
    163950.356    20459630.593        -726.554          53.000  
    334486.654    21417726.255       -1460.431          53.000  
   -863768.445    22610110.112        3513.887          53.000  
 18  2 16  8 24 15.0000000  0  8G01G11G05G03G23G09G10G30            -0.000543797
   -318346.023    22376455.536        1234.007          53.000  
   -547753.849    21363848.864        2167.968          53.000  
   -870395.866    24191348.745        3590.601          53.000  
    738664.390    25148799.819       -3072.339          53.000  
    508385.661    22704417.776       -2108.214          53.000  
    164677.068    20459768.881        -726.785          53.000  
    335947.529    21418004.244       -1461.195          53.000  
   -867282.190    22609441.471        3513.669          53.000  
 18  2 16  8 24 16.0000000  0  8G01G11G05G03G23G09G10G30            -0.000543620
   -319579.277    22376220.862        1232.862          53.000  
   -549921.012    21363436.465        2166.684          53.000  
   -873985.965    24190665.559        3589.903          53.000  
    741736.000    25149384.529       -3072.587          53.000  
    510494.210    22704819.025       -2108.536          53.000  
    165404.356    20459907.277        -727.441          52.000  
    337409.484    21418282.465       -1462.382          52.000  
   -870795.376    22608772.937        3513.042          53.000  
 18  2 16  8 24 17.0000000  0  8G01G11G05G03G23G09G10G30            -0.000543444
   -320811.837    22375986.313        1232.187          53.000  
   -552087.399    21363024.209        2165.957          53.000  
   -877575.837    24189982.426        3589.728          53.000  
    744809.378    25149969.185       -3072.312          53.000  
    512602.666    22705220.238       -2108.420          53.000  
    166131.874    20460045.726        -727.657          53.000  
    338872.147    21418560.792       -1463.027          53.000  
   -874308.367    22608104.439        3512.875          53.000  
 18  2 16  8 24 18.0000000  0  8G01G11G05G03G23G09G10G30            -0.000543268
   -322043.505    22375751.925        1231.162          53.000  
   -554252.841    21362612.131        2164.904          53.000  
   -881165.286    24189299.365        3589.211          53.000  
    747881.719    25150553.824       -3072.382          53.000  
    514711.229    22705621.505       -2108.628          53.000  
    166859.814    20460184.247        -728.155          53.000  
    340335.712    21418839.299       -1464.058          53.000  
   -877820.984    22607436.012        3512.402          53.000  
 18  2 16  8 24 19.0000000  0  8G01G11G05G03G23G09G10G30            -0.000543092
   -323274.201    22375517.734        1230.359          53.000  
   -556417.217    21362200.268        2164.014          53.000  
   -884754.223    24188616.411        3588.835          52.000  
    750954.102    25151138.481       -3072.233          52.000  
    516819.991    22706022.771       -2108.698          53.000  
    167588.269    20460322.857        -728.534          53.000  
    341800.270    21419118.002       -1464.904          53.000  
   -881333.149    22606767.693        3512.098          53.000  
 18  2 16  8 24 20.0000000  0  8G01G11G05G03G23G09G10G30            -0.000542915
   -324504.108    22375283.667        1229.591          53.000  
   -558580.740    21361788.566        2163.166          53.000  
   -888342.833    24187933.510        3588.547          52.000  
    754026.343    25151723.137       -3072.096          53.000  
    518928.776    22706424.056       -2108.720          53.000  
    168317.056    20460461.520        -728.890          53.000  
    343265.627    21419396.848       -1465.709          53.000  
   -884845.061    22606099.392        3511.857          53.000  
 18  2 16  8 24 21.0000000  0  8G01G11G05G03G23G09G10G30            -0.000542739
   -325733.411    22375049.744        1228.999          53.000  
   -560743.646    21361376.971        2162.578          53.000  
   -891931.290    24187250.646        3588.387          53.000  
    757098.254    25152307.704       -3071.729          53.000  
    521037.401    22706825.323       -2108.547          53.000  
    169045.990    20460600.238        -728.982          53.000  
    344731.556    21419675.802       -1466.221          53.000  
   -888356.913    22605431.108        3511.831          53.000  
 18  2 16  8 24 22.0000000  0  8G01G11G05G03G23G09G10G30            -0.000542563
   -326961.523    22374816.053        1227.552          53.000  
   -562905.352    21360965.626        2161.190          53.000  
   -895519.009    24186567.924        3587.362          53.000  
    760170.422    25152892.325       -3072.277          53.000  
    523146.470    22707226.661       -2109.276          53.000  
    169775.670    20460739.080        -730.012          53.000  
    346198.640    21419954.969       -1467.484          53.000  
   -891868.128    22604762.932        3510.920          53.000  
 18  2 16  8 24 23.0000000  0  8G01G11G05G03G23G09G10G30            -0.000542387
   -328188.656    22374582.540        1226.911          53.000  
   -565066.044    21360554.459        2160.445          53.000  
   -899106.204    24185885.309        3587.178          53.000  
    763242.638    25153476.946       -3071.974          52.000  
    525255.777    22707628.071       -2109.171          53.000  
    170505.889    20460878.029        -730.231          53.000  
    347666.691    21420234.334       -1468.264          53.000  
   -895378.924    22604094.845        3510.837          52.000  
 18  2 16  8 24 24.0000000  0  8G01G11G05G03G23G09G10G30            -0.000542211
   -329415.191    22374349.135        1225.808          53.000  
   -567226.136    21360143.400        2159.348          53.000  
   -902693.252    24185202.713        3586.537          53.000  
    766314.525    25154061.513       -3072.169          53.000  
    527364.954    22708029.427       -2109.577          53.000  
    171236.270    20461017.015        -730.894          53.000  
    349135.311    21420513.805       -1469.366          53.000  
   -898889.693    22603426.757        3510.340          53.000  
 18  2 16  8 24 25.0000000  0  8G01G11G05G03G23G09G10G30            -0.000542035
   -330640.906    22374115.891        1226.575          53.000  
   -569385.441    21359732.502        2160.058          53.000  
   -906279.913    24184520.205        3587.651          53.000  
    769386.307    25154646.045       -3070.548          53.000  
    529474.234    22708430.801       -2108.076          53.000  
    171967.050    20461156.089        -729.822          53.000  
    350604.688    21420793.438       -1468.543          53.000  
   -902400.212    22602758.742        3511.629          53.000  
 18  2 16  8 24 26.0000000  0  8G01G11G05G03G23G09G10G30            -0.000541858
   -331867.605    22373882.468        1226.589          53.000  
   -571545.770    21359321.408        2160.337          53.000  
   -909868.017    24183837.394        3588.179          53.000  
    772456.179    25155230.237       -3069.536          53.000  
    531581.822    22708831.853       -2107.341          53.000  
    172696.413    20461294.878        -729.261          53.000  
    352073.030    21421072.855       -1468.331          53.000  
   -905912.302    22602090.405        3512.275          53.000  
 18  2 16  8 24 27.0000000  0  8G01G11G05G03G23G09G10G30            -0.000541681
   -333093.421    22373649.206        1225.362          53.000  
   -573705.264    21358910.474        2158.995          53.000  
   -913455.675    24183154.690        3587.401          53.000  
    775526.026    25155814.411       -3069.872          53.000  
    533689.610    22709232.959       -2107.908          53.000  
    173426.256    20461433.756        -730.113          53.000  
    353542.186    21421352.416       -1469.616          53.000  
   -909424.090    22601422.139        3511.604          53.000  
 18  2 16  8 24 28.0000000  0  8G01G11G05G03G23G09G10G30            -0.000541504
   -334318.148    22373416.158        1224.578          53.000  
   -575863.721    21358499.754        2158.292          53.000  
   -917042.685    24182472.112        3587.076          53.000  
    778596.051    25156398.621       -3069.738          53.000  
    535797.807    22709634.137       -2108.003          53.000  
    174156.781    20461572.759        -730.471          53.000  
    355012.358    21421632.174       -1470.332          53.000  
   -912935.381    22600753.963        3511.430          53.000  
 18  2 16  8 24 29.0000000  0  8G01G11G05G03G23G09G10G30            -0.000541327
   -335542.094    22373183.235        1223.790          53.000  
   -578021.485    21358089.142        2157.624          53.000  
   -920629.352    24181789.569        3586.703          53.000  
    781665.955    25156982.795       -3069.607          53.000  
    537906.121    22710035.350       -2108.150          53.000  
    174887.692    20461711.852        -730.872          53.000  
    356483.227    21421912.074       -1470.999          53.000  
   -916446.489    22600085.822        3511.271          53.000  
 18  2 16  8 24 30.0000000  0  8G01G11G05G03G23G09G10G30            -0.000541151
   -336765.234    22372950.473        1222.651          53.000  
   -580178.528    21357678.673        2156.834          53.000  
   -924215.651    24181107.133        3586.043          53.000  
    784735.781    25157566.951       -3069.868          53.000  
    540014.597    22710436.581       -2108.638          53.000  
    175619.024    20461851.034        -731.599          53.000  
    357954.826    21422192.117       -1471.915          53.000  
   -919957.383    22599417.717        3510.723          53.000  
 18  2 16  8 24 31.0000000  0  8G01G11G05G03G23G09G10G30            -0.000540974
   -337987.555    22372717.890        1222.192          53.000  
   -582334.870    21357268.346        2155.957          53.000  
   -927801.567    24180424.768        3586.010          52.000  
    787805.545    25158151.107       -3069.439          53.000  
    542123.261    22710837.830       -2108.442          53.000  
    176350.799    20461990.287        -731.653          53.000  
    359427.119    21422472.286       -1472.514          53.000  
   -923468.056    22598749.648        3510.734          53.000  
 18  2 16  8 24 32.0000000  0  8G01G11G05G03G23G09G10G30            -0.000540797
   -339209.300    22372485.396        1221.524          53.000  
   -584490.764    21356858.073        2155.670          53.000  
   -931387.339    24179742.404        3585.776          52.000  
    790875.019    25158735.210       -3069.251          53.000  
    544231.887    22711239.097       -2108.532          52.000  
    177082.793    20462129.576        -732.026          53.000  
    360899.893    21422752.544       -1472.996          53.000  
   -926978.755    22598081.579        3510.781          53.000  
 18  2 16  8 24 33.0000000  0  8G01G11G05G03G23G09G10G30            -0.000540620
   -340430.115    22372253.081        1220.571          53.000  
   -586645.855    21356447.961        2154.876          53.000  
   -934972.614    24179060.147        3585.238          53.000  
    793944.565    25159319.330       -3069.363          53.000  
    546340.844    22711640.417       -2108.904          53.000  
    177815.355    20462268.990        -732.636          53.000  
    362373.490    21423032.944       -1473.810          53.000  
   -930489.125    22597413.581        3510.413          52.000  
 18  2 16  8 24 34.0000000  0  8G01G11G05G03G23G09G10G30            -0.000540450
   -341650.150    22372020.909        1219.626          53.000  
   -588800.299    21356037.992        2154.409          53.000  
   -938557.542    24178377.961        3584.738          53.000  
    797014.052    25159903.433       -3069.494          53.000  
    548450.002    22712041.791       -2109.264          53.000  
    178548.357    20462408.476        -733.253          53.000  
    363847.769    21423313.488       -1474.476          53.000  
   -933999.314    22596745.601        3510.081          53.000  
 18  2 16  8 24 35.0000000  0  8G01G11G05G03G23G09G10G30            -0.000540272
   -342869.562    22371788.879        1219.095          53.000  
   -590954.332    21355628.113        2153.735          53.000  
   -942142.282    24177695.811        3584.659          53.000  
    800083.328    25160487.518       -3069.186          53.000  
    550559.221    22712443.147       -2109.223          53.000  
    179281.646    20462548.015        -733.429          53.000  
    365322.503    21423594.121       -1475.043          53.000  
   -937509.482    22596077.639        3510.194          53.000  
 18  2 16  8 24 36.0000000  0  8G01G11G05G03G23G09G10G30            -0.000540094
   -344088.288    22371556.957        1218.520          53.000  
   -593107.846    21355218.305        2153.296          53.000  
   -945726.758    24177013.697        3584.455          53.000  
    803152.484    25161071.549       -3068.991          53.000  
    552668.585    22712844.557       -2109.307          53.000  
    180015.303    20462687.625        -733.702          53.000  
    366797.807    21423874.861       -1475.531          53.000  
   -941019.555    22595409.713        3510.172          53.000  
 18  2 16  8 24 37.0000000  0  8G01G11G05G03G23G09G10G30            -0.000539916
   -345306.181    22371325.214        1217.516          53.000  
   -595260.710    21354808.622        2152.532          53.000  
   -949310.846    24176331.672        3583.938          53.000  
    806221.668    25161655.598       -3069.186          53.000  
    554778.252    22713246.002       -2109.780          53.000  
    180749.484    20462827.343        -734.424          53.000  
    368273.812    21424155.726       -1476.363          53.000  
   -944529.394    22594741.805        3509.754          53.000  
 18  2 16  8 24 38.0000000  0  8G01G11G05G03G23G09G10G30            -0.000539739
   -346523.240    22371093.614        1216.848          53.000  
   -597412.918    21354399.064        2152.454          53.000  
   -952894.519    24175649.719        3583.688          53.000  
    809290.911    25162239.665       -3069.094          53.000  
    556888.249    22713647.519       -2109.965          53.000  
    181484.202    20462967.168        -734.800          53.000  
    369750.520    21424436.753       -1476.616          53.000  
   -948038.982    22594073.950        3509.660          53.000  
 18  2 16  8 24 40.0000000  0  8G01G11G05G03G23G09G10G30            -0.000539384
   -348955.409    22370630.788        1215.670          53.000  
   -601716.176    21353580.198        2151.335          53.000  
   -960061.224    24174285.901        3583.345          53.000  
    815429.070    25163407.745       -3068.779          53.000  
    561108.742    22714450.660       -2110.198          53.000  
    182954.737    20463246.997        -735.396          53.000  
    372705.366    21424999.019       -1477.748          53.000  
   -955057.977    22592738.294        3509.718          53.000  
 18  2 16  8 24 41.0000000  0  8G01G11G05G03G23G09G10G30            -0.000539206
   -350170.444    22370399.581        1214.826          53.000  
   -603867.092    21353170.890        2150.785          53.000  
   -963644.173    24173604.091        3582.953          53.000  
    818498.101    25163991.758       -3068.904          53.000  
    563219.358    22714852.284       -2110.601          53.000  
    183690.664    20463387.055        -736.035          53.000  
    374183.622    21425280.313       -1478.414          53.000  
   -958567.281    22592070.511        3509.357          53.000  
 18  2 16  8 24 42.0000000  0  8G01G11G05G03G23G09G10G30            -0.000539028
   -351384.503    22370168.552        1214.038          53.000  
   -606017.251    21352761.725        2150.671          53.000  
   -967226.578    24172922.388        3582.591          53.000  
    821567.396    25164575.825       -3068.953          53.000  
    565330.518    22715254.034       -2110.959          53.000  
    184427.311    20463527.219        -736.559          53.000  
    375662.719    21425561.804       -1478.841          53.000  
   -962076.185    22591402.781        3509.155          53.000  
 18  2 16  8 24 43.0000000  0  8G01G11G05G03G23G09G10G30            -0.000538851
   -352598.078    22369937.595        1213.447          53.000  
   -608167.288    21352352.578        2149.937          53.000  
   -970808.933    24172240.684        3582.433          53.000  
    824636.494    25165159.856       -3068.875          53.000  
    567441.750    22715655.801       -2111.133          53.000  
    185164.208    20463667.438        -736.886          53.000  
    377142.074    21425843.313       -1479.460          53.000  
   -965585.167    22590735.034        3509.150          53.000  
 18  2 16  8 24 44.0000000  0  8G01G11G05G03G23G09G10G30            -0.000538673
   -353810.669    22369706.852        1212.528          53.000  
   -610316.587    21351943.592        2149.271          53.000  
   -974390.739    24171559.088        3581.943          53.000  
    827705.909    25165743.959       -3069.153          53.000  
    569553.578    22716057.657       -2111.694          53.000  
    185901.869    20463807.799        -737.595          53.000  
    378622.264    21426124.982       -1480.175          53.000  
   -969093.709    22590067.358        3508.747          53.000  
 18  2 16  8 24 45.0000000  0  8G01G11G05G03G23G09G10G30            -0.000538496
   -355022.975    22369476.145        1212.188          53.000  
   -612465.901    21351534.588        2149.303          52.000  
   -977972.700    24170877.492        3582.086          53.000  
    830774.963    25166327.972       -3068.853          53.000  
    571665.315    22716459.514       -2111.671          53.000  
    186639.606    20463948.196        -737.761          53.000  
    380102.575    21426406.687       -1480.380          53.000  
   -972602.519    22589399.646        3508.979          53.000  
 18  2 16  8 24 46.0000000  0  8G01G11G05G03G23G09G10G30            -0.000538318
   -356234.526    22369245.599        1211.484          53.000  
   -614614.691    21351125.673        2149.264          53.000  
   -981554.338    24170195.932        3581.786          53.000  
    833844.145    25166912.021       -3068.956          53.000  
    573777.455    22716861.460       -2112.056          53.000  
    187377.893    20464088.682        -738.273          53.000  
    381583.496    21426688.518       -1480.696          53.000  
   -976111.106    22588731.988        3508.773          53.000  
                            4  1
            *** END OF RINEX FILE***                        COMMENT
