     3.03           OBSERVATION DATA    M: Mixed            RINEX VERSION / TYPE
RTKCONV 2.4.3 b34                       20250227 094658 UTC PGM / RUN BY / DATE 
format: RINEX                                               COMMENT             
log: E:\Nguyends_doa\RX\RX2\RinexObservables_20180216_082132COMMENT             
                                                            MARKER NAME         
                                                            MARKER NUMBER       
                                                            MARKER TYPE         
                                                            OBSERVER / AGENCY   
                                                            REC # / TYPE / VERS 
                                                            ANT # / TYPE        
        0.0000        0.0000        0.0000                  APPROX POSITION XYZ 
        0.0000        0.0000        0.0000                  ANTENNA: DELTA H/E/N
G    4 C1C L1C D1C S1C                                      SYS / # / OBS TYPES 
  2018    02    16    08    21   33.0000000     GPS         TIME OF FIRST OBS   
  2018    02    16    08    24   33.0000000     GPS         TIME OF LAST OBS    
G L1C                                                       SYS / PHASE SHIFT   
  0                                                         GLONASS SLOT / FRQ #
 C1C    0.000 C1P    0.000 C2C    0.000 C2P    0.000        GLONASS COD/PHS/BIS 
                                                            END OF HEADER       
> 2018 02 16 08 21 33.0000000  0  8                     
G30  22335059.317     -283166.3291       3566.004          50.000  
G01  22032389.428     -105755.5221       1330.231          50.000  
G23  22256203.426      165483.9971      -2088.069          50.000  
G03  24670825.129      236735.7741      -3057.828          50.000  
G09  20054661.745       53208.4911       -671.483          50.000  
G10  20990984.307      109425.9391      -1357.476          50.000  
G11  21048516.163     -187885.8701       2260.381          50.000  
G05  23918627.464     -280904.1091       3603.435          50.000  
> 2018 02 16 08 21 34.0000000  0  8                     
G30  22334380.813     -286731.927        3565.795          50.000  
G01  22032136.385     -107085.342        1330.053          50.000  
G23  22256600.797      167572.261       -2087.873          50.000  
G03  24671407.070      239793.862       -3057.746          50.000  
G09  20054789.580       53880.309        -671.559          50.000  
G10  20991242.711      110783.904       -1358.097          50.000  
G11  21048086.110     -190145.766        2259.847          50.000  
G05  23917941.758     -284507.459        3603.823          50.000  
> 2018 02 16 08 21 37.0000000  0  8                     
G30  22332346.085     -297424.536        3562.675          50.000  
G01  22031378.006     -111070.587        1326.860          50.000  
G23  22257793.269      173838.683       -2089.705          50.000  
G03  24673153.356      248970.691       -3060.052          50.000  
G09  20055173.674       55898.728        -674.028          50.000  
G10  20992018.995      114863.376       -1361.651          50.000  
G11  21046796.949     -196920.378        2256.476          50.000  
G05  23915884.855     -295316.739        3602.352          50.000  
> 2018 02 16 08 21 38.0000000  0  8                     
G30  22331668.152     -300987.091        3562.444          50.000  
G01  22031125.534     -112397.313        1326.604          50.000  
G23  22258190.890      175928.248       -2089.482          50.000  
G03  24673735.654      252030.696       -3059.952          50.000  
G09  20055301.938       56572.758        -674.068          50.000  
G10  20992278.113      116225.223       -1362.324          50.000  
G11  21046367.592     -199176.637        2255.845          50.000  
G05  23915199.328     -298919.300        3602.737          50.000  
> 2018 02 16 08 21 39.0000000  0  8                     
G30  22330990.344     -304548.998        3561.725          50.000  
G01  22030873.188     -113723.363        1325.849          50.000  
G23  22258588.565      178017.999       -2089.672          50.000  
G03  24674318.041      255091.038       -3060.309          50.000  
G09  20055430.292       57247.226        -674.513          50.000  
G10  20992537.464      117588.040       -1363.009          50.000  
G11  21045938.414     -201431.992        2255.171          50.000  
G05  23914513.801     -302521.747        3602.571          50.000  
> 2018 02 16 08 21 40.0000000  0  8                     
G30  22330312.661     -308110.277        3561.083          50.000  
G01  22030620.985     -115048.729        1325.155          50.000  
G23  22258986.276      180107.925       -2089.876          50.000  
G03  24674900.464      258151.695       -3060.654          50.000  
G09  20055558.716       57922.112        -674.918          50.000  
G10  20992796.940      118951.710       -1363.903          50.000  
G11  21045509.379     -203686.516        2254.281          50.000  
G05  23913828.309     -306124.071        3602.388          50.000  
> 2018 02 16 08 21 41.0000000  0  8                     
G30  22329635.068     -311671.022        3560.522          50.000  
G01  22030368.906     -116373.510        1324.551          50.000  
G23  22259383.987      182197.902       -2089.931          50.000  
G03  24675482.940      261212.541       -3060.853          50.000  
G09  20055687.212       58597.318        -675.311          50.000  
G10  20993056.595      120316.171       -1364.752          50.000  
G11  21045080.504     -205940.268        2253.450          50.000  
G05  23913142.800     -309726.383        3602.357          50.000  
> 2018 02 16 08 21 42.0000000  0  8                     
G30  22328957.564     -315231.354        3560.209          50.000  
G01  22030116.882     -117697.801        1324.110          51.000  
G23  22259781.680      184287.817       -2089.777          50.000  
G03  24676065.417      264273.462       -3060.828          50.000  
G09  20055815.744       59272.715        -675.339          51.000  
G10  20993316.357      121681.272       -1365.615          50.000  
G11  21044651.737     -208193.383        2252.621          50.000  
G05  23912457.308     -313328.772        3602.542          50.000  
> 2018 02 16 08 21 43.0000000  0  8                     
G30  22328280.203     -318790.931        3559.259          50.000  
G01  22029865.036     -119021.256        1323.135          50.000  
G23  22260179.445      186378.009       -2090.240          50.000  
G03  24676647.983      267334.787       -3061.437          50.000  
G09  20055944.383       59948.661        -676.128          50.000  
G10  20993576.351      123047.495       -1366.537          50.000  
G11  21044223.184     -210445.404        2251.686          50.000  
G05  23911771.835     -316930.888        3602.086          50.000  
> 2018 02 16 08 21 44.0000000  0  8                     
G30  22327602.967     -322349.767        3558.701          50.000  
G01  22029613.351     -120343.873        1322.419          50.000  
G23  22260577.245      188468.450       -2090.329          50.000  
G03  24677230.584      270396.480       -3061.642          50.000  
G09  20056073.112       60625.138        -676.500          50.000  
G10  20993836.524      124414.737       -1367.442          50.000  
G11  21043794.828     -212696.405        2250.779          50.000  
G05  23911086.415     -320532.715        3601.909          50.000  
> 2018 02 16 08 21 45.0000000  0  8                     
G30  22326925.820     -325908.152        3558.296          50.000  
G01  22029361.755     -121665.931        1321.905          50.000  
G23  22260975.045      190558.846       -2090.197          50.000  
G03  24677813.222      273458.253       -3061.643          50.000  
G09  20056201.894       61301.848        -676.665          50.000  
G10  20994096.840      125782.739       -1368.178          50.000  
G11  21043366.651     -214946.648        2250.051          50.000  
G05  23910401.013     -324134.549        3601.977          50.000  
> 2018 02 16 08 21 46.0000000  0  8                     
G30  22326248.781     -329466.048        3557.713          50.000  
G01  22029110.302     -122987.384        1321.279          50.000  
G23  22261372.845      192649.240       -2090.335          50.000  
G03  24678395.895      276520.130       -3061.847          50.000  
G09  20056330.712       61978.849        -677.141          50.000  
G10  20994357.317      127151.500       -1369.362          50.000  
G11  21042938.580     -217196.102        2248.775          50.000  
G05  23909715.610     -327736.321        3601.804          50.000  
> 2018 02 16 08 21 47.0000000  0  8                     
G30  22325571.885     -333023.143        3556.799          50.000  
G01  22028859.010     -124307.883        1320.181          50.000  
G23  22261770.699      194739.941       -2090.717          50.000  
G03  24678978.639      279582.422       -3062.373          50.000  
G09  20056459.672       62656.439        -677.767          50.000  
G10  20994618.026      128521.471       -1370.335          50.000  
G11  21042510.760     -219444.342        2247.847          50.000  
G05  23909030.298     -331337.704        3601.308          50.000  
> 2018 02 16 08 21 48.0000000  0  8                     
G30  22324895.077     -336579.766        3556.344          50.000  
G01  22028607.861     -125627.761        1319.584          50.000  
G23  22262168.535      196830.623       -2090.674          50.000  
G03  24679561.384      282644.789       -3062.451          50.000  
G09  20056588.651       63334.309        -678.044          50.000  
G10  20994878.878      129892.260       -1371.185          50.000  
G11  21042083.101     -221691.737        2247.029          50.000  
G05  23908344.985     -334939.005        3601.228          50.000  
> 2018 02 16 08 21 49.0000000  0  8                     
G30  22324218.395     -340135.864        3555.946          50.000  
G01  22028356.819     -126946.939        1318.903          50.000  
G23  22262566.406      198921.337       -2090.656          50.000  
G03  24680144.164      285707.271       -3062.504          50.000  
G09  20056717.701       64012.509        -678.301          50.000  
G10  20995139.873      131263.914       -1372.027          50.000  
G11  21041655.602     -223938.246        2246.199          50.000  
G05  23907659.708     -338540.162        3601.186          50.000  
> 2018 02 16 08 21 50.0000000  0  8                     
G30  22323541.767     -343691.534        3555.583          50.000  
G01  22028105.920     -128265.516        1318.394          50.000  
G23  22262964.242      201011.973       -2090.462          50.000  
G03  24680726.927      288769.755       -3062.313          50.000  
G09  20056846.823       64690.943        -678.411          50.000  
G10  20995401.029      132636.312       -1372.872          50.000  
G11  21041228.247     -226183.976        2245.237          50.000  
G05  23906974.431     -342141.254        3601.197          50.000  
> 2018 02 16 08 21 51.0000000  0  8                     
G30  22322865.246     -347246.681        3554.808          50.000  
G01  22027855.146     -129583.369        1317.434          50.000  
G23  22263362.078      203102.649       -2090.736          50.000  
G03  24681309.725      291832.360       -3062.739          50.000  
G09  20056975.980       65369.721        -678.984          50.000  
G10  20995662.363      134009.707       -1373.871          50.000  
G11  21040801.088     -228428.666        2244.270          50.000  
G05  23906289.207     -345742.156        3600.731          50.000  
> 2018 02 16 08 21 52.0000000  0  8                     
G30  22322188.868     -350801.139        3554.550          50.000  
G01  22027604.551     -130900.307        1316.901          50.000  
G23  22263759.968      205193.536       -2090.571          50.000  
G03  24681892.577      294895.226       -3062.582          51.000  
G09  20057105.244       66049.024        -679.131          50.000  
G10  20995923.912      135384.175       -1374.532          50.000  
G11  21040374.143     -230672.240        2243.515          50.000  
G05  23905604.055     -349342.685        3600.761          50.000  
> 2018 02 16 08 21 53.0000000  0  8                     
G30  22321512.579     -354355.009        3553.676          50.000  
G01  22027354.098     -132216.435        1315.809          50.000  
G23  22264157.857      207284.513       -2090.936          50.000  
G03  24682475.446      297958.244       -3063.016          50.000  
G09  20057234.598       66728.738        -679.802          50.000  
G10  20996185.640      136759.622       -1375.817          50.000  
G11  21039947.395     -232914.800        2242.160          50.000  
G05  23904918.957     -352942.934        3600.174          50.000  
> 2018 02 16 08 21 54.0000000  0  8                     
G30  22320836.379     -357908.479        3553.423          50.000  
G01  22027103.771     -133531.911        1315.281          50.000  
G23  22264555.729      209375.418       -2090.702          50.000  
G03  24683058.316      301021.234       -3062.860          50.000  
G09  20057364.006       67408.699        -679.911          50.000  
G10  20996447.546      138135.829       -1376.621          50.000  
G11  21039520.808     -235156.544        2241.239          50.000  
G05  23904233.877     -356543.060        3600.185          50.000  
> 2018 02 16 08 21 55.0000000  0  8                     
G30  22320160.233     -361461.546        3552.910          50.000  
G01  22026853.587     -134846.718        1314.457          50.000  
G23  22264953.619      211466.258       -2090.824          50.000  
G03  24683641.186      304084.183       -3062.891          50.000  
G09  20057493.449       68088.910        -680.267          50.000  
G10  20996709.595      139512.961       -1377.467          50.000  
G11  21039094.399     -237397.313        2240.462          50.000  
G05  23903548.832     -360143.043        3599.917          50.000  
> 2018 02 16 08 21 56.0000000  0  8                     
G30  22319484.194     -365014.145        3552.283          50.000  
G01  22026603.528     -136160.779        1313.549          50.000  
G23  22265351.490      213557.094       -2090.951          50.000  
G03  24684224.055      307147.162       -3063.060          50.000  
G09  20057622.964       68769.450        -680.747          50.000  
G10  20996971.805      140890.972       -1378.514          50.000  
G11  21038668.170     -239637.145        2239.305          50.000  
G05  23902863.805     -363742.803        3599.552          50.000  
> 2018 02 16 08 21 57.0000000  0  8                     
G30  22318808.299     -368566.017        3551.977          50.000  
G01  22026353.665     -137473.819        1312.987          50.000  
G23  22265749.416      215648.199       -2090.788          50.000  
G03  24684806.979      310210.425       -3062.938          50.000  
G09  20057752.568       69450.590        -680.971          50.000  
G10  20997234.265      142270.149       -1379.250          50.000  
G11  21038242.190     -241875.747        2238.478          50.000  
G05  23902178.903     -367342.054        3599.447          50.000  
> 2018 02 16 08 21 58.0000000  0  8                     
G30  22318132.492     -372117.466        3551.542          50.000  
G01  22026103.946     -138786.123        1312.261          51.000  
G23  22266147.341      217739.279       -2090.774          50.000  
G03  24685389.902      313273.664       -3062.906          50.000  
G09  20057882.243       70132.031        -681.296          50.000  
G10  20997496.869      143650.173       -1380.334          50.000  
G11  21037816.371     -244113.461        2237.352          50.000  
G05  23901494.019     -370941.089        3599.228          50.000  
> 2018 02 16 08 21 59.0000000  0  8                     
G30  22317456.775     -375668.283        3550.755          50.000  
G01  22025854.405     -140097.462        1311.140          50.000  
G23  22266545.302      219830.553       -2091.110          50.000  
G03  24685972.843      316337.092       -3063.256          50.000  
G09  20058012.026       70813.994        -681.938          50.000  
G10  20997759.704      145031.365       -1381.442          50.000  
G11  21037390.785     -246349.927        2236.237          50.000  
G05  23900809.243     -374539.669        3598.613          50.000  
> 2018 02 16 08 22 00.0000000  0  8                     
G30  22316781.165     -379218.645        3550.309          50.000  
G01  22025605.025     -141407.998        1310.338          50.000  
G23  22266943.245      221921.852       -2091.135          50.000  
G03  24686555.802      319400.531       -3063.279          50.000  
G09  20058141.880       71496.319        -682.306          50.000  
G10  20998022.700      146413.474       -1382.383          50.000  
G11  21036965.377     -248585.418        2235.212          50.000  
G05  23900124.502     -378137.957        3598.327          50.000  
> 2018 02 16 08 22 01.0000000  0  8                     
G30  22316105.645     -382768.578        3549.811          50.000  
G01  22025355.788     -142717.745        1309.462          50.000  
G23  22267341.206      224013.161       -2091.183          50.000  
G03  24687138.761      322463.942       -3063.251          50.000  
G09  20058271.788       72178.982        -682.691          50.000  
G10  20998285.893      147796.494       -1383.337          50.000  
G11  21036540.148     -250819.943        2234.167          50.000  
G05  23899439.832     -381735.959        3597.976          50.000  
> 2018 02 16 08 22 02.0000000  0  8                     
G30  22315430.231     -386317.891        3549.131          50.000  
G01  22025106.747     -144026.495        1308.414          50.000  
G23  22267739.221      226104.685       -2091.474          50.000  
G03  24687721.738      325527.539       -3063.521          50.000  
G09  20058401.803       72862.199        -683.370          50.000  
G10  20998549.283      149180.594       -1384.621          50.000  
G11  21036115.151     -253053.329        2232.734          50.000  
G05  23898755.252     -385333.459        3597.388          50.000  
> 2018 02 16 08 22 03.0000000  0  8                     
G30  22314754.889     -389866.824        3548.804          50.000  
G01  22024857.850     -145334.470        1307.697          50.000  
G23  22268137.217      228196.195       -2091.421          50.000  
G03  24688304.715      328591.070       -3063.422          50.000  
G09  20058531.871       73545.730        -683.627          50.000  
G10  20998812.833      150565.622       -1385.380          50.000  
G11  21035690.351     -255285.706        2232.035          50.000  
G05  23898070.708     -388930.687        3597.152          50.000  
> 2018 02 16 08 22 04.0000000  0  8                     
G30  22314079.619     -393415.442        3548.580          50.000  
G01  22024609.095     -146641.719        1307.010          50.000  
G23  22268535.196      230287.639       -2091.298          50.000  
G03  24688887.674      331654.477       -3063.238          50.000  
G09  20058662.012       74229.530        -683.819          50.000  
G10  20999076.562      151951.473       -1386.130          50.000  
G11  21035265.729     -257517.199        2231.170          50.000  
G05  23897386.235     -392527.681        3596.986          50.000  
> 2018 02 16 08 22 05.0000000  0  8                     
G30  22313404.402     -396963.708        3548.203          50.000  
G01  22024360.483     -147948.193        1306.190          50.000  
G23  22268933.175      232379.065       -2091.293          51.000  
G03  24689470.615      334717.790       -3063.129          50.000  
G09  20058792.187       74913.642        -684.108          50.000  
G10  20999340.451      153338.183       -1387.003          50.000  
G11  21034841.268     -259747.783        2230.300          50.000  
G05  23896701.798     -396124.397        3596.730          50.000  
> 2018 02 16 08 22 06.0000000  0  8                     
G30  22312729.257     -400511.585        3548.028          50.000  
G01  22024112.014     -149253.849        1305.629          50.000  
G23  22269331.172      234470.522       -2091.060          50.000  
G03  24690053.538      337781.059       -3062.887          50.000  
G09  20058922.435       75598.127        -684.298          50.000  
G10  20999604.484      154725.772       -1387.740          50.000  
G11  21034416.968     -261977.425        2229.413          50.000  
G05  23896017.432     -399720.767        3596.542          50.000  
> 2018 02 16 08 22 07.0000000  0  8                     
G30  22312054.201     -404059.093        3547.103          50.000  
G01  22023863.724     -150558.671        1304.192          50.000  
G23  22269729.169      236562.022       -2091.725          50.000  
G03  24690636.444      340844.273       -3063.399          50.000  
G09  20059052.753       76282.974        -685.229          50.000  
G10  20999868.713      156114.316       -1389.196          50.000  
G11  21033992.901     -264206.048        2227.978          50.000  
G05  23895333.120     -403316.799        3595.632          50.000  
> 2018 02 16 08 22 08.0000000  0  8                     
G30  22311379.216     -407606.170        3547.047          50.000  
G01  22023615.595     -151862.600        1303.646          50.000  
G23  22270127.183      238653.626       -2091.480          50.000  
G03  24691219.367      343907.493       -3063.104          50.000  
G09  20059183.162       76968.265        -685.347          50.000  
G10  21000133.121      157503.810       -1389.824          50.000  
G11  21033569.012     -266433.668        2227.288          50.000  
G05  23894648.897     -406912.410        3595.556          50.000  
> 2018 02 16 08 22 09.0000000  0  8                     
G30  22310704.303     -411152.831        3546.697          50.000  
G01  22023367.627     -153165.634        1302.855          50.000  
G23  22270525.234      240745.338       -2091.517          50.000  
G03  24691802.272      346970.698       -3062.932          50.000  
G09  20059313.659       77653.981        -685.679          50.000  
G10  21000397.708      158894.245       -1390.690          50.000  
G11  21033145.284     -268660.278        2226.381          50.000  
G05  23893964.764     -410507.607        3595.220          50.000  
> 2018 02 16 08 22 10.0000000  0  8                     
G30  22310029.462     -414699.248        3546.440          50.000  
G01  22023119.819     -154467.931        1302.079          50.000  
G23  22270923.248      242837.000       -2091.492          50.000  
G03  24692385.142      350033.740       -3062.823          50.000  
G09  20059444.192       78339.980        -686.006          50.000  
G10  21000662.437      160285.446       -1391.509          50.000  
G11  21032721.734     -270886.091        2225.525          50.000  
G05  23893280.666     -414102.540        3594.924          50.000  
> 2018 02 16 08 22 11.0000000  0  8                     
G30  22309354.674     -418245.206        3546.022          49.000  
G01  22022872.190     -155769.261        1301.087          49.000  
G23  22271321.316      244928.848       -2091.632          50.000  
G03  24692968.030      353096.834       -3062.869          50.000  
G09  20059574.815       79026.488        -686.512          50.000  
G10  21000927.364      161677.687       -1392.477          50.000  
G11  21032298.381     -273110.802        2224.495          50.000  
G05  23892596.675     -417696.982        3594.463          50.000  
> 2018 02 16 08 22 12.0000000  0  8                     
G30  22308679.940     -421790.869        3545.414          50.000  
G01  22022624.686     -157069.790        1300.048          50.000  
G23  22271719.402      247020.738       -2092.016          50.000  
G03  24693550.899      356159.821       -3063.107          50.000  
G09  20059705.527       79713.352        -687.160          50.000  
G10  21001192.451      163070.763       -1393.647          50.000  
G11  21031875.189     -275334.630        2223.215          50.000  
G05  23891912.756     -421291.079        3593.833          50.000  
> 2018 02 16 08 22 13.0000000  0  8                     
G30  22308005.259     -425336.256        3545.339          50.000  
G01  22022377.361     -158369.502        1299.408          50.000  
G23  22272117.471      249112.664       -2091.848          50.000  
G03  24694133.769      359222.687       -3062.732          50.000  
G09  20059836.292       80400.571        -687.310          50.000  
G10  21001457.716      164464.664       -1394.236          50.000  
G11  21031452.194     -277557.599        2222.621          50.000  
G05  23891228.873     -424884.835        3593.685          50.000  
> 2018 02 16 08 22 14.0000000  0  8                     
G30  22307330.614     -428881.427        3545.038          50.000  
G01  22022130.161     -159668.463        1298.539          50.000  
G23  22272515.557      251204.587       -2091.940          50.000  
G03  24694716.585      362285.387       -3062.650          50.000  
G09  20059967.111       81088.093        -687.667          50.000  
G10  21001723.107      165859.316       -1395.047          50.000  
G11  21031029.323     -279779.778        2221.718          50.000  
G05  23890545.061     -428478.295        3593.233          50.000  
> 2018 02 16 08 22 15.0000000  0  8                     
G30  22306656.058     -432426.192        3544.606          50.000  
G01  22021883.158     -160966.473        1297.596          50.000  
G23  22272913.679      253296.715       -2092.203          50.000  
G03  24695299.401      365348.118       -3062.695          50.000  
G09  20060098.056       81776.133        -688.222          50.000  
G10  21001988.676      167254.944       -1396.067          50.000  
G11  21030606.649     -282000.954        2220.707          50.000  
G05  23889861.339     -432071.266        3592.803          50.000  
> 2018 02 16 08 22 16.0000000  0  8                     
G30  22305981.556     -435970.646        3544.512          50.000  
G01  22021636.333     -162263.612        1296.929          50.000  
G23  22273311.818      255388.966       -2092.097          50.000  
G03  24695882.199      368410.791       -3062.386          50.000  
G09  20060229.071       82464.605        -688.447          50.000  
G10  21002254.424      168651.446       -1396.751          50.000  
G11  21030184.154     -284221.219        2219.973          50.000  
G05  23889177.706     -435663.824        3592.599          50.000  
> 2018 02 16 08 22 17.0000000  0  8                     
G30  22305307.144     -439514.745        3544.259          50.000  
G01  22021389.669     -163559.827        1296.065          50.000  
G23  22273709.994      257481.404       -2092.213          50.000  
G03  24696465.015      371473.466       -3062.352          50.000  
G09  20060360.176       83153.561        -688.839          50.000  
G10  21002520.351      170048.831       -1397.495          50.000  
G11  21029761.820     -286440.583        2219.247          50.000  
G05  23888494.162     -439255.911        3592.193          50.000  
> 2018 02 16 08 22 18.0000000  0  8                     
G30  22304632.785     -443058.556        3543.821          50.000  
G01  22021143.148     -164855.181        1295.040          50.000  
G23  22274108.205      259573.979       -2092.461          50.000  
G03  24697047.813      374536.082       -3062.436          50.000  
G09  20060491.371       83842.955        -689.387          50.000  
G10  21002786.421      171447.064       -1398.407          50.000  
G11  21029339.664     -288659.090        2218.340          50.000  
G05  23887810.690     -442847.588        3591.615          49.000  
> 2018 02 16 08 22 19.0000000  0  8                     
G30  22303958.479     -446602.078        3543.609          50.000  
G01  22020896.823     -166149.668        1294.284          50.000  
G23  22274506.434      261666.725       -2092.617          50.000  
G03  24697630.594      377598.648       -3062.311          50.000  
G09  20060622.654       84532.809        -689.883          50.000  
G10  21003052.669      172846.125       -1399.317          50.000  
G11  21028917.651     -290876.742        2217.360          50.000  
G05  23887127.289     -446438.844        3591.224          50.000  
> 2018 02 16 08 22 20.0000000  0  8                     
G30  22303284.210     -450145.464        3543.548          50.000  
G01  22020650.642     -167443.426        1293.648          50.000  
G23  22274904.681      263759.487       -2092.526          50.000  
G03  24698213.356      380661.026       -3062.052          50.000  
G09  20060753.974       85222.966        -690.074          50.000  
G10  21003319.025      174245.884       -1399.874          50.000  
G11  21028495.782     -293093.709        2216.820          50.000  
G05  23886443.942     -450029.829        3591.087          50.000  
> 2018 02 16 08 22 21.0000000  0  8                     
G30  22302609.976     -453688.537        3542.000          50.000  
G01  22020404.621     -168736.284        1292.561          50.000  
G23  22275302.964      265852.477       -2092.972          50.000  
G03  24698796.101      383723.399       -3062.232          50.000  
G09  20060885.400       85913.625        -690.777          50.000  
G10  21003585.559      175646.501       -1400.906          50.000  
G11  21028074.073     -295309.807        2215.773          50.000  
G05  23885760.684     -453620.349        3590.387          50.000  
> 2018 02 16 08 22 22.0000000  0  8                     
G30  22301935.813     -457231.267        3542.590          50.000  
G01  22020158.779     -170028.192        1291.492          50.000  
G23  22275701.282      267945.732       -2093.333          50.000  
G03  24699378.863      386785.819       -3062.416          50.000  
G09  20061016.934       86604.827        -691.412          50.000  
G10  21003852.255      177047.998       -1401.748          50.000  
G11  21027652.525     -297525.042        2215.057          50.000  
G05  23885077.534     -457210.373        3589.806          50.000  
> 2018 02 16 08 22 23.0000000  0  8                     
G30  22301261.704     -460773.706        3542.605          50.000  
G01  22019913.116     -171319.206        1290.889          50.000  
G23  22276099.672      270039.229       -2093.323          50.000  
G03  24699961.643      389848.239       -3062.104          50.000  
G09  20061148.558       87296.542        -691.635          50.000  
G10  21004119.111      178450.314       -1402.447          50.000  
G11  21027231.119     -299739.478        2214.311          50.000  
G05  23884394.454     -460799.947        3589.662          50.000  
> 2018 02 16 08 22 24.0000000  0  8                     
G30  22300587.649     -464315.941        3542.295          50.000  
G01  22019667.595     -172609.406        1289.904          50.000  
G23  22276498.080      272132.890       -2093.612          50.000  
G03  24700544.370      392910.586       -3062.196          50.000  
G09  20061280.270       87988.687        -692.215          50.000  
G10  21004386.110      179853.382       -1403.336          50.000  
G11  21026809.875     -301953.175        2213.413          50.000  
G05  23883711.465     -464389.146        3589.131          50.000  
> 2018 02 16 08 22 25.0000000  0  8                     
G30  22299913.594     -467858.090        3542.195          50.000  
G01  22019422.236     -173898.920        1289.221          50.000  
G23  22276896.505      274226.617       -2093.681          50.000  
G03  24701127.079      395972.746       -3061.994          50.000  
G09  20061412.036       88681.154        -692.571          50.000  
G10  21004653.216      181257.052       -1403.925          50.000  
G11  21026388.738     -304166.302        2212.884          50.000  
G05  23883028.511     -467978.094        3588.867          50.000  
> 2018 02 16 08 22 26.0000000  0  8                     
G30  22299239.574     -471400.041        3542.077          50.000  
G01  22019177.001     -175187.624        1288.513          50.000  
G23  22277294.967      276320.544       -2093.807          50.000  
G03  24701709.788      399034.858       -3061.909          50.000  
G09  20061543.910       89374.069        -692.934          50.000  
G10  21004920.465      182661.450       -1404.374          50.000  
G11  21025967.726     -306378.731        2212.549          50.000  
G05  23882345.628     -471566.676        3588.598          50.000  
> 2018 02 16 08 22 27.0000000  0  8                     
G30  22298565.590     -474941.855        3541.948          50.000  
G01  22018931.910     -176475.581        1287.800          50.000  
G23  22277693.446      278414.621       -2093.945          50.000  
G03  24702292.479      402096.864       -3061.793          50.000  
G09  20061675.837       90067.378        -693.317          50.000  
G10  21005187.839      184066.476       -1405.234          50.000  
G11  21025546.839     -308590.594        2211.641          50.000  
G05  23881662.817     -475154.947        3588.271          50.000  
> 2018 02 16 08 22 28.0000000  0  8                     
G30  22297891.606     -478483.579        3541.663          50.000  
G01  22018686.943     -177762.835        1286.920          50.000  
G23  22278091.961      280508.826       -2094.312          50.000  
G03  24702875.116      405158.730       -3061.820          50.000  
G09  20061807.835       90761.052        -693.865          50.000  
G10  21005455.338      185472.113       -1405.955          50.000  
G11  21025126.041     -310801.894        2210.942          50.000  
G05  23880980.042     -478742.956        3587.835          50.000  
> 2018 02 16 08 22 29.0000000  0  8                     
G30  22297217.694     -482025.069        3541.430          50.000  
G01  22018442.156     -179049.243        1286.053          50.000  
G23  22278490.529      282603.308       -2094.563          50.000  
G03  24703457.771      408220.616       -3061.832          50.000  
G09  20061939.923       91455.235        -694.319          50.000  
G10  21005722.963      186878.484       -1406.613          50.000  
G11  21024705.369     -313012.521        2210.356          50.000  
G05  23880297.338     -482330.560        3587.448          50.000  
> 2018 02 16 08 22 30.0000000  0  8                     
G30  22296543.764     -485566.496        3541.441          50.000  
G01  22018197.511     -180334.975        1285.389          50.000  
G23  22278889.134      284697.925       -2094.660          50.000  
G03  24704040.409      411282.360       -3061.601          50.000  
G09  20062072.100       92149.778        -694.669          50.000  
G10  21005990.676      188285.430       -1406.979          50.000  
G11  21024284.821     -315222.625        2210.182          50.000  
G05  23879614.687     -485917.926        3587.261          50.000  
> 2018 02 16 08 22 31.0000000  0  8                     
G30  22295869.923     -489107.663        3541.369          50.000  
G01  22017953.009     -181619.844        1284.725          50.000  
G23  22279287.791      286792.883       -2094.803          50.000  
G03  24704623.046      414344.185       -3061.512          50.000  
G09  20062204.367       92844.882        -695.008          50.000  
G10  21006258.551      189693.088       -1407.717          50.000  
G11  21023864.363     -317432.119        2209.379          50.000  
G05  23878932.126     -489504.863        3587.069          50.000  
> 2018 02 16 08 22 32.0000000  0  8                     
G30  22295196.082     -492648.684        3541.132          50.000  
G01  22017708.650     -182903.966        1283.953          50.000  
G23  22279686.485      288888.083       -2095.129          50.000  
G03  24705205.701      417405.979       -3061.588          50.000  
G09  20062336.740       93540.441        -695.601          50.000  
G10  21006526.533      191101.383       -1408.441          50.000  
G11  21023444.012     -319641.061        2208.795          50.000  
G05  23878249.619     -493091.487        3586.641          50.000  
> 2018 02 16 08 22 33.0000000  0  8                     
G30  22294522.295     -496189.489        3540.705          50.000  
G01  22017464.434     -184187.274        1282.911          50.000  
G23  22280085.268      290983.612       -2095.701          50.000  
G03  24705788.357      420467.823       -3061.869          50.000  
G09  20062469.203       94236.529        -696.358          50.000  
G10  21006794.639      192510.351       -1409.381          50.000  
G11  21023023.786     -321849.412        2208.027          50.000  
G05  23877567.165     -496677.735        3586.114          50.000  
> 2018 02 16 08 22 34.0000000  0  8                     
G30  22293848.543     -499730.023        3540.621          50.000  
G01  22017220.397     -185469.710        1282.267          50.000  
G23  22280484.087      293079.541       -2095.890          50.000  
G03  24706371.030      423529.795       -3061.803          50.000  
G09  20062601.792       94933.219        -696.782          50.000  
G10  21007062.907      193920.074       -1409.683          50.000  
G11  21022603.686     -324057.086        2207.977          50.000  
G05  23876884.819     -500263.543        3585.828          50.000  
> 2018 02 16 08 22 35.0000000  0  8                     
G30  22293174.846     -503270.322        3540.182          50.000  
G01  22016976.520     -186751.322        1281.189          50.000  
G23  22280882.995      295175.843       -2096.519          50.000  
G03  24706953.721      426591.866       -3062.133          50.000  
G09  20062734.469       95630.465        -697.559          50.000  
G10  21007331.264      195330.435       -1410.806          50.000  
G11  21022183.656     -326264.278        2206.776          50.000  
G05  23876202.544     -503848.978        3585.235          50.000  
> 2018 02 16 08 22 36.0000000  0  8                     
G30  22292501.183     -506810.516        3540.278          50.000  
G01  22016732.769     -188032.251        1280.734          50.000  
G23  22281281.957      297272.400       -2096.554          50.000  
G03  24707536.412      429653.916       -3061.966          50.000  
G09  20062867.236       96328.154        -697.827          50.000  
G10  21007599.764      196741.346       -1411.048          50.000  
G11  21021763.734     -328471.012        2206.525          50.000  
G05  23875520.304     -507434.161        3585.157          50.000  
> 2018 02 16 08 22 37.0000000  0  8                     
G30  22291827.521     -510350.562        3539.977          50.000  
G01  22016489.161     -189312.451        1279.853          50.000  
G23  22281680.990      299369.274       -2097.044          50.000  
G03  24708119.103      432716.001       -3062.091          50.000  
G09  20063000.092       97026.326        -698.404          50.000  
G10  21007868.353      198152.841       -1411.812          50.000  
G11  21021343.902     -330677.292        2206.001          50.000  
G05  23874838.101     -511019.063        3584.758          50.000  
> 2018 02 16 08 22 38.0000000  0  8                     
G30  22291153.895     -513890.573        3540.181          50.000  
G01  22016245.660     -190592.052        1279.491          50.000  
G23  22282080.059      301466.354       -2097.047          50.000  
G03  24708701.794      435778.028       -3061.849          50.000  
G09  20063133.020       97724.886        -698.599          50.000  
G10  21008137.032      199564.812       -1411.862          50.000  
G11  21020924.123     -332883.207        2206.348          50.000  
G05  23874155.951     -514603.801        3584.815          50.000  
> 2018 02 16 08 22 39.0000000  0  8                     
G30  22290480.286     -517430.447        3539.897          50.000  
G01  22016002.283     -191870.955        1278.659          50.000  
G23  22282479.181      303563.759       -2097.444          50.000  
G03  24709284.485      438840.106       -3062.039          50.000  
G09  20063266.037       98423.930        -699.200          50.000  
G10  21008405.800      200977.259       -1412.649          50.000  
G11  21020504.397     -335088.825        2205.404          50.000  
G05  23873473.855     -518188.279        3584.377          50.000  
> 2018 02 16 08 22 40.0000000  0  8                     
G30  22289806.731     -520969.983        3539.333          50.000  
G01  22015759.104     -193148.967        1277.520          50.000  
G23  22282878.411      305661.698       -2098.224          50.000  
G03  24709867.229      441902.450       -3062.540          50.000  
G09  20063399.179       99123.662        -700.135          50.000  
G10  21008674.729      202390.472       -1413.671          50.000  
G11  21020084.779     -337293.825        2204.547          50.000  
G05  23872791.830     -521772.319        3583.742          50.000  
> 2018 02 16 08 22 41.0000000  0  8                     
G30  22289133.194     -524509.405        3539.522          50.000  
G01  22015516.032     -194426.329        1277.188          50.000  
G23  22283277.694      307759.961       -2098.250          50.000  
G03  24710449.992      444964.846       -3062.303          50.000  
G09  20063532.428       99823.863        -700.244          50.000  
G10  21008943.747      203804.174       -1413.826          50.000  
G11  21019665.250     -339498.481        2204.569          50.000  
G05  23872109.859     -525356.150        3583.849          50.000  
> 2018 02 16 08 22 42.0000000  0  8                     
G30  22288459.675     -528048.753        3539.308          50.000  
G01  22015273.066     -195703.088        1276.462          50.000  
G23  22283677.031      309858.502       -2098.629          50.000  
G03  24711032.754      448027.265       -3062.493          50.000  
G09  20063665.749      100524.492        -700.816          50.000  
G10  21009212.854      205218.338       -1414.150          50.000  
G11  21019245.793     -341702.807        2204.694          50.000  
G05  23871427.905     -528939.830        3583.633          50.000  
> 2018 02 16 08 22 43.0000000  0  8                     
G30  22287786.192     -531587.969        3539.239          50.000  
G01  22015030.226     -196979.189        1275.854          50.000  
G23  22284076.439      311957.412       -2099.023          50.000  
G03  24711615.516      451089.777       -3062.474          50.000  
G09  20063799.177      101225.619        -701.256          50.000  
G10  21009482.033      206632.935       -1414.829          50.000  
G11  21018826.371     -343906.925        2203.915          50.000  
G05  23870746.005     -532523.297        3583.475          50.000  
> 2018 02 16 08 22 44.0000000  0  8                     
G30  22287112.744     -535126.939        3538.962          50.000  
G01  22014787.547     -198254.544        1275.112          50.000  
G23  22284475.937      314056.785       -2099.505          50.000  
G03  24712198.333      454152.506       -3062.689          50.000  
G09  20063932.694      101927.340        -701.886          50.000  
G10  21009751.337      208048.141       -1415.455          50.000  
G11  21018407.038     -346110.601        2203.469          50.000  
G05  23870064.141     -536106.470        3583.213          50.000  
> 2018 02 16 08 22 45.0000000  0  8                     
G30  22286439.314     -538665.818        3538.885          50.000  
G01  22014544.957     -199529.315        1274.563          50.000  
G23  22284875.489      316156.481       -2099.813          50.000  
G03  24712781.184      457215.310       -3062.760          50.000  
G09  20064066.319      102629.514        -702.345          50.000  
G10  21010020.713      209463.773       -1415.811          50.000  
G11  21017987.742     -348314.031        2203.329          50.000  
G05  23869382.313     -539689.505        3583.022          50.000  
> 2018 02 16 08 22 46.0000000  0  8                     
G30  22285765.938     -542204.436        3538.379          50.000  
G01  22014302.528     -200803.340        1273.591          50.000  
G23  22285275.129      318256.678       -2100.539          50.000  
G03  24713364.054      460278.371       -3063.287          50.000  
G09  20064200.051      103332.306        -703.210          50.000  
G10  21010290.213      210880.019       -1416.444          50.000  
G11  21017568.552     -350516.997        2203.153          50.000  
G05  23868700.538     -543272.255        3582.510          50.000  
> 2018 02 16 08 22 47.0000000  0  8                     
G30  22285092.597     -545742.927        3538.485          50.000  
G01  22014060.207     -202076.758        1273.142          50.000  
G23  22285674.859      320357.249       -2100.719          50.000  
G03  24713946.977      463341.566       -3063.244          50.000  
G09  20064333.890      104035.581        -703.470          50.000  
G10  21010559.768      212296.640       -1416.848          50.000  
G11  21017149.363     -352719.863        2202.660          50.000  
G05  23868018.781     -546854.861        3582.565          50.000  
> 2018 02 16 08 22 48.0000000  0  8                     
G30  22284419.292     -549281.207        3538.241          50.000  
G01  22013818.010     -203349.526        1272.525          50.000  
G23  22286074.679      322458.269       -2101.164          50.000  
G03  24714529.918      466404.973       -3063.469          50.000  
G09  20064467.818      104739.410        -704.007          50.000  
G10  21010829.447      213713.774       -1417.327          50.000  
G11  21016730.245     -354922.392        2202.355          50.000  
G05  23867337.060     -550437.270        3582.357          50.000  
> 2018 02 16 08 22 49.0000000  0  8                     
G30  22283746.005     -552819.350        3538.296          50.000  
G01  22013575.920     -204621.708        1272.112          50.000  
G23  22286474.552      324559.680       -2101.414          50.000  
G03  24715112.895      469468.545       -3063.472          50.000  
G09  20064601.836      105443.731        -704.336          50.000  
G10  21011099.198      215131.336       -1417.560          50.000  
G11  21016311.181     -357124.711        2202.384          50.000  
G05  23866655.375     -554019.567        3582.480          50.000  
> 2018 02 16 08 22 50.0000000  0  8                     
G30  22283072.772     -556357.276        3538.116          50.000  
G01  22013333.956     -205893.251        1271.570          50.000  
G23  22286874.532      326661.545       -2101.786          50.000  
G03  24715695.908      472532.356       -3063.650          50.000  
G09  20064735.978      106148.608        -704.818          50.000  
G10  21011369.056      216549.408       -1417.818          50.000  
G11  21015892.152     -359326.681        2202.679          50.000  
G05  23865973.725     -557601.683        3582.372          50.000  
> 2018 02 16 08 22 51.0000000  0  8                     
G30  22282399.575     -559894.944        3537.569          50.000  
G01  22013092.134     -207164.121        1270.596          50.000  
G23  22287274.601      328763.926       -2102.614          50.000  
G03  24716278.992      475596.467       -3064.239          50.000  
G09  20064870.228      106854.093        -705.753          50.000  
G10  21011638.985      217967.945       -1418.790          50.000  
G11  21015473.159     -361528.499        2201.556          50.000  
G05  23865292.111     -561183.600        3581.852          50.000  
> 2018 02 16 08 22 52.0000000  0  8                     
G30  22281726.395     -563432.523        3537.511          50.000  
G01  22012850.384     -208434.507        1270.154          50.000  
G23  22287674.725      330866.642       -2102.894          50.000  
G03  24716862.094      478660.702       -3064.292          50.000  
G09  20065004.550      107559.992        -706.125          50.000  
G10  21011908.986      219386.819       -1419.145          50.000  
G11  21015054.184     -363730.179        2201.530          50.000  
G05  23864610.480     -564765.497        3581.946          50.000  
> 2018 02 16 08 22 53.0000000  0  8                     
G30  22281053.251     -566969.915        3537.443          50.000  
G01  22012608.742     -209704.323        1269.650          50.000  
G23  22288074.955      332969.785       -2103.213          50.000  
G03  24717445.249      481725.180       -3064.466          50.000  
G09  20065138.978      108266.409        -706.528          50.000  
G10  21012179.076      220806.126       -1419.387          50.000  
G11  21014635.281     -365931.652        2201.459          50.000  
G05  23863928.884     -568347.310        3581.894          50.000  
> 2018 02 16 08 22 54.0000000  0  8                     
G30  22280380.161     -570506.993        3537.047          50.000  
G01  22012367.224     -210973.465        1268.939          50.000  
G23  22288475.275      335073.489       -2103.870          50.000  
G03  24718028.477      484790.025       -3064.920          50.000  
G09  20065273.532      108973.464        -707.273          50.000  
G10  21012449.292      222225.996       -1419.832          50.000  
G11  21014216.431     -368132.740        2201.506          50.000  
G05  23863247.323     -571928.920        3581.579          50.000  
> 2018 02 16 08 22 55.0000000  0  8                     
G30  22279707.106     -574043.926        3536.923          50.000  
G01  22012125.795     -212242.110        1268.467          50.000  
G23  22288875.666      337177.576       -2104.215          50.000  
G03  24718611.739      487855.073       -3065.092          50.000  
G09  20065408.175      109680.969        -707.644          50.000  
G10  21012719.525      223646.147       -1420.291          50.000  
G11  21013797.563     -370333.881        2200.987          50.000  
G05  23862565.763     -575510.520        3581.689          51.000  
> 2018 02 16 08 22 56.0000000  0  8                     
G30  22279034.087     -577580.637        3536.777          50.000  
G01  22011884.492     -213510.205        1268.048          50.000  
G23  22289276.146      339282.115       -2104.574          50.000  
G03  24719195.056      490920.406       -3065.253          50.000  
G09  20065542.908      110389.006        -708.091          50.000  
G10  21012989.865      225066.731       -1420.591          50.000  
G11  21013378.731     -372534.806        2200.908          50.000  
G05  23861884.203     -579092.051        3581.725          50.000  
> 2018 02 16 08 22 57.0000000  0  8                     
G30  22278361.140     -581117.061        3536.547          50.000  
G01  22011643.296     -214777.690        1267.486          50.000  
G23  22289676.734      341387.178       -2105.004          50.000  
G03  24719778.426      493986.102       -3065.584          50.000  
G09  20065677.765      111097.634        -708.644          50.000  
G10  21013260.295      226487.811       -1421.027          50.000  
G11  21012959.971     -374735.492        2200.805          50.000  
G05  23861202.696     -582673.460        3581.603          50.000  
> 2018 02 16 08 22 58.0000000  0  8                     
G30  22277688.228     -584653.243        3536.028          50.000  
G01  22011402.207     -216044.635        1266.667          50.000  
G23  22290077.411      343492.702       -2105.747          50.000  
G03  24720361.885      497052.109       -3066.173          50.000  
G09  20065812.712      111806.785        -709.407          50.000  
G10  21013530.797      227909.321       -1421.553          50.000  
G11  21012541.246     -376935.924        2200.791          50.000  
G05  23860521.207     -586254.827        3581.326          50.000  
> 2018 02 16 08 22 59.0000000  0  8                     
G30  22277015.334     -588189.285        3535.899          50.000  
G01  22011161.190     -217311.158        1266.300          50.000  
G23  22290478.142      345598.587       -2106.137          50.000  
G03  24720945.362      500118.332       -3066.388          50.000  
G09  20065947.748      112516.357        -709.787          50.000  
G10  21013801.351      229331.089       -1421.959          50.000  
G11  21012122.503     -379136.453        2200.277          50.000  
G05  23859839.665     -589836.263        3581.387          50.000  
> 2018 02 16 08 23 00.0000000  0  8                     
G30  22276342.494     -591725.032        3535.725          50.000  
G01  22010920.298     -218577.109        1265.780          50.000  
G23  22290878.980      347704.969       -2106.499          50.000  
G03  24721528.911      503184.932       -3066.679          50.000  
G09  20066082.874      113226.498        -710.293          50.000  
G10  21014071.996      230753.321       -1422.339          50.000  
G11  21011703.814     -381336.757        2200.232          50.000  
G05  23859158.158     -593417.634        3581.447          50.000  
> 2018 02 16 08 23 01.0000000  0  8                     
G30  22275669.743     -595260.344        3535.170          50.000  
G01  22010679.530     -219842.383        1264.959          50.000  
G23  22291279.943      349811.987       -2107.283          50.000  
G03  24722112.567      506252.036       -3067.290          50.000  
G09  20066218.160      113937.327        -711.099          50.000  
G10  21014342.765      232176.130       -1423.072          50.000  
G11  21011285.179     -383536.737        2199.841          50.000  
G05  23858476.687     -596998.825        3581.161          50.000  
> 2018 02 16 08 23 02.0000000  0  8                     
G30  22274997.028     -598795.469        3535.396          50.000  
G01  22010438.835     -221107.240        1265.057          50.000  
G23  22291680.960      351919.379       -2107.187          50.000  
G03  24722696.276      509319.407       -3067.091          50.000  
G09  20066353.500      114648.587        -711.077          50.000  
G10  21014613.588      233599.274       -1422.818          50.000  
G11  21010866.543     -385736.569        2200.596          50.000  
G05  23857795.181     -600580.101        3581.658          50.000  
> 2018 02 16 08 23 03.0000000  0  8                     
G30  22274324.349     -602330.407        3534.949          50.000  
G01  22010198.228     -222371.682        1264.369          50.000  
G23  22292082.048      354027.139       -2107.851          50.000  
G03  24723280.022      512387.054       -3067.680          50.000  
G09  20066488.929      115360.271        -711.765          50.000  
G10  21014884.446      235022.686       -1423.418          50.000  
G11  21010447.925     -387936.493        2199.891          50.000  
G05  23857113.674     -604161.476        3581.458          50.000  
> 2018 02 16 08 23 04.0000000  0  8                     
G30  22273651.759     -605864.935        3534.379          50.000  
G01  22009957.729     -223635.510        1263.562          50.000  
G23  22292483.243      356135.477       -2108.590          50.000  
G03  24723863.874      515455.185       -3068.321          50.000  
G09  20066624.484      116072.592        -712.564          50.000  
G10  21015155.412      236446.642       -1424.124          50.000  
G11  21010029.361     -390136.120        2199.461          50.000  
G05  23856432.185     -607742.758        3581.251          51.000  
> 2018 02 16 08 23 05.0000000  0  8                     
G30  22272979.186     -609399.335        3534.140          50.000  
G01  22009717.301     -224899.031        1263.220          50.000  
G23  22292884.492      358244.097       -2108.953          50.000  
G03  24724447.762      518523.522       -3068.649          50.000  
G09  20066760.092      116785.246        -712.977          50.000  
G10  21015426.432      237870.837       -1424.488          50.000  
G11  21009610.762     -392335.755        2199.425          50.000  
G05  23855750.643     -611324.245        3581.434          50.000  
> 2018 02 16 08 23 06.0000000  0  8                     
G30  22272306.650     -612933.522        3534.007          50.000  
G01  22009476.927     -226162.158        1262.862          50.000  
G23  22293285.812      360353.071       -2109.224          50.000  
G03  24725031.704      521592.147       -3068.858          50.000  
G09  20066895.789      117498.313        -713.334          50.000  
G10  21015697.505      239295.358       -1424.689          50.000  
G11  21009192.216     -394535.264        2199.821          50.000  
G05  23855069.083     -614905.865        3581.638          50.000  
> 2018 02 16 08 23 07.0000000  0  8                     
G30  22271634.203     -616467.297        3533.678          50.000  
G01  22009236.678     -227424.724        1262.426          50.000  
G23  22293687.240      362462.590       -2109.662          50.000  
G03  24725615.735      524661.258       -3069.237          50.000  
G09  20067031.594      118211.979        -713.857          50.000  
G10  21015968.685      240720.352       -1425.104          50.000  
G11  21008773.669     -396734.667        2199.279          50.000  
G05  23854387.558     -618487.436        3581.646          50.000  
> 2018 02 16 08 23 08.0000000  0  8                     
G30  22270961.774     -620000.931        3533.431          50.000  
G01  22008996.465     -228687.002        1262.043          50.000  
G23  22294088.721      364572.363       -2110.018          50.000  
G03  24726199.820      527730.580       -3069.529          50.000  
G09  20067167.452      118925.951        -714.234          50.000  
G10  21016239.901      242145.569       -1425.432          50.000  
G11  21008355.141     -398934.072        2199.232          50.000  
G05  23853705.944     -622069.256        3581.799          50.000  
> 2018 02 16 08 23 10.0000000  0  8                     
G30  22269617.183     -627066.859        3532.936          50.000  
G01  22008516.414     -231209.853        1261.285          50.000  
G23  22294891.969      368793.543       -2110.712          50.000  
G03  24727368.240      533870.761       -3070.153          50.000  
G09  20067439.526      120355.702        -714.992          50.000  
G10  21016782.637      244997.614       -1426.133          50.000  
G11  21007518.246     -403331.983        2199.442          50.000  
G05  23852342.770     -629232.790        3582.203          50.000  
> 2018 02 16 08 23 11.0000000  0  8                     
G30  22268944.951     -630599.410        3532.465          50.000  
G01  22008276.486     -232470.707        1260.725          50.000  
G23  22295293.701      370904.659       -2111.234          50.000  
G03  24727952.557      536941.357       -3070.724          50.000  
G09  20067575.688      121071.198        -715.657          50.000  
G10  21017054.103      246424.135       -1426.613          50.000  
G11  21007099.807     -405530.887        2198.844          50.000  
G05  23851661.138     -632814.790        3582.137          50.000  
> 2018 02 16 08 23 12.0000000  0  8                     
G30  22268272.825     -634131.506        3532.059          50.000  
G01  22008036.648     -233731.027        1260.213          50.000  
G23  22295695.521      373016.280       -2111.709          50.000  
G03  24728536.963      540012.446       -3071.130          50.000  
G09  20067711.939      121787.249        -716.125          50.000  
G10  21017325.659      247851.173       -1427.095          50.000  
G11  21006681.421     -407729.509        2198.627          50.000  
G05  23850979.507     -636396.794        3582.171          50.000  
> 2018 02 16 08 23 13.0000000  0  8                     
G30  22267600.771     -637663.242        3531.705          50.000  
G01  22007796.900     -234990.911        1259.847          50.000  
G23  22296097.431      375128.299       -2112.051          50.000  
G03  24729121.423      543083.953       -3071.525          50.000  
G09  20067848.298      122503.772        -716.571          50.000  
G10  21017597.286      249278.639       -1427.512          50.000  
G11  21006263.072     -409927.945        2198.488          50.000  
G05  23850297.839     -639978.911        3582.332          50.000  
> 2018 02 16 08 23 14.0000000  0  8                     
G30  22266928.789     -641194.542        3531.192          50.000  
G01  22007557.258     -236250.292        1259.234          50.000  
G23  22296499.431      377240.776       -2112.604          50.000  
G03  24729706.008      546155.927       -3072.053          50.000  
G09  20067984.745      123220.812        -717.170          50.000  
G10  21017869.002      250706.595       -1428.128          50.000  
G11  21005844.776     -412126.063        2198.367          50.000  
G05  23849616.172     -643561.074        3582.266          50.000  
> 2018 02 16 08 23 15.0000000  0  8                     
G30  22266256.878     -644725.416        3531.000          50.000  
G01  22007317.688     -237509.208        1259.060          50.000  
G23  22296901.502      379353.679       -2112.770          50.000  
G03  24730290.683      549228.364       -3072.290          50.000  
G09  20068121.300      123938.353        -717.429          50.000  
G10  21018140.808      252135.027       -1428.242          50.000  
G11  21005426.516     -414324.042        2198.141          50.000  
G05  23848934.504     -647143.318        3582.602          50.000  
> 2018 02 16 08 23 16.0000000  0  8                     
G30  22265585.056     -648255.912        3530.433          50.000  
G01  22007078.207     -238767.695        1258.409          50.000  
G23  22297303.644      381466.950       -2113.313          50.000  
G03  24730875.428      552301.203       -3072.890          50.000  
G09  20068257.927      124656.329        -718.051          50.000  
G10  21018412.721      253563.898       -1428.953          50.000  
G11  21005008.291     -416521.822        2197.720          50.000  
G05  23848252.783     -650725.698        3582.616          50.000  
> 2018 02 16 08 23 17.0000000  0  8                     
G30  22264913.306     -651785.938        3530.071          50.000  
G01  22006838.816     -240025.696        1258.089          50.000  
G23  22297705.876      383580.649       -2113.590          50.000  
G03  24731460.264      555374.517       -3073.205          50.000  
G09  20068394.643      125374.810        -718.380          50.000  
G10  21018684.723      254993.266       -1429.275          50.000  
G11  21004590.120     -418719.318        2197.675          50.000  
G05  23847571.062     -654308.137        3582.778          50.000  
> 2018 02 16 08 23 18.0000000  0  8                     
G30  22264241.627     -655315.619        3529.622          50.000  
G01  22006599.496     -241283.330        1257.623          51.000  
G23  22298108.179      385694.646       -2113.970          50.000  
G03  24732045.153      558448.187       -3073.668          50.000  
G09  20068531.430      126093.670        -718.863          50.000  
G10  21018956.779      256423.028       -1429.817          50.000  
G11  21004171.985     -420916.575        2197.485          50.000  
G05  23846889.323     -657890.774        3582.884          50.000  
> 2018 02 16 08 23 19.0000000  0  8                     
G30  22263570.038     -658844.844        3529.152          50.000  
G01  22006360.266     -242540.491        1257.079          50.000  
G23  22298510.518      387809.034       -2114.429          50.000  
G03  24732630.131      561522.315       -3074.220          50.000  
G09  20068668.325      126813.006        -719.409          50.000  
G10  21019228.978      257853.322       -1430.346          50.000  
G11  21003753.904     -423113.638        2197.025          50.000  
G05  23846207.530     -661473.502        3582.906          50.000  
> 2018 02 16 08 23 20.0000000  0  8                     
G30  22262898.538     -662373.734        3528.666          50.000  
G01  22006121.089     -243797.325        1256.628          50.000  
G23  22298912.910      389923.662       -2114.792          50.000  
G03  24733215.198      564596.756       -3074.638          50.000  
G09  20068805.255      127532.661        -719.807          50.000  
G10  21019501.230      259283.982       -1430.854          50.000  
G11  21003335.858     -425310.531        2196.770          50.000  
G05  23845525.720     -665056.468        3583.051          50.000  
> 2018 02 16 08 23 21.0000000  0  8                     
G30  22262227.109     -665902.053        3528.446          50.000  
G01  22005882.037     -245053.591        1256.388          50.000  
G23  22299315.410      392038.757       -2114.906          50.000  
G03  24733800.337      567671.748       -3074.850          50.000  
G09  20068942.311      128252.885        -720.082          50.000  
G10  21019773.590      260715.264       -1431.144          50.000  
G11  21002917.866     -427506.000        2196.650          50.000  
G05  23844843.909     -668639.433        3583.418          50.000  
> 2018 02 16 08 23 22.0000000  0  8                     
G30  22261555.770     -669429.946        3527.752          50.000  
G01  22005643.057     -246309.447        1255.758          50.000  
G23  22299717.964      394154.151       -2115.466          50.000  
G03  24734385.566      570747.128       -3075.482          50.000  
G09  20069079.420      128973.500        -720.700          50.000  
G10  21020046.057      262147.008       -1432.003          50.000  
G11  21002499.945     -429703.158        2196.221          50.000  
G05  23844162.045     -672222.551        3583.262          50.000  
> 2018 02 16 08 23 23.0000000  0  8                     
G30  22260884.556     -672957.225        3527.163          50.000  
G01  22005404.184     -247564.705        1255.138          50.000  
G23  22300120.606      396270.015       -2115.928          50.000  
G03  24734970.901      573823.082       -3076.067          50.000  
G09  20069216.672      129694.690        -721.286          50.000  
G10  21020318.631      263579.448       -1432.543          50.000  
G11  21002082.113     -431898.912        2195.675          50.000  
G05  23843480.235     -675805.651        3583.268          50.000  
> 2018 02 16 08 23 24.0000000  0  8                     
G30  22260213.414     -676484.066        3526.697          50.000  
G01  22005165.382     -248819.558        1254.725          50.000  
G23  22300523.285      398386.148       -2116.190          50.000  
G03  24735556.308      576899.408       -3076.429          50.000  
G09  20069353.977      130416.258        -721.697          50.000  
G10  21020591.312      265012.360       -1433.056          50.000  
G11  21001664.336     -434094.362        2195.339          50.000  
G05  23842798.353     -679388.912        3583.404          50.000  
> 2018 02 16 08 23 25.0000000  0  8                     
G30  22259542.324     -680010.552        3526.265          51.000  
G01  22004926.652     -250074.080        1254.283          50.000  
G23  22300926.017      400502.454       -2116.411          50.000  
G03  24736141.769      579976.024       -3076.797          51.000  
G09  20069491.336      131138.111        -722.016          50.000  
G10  21020864.065      266445.696       -1433.559          50.000  
G11  21001246.594     -436289.584        2195.072          50.000  
G05  23842116.418     -682972.425        3583.556          50.000  
> 2018 02 16 08 23 26.0000000  0  8                     
G30  22258871.378     -683536.389        3525.705          50.000  
G01  22004688.047     -251327.994        1253.824          50.000  
G23  22301328.802      402619.211       -2116.768          50.000  
G03  24736727.337      583053.204       -3077.244          50.000  
G09  20069628.803      131860.530        -722.471          50.000  
G10  21021136.943      267879.725       -1434.360          50.000  
G11  21000828.977     -438484.223        2194.529          50.000  
G05  23841434.500     -686555.899        3583.624          50.000  
> 2018 02 16 08 23 27.0000000  0  8                     
G30  22258200.522     -687061.774        3525.260          50.000  
G01  22004449.513     -252581.489        1253.380          51.000  
G23  22301731.660      404736.202       -2116.999          50.000  
G03  24737312.976      586130.752       -3077.651          50.000  
G09  20069766.341      132583.313        -722.861          50.000  
G10  21021409.946      269314.303       -1434.727          50.000  
G11  21000411.413     -440678.565        2194.266          50.000  
G05  23840752.547     -690139.535        3583.811          50.000  
> 2018 02 16 08 23 28.0000000  0  8                     
G30  22257529.790     -690586.539        3524.564          50.000  
G01  22004211.069     -253834.408        1252.747          50.000  
G23  22302134.588      406853.573       -2117.476          50.000  
G03  24737898.723      589208.803       -3078.226          50.000  
G09  20069903.968      133306.600        -723.401          50.000  
G10  21021683.074      270749.565       -1435.466          50.000  
G11  20999993.957     -442872.385        2193.693          50.000  
G05  23840070.611     -693723.173        3583.715          50.000  
> 2018 02 16 08 23 29.0000000  0  8                     
G30  22256859.148     -694110.784        3523.973          50.000  
G01  22003972.750     -255086.844        1252.189          50.000  
G23  22302537.552      408971.205       -2117.746          50.000  
G03  24738484.523      592287.258       -3078.655          50.000  
G09  20070041.684      134030.298        -723.880          50.000  
G10  21021956.309      272185.423       -1436.100          50.000  
G11  20999576.555     -445065.754        2193.175          50.000  
G05  23839388.658     -697306.914        3583.802          50.000  
> 2018 02 16 08 23 30.0000000  0  8                     
G30  22256188.595     -697634.580        3523.696          50.000  
G01  22003734.502     -256338.876        1251.974          50.000  
G23  22302940.553      411089.020       -2117.786          50.000  
G03  24739070.377      595366.033       -3078.805          50.000  
G09  20070179.455      134754.312        -724.029          50.000  
G10  21022229.633      273621.796       -1436.728          50.000  
G11  20999159.260     -447258.712        2192.839          50.000  
G05  23838706.668     -700890.825        3584.140          50.000  
> 2018 02 16 08 23 31.0000000  0  8                     
G30  22255518.131     -701157.926        3523.401          50.000  
G01  22003496.326     -257590.501        1251.729          50.000  
G23  22303343.588      413206.984       -2117.710          50.000  
G03  24739656.302      598445.104       -3078.865          50.000  
G09  20070317.296      135478.630        -724.156          50.000  
G10  21022503.065      275058.746       -1436.850          50.000  
G11  20998742.018     -449451.307        2192.770          50.000  
G05  23838024.644     -704474.917        3584.486          50.000  
> 2018 02 16 08 23 32.0000000  0  8                     
G30  22254847.739     -704680.864        3522.958          50.000  
G01  22003258.221     -258841.760        1251.319          50.000  
G23  22303746.642      415325.056       -2117.869          50.000  
G03  24740242.263      601524.435       -3079.235          50.000  
G09  20070455.156      136203.212        -724.478          50.000  
G10  21022776.604      276496.191       -1437.428          50.000  
G11  20998324.830     -451643.525        2192.298          51.000  
G05  23837342.565     -708059.217        3584.619          50.000  
> 2018 02 16 08 23 33.0000000  0  8                     
G30  22254177.472     -708203.114        3522.179          50.000  
G01  22003020.242     -260092.367        1250.569          50.000  
G23  22304149.767      417443.489       -2118.286          50.000  
G03  24740828.331      604604.278       -3079.814          50.000  
G09  20070593.140      136928.318        -725.030          51.000  
G10  21023050.268      277934.430       -1438.328          51.000  
G11  20997907.803     -453835.065        2191.486          50.000  
G05  23836660.522     -711643.457        3584.489          50.000  
> 2018 02 16 08 23 34.0000000  0  8                     
G30  22253507.294     -711724.868        3521.625          50.000  
G01  22002782.333     -261342.519        1250.072          50.000  
G23  22304552.928      419562.083       -2118.547          50.000  
G03  24741414.471      607684.429       -3080.185          50.000  
G09  20070731.196      137653.756        -725.473          50.000  
G10  21023324.075      279373.252       -1439.258          50.000  
G11  20997490.865     -456026.110        2190.783          50.000  
G05  23835978.426     -715227.816        3584.536          50.000  
> 2018 02 16 08 23 35.0000000  0  8                     
G30  22252837.224     -715246.167        3521.251          50.000  
G01  22002544.533     -262592.247        1249.740          50.000  
G23  22304956.107      421680.776       -2118.558          50.000  
G03  24742000.664      610764.843       -3080.355          50.000  
G09  20070869.288      138379.469        -725.662          50.000  
G10  21023598.007      280812.711       -1439.499          50.000  
G11  20997074.016     -458216.686        2190.586          50.000  
G05  23835296.330     -718812.337        3584.772          50.000  
> 2018 02 16 08 23 36.0000000  0  8                     
G30  22252167.225     -718766.971        3520.642          50.000  
G01  22002306.803     -263841.511        1249.152          50.000  
G23  22305359.286      423799.592       -2118.777          50.000  
G03  24742586.911      613845.531       -3080.683          50.000  
G09  20071007.451      139105.486        -726.062          50.000  
G10  21023872.029      282252.765       -1440.157          50.000  
G11  20996657.257     -460406.746        2189.974          50.000  
G05  23834614.198     -722396.981        3584.838          50.000  
> 2018 02 16 08 23 37.0000000  0  8                     
G30  22251497.369     -722287.133        3519.637          50.000  
G01  22002069.199     -265090.158        1248.173          50.000  
G23  22305762.536      425918.664       -2119.374          50.000  
G03  24743173.230      616926.638       -3081.476          50.000  
G09  20071145.686      139831.954        -726.883          50.000  
G10  21024146.229      283693.608       -1441.374          50.000  
G11  20996240.641     -462596.113        2188.817          50.000  
G05  23833932.066     -725981.587        3584.407          50.000  
> 2018 02 16 08 23 38.0000000  0  8                     
G30  22250827.584     -725806.854        3519.751          50.000  
G01  22001831.666     -266338.385        1248.332          50.000  
G23  22306165.804      428037.780       -2118.837          50.000  
G03  24743759.584      620007.950       -3081.085          50.000  
G09  20071283.975      140558.661        -726.488          50.000  
G10  21024420.501      285135.007       -1441.628          50.000  
G11  20995824.096     -464784.970        2188.655          50.000  
G05  23833249.916     -729566.352        3585.132          50.000  
> 2018 02 16 08 23 39.0000000  0  8                     
G30  22250157.925     -729325.920        3518.823          50.000  
G01  22001594.276     -267585.965        1247.363          50.000  
G23  22306569.090      430157.144       -2119.387          50.000  
G03  24744346.009      623089.670       -3081.803          50.000  
G09  20071422.352      141285.821        -727.236          50.000  
G10  21024694.951      286577.299       -1442.507          50.000  
G11  20995407.712     -466973.070        2187.862          50.000  
G05  23832567.766     -733151.054        3584.756          50.000  
> 2018 02 16 08 23 40.0000000  0  8                     
G30  22249488.354     -732844.501        3518.377          50.000  
G01  22001356.939     -268833.070        1246.989          50.000  
G23  22306972.412      432276.565       -2119.436          50.000  
G03  24744932.488      626171.604       -3081.979          50.000  
G09  20071560.766      142013.254        -727.545          50.000  
G10  21024969.526      288020.223       -1443.129          50.000  
G11  20994991.453     -469160.596        2187.400          50.000  
G05  23831885.598     -736735.863        3584.895          50.000  
> 2018 02 16 08 23 41.0000000  0  8                     
G30  22248818.909     -736362.482        3517.885          50.000  
G01  22001119.746     -270079.568        1246.429          50.000  
G23  22307375.769      434396.153       -2119.437          50.000  
G03  24745519.021      629253.866       -3082.226          50.000  
G09  20071699.269      142741.071        -727.778          50.000  
G10  21025244.263      289463.928       -1443.869          50.000  
G11  20994575.319     -471347.394        2186.694          50.000  
G05  23831203.430     -740320.642        3584.972          50.000  
> 2018 02 16 08 23 42.0000000  0  8                     
G30  22248149.554     -739879.925        3517.068          50.000  
G01  22000882.660     -271325.524        1245.648          50.000  
G23  22307779.127      436515.834       -2119.819          50.000  
G03  24746105.608      632336.367       -3082.670          51.000  
G09  20071837.825      143469.203        -728.393          50.000  
G10  21025519.124      290908.324       -1445.182          50.000  
G11  20994159.310     -473533.524        2185.458          50.000  
G05  23830521.262     -743905.455        3584.734          50.000  
> 2018 02 16 08 23 43.0000000  0  8                     
G30  22247480.323     -743396.729        3516.578          50.000  
G01  22000645.681     -272570.810        1245.023          50.000  
G23  22308182.520      438635.698       -2119.873          50.000  
G03  24746692.248      635419.213       -3082.876          50.000  
G09  20071976.471      144197.751        -728.645          50.000  
G10  21025794.164      292353.629       -1445.570          50.000  
G11  20993743.462     -475718.816        2185.079          50.000  
G05  23829839.130     -747490.182        3584.775          50.000  
> 2018 02 16 08 23 44.0000000  0  8                     
G30  22246811.200     -746913.000        3516.377          50.000  
G01  22000408.827     -273815.544        1244.833          50.000  
G23  22308585.949      440755.626       -2119.560          50.000  
G03  24747278.941      638502.278       -3082.805          50.000  
G09  20072115.170      144926.605        -728.651          50.000  
G10  21026069.347      293799.669       -1445.978          50.000  
G11  20993327.757     -477903.418        2184.711          50.000  
G05  23829156.962     -751074.924        3585.101          50.000  
> 2018 02 16 08 23 45.0000000  0  8                     
G30  22246142.183     -750428.647        3515.529          50.000  
G01  22000172.080     -275059.615        1243.963          50.000  
G23  22308989.378      442875.706       -2119.931          50.000  
G03  24747865.689      641585.634       -3083.296          50.000  
G09  20072253.941      145655.852        -729.231          50.000  
G10  21026344.673      295246.563       -1447.088          50.000  
G11  20992912.178     -480087.191        2183.618          50.000  
G05  23828474.830     -754659.574        3584.804          50.000  
> 2018 02 16 08 23 46.0000000  0  8                     
G30  22245473.310     -753943.689        3514.679          50.000  
G01  21999935.476     -276303.021        1243.017          50.000  
G23  22309392.842      444995.915       -2120.290          50.000  
G03  24748452.489      644669.263       -3083.790          50.000  
G09  20072392.801      146385.478        -729.832          50.000  
G10  21026620.160      296694.249       -1448.363          50.000  
G11  20992496.759     -482270.163        2182.276          50.000  
G05  23827792.716     -758244.136        3584.475          50.000  
> 2018 02 16 08 23 47.0000000  0  8                     
G30  22244804.562     -757457.978        3514.066          50.000  
G01  21999699.016     -277545.611        1242.306          50.000  
G23  22309796.361      447116.388       -2120.462          50.000  
G03  24749039.362      647753.295       -3084.041          50.000  
G09  20072531.751      147115.630        -730.280          50.000  
G10  21026895.861      298143.032       -1449.072          50.000  
G11  20992081.554     -484452.078        2181.638          50.000  
G05  23827110.620     -761828.451        3584.332          50.000  
> 2018 02 16 08 23 48.0000000  0  8                     
G30  22244135.885     -760971.853        3513.722          50.000  
G01  21999462.662     -278787.716        1241.921          50.000  
G23  22310199.861      449236.782       -2120.304          50.000  
G03  24749626.234      650837.387       -3084.053          50.000  
G09  20072670.736      147845.963        -730.404          50.000  
G10  21027171.687      299592.470       -1449.706          50.000  
G11  20991666.474     -486633.345        2181.076          50.000  
G05  23826428.541     -765412.845        3584.501          50.000  
> 2018 02 16 08 23 49.0000000  0  8                     
G30  22243467.316     -764485.286        3513.536          50.000  
G01  21999226.398     -280029.289        1241.601          50.000  
G23  22310603.344      451357.119       -2120.006          50.000  
G03  24750213.142      653921.549       -3083.882          50.000  
G09  20072809.739      148576.507        -730.367          50.000  
G10  21027447.638      301042.612       -1450.173          50.000  
G11  20991251.520     -488813.903        2180.601          50.000  
G05  23825746.445     -768997.267        3584.744          50.000  
> 2018 02 16 08 23 50.0000000  0  8                     
G30  22242798.871     -767998.046        3512.500          50.000  
G01  21998990.295     -281270.090        1240.488          50.000  
G23  22311006.862      453477.626       -2120.514          50.000  
G03  24750800.104      657006.006       -3084.552          50.000  
G09  20072948.849      149307.499        -731.154          50.000  
G10  21027723.768      302493.679       -1451.735          51.000  
G11  20990836.762     -490993.513        2178.880          50.000  
G05  23825064.402     -772581.482        3584.160          50.000  
> 2018 02 16 08 23 51.0000000  0  8                     
G30  22242130.552     -771510.150        3512.270          50.000  
G01  21998754.316     -282510.118        1240.155          50.000  
G23  22311410.398      455598.284       -2120.234          50.000  
G03  24751387.101      660090.730       -3084.375          50.000  
G09  20073088.031      150038.921        -731.165          50.000  
G10  21028000.077      303945.781       -1452.037          50.000  
G11  20990422.183     -493172.086        2178.638          50.000  
G05  23824382.377     -776165.480        3584.331          50.000  
> 2018 02 16 08 23 52.0000000  0  8                     
G30  22241462.322     -775021.614        3511.494          50.000  
G01  21998518.499     -283749.380        1239.233          50.000  
G23  22311813.970      457719.074       -2120.525          50.000  
G03  24751974.170      663175.691       -3084.720          50.000  
G09  20073227.302      150770.760        -731.715          50.000  
G10  21028276.582      305398.819       -1453.097          50.000  
G11  20990007.782     -495349.706        2177.546          50.000  
G05  23823700.406     -779749.272        3584.021          50.000  
> 2018 02 16 08 23 53.0000000  0  8                     
G30  22240794.199     -778532.615        3510.696          50.000  
G01  21998282.788     -284988.030        1238.244          50.000  
G23  22312217.542      459839.816       -2120.785          50.000  
G03  24752561.239      666260.719       -3085.136          50.000  
G09  20073366.627      151502.842        -732.262          50.000  
G10  21028553.231      306852.642       -1454.248          50.000  
G11  20989593.543     -497526.509        2176.335          50.000  
G05  23823018.453     -783333.009        3583.616          50.000  
> 2018 02 16 08 23 54.0000000  0  8                     
G30  22240126.184     -782043.061        3510.011          50.000  
G01  21998047.203     -286225.969        1237.396          50.000  
G23  22312621.114      461960.610       -2120.965          50.000  
G03  24753148.344      669345.884       -3085.415          50.000  
G09  20073506.005      152235.273        -732.758          50.000  
G10  21028830.040      308307.312       -1455.491          50.000  
G11  20989179.464     -499702.431        2174.996          50.000  
G05  23822336.499     -786916.580        3583.325          50.000  
> 2018 02 16 08 23 55.0000000  0  8                     
G30  22239458.257     -785552.986        3509.881          50.000  
G01  21997811.779     -287463.212        1237.065          50.000  
G23  22313024.685      464081.415       -2120.622          50.000  
G03  24753735.448      672431.156       -3085.153          50.000  
G09  20073645.437      152968.017        -732.748          50.000  
G10  21029107.045      309762.922       -1455.786          50.000  
G11  20988765.582     -501877.371        2174.755          50.000  
G05  23821654.599     -790500.003        3583.541          50.000  
> 2018 02 16 08 23 56.0000000  0  8                     
G30  22238790.421     -789062.511        3509.286          50.000  
G01  21997576.462     -288699.871        1236.326          50.000  
G23  22313428.257      466202.110       -2120.700          50.000  
G03  24754322.553      675516.390       -3085.252          50.000  
G09  20073784.905      153700.946        -733.053          50.000  
G10  21029384.176      311219.287       -1456.744          50.000  
G11  20988351.860     -504051.529        2173.740          50.000  
G05  23820972.700     -794083.384        3583.304          50.000  
> 2018 02 16 08 23 57.0000000  0  8                     
G30  22238122.673     -792571.496        3508.618          50.000  
G01  21997341.270     -289935.780        1235.417          50.000  
G23  22313831.829      468322.843       -2120.856          50.000  
G03  24754909.675      678601.736       -3085.475          50.000  
G09  20073924.444      154434.232        -733.590          50.000  
G10  21029661.467      312676.556       -1457.823          50.000  
G11  20987938.317     -506224.723        2172.636          50.000  
G05  23820290.836     -797666.557        3582.948          50.000  
> 2018 02 16 08 23 58.0000000  0  8                     
G30  22237455.015     -796080.094        3508.743          50.000  
G01  21997106.185     -291171.084        1235.295          50.000  
G23  22314235.365      470443.459       -2120.237          50.000  
G03  24755496.798      681687.036       -3084.979          51.000  
G09  20074064.019      155167.705        -733.233          50.000  
G10  21029938.920      314134.551       -1458.253          51.000  
G11  20987524.935     -508397.140        2172.054          50.000  
G05  23819608.989     -801249.664        3583.377          50.000  
> 2018 02 16 08 23 59.0000000  0  8                     
G30  22236787.446     -799588.157        3507.995          50.000  
G01  21996871.261     -292405.617        1234.332          50.000  
G23  22314638.902      472564.115       -2120.460          50.000  
G03  24756083.920      684772.421       -3085.241          50.000  
G09  20074203.648      155901.540        -733.837          50.000  
G10  21030216.569      315593.552       -1459.182          50.000  
G11  20987111.732     -510568.484        2171.171          50.000  
G05  23818927.197     -804832.532        3582.939          50.000  
> 2018 02 16 08 24 01.0000000  0  8                     
G30  22235452.594     -806602.833        3507.058          50.000  
G01  21996401.841     -294872.464        1232.893          50.000  
G23  22315445.992      476805.409       -2120.434          50.000  
G03  24757258.237      690943.298       -3085.262          50.000  
G09  20074483.119      157370.139        -734.365          50.000  
G10  21030772.349      318514.198       -1460.936          50.000  
G11  20986285.879     -514908.361        2169.222          50.000  
G05  23817563.719     -811997.631        3582.519          50.000  
> 2018 02 16 08 24 02.0000000  0  8                     
G30  22234785.311     -810109.432        3506.342          51.000  
G01  21996167.346     -296104.724        1231.826          50.000  
G23  22315849.546      478926.076       -2120.688          50.000  
G03  24757845.377      694028.798       -3085.545          50.000  
G09  20074622.927      158104.946        -735.000          50.000  
G10  21031050.498      319975.859       -1462.317          50.000  
G11  20985873.230     -517076.873        2167.759          50.000  
G05  23816882.051     -815579.808        3581.987          50.000  
> 2018 02 16 08 24 03.0000000  0  8                     
G30  22234118.136     -813615.458        3505.954          50.000  
G01  21995933.012     -297336.118        1231.189          50.000  
G23  22316253.100      481046.844       -2120.616          50.000  
G03  24758432.553      697114.411       -3085.447          50.000  
G09  20074762.841      158840.178        -735.220          50.000  
G10  21031328.826      321438.578       -1462.963          50.000  
G11  20985460.795     -519244.231        2167.108          50.000  
G05  23816200.455     -819161.634        3581.844          50.000  
> 2018 02 16 08 24 04.0000000  0  8                     
G30  22233451.049     -817120.979        3505.299          50.000  
G01  21995698.856     -298566.686        1230.205          50.000  
G23  22316656.689      483167.652       -2120.779          50.000  
G03  24759019.729      700200.074       -3085.669          50.000  
G09  20074902.827      159575.783        -735.768          50.000  
G10  21031607.368      322902.252       -1464.078          50.000  
G11  20985048.539     -521410.577        2165.914          50.000  
G05  23815518.913     -822743.152        3581.378          50.000  
> 2018 02 16 08 24 05.0000000  0  8                     
G30  22232784.070     -820625.963        3504.839          50.000  
G01  21995464.844     -299796.383        1229.386          50.000  
G23  22317060.279      485288.550       -2120.840          50.000  
G03  24759606.941      703285.815       -3085.653          51.000  
G09  20075042.884      160311.799        -736.126          50.000  
G10  21031886.089      324366.909       -1465.000          50.000  
G11  20984636.497     -523575.861        2164.892          50.000  
G05  23814837.442     -826324.311        3581.085          50.000  
> 2018 02 16 08 24 06.0000000  0  8                     
G30  22232117.145     -824130.701        3504.800          50.000  
G01  21995230.956     -301025.496        1229.046          50.000  
G23  22317463.815      487409.244       -2120.355          50.000  
G03  24760194.099      706371.337       -3085.236          50.000  
G09  20075182.960      161047.948        -736.007          51.000  
G10  21032164.935      325832.241       -1465.580          51.000  
G11  20984224.598     -525740.405        2164.112          50.000  
G05  23814155.989     -829905.386        3581.221          51.000  
> 2018 02 16 08 24 07.0000000  0  8                     
G30  22231450.291     -827634.985        3504.258          50.000  
G01  21994997.211     -302253.777        1228.054          50.000  
G23  22317867.387      489529.969       -2120.518          50.000  
G03  24760781.258      709456.860       -3085.319          50.000  
G09  20075323.106      161784.454        -736.490          50.000  
G10  21032443.960      327298.558       -1466.592          50.000  
G11  20983812.914     -527903.881        2163.210          50.000  
G05  23813474.572     -833486.147        3580.800          50.000  
> 2018 02 16 08 24 08.0000000  0  8                     
G30  22230783.526     -831138.921        3503.900          50.000  
G01  21994763.609     -303481.335        1227.312          50.000  
G23  22318270.923      491650.621       -2120.442          50.000  
G03  24761368.398      712542.269       -3085.209          50.000  
G09  20075463.307      162521.215        -736.702          50.000  
G10  21032723.128      328765.693       -1467.345          50.000  
G11  20983401.390     -530066.456        2162.323          50.000  
G05  23812793.244     -837066.675        3580.552          50.000  
> 2018 02 16 08 24 09.0000000  0  8                     
G30  22230116.886     -834642.193        3502.828          50.000  
G01  21994530.222     -304707.834        1225.807          50.000  
G23  22318674.531      493771.532       -2121.166          50.000  
G03  24761955.574      715627.886       -3085.834          50.000  
G09  20075603.614      163258.573        -737.765          50.000  
G10  21033002.528      330233.982       -1468.993          50.000  
G11  20982990.099     -532227.803        2160.635          50.000  
G05  23812111.987     -840646.646        3579.547          50.000  
> 2018 02 16 08 24 10.0000000  0  8                     
G30  22229450.318     -838145.056        3502.582          50.000  
G01  21994296.996     -305933.518        1225.196          50.000  
G23  22319078.121      495892.453       -2120.988          50.000  
G03  24762542.750      718713.461       -3085.637          50.000  
G09  20075744.011      163996.272        -737.957          50.000  
G10  21033282.107      331703.129       -1469.707          50.000  
G11  20982578.986     -534388.223        2159.728          50.000  
G05  23811430.820     -844226.293        3579.406          50.000  
> 2018 02 16 08 24 11.0000000  0  8                     
G30  22228783.821     -841647.534        3502.300          50.000  
G01  21994063.912     -307158.389        1224.482          50.000  
G23  22319481.728      498013.386       -2120.933          50.000  
G03  24763129.908      721798.969       -3085.458          50.000  
G09  20075884.462      164734.309        -738.188          50.000  
G10  21033561.864      333173.223       -1470.520          50.000  
G11  20982168.070     -536547.612        2158.973          50.000  
G05  23810749.689     -847805.617        3579.188          50.000  
> 2018 02 16 08 24 12.0000000  0  8                     
G30  22228117.414     -845149.562        3502.009          50.000  
G01  21993830.989     -308382.378        1223.787          50.000  
G23  22319885.336      500134.395       -2120.840          50.000  
G03  24763717.067      724884.478       -3085.331          50.000  
G09  20076024.984      165472.759        -738.440          50.000  
G10  21033841.764      334644.254       -1471.274          50.000  
G11  20981757.351     -538705.980        2158.137          50.000  
G05  23810068.647     -851384.537        3578.889          50.000  
> 2018 02 16 08 24 13.0000000  0  8                     
G30  22227451.025     -848651.443        3501.778          50.000  
G01  21993598.174     -309605.763        1223.072          50.000  
G23  22320288.908      502255.203       -2120.733          50.000  
G03  24764304.171      727969.683       -3085.070          50.000  
G09  20076165.524      166211.331        -738.642          50.000  
G10  21034121.826      336115.956       -1472.042          50.000  
G11  20981346.756     -540863.611        2157.282          50.000  
G05  23809387.604     -854963.348        3578.713          50.000  
> 2018 02 16 08 24 14.0000000  0  8                     
G30  22226784.724     -852152.837        3501.370          50.000  
G01  21993365.537     -310828.190        1222.093          50.000  
G23  22320692.516      504376.168       -2120.877          50.000  
G03  24764891.276      731054.943       -3085.080          50.000  
G09  20076306.153      166950.390        -739.104          50.000  
G10  21034402.065      337588.625       -1472.978          50.000  
G11  20980936.376     -543020.214        2156.210          50.000  
G05  23808706.670     -858541.672        3578.255          50.000  
> 2018 02 16 08 24 15.0000000  0  8                     
G30  22226118.478     -855653.990        3500.944          50.000  
G01  21993133.061     -312049.909        1221.271          50.000  
G23  22321096.105      506497.048       -2120.897          50.000  
G03  24765478.345      734140.007       -3085.019          50.000  
G09  20076446.836      167689.689        -739.505          50.000  
G10  21034682.448      339062.091       -1473.908          50.000  
G11  20980526.157     -545175.929        2155.254          50.000  
G05  23808025.788     -862119.763        3577.859          50.000  
> 2018 02 16 08 24 16.0000000  0  8                     
G30  22225452.303     -859154.754        3500.628          50.000  
G01  21992900.728     -313270.740        1220.444          50.000  
G23  22321499.731      508618.021       -2120.983          50.000  
G03  24766065.414      737225.040       -3084.975          50.000  
G09  20076587.590      168429.400        -739.870          50.000  
G10  21034963.028      340536.470       -1474.822          50.000  
G11  20980116.135     -547330.669        2154.270          50.000  
G05  23807344.979     -865697.441        3577.496          50.000  
> 2018 02 16 08 24 17.0000000  0  8                     
G30  22224786.199     -862655.167        3500.439          51.000  
G01  21992668.592     -314490.722        1219.770          50.000  
G23  22321903.356      510739.050       -2120.813          50.000  
G03  24766652.447      740309.995       -3084.722          50.000  
G09  20076728.434      169169.495        -740.060          50.000  
G10  21035243.750      342011.708       -1475.467          50.000  
G11  20979706.273     -549484.481        2153.580          50.000  
G05  23806664.240     -869274.738        3577.321          50.000  
> 2018 02 16 08 24 18.0000000  0  8                     
G30  22224120.131     -866155.326        3499.986          50.000  
G01  21992436.580     -315709.931        1218.775          50.000  
G23  22322306.964      512860.071       -2120.984          50.000  
G03  24767239.462      743394.796       -3084.757          50.000  
G09  20076869.313      169909.894        -740.543          50.000  
G10  21035524.633      343487.732       -1476.441          50.000  
G11  20979296.572     -551637.459        2152.476          50.000  
G05  23805983.538     -872851.724        3576.803          50.000  
> 2018 02 16 08 24 19.0000000  0  8                     
G30  22223454.153     -869655.042        3499.387          50.000  
G01  21992204.747     -316928.181        1217.716          50.000  
G23  22322710.625      514981.283       -2121.365          50.000  
G03  24767826.495      746479.625       -3084.902          50.000  
G09  20077010.300      170650.795        -741.193          50.000  
G10  21035805.713      344964.735       -1477.552          50.000  
G11  20978887.067     -553789.388        2151.339          50.000  
G05  23805302.978     -876428.220        3576.200          50.000  
> 2018 02 16 08 24 20.0000000  0  8                     
G30  22222788.264     -873154.350        3499.185          50.000  
G01  21991973.111     -318145.476        1216.857          50.000  
G23  22323114.304      517102.676       -2121.468          50.000  
G03  24768413.528      749564.472       -3084.808          50.000  
G09  20077151.375      171392.189        -741.581          50.000  
G10  21036086.954      346442.701       -1478.382          50.000  
G11  20978477.760     -555940.303        2150.451          50.000  
G05  23804622.472     -880004.218        3575.856          50.000  
> 2018 02 16 08 24 21.0000000  0  8                     
G30  22222122.393     -876653.532        3499.398          50.000  
G01  21991741.582     -319362.110        1216.565          50.000  
G23  22323517.965      519223.965       -2120.956          50.000  
G03  24769000.508      752649.054       -3084.192          50.000  
G09  20077292.505      172133.790        -741.392          50.000  
G10  21036368.337      347921.302       -1478.652          50.000  
G11  20978068.577     -558090.540        2150.133          50.000  
G05  23803942.020     -883580.006        3575.946          50.000  
> 2018 02 16 08 24 22.0000000  0  8                     
G30  22221456.575     -880152.380        3498.456          50.000  
G01  21991510.232     -320577.858        1215.128          50.000  
G23  22323921.662      521345.402       -2121.717          50.000  
G03  24769587.469      755733.584       -3084.688          50.000  
G09  20077433.706      172875.839        -742.467          50.000  
G10  21036649.864      349400.751       -1479.901          50.000  
G11  20977659.591     -560239.881        2148.784          50.000  
G05  23803261.639     -887155.362        3574.939          50.000  
> 2018 02 16 08 24 23.0000000  0  8                     
G30  22220790.936     -883650.445        3498.138          50.000  
G01  21991279.150     -321792.253        1214.188          50.000  
G23  22324325.467      523467.443       -2121.881          50.000  
G03  24770174.520      758818.534       -3084.683          50.000  
G09  20077575.068      173618.793        -742.956          50.000  
G10  21036931.640      350881.538       -1480.993          51.000  
G11  20977250.855     -562387.837        2147.741          51.000  
G05  23802581.454     -890729.822        3574.472          50.000  
> 2018 02 16 08 24 24.0000000  0  8                     
G30  22220125.279     -887148.494        3497.947          50.000  
G01  21991048.157     -323006.074        1213.449          50.000  
G23  22324729.253      525589.333       -2121.909          50.000  
G03  24770761.500      761903.137       -3084.541          50.000  
G09  20077716.483      174361.888        -743.254          50.000  
G10  21037213.524      352362.874       -1481.738          50.000  
G11  20976842.226     -564535.213        2146.968          50.000  
G05  23801901.288     -894304.154        3574.203          50.000  
> 2018 02 16 08 24 25.0000000  0  8                     
G30  22219459.658     -890646.284        3497.745          50.000  
G01  21990817.325     -324219.058        1212.692          50.000  
G23  22325133.057      527711.345       -2121.947          50.000  
G03  24771348.480      764987.649       -3084.393          50.000  
G09  20077857.970      175105.395        -743.600          50.000  
G10  21037495.586      353844.981       -1482.395          50.000  
G11  20976433.740     -566681.789        2146.261          50.000  
G05  23801221.193     -897878.084        3573.811          50.000  
> 2018 02 16 08 24 26.0000000  0  8                     
G30  22218794.055     -894144.103        3498.219          50.000  
G01  21990586.618     -325431.482        1212.498          50.000  
G23  22325536.843      529833.209       -2121.439          50.000  
G03  24771935.370      768071.792       -3083.587          50.000  
G09  20077999.493      175849.036        -743.352          50.000  
G10  21037777.720      355327.597       -1482.378          50.000  
G11  20976025.361     -568827.842        2146.258          50.000  
G05  23800541.116     -901451.914        3574.099          50.000  
> 2018 02 16 08 24 29.0000000  0  8                     
G30  22216797.388     -904636.635        3497.348          50.000  
G01  21989895.319     -329064.314        1209.858          50.000  
G23  22326748.274      536199.158       -2122.043          50.000  
G03  24773695.879      777323.222       -3083.527          50.000  
G09  20078424.383      178081.968        -744.769          50.000  
G10  21038624.873      359779.451       -1484.922          50.000  
G11  20974801.012     -575261.902        2143.717          51.000  
G05  23798501.224     -912171.595        3572.791          50.000  
> 2018 02 16 08 24 30.0000000  0  8                     
G30  22216131.892     -908133.764        3497.149          50.000  
G01  21989665.202     -330273.693        1209.099          50.000  
G23  22327152.114      538321.395       -2122.192          50.000  
G03  24774282.662      780406.809       -3083.394          50.000  
G09  20078566.173      178827.064        -745.166          50.000  
G10  21038907.525      361264.813       -1485.471          50.000  
G11  20974393.169     -577405.181        2143.308          50.000  
G05  23797821.397     -915744.131        3572.475          50.000  
> 2018 02 16 08 24 31.0000000  0  8                     
G30  22215466.467     -911630.676        3497.036          50.000  
G01  21989435.228     -331482.253        1208.451          50.000  
G23  22327555.989      540443.826       -2122.238          50.000  
G03  24774869.428      783490.336       -3083.186          50.000  
G09  20078708.053      179572.603        -745.430          50.000  
G10  21039190.302      362750.868       -1486.164          50.000  
G11  20973985.434     -579547.767        2142.434          50.000  
G05  23797141.641     -919316.286        3572.294          50.000  
> 2018 02 16 08 24 32.0000000  0  8                     
G30  22214801.061     -915127.405        3496.645          50.000  
G01  21989205.396     -332690.024        1207.413          50.000  
G23  22327959.919      542566.423       -2122.682          50.000  
G03  24775456.193      786573.781       -3083.347          50.000  
G09  20078850.023      180318.568        -746.155          50.000  
G10  21039473.223      364237.615       -1487.128          50.000  
G11  20973577.859     -581689.680        2141.510          50.000  
G05  23796461.957     -922888.082        3571.633          50.000  
> 2018 02 16 08 24 33.0000000  0  8                     
G30  22214135.654     -918624.041        3496.370          50.000  
G01  21988975.708     -333897.105        1206.555          50.000  
G23  22328363.848      544689.111       -2122.933          50.000  
G03  24776042.922      789657.060       -3083.385          50.000  
G09  20078992.046      181064.865        -746.700          50.000  
G10  21039756.250      365724.945       -1487.828          50.000  
G11  20973170.374     -583831.037        2140.831          50.000  
G05  23795782.327     -926459.625        3571.204          50.000  
