     2.11           O                   G                   RINEX VERSION / TYPE
WALKEGNOS           ISMB                  20180216  082133  PGM / RUN BY / DATE 
                                                            COMMENT             
                                                            MARKER NAME         
1                                                           MARKER NUMBER       
NavSAS              ISMB / POLITO                           OBSERVER / AGENCY   
1                                    NVSFW ver              REC # / TYPE / VERS 
1                   PATCH                                   ANT # / TYPE        
        0.0000        0.0000        0.0000                  APPROX POSITION XYZ 
        0.0000        0.0000        0.0000                  ANTENNA: DELTA H/E/N
     1     0                                                WAVELENGTH FACT L1/2
     4    L1    C1    D1    S1                              # / TYPES OF OBSERV 
     1.000                                                  INTERVAL            
  2018    02    16     8    21   33.0000000     GPS         TIME OF FIRST OBS   
                                                            END OF HEADER       
 18  2 16  8 21 33.0000000  2  1
            *** FROM NOW ON KINEMATIC DATA! ***             COMMENT             
 18  2 16  8 21 33.0000000  0  8G30G01G23G03G09G10G11G05             0.000707054
   -283166.329    22335059.317        3566.004          50.000  
   -105755.522    22032389.428        1330.231          50.000  
    165483.997    22256203.426       -2088.069          50.000  
    236735.774    24670825.129       -3057.828          50.000  
     53208.491    20054661.745        -671.483          50.000  
    109425.939    20990984.307       -1357.476          50.000  
   -187885.870    21048516.163        2260.381          50.000  
   -280904.109    23918627.464        3603.435          50.000  
 18  2 16  8 21 34.0000000  0  8G30G01G23G03G09G10G11G05             0.000707229
   -286731.927    22334380.813        3565.795          50.000  
   -107085.342    22032136.385        1330.053          50.000  
    167572.261    22256600.797       -2087.873          50.000  
    239793.862    24671407.070       -3057.746          50.000  
     53880.309    20054789.580        -671.559          50.000  
    110783.904    20991242.711       -1358.097          50.000  
   -190145.766    21048086.110        2259.847          50.000  
   -284507.459    23917941.758        3603.823          50.000  
 18  2 16  8 21 37.0000000  0  8G30G01G23G03G09G10G11G05             0.000707752
   -297424.536    22332346.085        3562.675          50.000  
   -111070.587    22031378.006        1326.860          50.000  
    173838.683    22257793.269       -2089.705          50.000  
    248970.691    24673153.356       -3060.052          50.000  
     55898.728    20055173.674        -674.028          50.000  
    114863.376    20992018.995       -1361.651          50.000  
   -196920.378    21046796.949        2256.476          50.000  
   -295316.739    23915884.855        3602.352          50.000  
 18  2 16  8 21 38.0000000  0  8G30G01G23G03G09G10G11G05             0.000707926
   -300987.091    22331668.152        3562.444          50.000  
   -112397.313    22031125.534        1326.604          50.000  
    175928.248    22258190.890       -2089.482          50.000  
    252030.696    24673735.654       -3059.952          50.000  
     56572.758    20055301.938        -674.068          50.000  
    116225.223    20992278.113       -1362.324          50.000  
   -199176.637    21046367.592        2255.845          50.000  
   -298919.300    23915199.328        3602.737          50.000  
 18  2 16  8 21 39.0000000  0  8G30G01G23G03G09G10G11G05             0.000708100
   -304548.998    22330990.344        3561.725          50.000  
   -113723.363    22030873.188        1325.849          50.000  
    178017.999    22258588.565       -2089.672          50.000  
    255091.038    24674318.041       -3060.309          50.000  
     57247.226    20055430.292        -674.513          50.000  
    117588.040    20992537.464       -1363.009          50.000  
   -201431.992    21045938.414        2255.171          50.000  
   -302521.747    23914513.801        3602.571          50.000  
 18  2 16  8 21 40.0000000  0  8G30G01G23G03G09G10G11G05             0.000708274
   -308110.277    22330312.661        3561.083          50.000  
   -115048.729    22030620.985        1325.155          50.000  
    180107.925    22258986.276       -2089.876          50.000  
    258151.695    24674900.464       -3060.654          50.000  
     57922.112    20055558.716        -674.918          50.000  
    118951.710    20992796.940       -1363.903          50.000  
   -203686.516    21045509.379        2254.281          50.000  
   -306124.071    23913828.309        3602.388          50.000  
 18  2 16  8 21 41.0000000  0  8G30G01G23G03G09G10G11G05             0.000708448
   -311671.022    22329635.068        3560.522          50.000  
   -116373.510    22030368.906        1324.551          50.000  
    182197.902    22259383.987       -2089.931          50.000  
    261212.541    24675482.940       -3060.853          50.000  
     58597.318    20055687.212        -675.311          50.000  
    120316.171    20993056.595       -1364.752          50.000  
   -205940.268    21045080.504        2253.450          50.000  
   -309726.383    23913142.800        3602.357          50.000  
 18  2 16  8 21 42.0000000  0  8G30G01G23G03G09G10G11G05             0.000708622
   -315231.354    22328957.564        3560.209          50.000  
   -117697.801    22030116.882        1324.110          51.000  
    184287.817    22259781.680       -2089.777          50.000  
    264273.462    24676065.417       -3060.828          50.000  
     59272.715    20055815.744        -675.339          51.000  
    121681.272    20993316.357       -1365.615          50.000  
   -208193.383    21044651.737        2252.621          50.000  
   -313328.772    23912457.308        3602.542          50.000  
 18  2 16  8 21 43.0000000  0  8G30G01G23G03G09G10G11G05             0.000708796
   -318790.931    22328280.203        3559.259          50.000  
   -119021.256    22029865.036        1323.135          50.000  
    186378.009    22260179.445       -2090.240          50.000  
    267334.787    24676647.983       -3061.437          50.000  
     59948.661    20055944.383        -676.128          50.000  
    123047.495    20993576.351       -1366.537          50.000  
   -210445.404    21044223.184        2251.686          50.000  
   -316930.888    23911771.835        3602.086          50.000  
 18  2 16  8 21 44.0000000  0  8G30G01G23G03G09G10G11G05             0.000708969
   -322349.767    22327602.967        3558.701          50.000  
   -120343.873    22029613.351        1322.419          50.000  
    188468.450    22260577.245       -2090.329          50.000  
    270396.480    24677230.584       -3061.642          50.000  
     60625.138    20056073.112        -676.500          50.000  
    124414.737    20993836.524       -1367.442          50.000  
   -212696.405    21043794.828        2250.779          50.000  
   -320532.715    23911086.415        3601.909          50.000  
 18  2 16  8 21 45.0000000  0  8G30G01G23G03G09G10G11G05             0.000709141
   -325908.152    22326925.820        3558.296          50.000  
   -121665.931    22029361.755        1321.905          50.000  
    190558.846    22260975.045       -2090.197          50.000  
    273458.253    24677813.222       -3061.643          50.000  
     61301.848    20056201.894        -676.665          50.000  
    125782.739    20994096.840       -1368.178          50.000  
   -214946.648    21043366.651        2250.051          50.000  
   -324134.549    23910401.013        3601.977          50.000  
 18  2 16  8 21 46.0000000  0  8G30G01G23G03G09G10G11G05             0.000709315
   -329466.048    22326248.781        3557.713          50.000  
   -122987.384    22029110.302        1321.279          50.000  
    192649.240    22261372.845       -2090.335          50.000  
    276520.130    24678395.895       -3061.847          50.000  
     61978.849    20056330.712        -677.141          50.000  
    127151.500    20994357.317       -1369.362          50.000  
   -217196.102    21042938.580        2248.775          50.000  
   -327736.321    23909715.610        3601.804          50.000  
 18  2 16  8 21 47.0000000  0  8G30G01G23G03G09G10G11G05             0.000709490
   -333023.143    22325571.885        3556.799          50.000  
   -124307.883    22028859.010        1320.181          50.000  
    194739.941    22261770.699       -2090.717          50.000  
    279582.422    24678978.639       -3062.373          50.000  
     62656.439    20056459.672        -677.767          50.000  
    128521.471    20994618.026       -1370.335          50.000  
   -219444.342    21042510.760        2247.847          50.000  
   -331337.704    23909030.298        3601.308          50.000  
 18  2 16  8 21 48.0000000  0  8G30G01G23G03G09G10G11G05             0.000709664
   -336579.766    22324895.077        3556.344          50.000  
   -125627.761    22028607.861        1319.584          50.000  
    196830.623    22262168.535       -2090.674          50.000  
    282644.789    24679561.384       -3062.451          50.000  
     63334.309    20056588.651        -678.044          50.000  
    129892.260    20994878.878       -1371.185          50.000  
   -221691.737    21042083.101        2247.029          50.000  
   -334939.005    23908344.985        3601.228          50.000  
 18  2 16  8 21 49.0000000  0  8G30G01G23G03G09G10G11G05             0.000709837
   -340135.864    22324218.395        3555.946          50.000  
   -126946.939    22028356.819        1318.903          50.000  
    198921.337    22262566.406       -2090.656          50.000  
    285707.271    24680144.164       -3062.504          50.000  
     64012.509    20056717.701        -678.301          50.000  
    131263.914    20995139.873       -1372.027          50.000  
   -223938.246    21041655.602        2246.199          50.000  
   -338540.162    23907659.708        3601.186          50.000  
 18  2 16  8 21 50.0000000  0  8G30G01G23G03G09G10G11G05             0.000710011
   -343691.534    22323541.767        3555.583          50.000  
   -128265.516    22028105.920        1318.394          50.000  
    201011.973    22262964.242       -2090.462          50.000  
    288769.755    24680726.927       -3062.313          50.000  
     64690.943    20056846.823        -678.411          50.000  
    132636.312    20995401.029       -1372.872          50.000  
   -226183.976    21041228.247        2245.237          50.000  
   -342141.254    23906974.431        3601.197          50.000  
 18  2 16  8 21 51.0000000  0  8G30G01G23G03G09G10G11G05             0.000710195
   -347246.681    22322865.246        3554.808          50.000  
   -129583.369    22027855.146        1317.434          50.000  
    203102.649    22263362.078       -2090.736          50.000  
    291832.360    24681309.725       -3062.739          50.000  
     65369.721    20056975.980        -678.984          50.000  
    134009.707    20995662.363       -1373.871          50.000  
   -228428.666    21040801.088        2244.270          50.000  
   -345742.156    23906289.207        3600.731          50.000  
 18  2 16  8 21 52.0000000  0  8G30G01G23G03G09G10G11G05             0.000710369
   -350801.139    22322188.868        3554.550          50.000  
   -130900.307    22027604.551        1316.901          50.000  
    205193.536    22263759.968       -2090.571          50.000  
    294895.226    24681892.577       -3062.582          51.000  
     66049.024    20057105.244        -679.131          50.000  
    135384.175    20995923.912       -1374.532          50.000  
   -230672.240    21040374.143        2243.515          50.000  
   -349342.685    23905604.055        3600.761          50.000  
 18  2 16  8 21 53.0000000  0  8G30G01G23G03G09G10G11G05             0.000710543
   -354355.009    22321512.579        3553.676          50.000  
   -132216.435    22027354.098        1315.809          50.000  
    207284.513    22264157.857       -2090.936          50.000  
    297958.244    24682475.446       -3063.016          50.000  
     66728.738    20057234.598        -679.802          50.000  
    136759.622    20996185.640       -1375.817          50.000  
   -232914.800    21039947.395        2242.160          50.000  
   -352942.934    23904918.957        3600.174          50.000  
 18  2 16  8 21 54.0000000  0  8G30G01G23G03G09G10G11G05             0.000710717
   -357908.479    22320836.379        3553.423          50.000  
   -133531.911    22027103.771        1315.281          50.000  
    209375.418    22264555.729       -2090.702          50.000  
    301021.234    24683058.316       -3062.860          50.000  
     67408.699    20057364.006        -679.911          50.000  
    138135.829    20996447.546       -1376.621          50.000  
   -235156.544    21039520.808        2241.239          50.000  
   -356543.060    23904233.877        3600.185          50.000  
 18  2 16  8 21 55.0000000  0  8G30G01G23G03G09G10G11G05             0.000710892
   -361461.546    22320160.233        3552.910          50.000  
   -134846.718    22026853.587        1314.457          50.000  
    211466.258    22264953.619       -2090.824          50.000  
    304084.183    24683641.186       -3062.891          50.000  
     68088.910    20057493.449        -680.267          50.000  
    139512.961    20996709.595       -1377.467          50.000  
   -237397.313    21039094.399        2240.462          50.000  
   -360143.043    23903548.832        3599.917          50.000  
 18  2 16  8 21 56.0000000  0  8G30G01G23G03G09G10G11G05             0.000711066
   -365014.145    22319484.194        3552.283          50.000  
   -136160.779    22026603.528        1313.549          50.000  
    213557.094    22265351.490       -2090.951          50.000  
    307147.162    24684224.055       -3063.060          50.000  
     68769.450    20057622.964        -680.747          50.000  
    140890.972    20996971.805       -1378.514          50.000  
   -239637.145    21038668.170        2239.305          50.000  
   -363742.803    23902863.805        3599.552          50.000  
 18  2 16  8 21 57.0000000  0  8G30G01G23G03G09G10G11G05             0.000711240
   -368566.017    22318808.299        3551.977          50.000  
   -137473.819    22026353.665        1312.987          50.000  
    215648.199    22265749.416       -2090.788          50.000  
    310210.425    24684806.979       -3062.938          50.000  
     69450.590    20057752.568        -680.971          50.000  
    142270.149    20997234.265       -1379.250          50.000  
   -241875.747    21038242.190        2238.478          50.000  
   -367342.054    23902178.903        3599.447          50.000  
 18  2 16  8 21 58.0000000  0  8G30G01G23G03G09G10G11G05             0.000711414
   -372117.466    22318132.492        3551.542          50.000  
   -138786.123    22026103.946        1312.261          51.000  
    217739.279    22266147.341       -2090.774          50.000  
    313273.664    24685389.902       -3062.906          50.000  
     70132.031    20057882.243        -681.296          50.000  
    143650.173    20997496.869       -1380.334          50.000  
   -244113.461    21037816.371        2237.352          50.000  
   -370941.089    23901494.019        3599.228          50.000  
 18  2 16  8 21 59.0000000  0  8G30G01G23G03G09G10G11G05             0.000711588
   -375668.283    22317456.775        3550.755          50.000  
   -140097.462    22025854.405        1311.140          50.000  
    219830.553    22266545.302       -2091.110          50.000  
    316337.092    24685972.843       -3063.256          50.000  
     70813.994    20058012.026        -681.938          50.000  
    145031.365    20997759.704       -1381.442          50.000  
   -246349.927    21037390.785        2236.237          50.000  
   -374539.669    23900809.243        3598.613          50.000  
 18  2 16  8 22  0.0000000  0  8G30G01G23G03G09G10G11G05             0.000711762
   -379218.645    22316781.165        3550.309          50.000  
   -141407.998    22025605.025        1310.338          50.000  
    221921.852    22266943.245       -2091.135          50.000  
    319400.531    24686555.802       -3063.279          50.000  
     71496.319    20058141.880        -682.306          50.000  
    146413.474    20998022.700       -1382.383          50.000  
   -248585.418    21036965.377        2235.212          50.000  
   -378137.957    23900124.502        3598.327          50.000  
 18  2 16  8 22  1.0000000  0  8G30G01G23G03G09G10G11G05             0.000711935
   -382768.578    22316105.645        3549.811          50.000  
   -142717.745    22025355.788        1309.462          50.000  
    224013.161    22267341.206       -2091.183          50.000  
    322463.942    24687138.761       -3063.251          50.000  
     72178.982    20058271.788        -682.691          50.000  
    147796.494    20998285.893       -1383.337          50.000  
   -250819.943    21036540.148        2234.167          50.000  
   -381735.959    23899439.832        3597.976          50.000  
 18  2 16  8 22  2.0000000  0  8G30G01G23G03G09G10G11G05             0.000712109
   -386317.891    22315430.231        3549.131          50.000  
   -144026.495    22025106.747        1308.414          50.000  
    226104.685    22267739.221       -2091.474          50.000  
    325527.539    24687721.738       -3063.521          50.000  
     72862.199    20058401.803        -683.370          50.000  
    149180.594    20998549.283       -1384.621          50.000  
   -253053.329    21036115.151        2232.734          50.000  
   -385333.459    23898755.252        3597.388          50.000  
 18  2 16  8 22  3.0000000  0  8G30G01G23G03G09G10G11G05             0.000712282
   -389866.824    22314754.889        3548.804          50.000  
   -145334.470    22024857.850        1307.697          50.000  
    228196.195    22268137.217       -2091.421          50.000  
    328591.070    24688304.715       -3063.422          50.000  
     73545.730    20058531.871        -683.627          50.000  
    150565.622    20998812.833       -1385.380          50.000  
   -255285.706    21035690.351        2232.035          50.000  
   -388930.687    23898070.708        3597.152          50.000  
 18  2 16  8 22  4.0000000  0  8G30G01G23G03G09G10G11G05             0.000712456
   -393415.442    22314079.619        3548.580          50.000  
   -146641.719    22024609.095        1307.010          50.000  
    230287.639    22268535.196       -2091.298          50.000  
    331654.477    24688887.674       -3063.238          50.000  
     74229.530    20058662.012        -683.819          50.000  
    151951.473    20999076.562       -1386.130          50.000  
   -257517.199    21035265.729        2231.170          50.000  
   -392527.681    23897386.235        3596.986          50.000  
 18  2 16  8 22  5.0000000  0  8G30G01G23G03G09G10G11G05             0.000712630
   -396963.708    22313404.402        3548.203          50.000  
   -147948.193    22024360.483        1306.190          50.000  
    232379.065    22268933.175       -2091.293          51.000  
    334717.790    24689470.615       -3063.129          50.000  
     74913.642    20058792.187        -684.108          50.000  
    153338.183    20999340.451       -1387.003          50.000  
   -259747.783    21034841.268        2230.300          50.000  
   -396124.397    23896701.798        3596.730          50.000  
 18  2 16  8 22  6.0000000  0  8G30G01G23G03G09G10G11G05             0.000712803
   -400511.585    22312729.257        3548.028          50.000  
   -149253.849    22024112.014        1305.629          50.000  
    234470.522    22269331.172       -2091.060          50.000  
    337781.059    24690053.538       -3062.887          50.000  
     75598.127    20058922.435        -684.298          50.000  
    154725.772    20999604.484       -1387.740          50.000  
   -261977.425    21034416.968        2229.413          50.000  
   -399720.767    23896017.432        3596.542          50.000  
 18  2 16  8 22  7.0000000  0  8G30G01G23G03G09G10G11G05             0.000712977
   -404059.093    22312054.201        3547.103          50.000  
   -150558.671    22023863.724        1304.192          50.000  
    236562.022    22269729.169       -2091.725          50.000  
    340844.273    24690636.444       -3063.399          50.000  
     76282.974    20059052.753        -685.229          50.000  
    156114.316    20999868.713       -1389.196          50.000  
   -264206.048    21033992.901        2227.978          50.000  
   -403316.799    23895333.120        3595.632          50.000  
 18  2 16  8 22  8.0000000  0  8G30G01G23G03G09G10G11G05             0.000713150
   -407606.170    22311379.216        3547.047          50.000  
   -151862.600    22023615.595        1303.646          50.000  
    238653.626    22270127.183       -2091.480          50.000  
    343907.493    24691219.367       -3063.104          50.000  
     76968.265    20059183.162        -685.347          50.000  
    157503.810    21000133.121       -1389.824          50.000  
   -266433.668    21033569.012        2227.288          50.000  
   -406912.410    23894648.897        3595.556          50.000  
 18  2 16  8 22  9.0000000  0  8G30G01G23G03G09G10G11G05             0.000713324
   -411152.831    22310704.303        3546.697          50.000  
   -153165.634    22023367.627        1302.855          50.000  
    240745.338    22270525.234       -2091.517          50.000  
    346970.698    24691802.272       -3062.932          50.000  
     77653.981    20059313.659        -685.679          50.000  
    158894.245    21000397.708       -1390.690          50.000  
   -268660.278    21033145.284        2226.381          50.000  
   -410507.607    23893964.764        3595.220          50.000  
 18  2 16  8 22 10.0000000  0  8G30G01G23G03G09G10G11G05             0.000713497
   -414699.248    22310029.462        3546.440          50.000  
   -154467.931    22023119.819        1302.079          50.000  
    242837.000    22270923.248       -2091.492          50.000  
    350033.740    24692385.142       -3062.823          50.000  
     78339.980    20059444.192        -686.006          50.000  
    160285.446    21000662.437       -1391.509          50.000  
   -270886.091    21032721.734        2225.525          50.000  
   -414102.540    23893280.666        3594.924          50.000  
 18  2 16  8 22 11.0000000  0  8G30G01G23G03G09G10G11G05             0.000713671
   -418245.206    22309354.674        3546.022          49.000  
   -155769.261    22022872.190        1301.087          49.000  
    244928.848    22271321.316       -2091.632          50.000  
    353096.834    24692968.030       -3062.869          50.000  
     79026.488    20059574.815        -686.512          50.000  
    161677.687    21000927.364       -1392.477          50.000  
   -273110.802    21032298.381        2224.495          50.000  
   -417696.982    23892596.675        3594.463          50.000  
 18  2 16  8 22 12.0000000  0  8G30G01G23G03G09G10G11G05             0.000713844
   -421790.869    22308679.940        3545.414          50.000  
   -157069.790    22022624.686        1300.048          50.000  
    247020.738    22271719.402       -2092.016          50.000  
    356159.821    24693550.899       -3063.107          50.000  
     79713.352    20059705.527        -687.160          50.000  
    163070.763    21001192.451       -1393.647          50.000  
   -275334.630    21031875.189        2223.215          50.000  
   -421291.079    23891912.756        3593.833          50.000  
 18  2 16  8 22 13.0000000  0  8G30G01G23G03G09G10G11G05             0.000714017
   -425336.256    22308005.259        3545.339          50.000  
   -158369.502    22022377.361        1299.408          50.000  
    249112.664    22272117.471       -2091.848          50.000  
    359222.687    24694133.769       -3062.732          50.000  
     80400.571    20059836.292        -687.310          50.000  
    164464.664    21001457.716       -1394.236          50.000  
   -277557.599    21031452.194        2222.621          50.000  
   -424884.835    23891228.873        3593.685          50.000  
 18  2 16  8 22 14.0000000  0  8G30G01G23G03G09G10G11G05             0.000714191
   -428881.427    22307330.614        3545.038          50.000  
   -159668.463    22022130.161        1298.539          50.000  
    251204.587    22272515.557       -2091.940          50.000  
    362285.387    24694716.585       -3062.650          50.000  
     81088.093    20059967.111        -687.667          50.000  
    165859.316    21001723.107       -1395.047          50.000  
   -279779.778    21031029.323        2221.718          50.000  
   -428478.295    23890545.061        3593.233          50.000  
 18  2 16  8 22 15.0000000  0  8G30G01G23G03G09G10G11G05             0.000714364
   -432426.192    22306656.058        3544.606          50.000  
   -160966.473    22021883.158        1297.596          50.000  
    253296.715    22272913.679       -2092.203          50.000  
    365348.118    24695299.401       -3062.695          50.000  
     81776.133    20060098.056        -688.222          50.000  
    167254.944    21001988.676       -1396.067          50.000  
   -282000.954    21030606.649        2220.707          50.000  
   -432071.266    23889861.339        3592.803          50.000  
 18  2 16  8 22 16.0000000  0  8G30G01G23G03G09G10G11G05             0.000714537
   -435970.646    22305981.556        3544.512          50.000  
   -162263.612    22021636.333        1296.929          50.000  
    255388.966    22273311.818       -2092.097          50.000  
    368410.791    24695882.199       -3062.386          50.000  
     82464.605    20060229.071        -688.447          50.000  
    168651.446    21002254.424       -1396.751          50.000  
   -284221.219    21030184.154        2219.973          50.000  
   -435663.824    23889177.706        3592.599          50.000  
 18  2 16  8 22 17.0000000  0  8G30G01G23G03G09G10G11G05             0.000714710
   -439514.745    22305307.144        3544.259          50.000  
   -163559.827    22021389.669        1296.065          50.000  
    257481.404    22273709.994       -2092.213          50.000  
    371473.466    24696465.015       -3062.352          50.000  
     83153.561    20060360.176        -688.839          50.000  
    170048.831    21002520.351       -1397.495          50.000  
   -286440.583    21029761.820        2219.247          50.000  
   -439255.911    23888494.162        3592.193          50.000  
 18  2 16  8 22 18.0000000  0  8G30G01G23G03G09G10G11G05             0.000714883
   -443058.556    22304632.785        3543.821          50.000  
   -164855.181    22021143.148        1295.040          50.000  
    259573.979    22274108.205       -2092.461          50.000  
    374536.082    24697047.813       -3062.436          50.000  
     83842.955    20060491.371        -689.387          50.000  
    171447.064    21002786.421       -1398.407          50.000  
   -288659.090    21029339.664        2218.340          50.000  
   -442847.588    23887810.690        3591.615          49.000  
 18  2 16  8 22 19.0000000  0  8G30G01G23G03G09G10G11G05             0.000715056
   -446602.078    22303958.479        3543.609          50.000  
   -166149.668    22020896.823        1294.284          50.000  
    261666.725    22274506.434       -2092.617          50.000  
    377598.648    24697630.594       -3062.311          50.000  
     84532.809    20060622.654        -689.883          50.000  
    172846.125    21003052.669       -1399.317          50.000  
   -290876.742    21028917.651        2217.360          50.000  
   -446438.844    23887127.289        3591.224          50.000  
 18  2 16  8 22 20.0000000  0  8G30G01G23G03G09G10G11G05             0.000715229
   -450145.464    22303284.210        3543.548          50.000  
   -167443.426    22020650.642        1293.648          50.000  
    263759.487    22274904.681       -2092.526          50.000  
    380661.026    24698213.356       -3062.052          50.000  
     85222.966    20060753.974        -690.074          50.000  
    174245.884    21003319.025       -1399.874          50.000  
   -293093.709    21028495.782        2216.820          50.000  
   -450029.829    23886443.942        3591.087          50.000  
 18  2 16  8 22 21.0000000  0  8G30G01G23G03G09G10G11G05             0.000715402
   -453688.537    22302609.976        3542.000          50.000  
   -168736.284    22020404.621        1292.561          50.000  
    265852.477    22275302.964       -2092.972          50.000  
    383723.399    24698796.101       -3062.232          50.000  
     85913.625    20060885.400        -690.777          50.000  
    175646.501    21003585.559       -1400.906          50.000  
   -295309.807    21028074.073        2215.773          50.000  
   -453620.349    23885760.684        3590.387          50.000  
 18  2 16  8 22 22.0000000  0  8G30G01G23G03G09G10G11G05             0.000715574
   -457231.267    22301935.813        3542.590          50.000  
   -170028.192    22020158.779        1291.492          50.000  
    267945.732    22275701.282       -2093.333          50.000  
    386785.819    24699378.863       -3062.416          50.000  
     86604.827    20061016.934        -691.412          50.000  
    177047.998    21003852.255       -1401.748          50.000  
   -297525.042    21027652.525        2215.057          50.000  
   -457210.373    23885077.534        3589.806          50.000  
 18  2 16  8 22 23.0000000  0  8G30G01G23G03G09G10G11G05             0.000715747
   -460773.706    22301261.704        3542.605          50.000  
   -171319.206    22019913.116        1290.889          50.000  
    270039.229    22276099.672       -2093.323          50.000  
    389848.239    24699961.643       -3062.104          50.000  
     87296.542    20061148.558        -691.635          50.000  
    178450.314    21004119.111       -1402.447          50.000  
   -299739.478    21027231.119        2214.311          50.000  
   -460799.947    23884394.454        3589.662          50.000  
 18  2 16  8 22 24.0000000  0  8G30G01G23G03G09G10G11G05             0.000715920
   -464315.941    22300587.649        3542.295          50.000  
   -172609.406    22019667.595        1289.904          50.000  
    272132.890    22276498.080       -2093.612          50.000  
    392910.586    24700544.370       -3062.196          50.000  
     87988.687    20061280.270        -692.215          50.000  
    179853.382    21004386.110       -1403.336          50.000  
   -301953.175    21026809.875        2213.413          50.000  
   -464389.146    23883711.465        3589.131          50.000  
 18  2 16  8 22 25.0000000  0  8G30G01G23G03G09G10G11G05             0.000716092
   -467858.090    22299913.594        3542.195          50.000  
   -173898.920    22019422.236        1289.221          50.000  
    274226.617    22276896.505       -2093.681          50.000  
    395972.746    24701127.079       -3061.994          50.000  
     88681.154    20061412.036        -692.571          50.000  
    181257.052    21004653.216       -1403.925          50.000  
   -304166.302    21026388.738        2212.884          50.000  
   -467978.094    23883028.511        3588.867          50.000  
 18  2 16  8 22 26.0000000  0  8G30G01G23G03G09G10G11G05             0.000716265
   -471400.041    22299239.574        3542.077          50.000  
   -175187.624    22019177.001        1288.513          50.000  
    276320.544    22277294.967       -2093.807          50.000  
    399034.858    24701709.788       -3061.909          50.000  
     89374.069    20061543.910        -692.934          50.000  
    182661.450    21004920.465       -1404.374          50.000  
   -306378.731    21025967.726        2212.549          50.000  
   -471566.676    23882345.628        3588.598          50.000  
 18  2 16  8 22 27.0000000  0  8G30G01G23G03G09G10G11G05             0.000716438
   -474941.855    22298565.590        3541.948          50.000  
   -176475.581    22018931.910        1287.800          50.000  
    278414.621    22277693.446       -2093.945          50.000  
    402096.864    24702292.479       -3061.793          50.000  
     90067.378    20061675.837        -693.317          50.000  
    184066.476    21005187.839       -1405.234          50.000  
   -308590.594    21025546.839        2211.641          50.000  
   -475154.947    23881662.817        3588.271          50.000  
 18  2 16  8 22 28.0000000  0  8G30G01G23G03G09G10G11G05             0.000716605
   -478483.579    22297891.606        3541.663          50.000  
   -177762.835    22018686.943        1286.920          50.000  
    280508.826    22278091.961       -2094.312          50.000  
    405158.730    24702875.116       -3061.820          50.000  
     90761.052    20061807.835        -693.865          50.000  
    185472.113    21005455.338       -1405.955          50.000  
   -310801.894    21025126.041        2210.942          50.000  
   -478742.956    23880980.042        3587.835          50.000  
 18  2 16  8 22 29.0000000  0  8G30G01G23G03G09G10G11G05             0.000716778
   -482025.069    22297217.694        3541.430          50.000  
   -179049.243    22018442.156        1286.053          50.000  
    282603.308    22278490.529       -2094.563          50.000  
    408220.616    24703457.771       -3061.832          50.000  
     91455.235    20061939.923        -694.319          50.000  
    186878.484    21005722.963       -1406.613          50.000  
   -313012.521    21024705.369        2210.356          50.000  
   -482330.560    23880297.338        3587.448          50.000  
 18  2 16  8 22 30.0000000  0  8G30G01G23G03G09G10G11G05             0.000716952
   -485566.496    22296543.764        3541.441          50.000  
   -180334.975    22018197.511        1285.389          50.000  
    284697.925    22278889.134       -2094.660          50.000  
    411282.360    24704040.409       -3061.601          50.000  
     92149.778    20062072.100        -694.669          50.000  
    188285.430    21005990.676       -1406.979          50.000  
   -315222.625    21024284.821        2210.182          50.000  
   -485917.926    23879614.687        3587.261          50.000  
 18  2 16  8 22 31.0000000  0  8G30G01G23G03G09G10G11G05             0.000717125
   -489107.663    22295869.923        3541.369          50.000  
   -181619.844    22017953.009        1284.725          50.000  
    286792.883    22279287.791       -2094.803          50.000  
    414344.185    24704623.046       -3061.512          50.000  
     92844.882    20062204.367        -695.008          50.000  
    189693.088    21006258.551       -1407.717          50.000  
   -317432.119    21023864.363        2209.379          50.000  
   -489504.863    23878932.126        3587.069          50.000  
 18  2 16  8 22 32.0000000  0  8G30G01G23G03G09G10G11G05             0.000717299
   -492648.684    22295196.082        3541.132          50.000  
   -182903.966    22017708.650        1283.953          50.000  
    288888.083    22279686.485       -2095.129          50.000  
    417405.979    24705205.701       -3061.588          50.000  
     93540.441    20062336.740        -695.601          50.000  
    191101.383    21006526.533       -1408.441          50.000  
   -319641.061    21023444.012        2208.795          50.000  
   -493091.487    23878249.619        3586.641          50.000  
 18  2 16  8 22 33.0000000  0  8G30G01G23G03G09G10G11G05             0.000717472
   -496189.489    22294522.295        3540.705          50.000  
   -184187.274    22017464.434        1282.911          50.000  
    290983.612    22280085.268       -2095.701          50.000  
    420467.823    24705788.357       -3061.869          50.000  
     94236.529    20062469.203        -696.358          50.000  
    192510.351    21006794.639       -1409.381          50.000  
   -321849.412    21023023.786        2208.027          50.000  
   -496677.735    23877567.165        3586.114          50.000  
 18  2 16  8 22 34.0000000  0  8G30G01G23G03G09G10G11G05             0.000717645
   -499730.023    22293848.543        3540.621          50.000  
   -185469.710    22017220.397        1282.267          50.000  
    293079.541    22280484.087       -2095.890          50.000  
    423529.795    24706371.030       -3061.803          50.000  
     94933.219    20062601.792        -696.782          50.000  
    193920.074    21007062.907       -1409.683          50.000  
   -324057.086    21022603.686        2207.977          50.000  
   -500263.543    23876884.819        3585.828          50.000  
 18  2 16  8 22 35.0000000  0  8G30G01G23G03G09G10G11G05             0.000717818
   -503270.322    22293174.846        3540.182          50.000  
   -186751.322    22016976.520        1281.189          50.000  
    295175.843    22280882.995       -2096.519          50.000  
    426591.866    24706953.721       -3062.133          50.000  
     95630.465    20062734.469        -697.559          50.000  
    195330.435    21007331.264       -1410.806          50.000  
   -326264.278    21022183.656        2206.776          50.000  
   -503848.978    23876202.544        3585.235          50.000  
 18  2 16  8 22 36.0000000  0  8G30G01G23G03G09G10G11G05             0.000717991
   -506810.516    22292501.183        3540.278          50.000  
   -188032.251    22016732.769        1280.734          50.000  
    297272.400    22281281.957       -2096.554          50.000  
    429653.916    24707536.412       -3061.966          50.000  
     96328.154    20062867.236        -697.827          50.000  
    196741.346    21007599.764       -1411.048          50.000  
   -328471.012    21021763.734        2206.525          50.000  
   -507434.161    23875520.304        3585.157          50.000  
 18  2 16  8 22 37.0000000  0  8G30G01G23G03G09G10G11G05             0.000718165
   -510350.562    22291827.521        3539.977          50.000  
   -189312.451    22016489.161        1279.853          50.000  
    299369.274    22281680.990       -2097.044          50.000  
    432716.001    24708119.103       -3062.091          50.000  
     97026.326    20063000.092        -698.404          50.000  
    198152.841    21007868.353       -1411.812          50.000  
   -330677.292    21021343.902        2206.001          50.000  
   -511019.063    23874838.101        3584.758          50.000  
 18  2 16  8 22 38.0000000  0  8G30G01G23G03G09G10G11G05             0.000718338
   -513890.573    22291153.895        3540.181          50.000  
   -190592.052    22016245.660        1279.491          50.000  
    301466.354    22282080.059       -2097.047          50.000  
    435778.028    24708701.794       -3061.849          50.000  
     97724.886    20063133.020        -698.599          50.000  
    199564.812    21008137.032       -1411.862          50.000  
   -332883.207    21020924.123        2206.348          50.000  
   -514603.801    23874155.951        3584.815          50.000  
 18  2 16  8 22 39.0000000  0  8G30G01G23G03G09G10G11G05             0.000718511
   -517430.447    22290480.286        3539.897          50.000  
   -191870.955    22016002.283        1278.659          50.000  
    303563.759    22282479.181       -2097.444          50.000  
    438840.106    24709284.485       -3062.039          50.000  
     98423.930    20063266.037        -699.200          50.000  
    200977.259    21008405.800       -1412.649          50.000  
   -335088.825    21020504.397        2205.404          50.000  
   -518188.279    23873473.855        3584.377          50.000  
 18  2 16  8 22 40.0000000  0  8G30G01G23G03G09G10G11G05             0.000718684
   -520969.983    22289806.731        3539.333          50.000  
   -193148.967    22015759.104        1277.520          50.000  
    305661.698    22282878.411       -2098.224          50.000  
    441902.450    24709867.229       -3062.540          50.000  
     99123.662    20063399.179        -700.135          50.000  
    202390.472    21008674.729       -1413.671          50.000  
   -337293.825    21020084.779        2204.547          50.000  
   -521772.319    23872791.830        3583.742          50.000  
 18  2 16  8 22 41.0000000  0  8G30G01G23G03G09G10G11G05             0.000718857
   -524509.405    22289133.194        3539.522          50.000  
   -194426.329    22015516.032        1277.188          50.000  
    307759.961    22283277.694       -2098.250          50.000  
    444964.846    24710449.992       -3062.303          50.000  
     99823.863    20063532.428        -700.244          50.000  
    203804.174    21008943.747       -1413.826          50.000  
   -339498.481    21019665.250        2204.569          50.000  
   -525356.150    23872109.859        3583.849          50.000  
 18  2 16  8 22 42.0000000  0  8G30G01G23G03G09G10G11G05             0.000719030
   -528048.753    22288459.675        3539.308          50.000  
   -195703.088    22015273.066        1276.462          50.000  
    309858.502    22283677.031       -2098.629          50.000  
    448027.265    24711032.754       -3062.493          50.000  
    100524.492    20063665.749        -700.816          50.000  
    205218.338    21009212.854       -1414.150          50.000  
   -341702.807    21019245.793        2204.694          50.000  
   -528939.830    23871427.905        3583.633          50.000  
 18  2 16  8 22 43.0000000  0  8G30G01G23G03G09G10G11G05             0.000719203
   -531587.969    22287786.192        3539.239          50.000  
   -196979.189    22015030.226        1275.854          50.000  
    311957.412    22284076.439       -2099.023          50.000  
    451089.777    24711615.516       -3062.474          50.000  
    101225.619    20063799.177        -701.256          50.000  
    206632.935    21009482.033       -1414.829          50.000  
   -343906.925    21018826.371        2203.915          50.000  
   -532523.297    23870746.005        3583.475          50.000  
 18  2 16  8 22 44.0000000  0  8G30G01G23G03G09G10G11G05             0.000719376
   -535126.939    22287112.744        3538.962          50.000  
   -198254.544    22014787.547        1275.112          50.000  
    314056.785    22284475.937       -2099.505          50.000  
    454152.506    24712198.333       -3062.689          50.000  
    101927.340    20063932.694        -701.886          50.000  
    208048.141    21009751.337       -1415.455          50.000  
   -346110.601    21018407.038        2203.469          50.000  
   -536106.470    23870064.141        3583.213          50.000  
 18  2 16  8 22 45.0000000  0  8G30G01G23G03G09G10G11G05             0.000719548
   -538665.818    22286439.314        3538.885          50.000  
   -199529.315    22014544.957        1274.563          50.000  
    316156.481    22284875.489       -2099.813          50.000  
    457215.310    24712781.184       -3062.760          50.000  
    102629.514    20064066.319        -702.345          50.000  
    209463.773    21010020.713       -1415.811          50.000  
   -348314.031    21017987.742        2203.329          50.000  
   -539689.505    23869382.313        3583.022          50.000  
 18  2 16  8 22 46.0000000  0  8G30G01G23G03G09G10G11G05             0.000719721
   -542204.436    22285765.938        3538.379          50.000  
   -200803.340    22014302.528        1273.591          50.000  
    318256.678    22285275.129       -2100.539          50.000  
    460278.371    24713364.054       -3063.287          50.000  
    103332.306    20064200.051        -703.210          50.000  
    210880.019    21010290.213       -1416.444          50.000  
   -350516.997    21017568.552        2203.153          50.000  
   -543272.255    23868700.538        3582.510          50.000  
 18  2 16  8 22 47.0000000  0  8G30G01G23G03G09G10G11G05             0.000719894
   -545742.927    22285092.597        3538.485          50.000  
   -202076.758    22014060.207        1273.142          50.000  
    320357.249    22285674.859       -2100.719          50.000  
    463341.566    24713946.977       -3063.244          50.000  
    104035.581    20064333.890        -703.470          50.000  
    212296.640    21010559.768       -1416.848          50.000  
   -352719.863    21017149.363        2202.660          50.000  
   -546854.861    23868018.781        3582.565          50.000  
 18  2 16  8 22 48.0000000  0  8G30G01G23G03G09G10G11G05             0.000720066
   -549281.207    22284419.292        3538.241          50.000  
   -203349.526    22013818.010        1272.525          50.000  
    322458.269    22286074.679       -2101.164          50.000  
    466404.973    24714529.918       -3063.469          50.000  
    104739.410    20064467.818        -704.007          50.000  
    213713.774    21010829.447       -1417.327          50.000  
   -354922.392    21016730.245        2202.355          50.000  
   -550437.270    23867337.060        3582.357          50.000  
 18  2 16  8 22 49.0000000  0  8G30G01G23G03G09G10G11G05             0.000720239
   -552819.350    22283746.005        3538.296          50.000  
   -204621.708    22013575.920        1272.112          50.000  
    324559.680    22286474.552       -2101.414          50.000  
    469468.545    24715112.895       -3063.472          50.000  
    105443.731    20064601.836        -704.336          50.000  
    215131.336    21011099.198       -1417.560          50.000  
   -357124.711    21016311.181        2202.384          50.000  
   -554019.567    23866655.375        3582.480          50.000  
 18  2 16  8 22 50.0000000  0  8G30G01G23G03G09G10G11G05             0.000720401
   -556357.276    22283072.772        3538.116          50.000  
   -205893.251    22013333.956        1271.570          50.000  
    326661.545    22286874.532       -2101.786          50.000  
    472532.356    24715695.908       -3063.650          50.000  
    106148.608    20064735.978        -704.818          50.000  
    216549.408    21011369.056       -1417.818          50.000  
   -359326.681    21015892.152        2202.679          50.000  
   -557601.683    23865973.725        3582.372          50.000  
 18  2 16  8 22 51.0000000  0  8G30G01G23G03G09G10G11G05             0.000720573
   -559894.944    22282399.575        3537.569          50.000  
   -207164.121    22013092.134        1270.596          50.000  
    328763.926    22287274.601       -2102.614          50.000  
    475596.467    24716278.992       -3064.239          50.000  
    106854.093    20064870.228        -705.753          50.000  
    217967.945    21011638.985       -1418.790          50.000  
   -361528.499    21015473.159        2201.556          50.000  
   -561183.600    23865292.111        3581.852          50.000  
 18  2 16  8 22 52.0000000  0  8G30G01G23G03G09G10G11G05             0.000720744
   -563432.523    22281726.395        3537.511          50.000  
   -208434.507    22012850.384        1270.154          50.000  
    330866.642    22287674.725       -2102.894          50.000  
    478660.702    24716862.094       -3064.292          50.000  
    107559.992    20065004.550        -706.125          50.000  
    219386.819    21011908.986       -1419.145          50.000  
   -363730.179    21015054.184        2201.530          50.000  
   -564765.497    23864610.480        3581.946          50.000  
 18  2 16  8 22 53.0000000  0  8G30G01G23G03G09G10G11G05             0.000720916
   -566969.915    22281053.251        3537.443          50.000  
   -209704.323    22012608.742        1269.650          50.000  
    332969.785    22288074.955       -2103.213          50.000  
    481725.180    24717445.249       -3064.466          50.000  
    108266.409    20065138.978        -706.528          50.000  
    220806.126    21012179.076       -1419.387          50.000  
   -365931.652    21014635.281        2201.459          50.000  
   -568347.310    23863928.884        3581.894          50.000  
 18  2 16  8 22 54.0000000  0  8G30G01G23G03G09G10G11G05             0.000721087
   -570506.993    22280380.161        3537.047          50.000  
   -210973.465    22012367.224        1268.939          50.000  
    335073.489    22288475.275       -2103.870          50.000  
    484790.025    24718028.477       -3064.920          50.000  
    108973.464    20065273.532        -707.273          50.000  
    222225.996    21012449.292       -1419.832          50.000  
   -368132.740    21014216.431        2201.506          50.000  
   -571928.920    23863247.323        3581.579          50.000  
 18  2 16  8 22 55.0000000  0  8G30G01G23G03G09G10G11G05             0.000721258
   -574043.926    22279707.106        3536.923          50.000  
   -212242.110    22012125.795        1268.467          50.000  
    337177.576    22288875.666       -2104.215          50.000  
    487855.073    24718611.739       -3065.092          50.000  
    109680.969    20065408.175        -707.644          50.000  
    223646.147    21012719.525       -1420.291          50.000  
   -370333.881    21013797.563        2200.987          50.000  
   -575510.520    23862565.763        3581.689          51.000  
 18  2 16  8 22 56.0000000  0  8G30G01G23G03G09G10G11G05             0.000721429
   -577580.637    22279034.087        3536.777          50.000  
   -213510.205    22011884.492        1268.048          50.000  
    339282.115    22289276.146       -2104.574          50.000  
    490920.406    24719195.056       -3065.253          50.000  
    110389.006    20065542.908        -708.091          50.000  
    225066.731    21012989.865       -1420.591          50.000  
   -372534.806    21013378.731        2200.908          50.000  
   -579092.051    23861884.203        3581.725          50.000  
 18  2 16  8 22 57.0000000  0  8G30G01G23G03G09G10G11G05             0.000721601
   -581117.061    22278361.140        3536.547          50.000  
   -214777.690    22011643.296        1267.486          50.000  
    341387.178    22289676.734       -2105.004          50.000  
    493986.102    24719778.426       -3065.584          50.000  
    111097.634    20065677.765        -708.644          50.000  
    226487.811    21013260.295       -1421.027          50.000  
   -374735.492    21012959.971        2200.805          50.000  
   -582673.460    23861202.696        3581.603          50.000  
 18  2 16  8 22 58.0000000  0  8G30G01G23G03G09G10G11G05             0.000721772
   -584653.243    22277688.228        3536.028          50.000  
   -216044.635    22011402.207        1266.667          50.000  
    343492.702    22290077.411       -2105.747          50.000  
    497052.109    24720361.885       -3066.173          50.000  
    111806.785    20065812.712        -709.407          50.000  
    227909.321    21013530.797       -1421.553          50.000  
   -376935.924    21012541.246        2200.791          50.000  
   -586254.827    23860521.207        3581.326          50.000  
 18  2 16  8 22 59.0000000  0  8G30G01G23G03G09G10G11G05             0.000721943
   -588189.285    22277015.334        3535.899          50.000  
   -217311.158    22011161.190        1266.300          50.000  
    345598.587    22290478.142       -2106.137          50.000  
    500118.332    24720945.362       -3066.388          50.000  
    112516.357    20065947.748        -709.787          50.000  
    229331.089    21013801.351       -1421.959          50.000  
   -379136.453    21012122.503        2200.277          50.000  
   -589836.263    23859839.665        3581.387          50.000  
 18  2 16  8 23  0.0000000  0  8G30G01G23G03G09G10G11G05             0.000722114
   -591725.032    22276342.494        3535.725          50.000  
   -218577.109    22010920.298        1265.780          50.000  
    347704.969    22290878.980       -2106.499          50.000  
    503184.932    24721528.911       -3066.679          50.000  
    113226.498    20066082.874        -710.293          50.000  
    230753.321    21014071.996       -1422.339          50.000  
   -381336.757    21011703.814        2200.232          50.000  
   -593417.634    23859158.158        3581.447          50.000  
 18  2 16  8 23  1.0000000  0  8G30G01G23G03G09G10G11G05             0.000722285
   -595260.344    22275669.743        3535.170          50.000  
   -219842.383    22010679.530        1264.959          50.000  
    349811.987    22291279.943       -2107.283          50.000  
    506252.036    24722112.567       -3067.290          50.000  
    113937.327    20066218.160        -711.099          50.000  
    232176.130    21014342.765       -1423.072          50.000  
   -383536.737    21011285.179        2199.841          50.000  
   -596998.825    23858476.687        3581.161          50.000  
 18  2 16  8 23  2.0000000  0  8G30G01G23G03G09G10G11G05             0.000722456
   -598795.469    22274997.028        3535.396          50.000  
   -221107.240    22010438.835        1265.057          50.000  
    351919.379    22291680.960       -2107.187          50.000  
    509319.407    24722696.276       -3067.091          50.000  
    114648.587    20066353.500        -711.077          50.000  
    233599.274    21014613.588       -1422.818          50.000  
   -385736.569    21010866.543        2200.596          50.000  
   -600580.101    23857795.181        3581.658          50.000  
 18  2 16  8 23  3.0000000  0  8G30G01G23G03G09G10G11G05             0.000722627
   -602330.407    22274324.349        3534.949          50.000  
   -222371.682    22010198.228        1264.369          50.000  
    354027.139    22292082.048       -2107.851          50.000  
    512387.054    24723280.022       -3067.680          50.000  
    115360.271    20066488.929        -711.765          50.000  
    235022.686    21014884.446       -1423.418          50.000  
   -387936.493    21010447.925        2199.891          50.000  
   -604161.476    23857113.674        3581.458          50.000  
 18  2 16  8 23  4.0000000  0  8G30G01G23G03G09G10G11G05             0.000722797
   -605864.935    22273651.759        3534.379          50.000  
   -223635.510    22009957.729        1263.562          50.000  
    356135.477    22292483.243       -2108.590          50.000  
    515455.185    24723863.874       -3068.321          50.000  
    116072.592    20066624.484        -712.564          50.000  
    236446.642    21015155.412       -1424.124          50.000  
   -390136.120    21010029.361        2199.461          50.000  
   -607742.758    23856432.185        3581.251          51.000  
 18  2 16  8 23  5.0000000  0  8G30G01G23G03G09G10G11G05             0.000722968
   -609399.335    22272979.186        3534.140          50.000  
   -224899.031    22009717.301        1263.220          50.000  
    358244.097    22292884.492       -2108.953          50.000  
    518523.522    24724447.762       -3068.649          50.000  
    116785.246    20066760.092        -712.977          50.000  
    237870.837    21015426.432       -1424.488          50.000  
   -392335.755    21009610.762        2199.425          50.000  
   -611324.245    23855750.643        3581.434          50.000  
 18  2 16  8 23  6.0000000  0  8G30G01G23G03G09G10G11G05             0.000723139
   -612933.522    22272306.650        3534.007          50.000  
   -226162.158    22009476.927        1262.862          50.000  
    360353.071    22293285.812       -2109.224          50.000  
    521592.147    24725031.704       -3068.858          50.000  
    117498.313    20066895.789        -713.334          50.000  
    239295.358    21015697.505       -1424.689          50.000  
   -394535.264    21009192.216        2199.821          50.000  
   -614905.865    23855069.083        3581.638          50.000  
 18  2 16  8 23  7.0000000  0  8G30G01G23G03G09G10G11G05             0.000723310
   -616467.297    22271634.203        3533.678          50.000  
   -227424.724    22009236.678        1262.426          50.000  
    362462.590    22293687.240       -2109.662          50.000  
    524661.258    24725615.735       -3069.237          50.000  
    118211.979    20067031.594        -713.857          50.000  
    240720.352    21015968.685       -1425.104          50.000  
   -396734.667    21008773.669        2199.279          50.000  
   -618487.436    23854387.558        3581.646          50.000  
 18  2 16  8 23  8.0000000  0  8G30G01G23G03G09G10G11G05             0.000723480
   -620000.931    22270961.774        3533.431          50.000  
   -228687.002    22008996.465        1262.043          50.000  
    364572.363    22294088.721       -2110.018          50.000  
    527730.580    24726199.820       -3069.529          50.000  
    118925.951    20067167.452        -714.234          50.000  
    242145.569    21016239.901       -1425.432          50.000  
   -398934.072    21008355.141        2199.232          50.000  
   -622069.256    23853705.944        3581.799          50.000  
 18  2 16  8 23 10.0000000  0  8G30G01G23G03G09G10G11G05             0.000723822
   -627066.859    22269617.183        3532.936          50.000  
   -231209.853    22008516.414        1261.285          50.000  
    368793.543    22294891.969       -2110.712          50.000  
    533870.761    24727368.240       -3070.153          50.000  
    120355.702    20067439.526        -714.992          50.000  
    244997.614    21016782.637       -1426.133          50.000  
   -403331.983    21007518.246        2199.442          50.000  
   -629232.790    23852342.770        3582.203          50.000  
 18  2 16  8 23 11.0000000  0  8G30G01G23G03G09G10G11G05             0.000723992
   -630599.410    22268944.951        3532.465          50.000  
   -232470.707    22008276.486        1260.725          50.000  
    370904.659    22295293.701       -2111.234          50.000  
    536941.357    24727952.557       -3070.724          50.000  
    121071.198    20067575.688        -715.657          50.000  
    246424.135    21017054.103       -1426.613          50.000  
   -405530.887    21007099.807        2198.844          50.000  
   -632814.790    23851661.138        3582.137          50.000  
 18  2 16  8 23 12.0000000  0  8G30G01G23G03G09G10G11G05             0.000724163
   -634131.506    22268272.825        3532.059          50.000  
   -233731.027    22008036.648        1260.213          50.000  
    373016.280    22295695.521       -2111.709          50.000  
    540012.446    24728536.963       -3071.130          50.000  
    121787.249    20067711.939        -716.125          50.000  
    247851.173    21017325.659       -1427.095          50.000  
   -407729.509    21006681.421        2198.627          50.000  
   -636396.794    23850979.507        3582.171          50.000  
 18  2 16  8 23 13.0000000  0  8G30G01G23G03G09G10G11G05             0.000724333
   -637663.242    22267600.771        3531.705          50.000  
   -234990.911    22007796.900        1259.847          50.000  
    375128.299    22296097.431       -2112.051          50.000  
    543083.953    24729121.423       -3071.525          50.000  
    122503.772    20067848.298        -716.571          50.000  
    249278.639    21017597.286       -1427.512          50.000  
   -409927.945    21006263.072        2198.488          50.000  
   -639978.911    23850297.839        3582.332          50.000  
 18  2 16  8 23 14.0000000  0  8G30G01G23G03G09G10G11G05             0.000724504
   -641194.542    22266928.789        3531.192          50.000  
   -236250.292    22007557.258        1259.234          50.000  
    377240.776    22296499.431       -2112.604          50.000  
    546155.927    24729706.008       -3072.053          50.000  
    123220.812    20067984.745        -717.170          50.000  
    250706.595    21017869.002       -1428.128          50.000  
   -412126.063    21005844.776        2198.367          50.000  
   -643561.074    23849616.172        3582.266          50.000  
 18  2 16  8 23 15.0000000  0  8G30G01G23G03G09G10G11G05             0.000724674
   -644725.416    22266256.878        3531.000          50.000  
   -237509.208    22007317.688        1259.060          50.000  
    379353.679    22296901.502       -2112.770          50.000  
    549228.364    24730290.683       -3072.290          50.000  
    123938.353    20068121.300        -717.429          50.000  
    252135.027    21018140.808       -1428.242          50.000  
   -414324.042    21005426.516        2198.141          50.000  
   -647143.318    23848934.504        3582.602          50.000  
 18  2 16  8 23 16.0000000  0  8G30G01G23G03G09G10G11G05             0.000724844
   -648255.912    22265585.056        3530.433          50.000  
   -238767.695    22007078.207        1258.409          50.000  
    381466.950    22297303.644       -2113.313          50.000  
    552301.203    24730875.428       -3072.890          50.000  
    124656.329    20068257.927        -718.051          50.000  
    253563.898    21018412.721       -1428.953          50.000  
   -416521.822    21005008.291        2197.720          50.000  
   -650725.698    23848252.783        3582.616          50.000  
 18  2 16  8 23 17.0000000  0  8G30G01G23G03G09G10G11G05             0.000725015
   -651785.938    22264913.306        3530.071          50.000  
   -240025.696    22006838.816        1258.089          50.000  
    383580.649    22297705.876       -2113.590          50.000  
    555374.517    24731460.264       -3073.205          50.000  
    125374.810    20068394.643        -718.380          50.000  
    254993.266    21018684.723       -1429.275          50.000  
   -418719.318    21004590.120        2197.675          50.000  
   -654308.137    23847571.062        3582.778          50.000  
 18  2 16  8 23 18.0000000  0  8G30G01G23G03G09G10G11G05             0.000725185
   -655315.619    22264241.627        3529.622          50.000  
   -241283.330    22006599.496        1257.623          51.000  
    385694.646    22298108.179       -2113.970          50.000  
    558448.187    24732045.153       -3073.668          50.000  
    126093.670    20068531.430        -718.863          50.000  
    256423.028    21018956.779       -1429.817          50.000  
   -420916.575    21004171.985        2197.485          50.000  
   -657890.774    23846889.323        3582.884          50.000  
 18  2 16  8 23 19.0000000  0  8G30G01G23G03G09G10G11G05             0.000725355
   -658844.844    22263570.038        3529.152          50.000  
   -242540.491    22006360.266        1257.079          50.000  
    387809.034    22298510.518       -2114.429          50.000  
    561522.315    24732630.131       -3074.220          50.000  
    126813.006    20068668.325        -719.409          50.000  
    257853.322    21019228.978       -1430.346          50.000  
   -423113.638    21003753.904        2197.025          50.000  
   -661473.502    23846207.530        3582.906          50.000  
 18  2 16  8 23 20.0000000  0  8G30G01G23G03G09G10G11G05             0.000725525
   -662373.734    22262898.538        3528.666          50.000  
   -243797.325    22006121.089        1256.628          50.000  
    389923.662    22298912.910       -2114.792          50.000  
    564596.756    24733215.198       -3074.638          50.000  
    127532.661    20068805.255        -719.807          50.000  
    259283.982    21019501.230       -1430.854          50.000  
   -425310.531    21003335.858        2196.770          50.000  
   -665056.468    23845525.720        3583.051          50.000  
 18  2 16  8 23 21.0000000  0  8G30G01G23G03G09G10G11G05             0.000725695
   -665902.053    22262227.109        3528.446          50.000  
   -245053.591    22005882.037        1256.388          50.000  
    392038.757    22299315.410       -2114.906          50.000  
    567671.748    24733800.337       -3074.850          50.000  
    128252.885    20068942.311        -720.082          50.000  
    260715.264    21019773.590       -1431.144          50.000  
   -427506.000    21002917.866        2196.650          50.000  
   -668639.433    23844843.909        3583.418          50.000  
 18  2 16  8 23 22.0000000  0  8G30G01G23G03G09G10G11G05             0.000725865
   -669429.946    22261555.770        3527.752          50.000  
   -246309.447    22005643.057        1255.758          50.000  
    394154.151    22299717.964       -2115.466          50.000  
    570747.128    24734385.566       -3075.482          50.000  
    128973.500    20069079.420        -720.700          50.000  
    262147.008    21020046.057       -1432.003          50.000  
   -429703.158    21002499.945        2196.221          50.000  
   -672222.551    23844162.045        3583.262          50.000  
 18  2 16  8 23 23.0000000  0  8G30G01G23G03G09G10G11G05             0.000726035
   -672957.225    22260884.556        3527.163          50.000  
   -247564.705    22005404.184        1255.138          50.000  
    396270.015    22300120.606       -2115.928          50.000  
    573823.082    24734970.901       -3076.067          50.000  
    129694.690    20069216.672        -721.286          50.000  
    263579.448    21020318.631       -1432.543          50.000  
   -431898.912    21002082.113        2195.675          50.000  
   -675805.651    23843480.235        3583.268          50.000  
 18  2 16  8 23 24.0000000  0  8G30G01G23G03G09G10G11G05             0.000726205
   -676484.066    22260213.414        3526.697          50.000  
   -248819.558    22005165.382        1254.725          50.000  
    398386.148    22300523.285       -2116.190          50.000  
    576899.408    24735556.308       -3076.429          50.000  
    130416.258    20069353.977        -721.697          50.000  
    265012.360    21020591.312       -1433.056          50.000  
   -434094.362    21001664.336        2195.339          50.000  
   -679388.912    23842798.353        3583.404          50.000  
 18  2 16  8 23 25.0000000  0  8G30G01G23G03G09G10G11G05             0.000726375
   -680010.552    22259542.324        3526.265          51.000  
   -250074.080    22004926.652        1254.283          50.000  
    400502.454    22300926.017       -2116.411          50.000  
    579976.024    24736141.769       -3076.797          51.000  
    131138.111    20069491.336        -722.016          50.000  
    266445.696    21020864.065       -1433.559          50.000  
   -436289.584    21001246.594        2195.072          50.000  
   -682972.425    23842116.418        3583.556          50.000  
 18  2 16  8 23 26.0000000  0  8G30G01G23G03G09G10G11G05             0.000726545
   -683536.389    22258871.378        3525.705          50.000  
   -251327.994    22004688.047        1253.824          50.000  
    402619.211    22301328.802       -2116.768          50.000  
    583053.204    24736727.337       -3077.244          50.000  
    131860.530    20069628.803        -722.471          50.000  
    267879.725    21021136.943       -1434.360          50.000  
   -438484.223    21000828.977        2194.529          50.000  
   -686555.899    23841434.500        3583.624          50.000  
 18  2 16  8 23 27.0000000  0  8G30G01G23G03G09G10G11G05             0.000726715
   -687061.774    22258200.522        3525.260          50.000  
   -252581.489    22004449.513        1253.380          51.000  
    404736.202    22301731.660       -2116.999          50.000  
    586130.752    24737312.976       -3077.651          50.000  
    132583.313    20069766.341        -722.861          50.000  
    269314.303    21021409.946       -1434.727          50.000  
   -440678.565    21000411.413        2194.266          50.000  
   -690139.535    23840752.547        3583.811          50.000  
 18  2 16  8 23 28.0000000  0  8G30G01G23G03G09G10G11G05             0.000726885
   -690586.539    22257529.790        3524.564          50.000  
   -253834.408    22004211.069        1252.747          50.000  
    406853.573    22302134.588       -2117.476          50.000  
    589208.803    24737898.723       -3078.226          50.000  
    133306.600    20069903.968        -723.401          50.000  
    270749.565    21021683.074       -1435.466          50.000  
   -442872.385    20999993.957        2193.693          50.000  
   -693723.173    23840070.611        3583.715          50.000  
 18  2 16  8 23 29.0000000  0  8G30G01G23G03G09G10G11G05             0.000727054
   -694110.784    22256859.148        3523.973          50.000  
   -255086.844    22003972.750        1252.189          50.000  
    408971.205    22302537.552       -2117.746          50.000  
    592287.258    24738484.523       -3078.655          50.000  
    134030.298    20070041.684        -723.880          50.000  
    272185.423    21021956.309       -1436.100          50.000  
   -445065.754    20999576.555        2193.175          50.000  
   -697306.914    23839388.658        3583.802          50.000  
 18  2 16  8 23 30.0000000  0  8G30G01G23G03G09G10G11G05             0.000727224
   -697634.580    22256188.595        3523.696          50.000  
   -256338.876    22003734.502        1251.974          50.000  
    411089.020    22302940.553       -2117.786          50.000  
    595366.033    24739070.377       -3078.805          50.000  
    134754.312    20070179.455        -724.029          50.000  
    273621.796    21022229.633       -1436.728          50.000  
   -447258.712    20999159.260        2192.839          50.000  
   -700890.825    23838706.668        3584.140          50.000  
 18  2 16  8 23 31.0000000  0  8G30G01G23G03G09G10G11G05             0.000727394
   -701157.926    22255518.131        3523.401          50.000  
   -257590.501    22003496.326        1251.729          50.000  
    413206.984    22303343.588       -2117.710          50.000  
    598445.104    24739656.302       -3078.865          50.000  
    135478.630    20070317.296        -724.156          50.000  
    275058.746    21022503.065       -1436.850          50.000  
   -449451.307    20998742.018        2192.770          50.000  
   -704474.917    23838024.644        3584.486          50.000  
 18  2 16  8 23 32.0000000  0  8G30G01G23G03G09G10G11G05             0.000727564
   -704680.864    22254847.739        3522.958          50.000  
   -258841.760    22003258.221        1251.319          50.000  
    415325.056    22303746.642       -2117.869          50.000  
    601524.435    24740242.263       -3079.235          50.000  
    136203.212    20070455.156        -724.478          50.000  
    276496.191    21022776.604       -1437.428          50.000  
   -451643.525    20998324.830        2192.298          51.000  
   -708059.217    23837342.565        3584.619          50.000  
 18  2 16  8 23 33.0000000  0  8G30G01G23G03G09G10G11G05             0.000727740
   -708203.114    22254177.472        3522.179          50.000  
   -260092.367    22003020.242        1250.569          50.000  
    417443.489    22304149.767       -2118.286          50.000  
    604604.278    24740828.331       -3079.814          50.000  
    136928.318    20070593.140        -725.030          51.000  
    277934.430    21023050.268       -1438.328          51.000  
   -453835.065    20997907.803        2191.486          50.000  
   -711643.457    23836660.522        3584.489          50.000  
 18  2 16  8 23 34.0000000  0  8G30G01G23G03G09G10G11G05             0.000727908
   -711724.868    22253507.294        3521.625          50.000  
   -261342.519    22002782.333        1250.072          50.000  
    419562.083    22304552.928       -2118.547          50.000  
    607684.429    24741414.471       -3080.185          50.000  
    137653.756    20070731.196        -725.473          50.000  
    279373.252    21023324.075       -1439.258          50.000  
   -456026.110    20997490.865        2190.783          50.000  
   -715227.816    23835978.426        3584.536          50.000  
 18  2 16  8 23 35.0000000  0  8G30G01G23G03G09G10G11G05             0.000728077
   -715246.167    22252837.224        3521.251          50.000  
   -262592.247    22002544.533        1249.740          50.000  
    421680.776    22304956.107       -2118.558          50.000  
    610764.843    24742000.664       -3080.355          50.000  
    138379.469    20070869.288        -725.662          50.000  
    280812.711    21023598.007       -1439.499          50.000  
   -458216.686    20997074.016        2190.586          50.000  
   -718812.337    23835296.330        3584.772          50.000  
 18  2 16  8 23 36.0000000  0  8G30G01G23G03G09G10G11G05             0.000728246
   -718766.971    22252167.225        3520.642          50.000  
   -263841.511    22002306.803        1249.152          50.000  
    423799.592    22305359.286       -2118.777          50.000  
    613845.531    24742586.911       -3080.683          50.000  
    139105.486    20071007.451        -726.062          50.000  
    282252.765    21023872.029       -1440.157          50.000  
   -460406.746    20996657.257        2189.974          50.000  
   -722396.981    23834614.198        3584.838          50.000  
 18  2 16  8 23 37.0000000  0  8G30G01G23G03G09G10G11G05             0.000728414
   -722287.133    22251497.369        3519.637          50.000  
   -265090.158    22002069.199        1248.173          50.000  
    425918.664    22305762.536       -2119.374          50.000  
    616926.638    24743173.230       -3081.476          50.000  
    139831.954    20071145.686        -726.883          50.000  
    283693.608    21024146.229       -1441.374          50.000  
   -462596.113    20996240.641        2188.817          50.000  
   -725981.587    23833932.066        3584.407          50.000  
 18  2 16  8 23 38.0000000  0  8G30G01G23G03G09G10G11G05             0.000728583
   -725806.854    22250827.584        3519.751          50.000  
   -266338.385    22001831.666        1248.332          50.000  
    428037.780    22306165.804       -2118.837          50.000  
    620007.950    24743759.584       -3081.085          50.000  
    140558.661    20071283.975        -726.488          50.000  
    285135.007    21024420.501       -1441.628          50.000  
   -464784.970    20995824.096        2188.655          50.000  
   -729566.352    23833249.916        3585.132          50.000  
 18  2 16  8 23 39.0000000  0  8G30G01G23G03G09G10G11G05             0.000728752
   -729325.920    22250157.925        3518.823          50.000  
   -267585.965    22001594.276        1247.363          50.000  
    430157.144    22306569.090       -2119.387          50.000  
    623089.670    24744346.009       -3081.803          50.000  
    141285.821    20071422.352        -727.236          50.000  
    286577.299    21024694.951       -1442.507          50.000  
   -466973.070    20995407.712        2187.862          50.000  
   -733151.054    23832567.766        3584.756          50.000  
 18  2 16  8 23 40.0000000  0  8G30G01G23G03G09G10G11G05             0.000728920
   -732844.501    22249488.354        3518.377          50.000  
   -268833.070    22001356.939        1246.989          50.000  
    432276.565    22306972.412       -2119.436          50.000  
    626171.604    24744932.488       -3081.979          50.000  
    142013.254    20071560.766        -727.545          50.000  
    288020.223    21024969.526       -1443.129          50.000  
   -469160.596    20994991.453        2187.400          50.000  
   -736735.863    23831885.598        3584.895          50.000  
 18  2 16  8 23 41.0000000  0  8G30G01G23G03G09G10G11G05             0.000729089
   -736362.482    22248818.909        3517.885          50.000  
   -270079.568    22001119.746        1246.429          50.000  
    434396.153    22307375.769       -2119.437          50.000  
    629253.866    24745519.021       -3082.226          50.000  
    142741.071    20071699.269        -727.778          50.000  
    289463.928    21025244.263       -1443.869          50.000  
   -471347.394    20994575.319        2186.694          50.000  
   -740320.642    23831203.430        3584.972          50.000  
 18  2 16  8 23 42.0000000  0  8G30G01G23G03G09G10G11G05             0.000729257
   -739879.925    22248149.554        3517.068          50.000  
   -271325.524    22000882.660        1245.648          50.000  
    436515.834    22307779.127       -2119.819          50.000  
    632336.367    24746105.608       -3082.670          51.000  
    143469.203    20071837.825        -728.393          50.000  
    290908.324    21025519.124       -1445.182          50.000  
   -473533.524    20994159.310        2185.458          50.000  
   -743905.455    23830521.262        3584.734          50.000  
 18  2 16  8 23 43.0000000  0  8G30G01G23G03G09G10G11G05             0.000729426
   -743396.729    22247480.323        3516.578          50.000  
   -272570.810    22000645.681        1245.023          50.000  
    438635.698    22308182.520       -2119.873          50.000  
    635419.213    24746692.248       -3082.876          50.000  
    144197.751    20071976.471        -728.645          50.000  
    292353.629    21025794.164       -1445.570          50.000  
   -475718.816    20993743.462        2185.079          50.000  
   -747490.182    23829839.130        3584.775          50.000  
 18  2 16  8 23 44.0000000  0  8G30G01G23G03G09G10G11G05             0.000729594
   -746913.000    22246811.200        3516.377          50.000  
   -273815.544    22000408.827        1244.833          50.000  
    440755.626    22308585.949       -2119.560          50.000  
    638502.278    24747278.941       -3082.805          50.000  
    144926.605    20072115.170        -728.651          50.000  
    293799.669    21026069.347       -1445.978          50.000  
   -477903.418    20993327.757        2184.711          50.000  
   -751074.924    23829156.962        3585.101          50.000  
 18  2 16  8 23 45.0000000  0  8G30G01G23G03G09G10G11G05             0.000729763
   -750428.647    22246142.183        3515.529          50.000  
   -275059.615    22000172.080        1243.963          50.000  
    442875.706    22308989.378       -2119.931          50.000  
    641585.634    24747865.689       -3083.296          50.000  
    145655.852    20072253.941        -729.231          50.000  
    295246.563    21026344.673       -1447.088          50.000  
   -480087.191    20992912.178        2183.618          50.000  
   -754659.574    23828474.830        3584.804          50.000  
 18  2 16  8 23 46.0000000  0  8G30G01G23G03G09G10G11G05             0.000729931
   -753943.689    22245473.310        3514.679          50.000  
   -276303.021    21999935.476        1243.017          50.000  
    444995.915    22309392.842       -2120.290          50.000  
    644669.263    24748452.489       -3083.790          50.000  
    146385.478    20072392.801        -729.832          50.000  
    296694.249    21026620.160       -1448.363          50.000  
   -482270.163    20992496.759        2182.276          50.000  
   -758244.136    23827792.716        3584.475          50.000  
 18  2 16  8 23 47.0000000  0  8G30G01G23G03G09G10G11G05             0.000730099
   -757457.978    22244804.562        3514.066          50.000  
   -277545.611    21999699.016        1242.306          50.000  
    447116.388    22309796.361       -2120.462          50.000  
    647753.295    24749039.362       -3084.041          50.000  
    147115.630    20072531.751        -730.280          50.000  
    298143.032    21026895.861       -1449.072          50.000  
   -484452.078    20992081.554        2181.638          50.000  
   -761828.451    23827110.620        3584.332          50.000  
 18  2 16  8 23 48.0000000  0  8G30G01G23G03G09G10G11G05             0.000730267
   -760971.853    22244135.885        3513.722          50.000  
   -278787.716    21999462.662        1241.921          50.000  
    449236.782    22310199.861       -2120.304          50.000  
    650837.387    24749626.234       -3084.053          50.000  
    147845.963    20072670.736        -730.404          50.000  
    299592.470    21027171.687       -1449.706          50.000  
   -486633.345    20991666.474        2181.076          50.000  
   -765412.845    23826428.541        3584.501          50.000  
 18  2 16  8 23 49.0000000  0  8G30G01G23G03G09G10G11G05             0.000730435
   -764485.286    22243467.316        3513.536          50.000  
   -280029.289    21999226.398        1241.601          50.000  
    451357.119    22310603.344       -2120.006          50.000  
    653921.549    24750213.142       -3083.882          50.000  
    148576.507    20072809.739        -730.367          50.000  
    301042.612    21027447.638       -1450.173          50.000  
   -488813.903    20991251.520        2180.601          50.000  
   -768997.267    23825746.445        3584.744          50.000  
 18  2 16  8 23 50.0000000  0  8G30G01G23G03G09G10G11G05             0.000730604
   -767998.046    22242798.871        3512.500          50.000  
   -281270.090    21998990.295        1240.488          50.000  
    453477.626    22311006.862       -2120.514          50.000  
    657006.006    24750800.104       -3084.552          50.000  
    149307.499    20072948.849        -731.154          50.000  
    302493.679    21027723.768       -1451.735          51.000  
   -490993.513    20990836.762        2178.880          50.000  
   -772581.482    23825064.402        3584.160          50.000  
 18  2 16  8 23 51.0000000  0  8G30G01G23G03G09G10G11G05             0.000730772
   -771510.150    22242130.552        3512.270          50.000  
   -282510.118    21998754.316        1240.155          50.000  
    455598.284    22311410.398       -2120.234          50.000  
    660090.730    24751387.101       -3084.375          50.000  
    150038.921    20073088.031        -731.165          50.000  
    303945.781    21028000.077       -1452.037          50.000  
   -493172.086    20990422.183        2178.638          50.000  
   -776165.480    23824382.377        3584.331          50.000  
 18  2 16  8 23 52.0000000  0  8G30G01G23G03G09G10G11G05             0.000730940
   -775021.614    22241462.322        3511.494          50.000  
   -283749.380    21998518.499        1239.233          50.000  
    457719.074    22311813.970       -2120.525          50.000  
    663175.691    24751974.170       -3084.720          50.000  
    150770.760    20073227.302        -731.715          50.000  
    305398.819    21028276.582       -1453.097          50.000  
   -495349.706    20990007.782        2177.546          50.000  
   -779749.272    23823700.406        3584.021          50.000  
 18  2 16  8 23 53.0000000  0  8G30G01G23G03G09G10G11G05             0.000731108
   -778532.615    22240794.199        3510.696          50.000  
   -284988.030    21998282.788        1238.244          50.000  
    459839.816    22312217.542       -2120.785          50.000  
    666260.719    24752561.239       -3085.136          50.000  
    151502.842    20073366.627        -732.262          50.000  
    306852.642    21028553.231       -1454.248          50.000  
   -497526.509    20989593.543        2176.335          50.000  
   -783333.009    23823018.453        3583.616          50.000  
 18  2 16  8 23 54.0000000  0  8G30G01G23G03G09G10G11G05             0.000731276
   -782043.061    22240126.184        3510.011          50.000  
   -286225.969    21998047.203        1237.396          50.000  
    461960.610    22312621.114       -2120.965          50.000  
    669345.884    24753148.344       -3085.415          50.000  
    152235.273    20073506.005        -732.758          50.000  
    308307.312    21028830.040       -1455.491          50.000  
   -499702.431    20989179.464        2174.996          50.000  
   -786916.580    23822336.499        3583.325          50.000  
 18  2 16  8 23 55.0000000  0  8G30G01G23G03G09G10G11G05             0.000731444
   -785552.986    22239458.257        3509.881          50.000  
   -287463.212    21997811.779        1237.065          50.000  
    464081.415    22313024.685       -2120.622          50.000  
    672431.156    24753735.448       -3085.153          50.000  
    152968.017    20073645.437        -732.748          50.000  
    309762.922    21029107.045       -1455.786          50.000  
   -501877.371    20988765.582        2174.755          50.000  
   -790500.003    23821654.599        3583.541          50.000  
 18  2 16  8 23 56.0000000  0  8G30G01G23G03G09G10G11G05             0.000731623
   -789062.511    22238790.421        3509.286          50.000  
   -288699.871    21997576.462        1236.326          50.000  
    466202.110    22313428.257       -2120.700          50.000  
    675516.390    24754322.553       -3085.252          50.000  
    153700.946    20073784.905        -733.053          50.000  
    311219.287    21029384.176       -1456.744          50.000  
   -504051.529    20988351.860        2173.740          50.000  
   -794083.384    23820972.700        3583.304          50.000  
 18  2 16  8 23 57.0000000  0  8G30G01G23G03G09G10G11G05             0.000731792
   -792571.496    22238122.673        3508.618          50.000  
   -289935.780    21997341.270        1235.417          50.000  
    468322.843    22313831.829       -2120.856          50.000  
    678601.736    24754909.675       -3085.475          50.000  
    154434.232    20073924.444        -733.590          50.000  
    312676.556    21029661.467       -1457.823          50.000  
   -506224.723    20987938.317        2172.636          50.000  
   -797666.557    23820290.836        3582.948          50.000  
 18  2 16  8 23 58.0000000  0  8G30G01G23G03G09G10G11G05             0.000731961
   -796080.094    22237455.015        3508.743          50.000  
   -291171.084    21997106.185        1235.295          50.000  
    470443.459    22314235.365       -2120.237          50.000  
    681687.036    24755496.798       -3084.979          51.000  
    155167.705    20074064.019        -733.233          50.000  
    314134.551    21029938.920       -1458.253          51.000  
   -508397.140    20987524.935        2172.054          50.000  
   -801249.664    23819608.989        3583.377          50.000  
 18  2 16  8 23 59.0000000  0  8G30G01G23G03G09G10G11G05             0.000732130
   -799588.157    22236787.446        3507.995          50.000  
   -292405.617    21996871.261        1234.332          50.000  
    472564.115    22314638.902       -2120.460          50.000  
    684772.421    24756083.920       -3085.241          50.000  
    155901.540    20074203.648        -733.837          50.000  
    315593.552    21030216.569       -1459.182          50.000  
   -510568.484    20987111.732        2171.171          50.000  
   -804832.532    23818927.197        3582.939          50.000  
 18  2 16  8 24  1.0000000  0  8G30G01G23G03G09G10G11G05             0.000732468
   -806602.833    22235452.594        3507.058          50.000  
   -294872.464    21996401.841        1232.893          50.000  
    476805.409    22315445.992       -2120.434          50.000  
    690943.298    24757258.237       -3085.262          50.000  
    157370.139    20074483.119        -734.365          50.000  
    318514.198    21030772.349       -1460.936          50.000  
   -514908.361    20986285.879        2169.222          50.000  
   -811997.631    23817563.719        3582.519          50.000  
 18  2 16  8 24  2.0000000  0  8G30G01G23G03G09G10G11G05             0.000732637
   -810109.432    22234785.311        3506.342          51.000  
   -296104.724    21996167.346        1231.826          50.000  
    478926.076    22315849.546       -2120.688          50.000  
    694028.798    24757845.377       -3085.545          50.000  
    158104.946    20074622.927        -735.000          50.000  
    319975.859    21031050.498       -1462.317          50.000  
   -517076.873    20985873.230        2167.759          50.000  
   -815579.808    23816882.051        3581.987          50.000  
 18  2 16  8 24  3.0000000  0  8G30G01G23G03G09G10G11G05             0.000732806
   -813615.458    22234118.136        3505.954          50.000  
   -297336.118    21995933.012        1231.189          50.000  
    481046.844    22316253.100       -2120.616          50.000  
    697114.411    24758432.553       -3085.447          50.000  
    158840.178    20074762.841        -735.220          50.000  
    321438.578    21031328.826       -1462.963          50.000  
   -519244.231    20985460.795        2167.108          50.000  
   -819161.634    23816200.455        3581.844          50.000  
 18  2 16  8 24  4.0000000  0  8G30G01G23G03G09G10G11G05             0.000732974
   -817120.979    22233451.049        3505.299          50.000  
   -298566.686    21995698.856        1230.205          50.000  
    483167.652    22316656.689       -2120.779          50.000  
    700200.074    24759019.729       -3085.669          50.000  
    159575.783    20074902.827        -735.768          50.000  
    322902.252    21031607.368       -1464.078          50.000  
   -521410.577    20985048.539        2165.914          50.000  
   -822743.152    23815518.913        3581.378          50.000  
 18  2 16  8 24  5.0000000  0  8G30G01G23G03G09G10G11G05             0.000733143
   -820625.963    22232784.070        3504.839          50.000  
   -299796.383    21995464.844        1229.386          50.000  
    485288.550    22317060.279       -2120.840          50.000  
    703285.815    24759606.941       -3085.653          51.000  
    160311.799    20075042.884        -736.126          50.000  
    324366.909    21031886.089       -1465.000          50.000  
   -523575.861    20984636.497        2164.892          50.000  
   -826324.311    23814837.442        3581.085          50.000  
 18  2 16  8 24  6.0000000  0  8G30G01G23G03G09G10G11G05             0.000733312
   -824130.701    22232117.145        3504.800          50.000  
   -301025.496    21995230.956        1229.046          50.000  
    487409.244    22317463.815       -2120.355          50.000  
    706371.337    24760194.099       -3085.236          50.000  
    161047.948    20075182.960        -736.007          51.000  
    325832.241    21032164.935       -1465.580          51.000  
   -525740.405    20984224.598        2164.112          50.000  
   -829905.386    23814155.989        3581.221          51.000  
 18  2 16  8 24  7.0000000  0  8G30G01G23G03G09G10G11G05             0.000733480
   -827634.985    22231450.291        3504.258          50.000  
   -302253.777    21994997.211        1228.054          50.000  
    489529.969    22317867.387       -2120.518          50.000  
    709456.860    24760781.258       -3085.319          50.000  
    161784.454    20075323.106        -736.490          50.000  
    327298.558    21032443.960       -1466.592          50.000  
   -527903.881    20983812.914        2163.210          50.000  
   -833486.147    23813474.572        3580.800          50.000  
 18  2 16  8 24  8.0000000  0  8G30G01G23G03G09G10G11G05             0.000733649
   -831138.921    22230783.526        3503.900          50.000  
   -303481.335    21994763.609        1227.312          50.000  
    491650.621    22318270.923       -2120.442          50.000  
    712542.269    24761368.398       -3085.209          50.000  
    162521.215    20075463.307        -736.702          50.000  
    328765.693    21032723.128       -1467.345          50.000  
   -530066.456    20983401.390        2162.323          50.000  
   -837066.675    23812793.244        3580.552          50.000  
 18  2 16  8 24  9.0000000  0  8G30G01G23G03G09G10G11G05             0.000733818
   -834642.193    22230116.886        3502.828          50.000  
   -304707.834    21994530.222        1225.807          50.000  
    493771.532    22318674.531       -2121.166          50.000  
    715627.886    24761955.574       -3085.834          50.000  
    163258.573    20075603.614        -737.765          50.000  
    330233.982    21033002.528       -1468.993          50.000  
   -532227.803    20982990.099        2160.635          50.000  
   -840646.646    23812111.987        3579.547          50.000  
 18  2 16  8 24 10.0000000  0  8G30G01G23G03G09G10G11G05             0.000733985
   -838145.056    22229450.318        3502.582          50.000  
   -305933.518    21994296.996        1225.196          50.000  
    495892.453    22319078.121       -2120.988          50.000  
    718713.461    24762542.750       -3085.637          50.000  
    163996.272    20075744.011        -737.957          50.000  
    331703.129    21033282.107       -1469.707          50.000  
   -534388.223    20982578.986        2159.728          50.000  
   -844226.293    23811430.820        3579.406          50.000  
 18  2 16  8 24 11.0000000  0  8G30G01G23G03G09G10G11G05             0.000734154
   -841647.534    22228783.821        3502.300          50.000  
   -307158.389    21994063.912        1224.482          50.000  
    498013.386    22319481.728       -2120.933          50.000  
    721798.969    24763129.908       -3085.458          50.000  
    164734.309    20075884.462        -738.188          50.000  
    333173.223    21033561.864       -1470.520          50.000  
   -536547.612    20982168.070        2158.973          50.000  
   -847805.617    23810749.689        3579.188          50.000  
 18  2 16  8 24 12.0000000  0  8G30G01G23G03G09G10G11G05             0.000734323
   -845149.562    22228117.414        3502.009          50.000  
   -308382.378    21993830.989        1223.787          50.000  
    500134.395    22319885.336       -2120.840          50.000  
    724884.478    24763717.067       -3085.331          50.000  
    165472.759    20076024.984        -738.440          50.000  
    334644.254    21033841.764       -1471.274          50.000  
   -538705.980    20981757.351        2158.137          50.000  
   -851384.537    23810068.647        3578.889          50.000  
 18  2 16  8 24 13.0000000  0  8G30G01G23G03G09G10G11G05             0.000734491
   -848651.443    22227451.025        3501.778          50.000  
   -309605.763    21993598.174        1223.072          50.000  
    502255.203    22320288.908       -2120.733          50.000  
    727969.683    24764304.171       -3085.070          50.000  
    166211.331    20076165.524        -738.642          50.000  
    336115.956    21034121.826       -1472.042          50.000  
   -540863.611    20981346.756        2157.282          50.000  
   -854963.348    23809387.604        3578.713          50.000  
 18  2 16  8 24 14.0000000  0  8G30G01G23G03G09G10G11G05             0.000734660
   -852152.837    22226784.724        3501.370          50.000  
   -310828.190    21993365.537        1222.093          50.000  
    504376.168    22320692.516       -2120.877          50.000  
    731054.943    24764891.276       -3085.080          50.000  
    166950.390    20076306.153        -739.104          50.000  
    337588.625    21034402.065       -1472.978          50.000  
   -543020.214    20980936.376        2156.210          50.000  
   -858541.672    23808706.670        3578.255          50.000  
 18  2 16  8 24 15.0000000  0  8G30G01G23G03G09G10G11G05             0.000734828
   -855653.990    22226118.478        3500.944          50.000  
   -312049.909    21993133.061        1221.271          50.000  
    506497.048    22321096.105       -2120.897          50.000  
    734140.007    24765478.345       -3085.019          50.000  
    167689.689    20076446.836        -739.505          50.000  
    339062.091    21034682.448       -1473.908          50.000  
   -545175.929    20980526.157        2155.254          50.000  
   -862119.763    23808025.788        3577.859          50.000  
 18  2 16  8 24 16.0000000  0  8G30G01G23G03G09G10G11G05             0.000734997
   -859154.754    22225452.303        3500.628          50.000  
   -313270.740    21992900.728        1220.444          50.000  
    508618.021    22321499.731       -2120.983          50.000  
    737225.040    24766065.414       -3084.975          50.000  
    168429.400    20076587.590        -739.870          50.000  
    340536.470    21034963.028       -1474.822          50.000  
   -547330.669    20980116.135        2154.270          50.000  
   -865697.441    23807344.979        3577.496          50.000  
 18  2 16  8 24 17.0000000  0  8G30G01G23G03G09G10G11G05             0.000735165
   -862655.167    22224786.199        3500.439          51.000  
   -314490.722    21992668.592        1219.770          50.000  
    510739.050    22321903.356       -2120.813          50.000  
    740309.995    24766652.447       -3084.722          50.000  
    169169.495    20076728.434        -740.060          50.000  
    342011.708    21035243.750       -1475.467          50.000  
   -549484.481    20979706.273        2153.580          50.000  
   -869274.738    23806664.240        3577.321          50.000  
 18  2 16  8 24 18.0000000  0  8G30G01G23G03G09G10G11G05             0.000735334
   -866155.326    22224120.131        3499.986          50.000  
   -315709.931    21992436.580        1218.775          50.000  
    512860.071    22322306.964       -2120.984          50.000  
    743394.796    24767239.462       -3084.757          50.000  
    169909.894    20076869.313        -740.543          50.000  
    343487.732    21035524.633       -1476.441          50.000  
   -551637.459    20979296.572        2152.476          50.000  
   -872851.724    23805983.538        3576.803          50.000  
 18  2 16  8 24 19.0000000  0  8G30G01G23G03G09G10G11G05             0.000735502
   -869655.042    22223454.153        3499.387          50.000  
   -316928.181    21992204.747        1217.716          50.000  
    514981.283    22322710.625       -2121.365          50.000  
    746479.625    24767826.495       -3084.902          50.000  
    170650.795    20077010.300        -741.193          50.000  
    344964.735    21035805.713       -1477.552          50.000  
   -553789.388    20978887.067        2151.339          50.000  
   -876428.220    23805302.978        3576.200          50.000  
 18  2 16  8 24 20.0000000  0  8G30G01G23G03G09G10G11G05             0.000735670
   -873154.350    22222788.264        3499.185          50.000  
   -318145.476    21991973.111        1216.857          50.000  
    517102.676    22323114.304       -2121.468          50.000  
    749564.472    24768413.528       -3084.808          50.000  
    171392.189    20077151.375        -741.581          50.000  
    346442.701    21036086.954       -1478.382          50.000  
   -555940.303    20978477.760        2150.451          50.000  
   -880004.218    23804622.472        3575.856          50.000  
 18  2 16  8 24 21.0000000  0  8G30G01G23G03G09G10G11G05             0.000735838
   -876653.532    22222122.393        3499.398          50.000  
   -319362.110    21991741.582        1216.565          50.000  
    519223.965    22323517.965       -2120.956          50.000  
    752649.054    24769000.508       -3084.192          50.000  
    172133.790    20077292.505        -741.392          50.000  
    347921.302    21036368.337       -1478.652          50.000  
   -558090.540    20978068.577        2150.133          50.000  
   -883580.006    23803942.020        3575.946          50.000  
 18  2 16  8 24 22.0000000  0  8G30G01G23G03G09G10G11G05             0.000736007
   -880152.380    22221456.575        3498.456          50.000  
   -320577.858    21991510.232        1215.128          50.000  
    521345.402    22323921.662       -2121.717          50.000  
    755733.584    24769587.469       -3084.688          50.000  
    172875.839    20077433.706        -742.467          50.000  
    349400.751    21036649.864       -1479.901          50.000  
   -560239.881    20977659.591        2148.784          50.000  
   -887155.362    23803261.639        3574.939          50.000  
 18  2 16  8 24 23.0000000  0  8G30G01G23G03G09G10G11G05             0.000736175
   -883650.445    22220790.936        3498.138          50.000  
   -321792.253    21991279.150        1214.188          50.000  
    523467.443    22324325.467       -2121.881          50.000  
    758818.534    24770174.520       -3084.683          50.000  
    173618.793    20077575.068        -742.956          50.000  
    350881.538    21036931.640       -1480.993          51.000  
   -562387.837    20977250.855        2147.741          51.000  
   -890729.822    23802581.454        3574.472          50.000  
 18  2 16  8 24 24.0000000  0  8G30G01G23G03G09G10G11G05             0.000736342
   -887148.494    22220125.279        3497.947          50.000  
   -323006.074    21991048.157        1213.449          50.000  
    525589.333    22324729.253       -2121.909          50.000  
    761903.137    24770761.500       -3084.541          50.000  
    174361.888    20077716.483        -743.254          50.000  
    352362.874    21037213.524       -1481.738          50.000  
   -564535.213    20976842.226        2146.968          50.000  
   -894304.154    23801901.288        3574.203          50.000  
 18  2 16  8 24 25.0000000  0  8G30G01G23G03G09G10G11G05             0.000736510
   -890646.284    22219459.658        3497.745          50.000  
   -324219.058    21990817.325        1212.692          50.000  
    527711.345    22325133.057       -2121.947          50.000  
    764987.649    24771348.480       -3084.393          50.000  
    175105.395    20077857.970        -743.600          50.000  
    353844.981    21037495.586       -1482.395          50.000  
   -566681.789    20976433.740        2146.261          50.000  
   -897878.084    23801221.193        3573.811          50.000  
 18  2 16  8 24 26.0000000  0  8G30G01G23G03G09G10G11G05             0.000736678
   -894144.103    22218794.055        3498.219          50.000  
   -325431.482    21990586.618        1212.498          50.000  
    529833.209    22325536.843       -2121.439          50.000  
    768071.792    24771935.370       -3083.587          50.000  
    175849.036    20077999.493        -743.352          50.000  
    355327.597    21037777.720       -1482.378          50.000  
   -568827.842    20976025.361        2146.258          50.000  
   -901451.914    23800541.116        3574.099          50.000  
 18  2 16  8 24 29.0000000  0  8G30G01G23G03G09G10G11G05             0.000737182
   -904636.635    22216797.388        3497.348          50.000  
   -329064.314    21989895.319        1209.858          50.000  
    536199.158    22326748.274       -2122.043          50.000  
    777323.222    24773695.879       -3083.527          50.000  
    178081.968    20078424.383        -744.769          50.000  
    359779.451    21038624.873       -1484.922          50.000  
   -575261.902    20974801.012        2143.717          51.000  
   -912171.595    23798501.224        3572.791          50.000  
 18  2 16  8 24 30.0000000  0  8G30G01G23G03G09G10G11G05             0.000737351
   -908133.764    22216131.892        3497.149          50.000  
   -330273.693    21989665.202        1209.099          50.000  
    538321.395    22327152.114       -2122.192          50.000  
    780406.809    24774282.662       -3083.394          50.000  
    178827.064    20078566.173        -745.166          50.000  
    361264.813    21038907.525       -1485.471          50.000  
   -577405.181    20974393.169        2143.308          50.000  
   -915744.131    23797821.397        3572.475          50.000  
 18  2 16  8 24 31.0000000  0  8G30G01G23G03G09G10G11G05             0.000737519
   -911630.676    22215466.467        3497.036          50.000  
   -331482.253    21989435.228        1208.451          50.000  
    540443.826    22327555.989       -2122.238          50.000  
    783490.336    24774869.428       -3083.186          50.000  
    179572.603    20078708.053        -745.430          50.000  
    362750.868    21039190.302       -1486.164          50.000  
   -579547.767    20973985.434        2142.434          50.000  
   -919316.286    23797141.641        3572.294          50.000  
 18  2 16  8 24 32.0000000  0  8G30G01G23G03G09G10G11G05             0.000737687
   -915127.405    22214801.061        3496.645          50.000  
   -332690.024    21989205.396        1207.413          50.000  
    542566.423    22327959.919       -2122.682          50.000  
    786573.781    24775456.193       -3083.347          50.000  
    180318.568    20078850.023        -746.155          50.000  
    364237.615    21039473.223       -1487.128          50.000  
   -581689.680    20973577.859        2141.510          50.000  
   -922888.082    23796461.957        3571.633          50.000  
 18  2 16  8 24 33.0000000  0  8G30G01G23G03G09G10G11G05             0.000737854
   -918624.041    22214135.654        3496.370          50.000  
   -333897.105    21988975.708        1206.555          50.000  
    544689.111    22328363.848       -2122.933          50.000  
    789657.060    24776042.922       -3083.385          50.000  
    181064.865    20078992.046        -746.700          50.000  
    365724.945    21039756.250       -1487.828          50.000  
   -583831.037    20973170.374        2140.831          50.000  
   -926459.625    23795782.327        3571.204          50.000  
 18  2 16  8 24 36.0000000  0  8G30G01G23G03G09G10G11G05             0.000738354
   -929112.811    22212139.702        3496.467          50.000  
   -337513.616    21988287.500        1204.837          50.000  
    551058.511    22329575.939       -2122.990          50.000  
    798906.638    24777803.057       -3082.689          50.000  
    183306.471    20079418.615        -747.376          51.000  
    370190.921    21040606.101       -1489.179  