     3.04           OBSERVATION DATA    G: GPS              RINEX VERSION / TYPE
RTKCONV demo5 b34i                      20250515 063314 UTC PGM / RUN BY / DATE 
format: u-blox UBX                                          COMMENT             
log: D:\20242\NGUYENDS\GNSS_DOA_Spoofing\hai\ngoc\SP-2025-05COMMENT             
                                                            MARKER NAME         
                                                            MARKER NUMBER       
                                                            MARKER TYPE         
                                                            OBSERVER / AGENCY   
                                                            REC # / TYPE / VERS 
                                                            ANT # / TYPE        
 -1626590.9295  5730536.5412  2271875.2625                  APPROX POSITION XYZ 
        0.0000        0.0000        0.0000                  ANTENNA: DELTA H/E/N
G    8 C1C L1C D1C S1C C2X L2X D2X S2X                      SYS / # / OBS TYPES 
  2025    05    12    10    25   38.9980000     GPS         TIME OF FIRST OBS   
  2025    05    12    10    26   16.9980000     GPS         TIME OF LAST OBS    
G L1C                                                       SYS / PHASE SHIFT   
G L2X  0.00000                                              SYS / PHASE SHIFT   
  0                                                         GLONASS SLOT / FRQ #
                                                            GLONASS COD/PHS/BIS 
                                                            END OF HEADER       
> 2025 05 12 10 25 38.9980000  0  9                     
G20  23537385.224   123689788.2621      -1481.663          30.000                                                                  
G11  24023200.706   126242762.3831      -2793.905          32.000    24023214.515    98371058.1681      -2176.860          35.000  
G23  22637027.936   118958384.1571       1305.206          33.000    22637040.330    92694900.5901       1017.501          36.000  
G24  21507317.207   113021709.4801       2953.882          35.000    21507329.702    88068924.4891       2301.577          37.000  
G05  21889428.911   115029725.0111      -1163.087          37.000    21889437.626    89633583.0911       -906.151          35.000  
G29  20682488.507   108687192.7191      -1358.659          39.000    20682495.940    84691364.7121      -1058.720          37.000  
G13  20973082.563   110214281.0291      -2858.484          38.000                                                                  
G15  19381884.443   101852482.0271       -789.081          41.000    19381889.556    79365599.7561       -614.662          40.000  
G18  21866459.274   114909000.2861       2901.532          37.000    21866468.174    89539540.1421       2260.911          39.000  
> 2025 05 12 10 25 39.9980000  0  9                     
G20  23537667.012   123691269.211       -1481.567          30.000                                                                  
G11  24023731.957   126245555.349       -2792.855          32.000    24023746.085    98373234.545       -2176.471          35.000  
G23  22636779.277   118957077.438        1306.495          33.000    22636791.716    92693882.390        1017.805          36.000  
G24  21506755.096   113018755.267        2954.890          35.000    21506767.591    88066622.526        2301.695          37.000  
G05  21889650.195   115030887.611       -1162.938          37.000    21889658.852    89634489.010        -906.288          35.000  
G29  20682746.959   108688550.935       -1358.876          39.000    20682754.530    84692423.052       -1058.504          37.000  
G13  20973626.416   110217139.214       -2858.531          38.000                                                                  
G15  19382034.592   101853270.591        -788.756          41.000    19382039.614    79366214.246        -614.983          40.000  
G18  21865907.074   114906098.217        2902.309          37.000    21865916.072    89537278.839        2260.830          39.000  
> 2025 05 12 10 25 40.9980000  0  9                     
G20  23537948.889   123692750.470       -1481.582          30.000                                                                  
G11  24024263.632   126248349.032       -2794.590          32.000    24024277.677    98375411.453       -2178.249          35.000  
G23  22636530.583   118955771.084        1305.861          33.000    22636543.038    92692864.467        1017.290          36.000  
G24  21506193.058   113015801.755        2952.599          35.000    21506205.570    88064321.070        2300.531          37.000  
G05  21889871.527   115032050.590       -1163.544          37.000    21889880.212    89635395.215        -906.423          35.000  
G29  20683005.638   108689910.043       -1359.715          39.000    20683013.183    84693482.131       -1059.840          37.000  
G13  20974170.361   110219998.106       -2859.664          38.000                                                                  
G15  19382184.752   101854060.026        -790.378          41.000    19382189.842    79366829.368        -615.690          40.000  
G18  21865354.977   114903196.692        2900.727          37.000    21865363.936    89535017.889        2260.309          39.000  
> 2025 05 12 10 25 41.9980000  0  9                     
G20  23538230.866   123694231.925       -1481.532          30.000                                                                  
G11  24024795.212   126251143.000       -2793.958          32.000    24024809.381    98377588.513       -2176.497          35.000  
G23  22636282.063   118954464.734        1306.940          33.000    22636294.375    92691846.540        1018.304          36.000  
G24  21505631.035   113012848.448        2953.945          35.000    21505643.596    88062019.791        2301.766          37.000  
G05  21890092.919   115033213.596       -1162.705          37.000    21890101.570    89636301.463        -905.988          35.000  
G29  20683264.363   108691269.772       -1359.690          39.000    20683271.883    84694541.634       -1059.473          37.000  
G13  20974714.433   110222857.332       -2858.815          38.000                                                                  
G15  19382335.098   101854849.950        -789.739          41.000    19382340.243    79367444.900        -615.198          40.000  
G18  21864802.890   114900295.314        2901.195          37.000    21864811.764    89532757.073        2260.917          39.000  
> 2025 05 12 10 25 42.9980000  0  9                     
G20  23538512.619   123695713.575       -1482.167          30.000                                                                  
G11  24025327.089   126253937.358       -2793.872          32.000    24025341.134    98379766.004       -2177.484          35.000  
G23  22636033.400   118953158.611        1306.155          33.000    22636045.859    92690828.779        1018.171          36.000  
G24  21505069.225   113009895.613        2953.240          35.000    21505081.739    88059718.889        2300.800          37.000  
G05  21890314.246   115034376.809       -1162.636          37.000    21890322.917    89637207.868        -906.276          35.000  
G29  20683523.219   108692630.220       -1360.545          39.000    20683530.726    84695601.709       -1059.901          37.000  
G13  20975258.661   110225717.107       -2859.720          38.000                                                                  
G15  19382485.534   101855640.567        -790.401          41.000    19382490.754    79368060.980        -615.846          40.000  
G18  21864250.786   114897394.219        2901.491          37.000    21864259.737    89530496.499        2260.850          39.000  
> 2025 05 12 10 25 43.9980000  0  9                     
G20  23538794.697   123697195.439       -1483.753          30.000                                                                  
G11  24025858.805   126256732.155       -2795.567          32.000    24025873.045    98381943.784       -2179.236          35.000  
G23  22635784.799   118951852.521        1305.771          33.000    22635797.315    92689811.105        1016.780          36.000  
G24  21504507.188   113006943.161        2951.469          35.000    21504519.864    88057418.261        2299.719          37.000  
G05  21890535.628   115035540.179       -1164.091          37.000    21890544.309    89638114.387        -907.164          35.000  
G29  20683782.258   108693991.340       -1362.008          39.000    20683789.847    84696662.337       -1061.249          37.000  
G13  20975803.074   110228577.341       -2861.069          38.000                                                                  
G15  19382636.046   101856431.797        -792.155          41.000    19382641.350    79368677.508        -617.027          40.000  
G18  21863698.814   114894493.408        2900.203          37.000    21863707.808    89528236.161        2259.349          39.000  
> 2025 05 12 10 25 44.9980000  0  9                     
G20  23539076.586   123698676.800       -1482.563          30.000                                                                  
G11  24026390.494   126259526.683       -2795.071          32.000    24026404.745    98384121.292       -2177.485          35.000  
G23  22635536.031   118950545.972        1306.379          33.000    22635548.713    92688793.011        1017.716          36.000  
G24  21503945.325   113003990.430        2952.266          35.000    21503957.975    88055117.422        2300.470          37.000  
G05  21890756.767   115036703.043       -1163.224          37.000    21890765.595    89639020.515        -906.447          36.000  
G29  20684041.275   108695352.501       -1361.585          39.000    20684048.923    84697722.992       -1061.381          37.000  
G13  20976347.322   110231437.358       -2860.227          38.000                                                                  
G15  19382786.690   101857222.975        -791.917          41.000    19382791.934    79369294.016        -616.897          40.000  
G18  21863146.681   114891592.209        2900.595          37.000    21863155.626    89525975.491        2260.289          39.000  
> 2025 05 12 10 25 45.9980000  0  9                     
G20  23539358.480   123700158.623       -1482.625          30.000                                                                  
G11  24026922.454   126262321.939       -2796.375          32.000    24026936.696    98386299.392       -2178.441          35.000  
G23  22635287.403   118949239.773        1306.323          33.000    22635300.103    92687775.205        1017.439          36.000  
G24  21503383.434   113001038.359        2951.537          35.000    21503396.139    88052817.110        2300.372          37.000  
G05  21890978.149   115037866.327       -1163.457          37.000    21890986.898    89639926.945        -906.147          35.000  
G29  20684300.488   108696714.630       -1362.510          39.000    20684308.106    84698784.367       -1061.730          37.000  
G13  20976891.635   110234298.169       -2860.814          38.000                                                                  
G15  19382937.307   101858015.056        -792.369          41.000    19382942.626    79369911.229        -617.646          40.000  
G18  21862594.706   114888691.571        2900.377          38.000    21862603.568    89523715.259        2259.913          39.000  
> 2025 05 12 10 25 46.9980000  0  9                     
G20  23539640.470   123701640.339       -1481.734          30.000                                                                  
G11  24027454.622   126265117.312       -2797.349          32.000    24027468.625    98388477.623       -2179.536          35.000  
G23  22635039.042   118947933.484        1305.398          33.000    22635051.474    92686757.336        1016.540          36.000  
G24  21502821.728   112998086.424        2950.183          35.000    21502834.495    88050516.901        2299.214          37.000  
G05  21891199.568   115039029.518       -1164.440          38.000    21891208.255    89640833.339        -907.392          35.000  
G29  20684559.717   108698077.211       -1364.072          39.000    20684567.385    84699846.114       -1063.000          37.000  
G13  20977436.027   110237159.203       -2862.285          38.000                                                                  
G15  19383088.080   101858807.515        -793.750          41.000    19383093.386    79370528.723        -618.713          40.000  
G18  21862042.726   114885790.934        2899.300          38.000    21862051.629    89521455.038        2259.016          39.000  
> 2025 05 12 10 25 47.9980000  0  9                     
G20  23539922.616   123703122.514       -1481.870          30.000                                                                  
G11  24027986.903   126267913.226       -2796.299          32.000    24028000.679    98390656.269       -2178.830          35.000  
G23  22634790.466   118946627.476        1306.500          33.000    22634802.961    92685739.675        1017.994          36.000  
G24  21502260.146   112995135.050        2951.042          35.000    21502272.970    88048217.139        2299.904          37.000  
G05  21891420.882   115040193.017       -1163.409          37.000    21891429.743    89641739.951        -906.404          35.000  
G29  20684819.107   108699440.627       -1363.546          39.000    20684826.760    84700908.520       -1062.315          37.000  
G13  20977980.632   110240020.883       -2861.890          38.000                                                                  
G15  19383239.025   101859600.765        -793.327          41.000    19383244.280    79371146.839        -617.964          40.000  
G18  21861490.727   114882890.754        2900.238          38.000    21861499.627    89519195.151        2259.969          39.000  
> 2025 05 12 10 25 48.9980000  0  9                     
G20  23540204.522   123704604.744       -1482.809          30.000                                                                  
G11  24028518.724   126270709.434       -2796.956          32.000    24028532.791    98392835.129       -2179.052          35.000  
G23  22634542.004   118945321.494        1305.521          33.000    22634554.495    92684722.023        1017.355          36.000  
G24  21501698.534   112992183.956        2950.436          35.000    21501711.368    88045917.587        2298.896          37.000  
G05  21891642.307   115041356.535       -1164.172          37.000    21891651.240    89642646.603        -907.210          35.000  
G29  20685078.680   108700804.622       -1364.579          39.000    20685086.317    84701971.366       -1063.063          37.000  
G13  20978525.255   110242882.900       -2862.782          38.000                                                                  
G15  19383390.054   101860394.503        -794.305          41.000    19383395.368    79371765.354        -618.988          40.000  
G18  21860938.928   114879990.721        2899.388          38.000    21860947.784    89516935.390        2259.264          39.000  
> 2025 05 12 10 25 49.9980000  0  9                     
G20  23540486.602   123706087.157       -1481.765          30.000                                                                  
G11  24029050.921   126273505.992       -2795.027          32.000    24029064.943    98395014.251       -2177.242          35.000  
G23  22634293.539   118944015.607        1307.107          33.000    22634305.931    92683704.433        1018.924          36.000  
G24  21501136.963   112989233.141        2952.635          35.000    21501149.852    88043618.307        2300.125          37.000  
G05  21891863.704   115042520.152       -1162.418          37.000    21891872.626    89643553.294        -904.882          35.000  
G29  20685338.449   108702169.272       -1363.558          39.000    20685345.909    84703034.753       -1062.685          37.000  
G13  20979070.044   110245745.329       -2860.922          38.000                                                                  
G15  19383541.320   101861188.828        -792.887          41.000    19383546.521    79372384.296        -617.728          40.000  
G18  21860387.013   114877090.909        2901.058          38.000    21860395.873    89514675.805        2260.866          39.000  
> 2025 05 12 10 25 50.9980000  0  9                     
G20  23540768.818   123707569.525       -1480.301          30.000                                                                  
G11  24029582.998   126276302.890       -2796.805          32.000    24029597.159    98397193.668       -2178.283          35.000  
G23  22634045.023   118942709.714        1307.084          33.000    22634057.343    92682686.871        1018.940          36.000  
G24  21500575.594   112986282.731        2951.263          36.000    21500588.459    88041319.256        2299.358          37.000  
G05  21892085.230   115043683.851       -1162.704          37.000    21892094.164    89644460.103        -905.874          35.000  
G29  20685598.226   108703534.512       -1364.358          39.000    20685605.638    84704098.551       -1062.951          37.000  
G13  20979614.765   110248608.168       -2861.555          38.000                                                                  
G15  19383692.623   101861983.671        -793.589          41.000    19383697.795    79373003.656        -618.572          40.000  
G18  21859835.238   114874191.261        2900.793          38.000    21859844.111    89512416.364        2260.191          39.000  
> 2025 05 12 10 25 51.9980000  0  9                     
G20  23541051.000   123709052.059       -1482.051          31.000                                                                  
G11  24030115.225   126279099.987       -2796.200          32.000    24030129.417    98399373.236       -2179.133          35.000  
G23  22633796.532   118941403.758        1307.104          33.000    22633808.715    92681669.282        1018.174          36.000  
G24  21500014.260   112983332.442        2951.029          35.000    21500026.966    88039020.300        2299.986          37.000  
G05  21892306.706   115044847.492       -1162.693          38.000    21892315.608    89645366.828        -906.288          35.000  
G29  20685858.109   108704900.214       -1364.746          39.000    20685865.505    84705162.736       -1063.150          37.000  
G13  20980159.514   110251471.250       -2862.052          38.000                                                                  
G15  19383843.984   101862778.937        -794.204          41.000    19383849.198    79373623.346        -618.808          40.000  
G18  21859283.456   114871291.679        2900.848          38.000    21859292.271    89510156.961        2260.169          39.000  
> 2025 05 12 10 25 52.9980000  0  9                     
G20  23541333.054   123710534.567       -1484.350          31.000                                                                  
G11  24030647.509   126281897.298       -2797.839          32.000    24030661.794    98401553.007       -2180.682          35.000  
G23  22633548.185   118940097.798        1304.874          33.000    22633560.169    92680651.633        1016.989          36.000  
G24  21499452.893   112980382.413        2949.388          35.000    21499465.559    88036721.595        2298.224          37.000  
G05  21892528.178   115046011.137       -1164.757          38.000    21892537.014    89646273.543        -907.587          35.000  
G29  20686118.149   108706266.501       -1367.610          39.000    20686125.596    84706227.375       -1065.570          37.000  
G13  20980704.372   110254334.696       -2864.114          38.000                                                                  
G15  19383995.526   101863574.686        -796.557          41.000    19384000.598    79374243.419        -620.809          40.000  
G18  21858731.663   114868392.264        2898.582          38.000    21858740.411    89507897.678        2258.337          39.000  
> 2025 05 12 10 25 53.9980000  0  9                     
G20  23541615.354   123712017.307       -1483.604          31.000                                                                  
G11  24031180.027   126284695.116       -2798.575          32.000    24031194.234    98403733.088       -2180.516          35.000  
G23  22633299.675   118938791.984        1305.630          33.000    22633311.716    92679634.155        1016.953          36.000  
G24  21498891.670   112977432.853        2948.620          35.000    21498904.228    88034423.225        2298.117          37.000  
G05  21892749.700   115047174.975       -1164.299          37.000    21892758.510    89647180.459        -907.554          35.000  
G29  20686378.353   108707633.506       -1367.885          39.000    20686385.757    84707292.591       -1066.086          37.000  
G13  20981249.414   110257198.688       -2864.918          38.000                                                                  
G15  19384146.950   101864371.116        -797.220          41.000    19384152.105    79374864.014        -621.344          40.000  
G18  21858180.022   114865493.170        2898.294          38.000    21858188.690    89505638.650        2258.068          39.000  
> 2025 05 12 10 25 54.9980000  0  9                     
G20  23541897.549   123713499.971       -1481.556          31.000                                                                  
G11  24031712.371   126287493.094       -2797.882          32.000    24031726.708    98405913.353       -2180.989          35.000  
G23  22633051.220   118937486.102        1305.527          33.000    22633063.221    92678616.591        1017.076          36.000  
G24  21498330.324   112974483.419        2949.270          35.000    21498343.004    88032124.998        2297.923          37.000  
G05  21892971.186   115048338.763       -1163.567          37.000    21892979.909    89648087.281        -906.877          35.000  
G29  20686638.634   108709000.989       -1367.971          39.000    20686646.009    84708358.152       -1066.239          37.000  
G13  20981794.416   110260062.883       -2864.474          38.000                                                                  
G15  19384298.619   101865167.921        -797.114          41.000    19384303.638    79375484.907        -621.297          40.000  
G18  21857628.303   114862594.092        2898.699          37.000    21857637.045    89503379.626        2258.836          39.000  
> 2025 05 12 10 25 55.9980000  0  9                     
G20  23542179.712   123714982.856       -1483.041          31.000                                                                  
G11  24032244.970   126290291.376       -2797.853          32.000    24032259.136    98408093.846       -2180.702          35.000  
G23  22632802.430   118936180.259        1305.872          33.000    22632814.636    92677599.049        1017.867          36.000  
G24  21497769.158   112971534.290        2949.409          35.000    21497781.860    88029826.977        2298.289          37.000  
G05  21893192.665   115049502.631       -1163.729          37.000    21893201.245    89648994.200        -906.636          35.000  
G29  20686898.963   108710369.076       -1368.448          39.000    20686906.330    84709424.163       -1065.839          37.000  
G13  20982339.519   110262927.523       -2865.023          38.000                                                                  
G15  19384450.233   101865965.286        -797.502          41.000    19384455.339    79376106.233        -621.452          40.000  
G18  21857076.709   114859695.234        2898.476          37.000    21857085.424    89501120.790        2258.688          39.000  
> 2025 05 12 10 25 56.9980000  0  9                     
G20  23542461.912   123716465.999       -1484.926          31.000                                                                  
G11  24032777.562   126293090.173       -2799.408          32.000    24032791.666    98410274.693       -2181.267          35.000  
G23  22632554.142   118934874.587        1305.605          33.000    22632566.161    92676581.654        1017.328          36.000  
G24  21497207.878   112968585.638        2948.091          35.000    21497220.727    88027529.318        2297.289          37.000  
G05  21893414.126   115050666.716       -1164.326          37.000    21893422.756    89649901.277        -907.133          35.000  
G29  20687159.454   108711737.894       -1369.344          39.000    20687166.857    84710490.797       -1067.327          37.000  
G13  20982884.682   110265792.658       -2865.648          38.000                                                                  
G15  19384602.102   101866763.330        -798.818          41.000    19384607.152    79376728.089        -622.496          40.000  
G18  21856525.175   114856796.670        2897.998          37.000    21856533.752    89498862.188        2258.275          39.000  
> 2025 05 12 10 25 57.9980000  0  9                     
G20  23542744.085   123717949.227       -1483.194          31.000                                                                  
G11  24033310.175   126295889.306       -2798.505          32.000    24033324.287    98412455.839       -2180.809          35.000  
G23  22632305.892   118933569.058        1305.845          33.000    22632317.766    92675564.364        1017.394          36.000  
G24  21496646.886   112965637.341        2949.076          35.000    21496659.703    88025231.966        2297.667          37.000  
G05  21893635.639   115051830.911       -1163.414          37.000    21893644.250    89650808.453        -907.093          35.000  
G29  20687420.061   108713107.400       -1369.292          39.000    20687427.537    84711557.947       -1067.124          37.000  
G13  20983430.013   110268658.255       -2865.447          38.000                                                                  
G15  19384754.101   101867561.968        -798.309          41.000    19384759.112    79377350.390        -622.046          40.000  
G18  21855973.570   114853898.375        2898.483          37.000    21855982.232    89496603.785        2258.805          39.000  
> 2025 05 12 10 25 58.9980000  0  9                     
G20  23543026.530   123719432.374       -1481.695          31.000                                                                  
G11  24033842.965   126298688.589       -2798.484          32.000    24033856.924    98414637.105       -2180.831          35.000  
G23  22632057.296   118932263.384        1305.793          33.000    22632069.339    92674546.957        1017.594          36.000  
G24  21496085.813   112962689.202        2948.545          35.000    21496098.700    88022934.708        2297.329          37.000  
G05  21893856.992   115052995.036       -1163.920          37.000    21893865.753    89651715.536        -906.550          35.000  
G29  20687680.815   108714477.328       -1369.549          39.000    20687688.236    84712625.437       -1067.483          37.000  
G13  20983975.328   110271524.066       -2865.452          38.000                                                                  
G15  19384906.161   101868360.976        -798.778          41.000    19384911.118    79377973.009        -622.642          40.000  
G18  21855422.077   114851000.130        2898.120          37.000    21855430.705    89494345.406        2258.738          39.000  
> 2025 05 12 10 25 59.9980000  0  9                     
G20  23543308.834   123720915.644       -1482.363          31.000                                                                  
G11  24034375.616   126301488.097       -2798.911          32.000    24034389.661    98416818.555       -2181.345          35.000  
G23  22631808.956   118930957.618        1306.291          33.000    22631820.855    92673529.485        1018.046          36.000  
G24  21495524.779   112959741.229        2948.696          36.000    21495537.628    88020637.597        2297.215          36.000  
G05  21894078.530   115054159.098       -1163.977          37.000    21894087.212    89652622.593        -906.707          36.000  
G29  20687941.707   108715847.774       -1370.201          39.000    20687949.053    84713693.313       -1068.262          37.000  
G13  20984520.747   110274390.172       -2865.725          38.000                                                                  
G15  19385058.264   101869160.405        -799.023          41.000    19385063.285    79378595.931        -622.696          40.000  
G18  21854870.493   114848101.900        2898.685          37.000    21854879.203    89492087.069        2258.958          39.000  
> 2025 05 12 10 26 00.9980000  0  9                     
G20  23543591.126   123722398.928       -1483.244          31.000                                                                  
G11  24034908.331   126304287.847       -2799.345          32.000    24034922.383    98419000.167       -2180.607          35.000  
G23  22631560.294   118929651.816        1306.662          33.000    22631572.439    92672512.015        1017.916          36.000  
G24  21494963.895   112956793.513        2948.419          35.000    21494976.755    88018340.666        2297.400          37.000  
G05  21894300.088   115055323.138       -1163.459          37.000    21894308.859    89653529.658        -906.981          35.000  
G29  20688202.645   108717218.757       -1370.552          39.000    20688210.022    84714761.579       -1068.112          37.000  
G13  20985066.190   110277256.586       -2865.841          38.000                                                                  
G15  19385210.474   101869960.318        -799.446          41.000    19385215.493    79379219.242        -622.864          40.000  
G18  21854319.025   114845203.835        2898.891          37.000    21854327.664    89489828.857        2258.698          39.000  
> 2025 05 12 10 26 01.9980000  0  9                     
G20  23543873.579   123723882.382       -1484.365          31.000                                                                  
G11  24035441.137   126307088.066       -2801.488          32.000    24035455.258    98421182.173       -2183.281          35.000  
G23  22631311.873   118928346.242        1303.771          33.000    22631323.917    92671494.687        1015.840          36.000  
G24  21494403.094   112953846.233        2946.200          35.000    21494415.914    88016044.088        2295.451          37.000  
G05  21894521.609   115056487.383       -1165.421          37.000    21894530.405    89654436.833        -907.725          35.000  
G29  20688463.666   108718590.429       -1372.954          39.000    20688471.061    84715830.414       -1069.735          37.000  
G13  20985611.826   110280123.523       -2868.302          38.000                                                                  
G15  19385362.771   101870760.870        -801.907          41.000    19385367.816    79379843.061        -625.113          40.000  
G18  21853767.651   114842306.085        2896.106          37.000    21853776.316    89487570.867        2257.114          39.000  
> 2025 05 12 10 26 02.9980000  0  9                     
G20  23544155.991   123725365.898       -1482.416          31.000                                                                  
G11  24035974.319   126309888.455       -2799.137          32.000    24035988.223    98423364.326       -2181.849          35.000  
G23  22631063.290   118927040.572        1306.498          33.000    22631075.371    92670477.293        1018.072          36.000  
G24  21493842.259   112950899.199        2947.518          35.000    21493855.145    88013747.672        2297.086          37.000  
G05  21894743.089   115057651.584       -1163.125          37.000    21894751.932    89655344.044        -906.468          36.000  
G29  20688724.738   108719962.656       -1371.649          39.000    20688732.126    84716899.682       -1068.376          37.000  
G13  20986157.413   110282990.779       -2866.742          38.000                                                                  
G15  19385515.229   101871561.898        -800.220          41.000    19385520.246    79380467.239        -623.775          40.000  
G18  21853216.290   114839408.431        2898.306          38.000    21853224.943    89485312.985        2258.349          39.000  
> 2025 05 12 10 26 03.9980000  0  9                     
G20  23544438.413   123726849.695       -1483.146          31.000                                                                  
G11  24036507.234   126312689.415       -2800.503          32.000    24036521.215    98425546.854       -2181.918          35.000  
G23  22630814.875   118925735.161        1305.764          33.000    22630826.945    92669460.116        1017.100          36.000  
G24  21493281.524   112947952.641        2946.934          35.000    21493294.305    88011451.649        2296.750          37.000  
G05  21894964.642   115058816.087       -1163.894          38.000    21894973.505    89656251.421        -906.931          35.000  
G29  20688986.094   108721335.676       -1372.648          39.000    20688993.442    84717969.550       -1068.845          37.000  
G13  20986703.245   110285858.581       -2867.088          38.000                                                                  
G15  19385667.773   101872363.638        -801.285          41.000    19385672.873    79381091.967        -624.300          40.000  
G18  21852664.950   114836511.135        2898.063          37.000    21852673.646    89483055.361        2258.118          39.000  
> 2025 05 12 10 26 04.9980000  0  9                     
G20  23544720.853   123728333.418       -1484.217          30.000                                                                  
G11  24037040.051   126315490.464       -2801.831          32.000    24037054.169    98427729.523       -2183.591          35.000  
G23  22630566.149   118924429.555        1305.250          33.000    22630578.510    92668442.779        1016.752          36.000  
G24  21492720.760   112945006.188        2945.537          35.000    21492733.689    88009155.728        2295.430          37.000  
G05  21895186.181   115059980.449       -1165.368          38.000    21895195.098    89657158.716        -908.281          35.000  
G29  20689247.439   108722709.085       -1374.198          39.000    20689254.856    84719039.767       -1070.817          37.000  
G13  20987249.043   110288726.599       -2868.812          38.000                                                                  
G15  19385820.419   101873165.736        -802.969          41.000    19385825.458    79381716.979        -625.701          40.000  
G18  21852113.524   114833613.860        2896.269          37.000    21852122.266    89480797.768        2256.644          39.000  
> 2025 05 12 10 26 05.9980000  0  9                     
G20  23545003.462   123729817.444       -1483.991          30.000                                                                  
G11  24037573.163   126318291.979       -2800.871          32.000    24037587.345    98429912.526       -2182.794          35.000  
G23  22630317.610   118923124.200        1305.523          33.000    22630330.078    92667425.607        1017.277          36.000  
G24  21492160.088   112942060.194        2946.045          35.000    21492173.082    88006860.163        2295.523          37.000  
G05  21895407.759   115061145.008       -1164.482          38.000    21895416.717    89658066.156        -907.062          35.000  
G29  20689508.914   108724083.261       -1373.999          39.000    20689516.338    84720110.566       -1070.851          37.000  
G13  20987794.882   110291595.191       -2868.564          38.000                                                                  
G15  19385973.184   101873968.505        -802.802          41.000    19385978.272    79382342.513        -625.527          40.000  
G18  21851562.182   114830716.911        2897.056          37.000    21851571.150    89478540.411        2257.311          39.000  
> 2025 05 12 10 26 06.9980000  0  9                     
G20  23545285.571   123731301.392       -1484.446          30.000                                                                  
G11  24038106.398   126321093.720       -2803.297          32.000    24038120.537    98432095.650       -2183.383          35.000  
G23  22630068.994   118921818.717        1305.125          33.000    22630081.739    92666408.342        1016.939          36.000  
G24  21491599.529   112939114.391        2944.964          36.000    21491612.518    88004564.726        2294.705          37.000  
G05  21895629.403   115062309.573       -1165.860          37.000    21895638.329    89658973.586        -908.006          35.000  
G29  20689770.467   108725457.915       -1375.746          39.000    20689777.887    84721181.720       -1072.003          37.000  
G13  20988340.883   110294464.022       -2870.330          38.000                                                                  
G15  19386126.022   101874771.676        -804.271          41.000    19386131.101    79382968.367        -626.628          40.000  
G18  21851010.887   114827820.022        2895.740          37.000    21851019.753    89476283.100        2256.527          39.000  
> 2025 05 12 10 26 07.9980000  0  9                     
G20  23545568.002   123732785.526       -1485.498          31.000                                                                  
G11  24038639.757   126323895.784       -2803.278          32.000    24038653.748    98434279.140       -2184.857          35.000  
G23  22629820.508   118920513.321        1304.875          33.000    22629833.392    92665391.201        1016.148          36.000  
G24  21491039.070   112936168.948        2943.890          35.000    21491051.961    88002269.584        2293.738          37.000  
G05  21895851.058   115063474.234       -1166.174          38.000    21895860.035    89659881.132        -908.590          35.000  
G29  20690032.263   108726833.218       -1376.595          39.000    20690039.526    84722253.375       -1072.714          37.000  
G13  20988886.925   110297333.247       -2870.333          38.000                                                                  
G15  19386279.030   101875575.440        -805.041          41.000    19386284.165    79383594.677        -627.383          40.000  
G18  21850459.712   114824923.384        2895.248          37.000    21850468.613    89474025.987        2256.161          39.000  
> 2025 05 12 10 26 08.9980000  0  9                     
G20  23545850.357   123734269.606       -1483.528          31.000                                                                  
G11  24039173.065   126326698.030       -2802.423          32.000    24039186.920    98436462.709       -2183.787          35.000  
G23  22629571.948   118919207.863        1304.922          33.000    22629585.069    92664373.973        1016.962          36.000  
G24  21490478.584   112933223.643        2944.697          35.000    21490491.523    87999974.541        2294.666          37.000  
G05  21896072.692   115064638.812       -1165.122          38.000    21896081.608    89660788.571        -907.023          35.000  
G29  20690294.015   108728208.983       -1376.379          39.000    20690301.311    84723325.379       -1072.107          37.000  
G13  20989432.975   110300202.775       -2870.116          38.000                                                                  
G15  19386432.100   101876379.582        -804.517          41.000    19386437.327    79384221.288        -626.989          40.000  
G18  21849908.369   114822026.759        2896.638          37.000    21849917.436    89471768.912        2256.562          39.000  
> 2025 05 12 10 26 09.9980000  0  9                     
G20  23546132.598   123735753.843       -1484.570          30.000                                                                  
G11  24039706.287   126329500.569       -2801.523          33.000    24039720.138    98438646.510       -2183.827          35.000  
G23  22629323.470   118917902.393        1305.493          33.000    22629336.619    92663356.736        1017.013          36.000  
G24  21489918.244   112930278.611        2945.054          35.000    21489931.114    87997679.746        2294.685          37.000  
G05  21896294.337   115065803.427       -1164.649          37.000    21896303.313    89661696.102        -907.429          35.000  
G29  20690555.919   108729585.309       -1376.234          39.000    20690563.216    84724397.846       -1072.327          37.000  
G13  20989979.101   110303072.645       -2869.787          38.000                                                                  
G15  19386585.234   101877184.238        -804.518          41.000    19386590.395    79384848.294        -626.771          40.000  
G18  21849357.123   114819130.313        2896.872          37.000    21849366.084    89469511.919        2257.474          39.000  
> 2025 05 12 10 26 10.9980000  0  9                     
G20  23546414.967   123737238.152       -1484.089          30.000                                                                  
G11  24040239.695   126332303.486       -2801.941          32.000    24040253.585    98440830.583       -2183.513          35.000  
G23  22629075.000   118916596.966        1306.691          33.000    22629088.151    92662339.552        1017.755          36.000  
G24  21489357.914   112927333.944        2945.333          35.000    21489370.682    87995385.170        2295.269          37.000  
G05  21896515.971   115066968.139       -1163.615          37.000    21896524.903    89662603.692        -907.305          35.000  
G29  20690817.966   108730962.285       -1376.578          39.000    20690825.250    84725470.793       -1072.296          37.000  
G13  20990525.359   110305942.928       -2869.700          38.000                                                                  
G15  19386738.372   101877989.466        -804.411          41.000    19386743.732    79385475.754        -627.259          40.000  
G18  21848806.101   114816234.087        2897.098          37.000    21848814.943    89467255.131        2257.647          39.000  
> 2025 05 12 10 26 11.9980000  0  9                     
G20  23546697.361   123738722.581       -1484.828          30.000                                                                  
G11  24040773.159   126335106.726       -2803.517          32.000    24040786.945    98443014.923       -2184.468          35.000  
G23  22628826.634   118915291.635        1305.641          34.000    22628839.711    92661322.409        1017.047          36.000  
G24  21488797.711   112924389.608        2944.235          35.000    21488810.394    87993090.881        2294.257          37.000  
G05  21896737.801   115068132.978       -1165.399          37.000    21896746.533    89663511.337        -907.888          35.000  
G29  20691080.098   108732339.874       -1377.855          39.000    20691087.266    84726544.248       -1073.253          37.000  
G13  20991071.666   110308813.630       -2870.945          38.000                                                                  
G15  19386891.706   101878795.262        -805.906          41.000    19386897.191    79386103.633        -628.014          40.000  
G18  21848254.861   114813338.076        2895.796          37.000    21848263.782    89464998.528        2256.282          39.000  
> 2025 05 12 10 26 12.9980000  0  9                     
G20  23546979.881   123740207.135       -1484.968          31.000                                                                  
G11  24041306.568   126337910.289       -2803.827          32.000    24041320.325    98445199.535       -2184.978          35.000  
G23  22628578.395   118913986.390        1304.812          34.000    22628591.313    92660305.330        1016.473          36.000  
G24  21488237.424   112921445.579        2943.167          35.000    21488250.052    87990796.854        2293.481          37.000  
G05  21896959.389   115069297.875       -1165.412          37.000    21896968.132    89664419.026        -907.660          35.000  
G29  20691342.428   108733718.096       -1379.325          39.000    20691349.569    84727618.199       -1074.668          37.000  
G13  20991618.065   110311684.750       -2872.132          38.000                                                                  
G15  19387045.165   101879601.607        -807.066          41.000    19387050.588    79386731.959        -628.930          40.000  
G18  21847703.870   114810442.275        2895.294          37.000    21847712.741    89462742.080        2255.712          39.000  
> 2025 05 12 10 26 13.9980000  0  9                     
G20  23547262.277   123741691.861       -1484.090          31.000                                                                  
G11  24041839.941   126340714.185       -2804.300          32.000    24041853.947    98447384.378       -2184.928          35.000  
G23  22628330.105   118912681.184        1305.002          34.000    22628342.953    92659288.287        1017.063          36.000  
G24  21487677.153   112918501.880        2943.749          35.000    21487689.948    87988503.069        2293.912          37.000  
G05  21897181.027   115070462.824       -1164.628          37.000    21897189.835    89665326.760        -906.654          35.000  
G29  20691604.790   108735096.889       -1378.694          39.000    20691612.056    84728692.603       -1074.644          37.000  
G13  20992164.485   110314556.258       -2871.626          38.000                                                                  
G15  19387198.704   101880408.483        -806.854          41.000    19387204.141    79387360.690        -628.860          40.000  
G18  21847152.847   114807546.675        2895.430          37.000    21847161.695    89460485.744        2256.458          39.000  
> 2025 05 12 10 26 14.9980000  0  9                     
G20  23547544.917   123743176.545       -1484.454          31.000                                                                  
G11  24042373.520   126343518.225       -2803.546          32.000    24042387.633    98449569.372       -2184.645          35.000  
G23  22628081.756   118911375.815        1306.163          34.000    22628094.539    92658271.136        1017.732          37.000  
G24  21487117.105   112915558.307        2944.655          35.000    21487129.814    87986209.378        2294.508          37.000  
G05  21897402.607   115071627.706       -1164.086          37.000    21897411.561    89666234.500        -907.102          35.000  
G29  20691867.284   108736476.187       -1378.696          39.000    20691874.497    84729767.370       -1074.579          37.000  
G13  20992710.898   110317427.960       -2870.718          38.000                                                                  
G15  19387352.341   101881215.736        -806.451          41.000    19387357.724    79387989.736        -628.572          40.000  
G18  21846601.817   114804651.085        2896.335          38.000    21846610.723    89458229.489        2256.492          39.000  
> 2025 05 12 10 26 15.9980000  0  9                     
G20  23547827.286   123744661.086       -1485.282          31.000                                                                  
G11  24042907.143   126346322.424       -2805.370          32.000    24042921.172    98451754.417       -2185.580          35.000  
G23  22627833.479   118910070.324        1304.828          34.000    22627846.060    92657253.858        1016.883          37.000  
G24  21486556.983   112912614.897        2942.178          35.000    21486569.634    87983915.776        2293.249          37.000  
G05  21897624.317   115072792.439       -1165.511          37.000    21897633.213    89667142.059        -908.015          35.000  
G29  20692129.823   108737855.845       -1380.487          39.000    20692137.033    84730842.426       -1075.947          37.000  
G13  20993257.431   110320299.873       -2872.767          38.000                                                                  
G15  19387505.995   101882023.320        -808.249          41.000    19387511.331    79388619.019        -629.847          40.000  
G18  21846050.794   114801755.481        2894.915          38.000    21846059.645    89455973.178        2255.533          39.000  
> 2025 05 12 10 26 16.9980000  0  9                     
G20  23548109.755   123746145.858       -1485.144          31.000                                                                  
G11  24043440.923   126349126.973       -2804.920          32.000    24043454.772    98453939.824       -2185.846          35.000  
G23  22627585.326   118908764.980        1304.210          33.000    22627597.628    92656236.710        1016.768          36.000  
G24  21485996.824   112909671.838        2942.361          35.000    21486009.573    87981622.520        2292.743          37.000  
G05  21897845.848   115073957.321       -1165.463          37.000    21897854.973    89668049.780        -908.091          35.000  
G29  20692392.515   108739236.225       -1381.180          39.000    20692399.742    84731918.058       -1076.573          37.000  
G13  20993804.142   110323172.273       -2872.763          38.000                                                                  
G15  19387659.810   101882831.575        -809.062          41.000    19387665.170    79389248.808        -630.075          40.000  
G18  21845499.882   114798860.201        2894.591          37.000    21845508.670    89453717.100        2255.660          39.000  
