     3.04           OBSERVATION DATA    G: GPS              RINEX VERSION / TYPE
RTKCONV demo5 b34i                      20250515 063310 UTC PGM / RUN BY / DATE 
format: u-blox UBX                                          COMMENT             
log: D:\20242\NGUYENDS\GNSS_DOA_Spoofing\hai\ngoc\SP-2025-05COMMENT             
                                                            MARKER NAME         
                                                            MARKER NUMBER       
                                                            MARKER TYPE         
                                                            OBSERVER / AGENCY   
                                                            REC # / TYPE / VERS 
                                                            ANT # / TYPE        
 -1626590.7872  5730536.7829  2271875.3781                  APPROX POSITION XYZ 
        0.0000        0.0000        0.0000                  ANTENNA: DELTA H/E/N
G    8 C1C L1C D1C S1C C2X L2X D2X S2X                      SYS / # / OBS TYPES 
  2025    05    12    10    25   39.0020000     GPS         TIME OF FIRST OBS   
  2025    05    12    10    26   17.0020000     GPS         TIME OF LAST OBS    
G L1C                                                       SYS / PHASE SHIFT   
G L2X  0.00000                                              SYS / PHASE SHIFT   
  0                                                         GLONASS SLOT / FRQ #
                                                            GLONASS COD/PHS/BIS 
                                                            END OF HEADER       
> 2025 05 12 10 25 39.0020000  0  9                     
G23  23774242.651   124934476.0301       1213.310          35.000    23774254.979    97351617.2511        945.764          37.000  
G11  25160416.030   132218881.1221      -2886.622          33.000    25160429.681   103027750.4981      -2248.728          36.000  
G20  24674600.632   129665877.7261      -1573.840          31.000                                                                  
G29  21819703.863   114663309.1491      -1450.899          40.000    21819710.561    89348070.8091      -1130.713          39.000  
G15  20519099.342   107828581.3501       -881.496          42.000    20519104.887    84022310.7561       -686.501          41.000  
G13  22110297.504   116190392.7951      -2951.158          39.000                                                                  
G05  23026644.747   121005815.3971      -1255.238          39.000    23026652.721    94290295.1541       -978.187          36.000  
G24  22644531.802   118997821.0341       2861.630          37.000    22644544.050    92725622.9021       2229.407          38.000  
G18  23003674.234   120885121.8411       2809.373          39.000    23003683.298    94196249.5611       2188.813          40.000  
> 2025 05 12 10 25 40.0020000  0  9                     
G23  23774011.649   124933262.351        1213.860          35.000    23774023.991    97350671.552         945.844          38.000  
G11  25160965.130   132221767.157       -2885.836          33.000    25160978.824   103029999.368       -2248.641          36.000  
G20  24674899.951   129667451.686       -1573.636          31.000                                                                  
G29  21819979.966   114664760.420       -1451.399          40.000    21819986.778    89349201.663       -1131.079          39.000  
G15  20519267.010   107829462.966        -881.665          42.000    20519272.725    84022997.747        -687.022          41.000  
G13  22110859.101   116193344.021       -2951.301          39.000                                                                  
G05  23026883.661   121007071.063       -1255.783          39.000    23026891.763    94291273.579        -978.517          37.000  
G24  22643987.353   118994959.910        2861.352          37.000    22643999.643    92723393.427        2229.477          38.000  
G18  23003139.748   120882312.832        2809.484          39.000    23003148.697    94194060.750        2188.679          40.000  
> 2025 05 12 10 25 41.0020000  0  9                     
G23  23773780.842   124932048.787        1213.124          35.000    23773793.050    97349725.906         945.579          38.000  
G11  25161514.424   132224653.571       -2886.902          33.000    25161528.099   103032248.554       -2249.728          36.000  
G20  24675199.546   129669025.784       -1574.184          31.000                                                                  
G29  21820256.165   114666212.315       -1452.738          40.000    21820263.094    89350333.012       -1132.071          39.000  
G15  20519434.994   107830345.162        -882.873          42.000    20519440.595    84023685.170        -687.987          41.000  
G13  22111420.853   116196295.650       -2951.956          39.000                                                                  
G05  23027122.616   121008326.797       -1255.999          39.000    23027130.681    94292252.086        -978.823          37.000  
G24  22643443.105   118992099.107        2860.366          36.000    22643455.263    92721164.252        2228.701          38.000  
G18  23002605.237   120879504.066        2808.166          38.000    23002614.099    94191872.072        2188.470          40.000  
> 2025 05 12 10 25 42.0020000  0  9                     
G23  23773549.906   124930835.254        1213.033          34.000    23773562.071    97348780.305         945.666          38.000  
G11  25162063.632   132227540.341       -2887.801          33.000    25162077.346   103034497.937       -2249.335          36.000  
G20  24675499.006   129670599.934       -1573.927          31.000                                                                  
G29  21820532.586   114667664.804       -1452.795          40.000    21820539.498    89351464.802       -1131.853          39.000  
G15  20519603.103   107831227.875        -882.945          42.000    20519608.591    84024372.994        -687.911          41.000  
G13  22111982.551   116199247.690       -2952.316          39.000                                                                  
G05  23027361.555   121009582.584       -1255.563          39.000    23027369.675    94293230.599        -978.371          37.000  
G24  22642898.768   118989238.612        2860.395          37.000    22642910.911    92718935.280        2229.035          38.000  
G18  23002070.807   120876695.449        2808.556          38.000    23002079.613    94189683.566        2188.406          40.000  
> 2025 05 12 10 25 43.0020000  0  9                     
G23  23773318.847   124929621.634        1213.576          34.000    23773331.148    97347834.672         945.458          38.000  
G11  25162612.762   132230427.214       -2886.377          33.000    25162626.700   103036747.534       -2249.723          37.000  
G20  24675798.527   129672174.176       -1574.168          31.000                                                                  
G29  21820809.185   114669117.827       -1453.593          40.000    21820816.018    89352597.038       -1132.658          39.000  
G15  20519771.154   107832111.054        -883.479          42.000    20519776.606    84025061.200        -688.526          41.000  
G13  22112544.368   116202200.005       -2952.556          39.000                                                                  
G05  23027600.517   121010838.396       -1256.166          39.000    23027608.656    94294209.151        -978.851          37.000  
G24  22642354.521   118986378.347        2859.764          36.000    22642366.646    92716706.505        2228.592          38.000  
G18  23001536.315   120873886.945        2808.408          39.000    23001545.224    94187495.137        2188.233          40.000  
> 2025 05 12 10 25 44.0020000  0  9                     
G23  23773087.968   124928408.081        1213.473          34.000    23773100.148    97346889.029         945.972          37.000  
G11  25163161.906   132233314.531       -2887.184          33.000    25163176.099   103038997.342       -2249.592          36.000  
G20  24676097.795   129673748.497       -1574.129          31.000                                                                  
G29  21821085.804   114670571.433       -1453.714          40.000    21821092.703    89353729.706       -1132.591          39.000  
G15  20519939.272   107832994.742        -883.367          42.000    20519944.783    84025749.785        -688.276          42.000  
G13  22113106.146   116205152.716       -2952.375          39.000                                                                  
G05  23027839.472   121012094.218       -1255.344          39.000    23027847.676    94295187.722        -978.040          37.000  
G24  22641810.193   118983518.335        2860.415          36.000    22641822.404    92714477.924        2229.117          38.000  
G18  23001001.840   120871078.598        2808.812          39.000    23001010.780    94185306.828        2188.638          40.000  
> 2025 05 12 10 25 45.0020000  0  9                     
G23  23772856.982   124927194.561        1213.406          34.000    23772869.063    97345943.450         945.563          37.000  
G11  25163711.443   132236202.124       -2887.617          33.000    25163725.495   103041247.416       -2250.208          36.000  
G20  24676397.331   129675322.924       -1575.197          31.000                                                                  
G29  21821362.629   114672025.645       -1454.569          40.000    21821369.405    89354862.883       -1133.792          39.000  
G15  20520107.541   107833878.989        -884.545          42.000    20520113.031    84026438.810        -689.321          41.000  
G13  22113668.114   116208105.821       -2953.375          39.000                                                                  
G05  23028078.406   121013350.148       -1256.105          39.000    23028086.645    94296166.381        -979.061          37.000  
G24  22641265.966   118980658.666        2859.259          36.000    22641278.309    92712249.610        2228.483          38.000  
G18  23000467.401   120868270.468        2808.121          39.000    23000476.344    94183118.695        2188.022          40.000  
> 2025 05 12 10 25 46.0020000  0  9                     
G23  23772626.151   124925980.978        1213.644          34.000    23772638.167    97344997.822         945.467          37.000  
G11  25164260.968   132239089.969       -2888.623          33.000    25164275.153   103043497.667       -2250.676          36.000  
G20  24676696.902   129676897.340       -1574.383          31.000                                                                  
G29  21821639.396   114673480.373       -1455.134          40.000    21821646.326    89355996.417       -1133.755          39.000  
G15  20520275.839   107834763.684        -885.208          42.000    20520281.323    84027128.180        -689.836          41.000  
G13  22114230.144   116211059.226       -2953.446          39.000                                                                  
G05  23028317.458   121014606.035       -1256.279          39.000    23028325.573    94297144.989        -978.928          36.000  
G24  22640721.739   118977799.209        2859.219          36.000    22640734.199    92710021.468        2227.883          38.000  
G18  22999932.991   120865462.447        2807.635          39.000    22999942.013    94180930.607        2188.029          40.000  
> 2025 05 12 10 25 47.0020000  0  9                     
G23  23772395.172   124924767.341        1213.561          34.000    23772407.216    97344052.133         945.834          37.000  
G11  25164810.696   132241977.947       -2888.292          33.000    25164824.734   103045748.075       -2250.349          36.000  
G20  24676996.565   129678471.784       -1574.577          31.000                                                                  
G29  21821916.150   114674935.585       -1455.229          40.000    21821923.236    89357130.351       -1134.042          38.000  
G15  20520444.191   107835648.774        -884.896          42.000    20520449.654    84027817.877        -689.795          41.000  
G13  22114792.240   116214012.897       -2953.607          39.000                                                                  
G05  23028556.400   121015861.857       -1255.703          39.000    23028564.669    94298123.529        -978.160          37.000  
G24  22640177.564   118974939.906        2859.247          36.000    22640190.135    92707793.445        2228.033          38.000  
G18  22999398.657   120862654.436        2808.106          39.000    22999407.708    94178742.584        2187.940          40.000  
> 2025 05 12 10 25 48.0020000  0  9                     
G23  23772164.071   124923553.739        1213.551          34.000    23772176.274    97343106.490         945.560          37.000  
G11  25165360.390   132244866.320       -2889.009          33.000    25165374.380   103047998.727       -2250.659          36.000  
G20  24677296.128   129680046.340       -1574.689          31.000                                                                  
G29  21822193.322   114676391.429       -1456.366          40.000    21822200.197    89358264.751       -1134.339          38.000  
G15  20520612.593   107836534.436        -886.018          42.000    20520618.177    84028507.990        -690.348          41.000  
G13  22115354.355   116216966.991       -2954.534          39.000                                                                  
G05  23028795.523   121017117.749       -1255.686          39.000    23028803.667    94299102.150        -978.238          37.000  
G24  22639633.555   118972080.959        2858.199          37.000    22639646.134    92705565.687        2227.276          38.000  
G18  22998864.186   120859846.660        2807.616          39.000    22998873.327    94176554.705        2187.739          40.000  
> 2025 05 12 10 25 49.0020000  0  9                     
G23  23771933.085   124922340.128        1213.167          34.000    23771945.286    97342160.822         945.646          37.000  
G11  25165910.137   132247754.920       -2889.375          33.000    25165924.045   103050249.603       -2251.138          36.000  
G20  24677595.907   129681620.963       -1575.321          31.000                                                                  
G29  21822470.470   114677847.798       -1456.664          40.000    21822477.322    89359399.608       -1135.256          39.000  
G15  20520781.249   107837420.558        -886.234          42.000    20520786.748    84029198.490        -690.823          41.000  
G13  22115916.524   116219921.374       -2954.779          39.000                                                                  
G05  23029034.535   121018373.662       -1256.016          39.000    23029042.711    94300080.789        -978.761          36.000  
G24  22639089.517   118969222.238        2858.353          36.000    22639102.162    92703338.115        2227.237          38.000  
G18  22998329.909   120857039.009        2807.516          39.000    22998339.079    94174366.947        2187.357          40.000  
> 2025 05 12 10 25 50.0020000  0  9                     
G23  23771702.195   124921126.644        1212.940          34.000    23771714.446    97341215.235         945.392          37.000  
G11  25166459.650   132250643.875       -2889.464          34.000    25166473.836   103052500.744       -2251.349          36.000  
G20  24677895.542   129683195.729       -1575.530          31.000                                                                  
G29  21822747.746   114679304.860       -1457.949          40.000    21822754.661    89360534.980       -1135.995          39.000  
G15  20520949.987   107838307.301        -887.302          42.000    20520955.458    84029889.456        -691.563          41.000  
G13  22116478.894   116222876.243       -2955.614          40.000                                                                  
G05  23029273.525   121019629.700       -1256.488          39.000    23029281.678    94301059.518        -978.857          37.000  
G24  22638545.506   118966363.856        2858.056          37.000    22638558.115    92701110.852        2226.635          38.000  
G18  22997795.652   120854231.624        2806.732          39.000    22997804.817    94172179.354        2187.385          40.000  
> 2025 05 12 10 25 51.0020000  0  9                     
G23  23771471.194   124919913.271        1213.361          34.000    23771483.427    97340269.782         945.629          37.000  
G11  25167009.490   132253533.301       -2890.488          34.000    25167023.658   103054752.230       -2251.503          36.000  
G20  24678195.358   129684770.695       -1575.336          32.000                                                                  
G29  21823025.255   114680762.606       -1458.057          40.000    21823032.144    89361670.892       -1136.355          38.000  
G15  20521118.839   107839194.661        -887.625          42.000    20521124.339    84030580.892        -691.610          41.000  
G13  22117041.204   116225831.575       -2955.542          40.000                                                                  
G05  23029512.601   121020885.911       -1256.441          39.000    23029520.778    94302038.398        -979.142          37.000  
G24  22638001.637   118963505.939        2857.539          37.000    22638014.285    92698883.879        2226.620          38.000  
G18  22997261.581   120851424.498        2806.906          39.000    22997270.549    94169991.992        2187.498          40.000  
> 2025 05 12 10 25 52.0020000  0  9                     
G23  23771240.352   124918699.884        1213.160          34.000    23771252.471    97339324.296         945.536          37.000  
G11  25167559.352   132256422.943       -2889.924          33.000    25167573.523   103057003.899       -2251.765          36.000  
G20  24678495.163   129686345.736       -1575.480          32.000                                                                  
G29  21823302.665   114682220.879       -1458.466          40.000    21823309.682    89362807.196       -1136.460          39.000  
G15  20521287.855   107840082.483        -888.070          42.000    20521293.282    84031272.706        -691.801          41.000  
G13  22117603.659   116228787.217       -2955.518          40.000                                                                  
G05  23029751.684   121022142.114       -1256.209          39.000    23029759.850    94303017.215        -978.272          37.000  
G24  22637457.900   118960648.185        2857.924          37.000    22637470.409    92696657.064        2227.026          38.000  
G18  22996727.441   120848617.471        2807.186          39.000    22996736.385    94167804.727        2187.298          40.000  
> 2025 05 12 10 25 53.0020000  0  9                     
G23  23771009.401   124917486.429        1213.391          34.000    23771021.558    97338378.758         945.604          37.000  
G11  25168109.374   132259312.788       -2889.576          33.000    25168123.543   103059255.748       -2251.624          36.000  
G20  24678794.877   129687920.721       -1574.528          32.000                                                                  
G29  21823580.145   114683679.681       -1459.158          40.000    21823587.159    89363943.906       -1136.602          38.000  
G15  20521456.879   107840970.748        -888.334          42.000    20521462.262    84031964.871        -692.280          41.000  
G13  22118166.164   116231743.198       -2956.141          40.000                                                                  
G05  23029990.759   121023398.275       -1256.349          39.000    23029998.836    94303996.056        -978.952          37.000  
G24  22636914.120   118957790.713        2857.425          37.000    22636926.525    92694430.445        2226.728          38.000  
G18  22996193.391   120845810.554        2807.258          39.000    22996202.188    94165617.554        2186.765          40.000  
> 2025 05 12 10 25 54.0020000  0  9                     
G23  23770778.369   124916273.077        1213.515          34.000    23770790.663    97337433.289         945.765          38.000  
G11  25168659.284   132262203.043       -2890.491          33.000    25168673.511   103061507.863       -2251.522          36.000  
G20  24679094.745   129689495.921       -1575.458          32.000                                                                  
G29  21823857.841   114685139.122       -1459.468          40.000    21823864.857    89365081.155       -1137.479          38.000  
G15  20521626.178   107841859.603        -888.811          42.000    20521631.380    84032657.492        -692.991          41.000  
G13  22118728.791   116234699.606       -2956.531          39.000                                                                  
G05  23030229.747   121024654.565       -1256.354          39.000    23030237.886    94304974.990        -978.715          37.000  
G24  22636370.478   118954933.535        2857.628          37.000    22636382.820    92692204.102        2226.566          38.000  
G18  22995659.387   120843003.904        2806.581          39.000    22995668.068    94163430.534        2186.788          40.000  
> 2025 05 12 10 25 55.0020000  0  9                     
G23  23770547.547   124915059.682        1213.480          34.000    23770559.698    97336487.816         945.442          37.000  
G11  25169209.288   132265093.516       -2890.581          34.000    25169223.523   103063760.214       -2252.329          36.000  
G20  24679394.419   129691071.163       -1575.393          32.000                                                                  
G29  21824135.616   114686599.109       -1460.144          40.000    21824142.714    89366218.797       -1137.893          38.000  
G15  20521795.388   107842748.926        -889.177          42.000    20521800.614    84033350.462        -692.882          41.000  
G13  22119291.367   116237656.311       -2956.455          39.000                                                                  
G05  23030468.741   121025910.863       -1256.390          39.000    23030476.975    94305953.921        -978.924          36.000  
G24  22635826.871   118952076.659        2856.988          37.000    22635839.328    92689977.942        2226.146          38.000  
G18  22995125.345   120840197.338        2806.619          39.000    22995134.044    94161243.606        2186.890          40.000  
> 2025 05 12 10 25 56.0020000  0  9                     
G23  23770316.666   124913846.349        1213.249          34.000    23770328.703    97335542.359         945.512          37.000  
G11  25169759.304   132267984.312       -2890.476          33.000    25169773.667   103066012.819       -2253.008          36.000  
G20  24679694.391   129692646.542       -1575.920          32.000                                                                  
G29  21824413.571   114688059.699       -1460.803          40.000    21824420.657    89367356.906       -1138.013          38.000  
G15  20521964.774   107843638.801        -889.960          42.000    20521969.906    84034043.871        -693.580          41.000  
G13  22119854.178   116240613.459       -2957.369          39.000                                                                  
G05  23030707.859   121027167.223       -1256.090          39.000    23030716.032    94306932.903        -978.721          36.000  
G24  22635283.418   118949220.043        2856.510          37.000    22635295.737    92687752.033        2225.724          38.000  
G18  22994591.266   120837390.971        2806.285          39.000    22994599.990    94159056.845        2186.535          40.000  
> 2025 05 12 10 25 57.0020000  0  9                     
G23  23770085.697   124912633.090        1213.157          34.000    23770097.821    97334596.986         944.979          37.000  
G11  25170309.576   132270875.525       -2891.643          33.000    25170323.781   103068265.667       -2252.999          36.000  
G20  24679994.482   129694222.045       -1576.012          32.000                                                                  
G29  21824691.571   114689520.947       -1461.896          40.000    21824698.624    89368495.556       -1139.214          38.000  
G15  20522134.113   107844529.243        -890.803          42.000    20522139.414    84034737.734        -694.110          41.000  
G13  22120416.895   116243571.010       -2957.854          39.000                                                                  
G05  23030946.963   121028423.727       -1256.912          39.000    23030955.087    94307912.005        -979.579          37.000  
G24  22634739.923   118946363.787        2856.255          37.000    22634752.189    92685526.386        2225.272          38.000  
G18  22994057.339   120834584.835        2805.897          39.000    22994066.036    94156870.248        2186.340          40.000  
> 2025 05 12 10 25 58.0020000  0  9                     
G23  23769854.830   124911419.989        1212.532          34.000    23769867.066    97333651.689         945.115          37.000  
G11  25170859.842   132273767.031       -2891.243          33.000    25170874.039   103070518.838       -2253.490          36.000  
G20  24680294.205   129695797.689       -1575.990          32.000                                                                  
G29  21824969.827   114690982.870       -1462.508          40.000    21824976.797    89369634.707       -1139.551          38.000  
G15  20522303.718   107845420.307        -891.326          42.000    20522308.957    84035432.048        -694.159          41.000  
G13  22120979.867   116246529.021       -2958.424          40.000                                                                  
G05  23031186.104   121029680.338       -1256.639          38.000    23031194.259    94308891.167        -979.447          37.000  
G24  22634196.451   118943507.919        2855.958          37.000    22634208.827    92683301.023        2225.179          38.000  
G18  22993523.407   120831778.949        2805.900          38.000    22993531.984    94154683.870        2186.035          40.000  
> 2025 05 12 10 25 59.0020000  0  9                     
G23  23769623.834   124910206.768        1213.681          34.000    23769636.314    97332706.364         945.245          37.000  
G11  25171410.154   132276658.845       -2891.802          33.000    25171424.295   103072772.181       -2253.268          36.000  
G20  24680594.261   129697373.396       -1575.926          32.000                                                                  
G29  21825248.194   114692445.301       -1462.831          40.000    21825255.207    89370774.262       -1139.650          38.000  
G15  20522473.410   107846311.827        -891.965          42.000    20522478.680    84036126.751        -694.780          41.000  
G13  22121542.697   116249487.346       -2958.549          40.000                                                                  
G05  23031425.337   121030936.947       -1256.508          38.000    23031433.296    94309870.339        -979.056          37.000  
G24  22633653.144   118940652.283        2855.357          37.000    22633665.451    92681075.815        2225.645          38.000  
G18  22992989.440   120828973.193        2805.564          39.000    22992998.087    94152497.560        2186.309          40.000  
> 2025 05 12 10 26 00.0020000  0  9                     
G23  23769392.802   124908993.632        1213.217          34.000    23769405.500    97331761.062         945.192          37.000  
G11  25171960.528   132279550.958       -2892.469          33.000    25171974.737   103075025.768       -2253.635          36.000  
G20  24680894.129   129698949.227       -1575.565          32.000                                                                  
G29  21825526.706   114693908.346       -1463.491          40.000    21825533.608    89371914.297       -1140.299          38.000  
G15  20522643.054   107847203.867        -892.463          42.000    20522648.518    84036821.852        -695.359          41.000  
G13  22122105.643   116252446.045       -2958.759          39.000                                                                  
G05  23031664.477   121032193.608       -1256.609          39.000    23031672.483    94310849.559        -979.167          37.000  
G24  22633109.694   118937796.925        2855.495          37.000    22633122.015    92678850.895        2224.850          38.000  
G18  22992455.381   120826167.588        2805.700          39.000    22992464.158    94150311.410        2185.990          40.000  
> 2025 05 12 10 26 01.0020000  0  9                     
G23  23769161.822   124907780.415        1213.271          34.000    23769174.609    97330815.691         945.676          37.000  
G11  25172510.831   132282443.252       -2891.609          33.000    25172525.103   103077279.534       -2253.715          36.000  
G20  24681194.120   129700525.041       -1575.845          32.000                                                                  
G29  21825805.098   114695371.884       -1463.959          40.000    21825812.139    89373054.686       -1140.429          38.000  
G15  20522812.844   107848096.316        -892.394          42.000    20522818.325    84037517.282        -695.439          41.000  
G13  22122668.657   116255405.023       -2959.077          40.000                                                                  
G05  23031903.549   121033450.218       -1256.444          39.000    23031911.639    94311828.738        -979.320          37.000  
G24  22632566.364   118934941.772        2855.235          37.000    22632578.697    92676626.089        2224.823          38.000  
G18  22991921.577   120823362.090        2805.467          39.000    22991930.230    94148125.290        2186.195          40.000  
> 2025 05 12 10 26 02.0020000  0  9                     
G23  23768931.017   124906567.304        1212.582          34.000    23768943.751    97329870.449         944.935          37.000  
G11  25173061.364   132285336.008       -2893.141          33.000    25173075.538   103079533.601       -2254.554          36.000  
G20  24681493.953   129702101.039       -1576.192          32.000                                                                  
G29  21826083.611   114696836.057       -1464.479          40.000    21826090.716    89374195.643       -1141.347          38.000  
G15  20522982.802   107848989.376        -893.362          42.000    20522988.216    84038213.176        -696.433          41.000  
G13  22123231.886   116258364.456       -2959.717          40.000                                                                  
G05  23032142.751   121034706.969       -1256.999          39.000    23032150.698    94312808.004        -979.093          37.000  
G24  22632023.149   118932086.963        2854.844          37.000    22632035.503    92674401.594        2224.045          38.000  
G18  22991387.806   120820556.819        2805.052          39.000    22991396.281    94145939.388        2185.728          40.000  
> 2025 05 12 10 26 03.0020000  0  9                     
G23  23768700.140   124905354.133        1213.760          34.000    23768712.946    97328925.112         945.889          37.000  
G11  25173611.876   132288228.863       -2892.492          33.000    25173626.147   103081787.821       -2254.386          36.000  
G20  24681793.991   129703677.040       -1575.744          32.000                                                                  
G29  21826362.364   114698300.791       -1465.043          40.000    21826369.416    89375336.973       -1141.474          38.000  
G15  20523152.808   107849882.893        -893.521          42.000    20523158.231    84038909.413        -696.302          41.000  
G13  22123795.100   116261324.193       -2959.746          40.000                                                                  
G05  23032381.854   121035963.689       -1256.686          39.000    23032389.876    94313787.277        -979.151          37.000  
G24  22631479.972   118929232.428        2854.259          37.000    22631492.395    92672177.248        2224.586          38.000  
G18  22990854.036   120817751.669        2805.224          39.000    22990862.615    94143753.577        2185.792          40.000  
> 2025 05 12 10 26 04.0020000  0  9                     
G23  23768469.342   124904140.962        1212.561          34.000    23768482.068    97327979.825         944.740          37.000  
G11  25174162.377   132291122.034       -2893.237          33.000    25174176.804   103084042.218       -2254.681          36.000  
G20  24682094.251   129705253.070       -1576.244          32.000                                                                  
G29  21826641.126   114699766.007       -1465.589          40.000    21826648.286    89376478.714       -1142.252          38.000  
G15  20523323.083   107850776.867        -894.457          42.000    20523328.250    84039606.009        -696.808          41.000  
G13  22124358.329   116264284.236       -2960.542          39.000                                                                  
G05  23032620.960   121037220.389       -1257.290          39.000    23032629.053    94314766.520        -979.266          36.000  
G24  22630936.726   118926378.077        2854.135          37.000    22630949.155    92669953.108        2223.735          38.000  
G18  22990320.362   120814946.624        2804.407          39.000    22990328.835    94141567.831        2185.373          40.000  
> 2025 05 12 10 26 05.0020000  0  9                     
G23  23768238.258   124902927.622        1213.607          34.000    23768251.102    97327034.361         945.253          37.000  
G11  25174712.994   132294015.331       -2893.005          33.000    25174727.314   103086296.755       -2254.690          36.000  
G20  24682394.320   129706829.068       -1576.251          32.000                                                                  
G29  21826919.966   114701231.682       -1465.826          40.000    21826927.214    89377620.784       -1142.093          38.000  
G15  20523493.275   107851671.197        -894.471          42.000    20523498.322    84040302.915        -697.323          41.000  
G13  22124921.597   116267244.515       -2960.563          39.000                                                                  
G05  23032860.093   121038476.990       -1256.858          39.000    23032868.137    94315745.696        -979.436          37.000  
G24  22630393.600   118923523.885        2854.453          37.000    22630406.095    92667729.053        2224.077          38.000  
G18  22989786.558   120812141.576        2804.850          39.000    22989795.007    94139382.094        2185.516          40.000  
> 2025 05 12 10 26 06.0020000  0  9                     
G23  23768007.245   124901714.516        1212.816          34.000    23768020.222    97326089.096         945.125          37.000  
G11  25175263.580   132296909.154       -2894.186          33.000    25175277.909   103088551.659       -2254.911          36.000  
G20  24682694.198   129708405.300       -1576.157          32.000                                                                  
G29  21827198.962   114702698.127       -1466.832          40.000    21827206.215    89378763.484       -1143.314          39.000  
G15  20523663.644   107852566.239        -895.501          42.000    20523668.660    84041000.331        -697.549          41.000  
G13  22125484.966   116270205.342       -2961.083          39.000                                                                  
G05  23033099.316   121039733.828       -1257.003          39.000    23033107.354    94316725.035        -979.439          36.000  
G24  22629850.613   118920670.163        2853.280          37.000    22629862.964    92665505.389        2223.314          38.000  
G18  22989252.806   120809336.897        2804.313          38.000    22989261.313    94137196.636        2185.248          40.000  
> 2025 05 12 10 26 07.0020000  0  9                     
G23  23767776.313   124900501.456        1213.075          34.000    23767789.390    97325143.879         944.903          38.000  
G11  25175814.176   132299803.275       -2894.198          33.000    25175828.610   103090806.842       -2255.421          36.000  
G20  24682994.046   129709981.729       -1577.113          32.000                                                                  
G29  21827478.191   114704165.199       -1467.239          40.000    21827485.382    89379906.649       -1143.660          39.000  
G15  20523834.110   107853461.827        -895.808          42.000    20523839.079    84041698.206        -698.038          41.000  
G13  22126048.439   116273166.584       -2961.594          39.000                                                                  
G05  23033338.517   121040990.779       -1256.974          39.000    23033346.541    94317704.498        -979.652          36.000  
G24  22629307.670   118917816.779        2853.261          36.000    22629320.018    92663281.957        2223.373          38.000  
G18  22988719.084   120806532.415        2804.274          38.000    22988727.672    94135011.350        2185.191          40.000  
> 2025 05 12 10 26 08.0020000  0  9                     
G23  23767545.514   124899288.310        1213.304          34.000    23767558.481    97324198.580         945.064          38.000  
G11  25176365.008   132302697.596       -2894.492          33.000    25176379.314   103093062.173       -2255.763          36.000  
G20  24683293.982   129711558.047       -1576.172          32.000                                                                  
G29  21827757.455   114705632.739       -1468.174          40.000    21827764.722    89381050.178       -1144.027          38.000  
G15  20524004.646   107854357.841        -896.560          42.000    20524009.620    84042396.380        -698.281          41.000  
G13  22126612.112   116276128.088       -2961.862          39.000                                                                  
G05  23033577.739   121042247.676       -1256.932          39.000    23033585.764    94318683.908        -979.653          36.000  
G24  22628764.629   118914963.561        2852.858          37.000    22628777.113    92661058.688        2222.802          38.000  
G18  22988185.518   120803728.006        2804.385          38.000    22988193.997    94132826.106        2185.107          40.000  
> 2025 05 12 10 26 09.0020000  0  9                     
G23  23767314.791   124898075.383        1212.597          34.000    23767327.755    97323253.453         945.131          38.000  
G11  25176915.805   132305592.396       -2894.651          33.000    25176930.157   103095317.842       -2255.606          36.000  
G20  24683594.005   129713134.703       -1576.431          31.000                                                                  
G29  21828036.745   114707101.030       -1468.366          40.000    21828044.056    89382194.308       -1144.388          39.000  
G15  20524175.227   107855254.532        -896.839          42.000    20524180.293    84043095.114        -698.628          41.000  
G13  22127175.759   116279090.126       -2961.898          39.000                                                                  
G05  23033816.883   121043504.827       -1257.221          39.000    23033824.938    94319663.460        -978.882          36.000  
G24  22628221.837   118912110.804        2852.752          37.000    22628234.229    92658835.769        2222.761          38.000  
G18  22987651.924   120800923.952        2804.351          38.000    22987660.476    94130641.136        2184.689          40.000  
> 2025 05 12 10 26 10.0020000  0  9                     
G23  23767083.963   124896862.325        1212.583          35.000    23767096.812    97322308.212         944.982          38.000  
G11  25177466.667   132308487.351       -2895.051          33.000    25177480.854   103097573.656       -2256.287          36.000  
G20  24683894.022   129714711.315       -1577.155          32.000                                                                  
G29  21828316.320   114708569.769       -1469.054          40.000    21828323.548    89383338.776       -1144.860          38.000  
G15  20524346.033   107856151.594        -897.415          42.000    20524350.932    84043794.124        -699.130          41.000  
G13  22127739.605   116282052.414       -2962.549          39.000                                                                  
G05  23034056.038   121044761.833       -1256.990          39.000    23034064.161    94320642.985        -979.662          37.000  
G24  22627679.027   118909258.185        2852.458          36.000    22627691.446    92656612.959        2222.513          38.000  
G18  22987118.390   120798119.886        2804.249          38.000    22987126.802    94128456.160        2185.053          40.000  
> 2025 05 12 10 26 11.0020000  0  9                     
G23  23766853.172   124895649.335        1212.508          35.000    23766866.002    97321363.048         945.021          37.000  
G11  25178017.501   132311382.662       -2895.785          34.000    25178031.772   103099829.750       -2256.287          36.000  
G20  24684193.783   129716288.026       -1576.601          32.000                                                                  
G29  21828595.973   114710039.170       -1470.069          40.000    21828603.042    89384483.743       -1145.228          39.000  
G15  20524516.875   107857049.227        -897.844          42.000    20524521.820    84044493.588        -699.714          41.000  
G13  22128303.377   116285015.117       -2963.064          40.000                                                                  
G05  23034295.251   121046018.976       -1257.204          39.000    23034303.229    94321622.573        -979.628          37.000  
G24  22627136.240   118906405.943        2851.899          36.000    22627148.604    92654390.406        2222.740          38.000  
G18  22986584.817   120795316.097        2803.561          39.000    22986593.262    94126271.395        2184.644          40.000  
> 2025 05 12 10 26 12.0020000  0  9                     
G23  23766622.270   124894436.343        1213.548          35.000    23766635.214    97320417.911         944.761          38.000  
G11  25178568.401   132314278.259       -2895.980          34.000    25178582.780   103102086.074       -2256.586          36.000  
G20  24684493.770   129717864.878       -1577.290          32.000                                                                  
G29  21828875.650   114711509.125       -1470.198          40.000    21828882.796    89385629.177       -1145.570          38.000  
G15  20524687.741   107857947.405        -898.383          42.000    20524692.753    84045193.455        -699.933          41.000  
G13  22128867.159   116287978.199       -2963.392          40.000                                                                  
G05  23034534.460   121047276.165       -1256.923          39.000    23034542.429    94322602.207        -979.813          37.000  
G24  22626593.469   118903553.980        2851.713          36.000    22626605.876    92652168.113        2222.212          38.000  
G18  22986051.205   120792512.474        2803.162          39.000    22986059.707    94124086.766        2184.433          40.000  
> 2025 05 12 10 26 13.0020000  0  9                     
G23  23766391.435   124893223.450        1213.104          35.000    23766404.357    97319472.761         945.178          38.000  
G11  25179119.418   132317174.175       -2895.413          33.000    25179133.768   103104342.635       -2256.649          36.000  
G20  24684793.673   129719441.777       -1576.869          32.000                                                                  
G29  21829155.476   114712979.692       -1470.631          40.000    21829162.703    89386775.073       -1146.138          39.000  
G15  20524858.720   107858846.084        -898.533          42.000    20524863.838    84045893.739        -700.328          41.000  
G13  22129431.078   116290941.657       -2963.414          39.000                                                                  
G05  23034773.725   121048533.434       -1257.049          39.000    23034781.563    94323581.879        -979.508          37.000  
G24  22626050.889   118900702.297        2851.853          37.000    22626063.245    92649946.035        2222.083          38.000  
G18  22985517.768   120789709.019        2803.452          39.000    22985526.291    94121902.260        2184.583          40.000  
> 2025 05 12 10 26 14.0020000  0  9                     
G23  23766160.738   124892010.507        1212.750          35.000    23766173.600    97318527.609         945.152          38.000  
G11  25179670.637   132320070.322       -2896.459          33.000    25179684.887   103106599.363       -2256.647          36.000  
G20  24685093.748   129721018.743       -1576.573          32.000                                                                  
G29  21829435.527   114714450.789       -1471.849          40.000    21829442.690    89387921.390       -1146.956          39.000  
G15  20525029.795   107859745.242        -899.562          42.000    20525034.991    84046594.375        -700.971          41.000  
G13  22129995.095   116293905.416       -2964.268          39.000                                                                  
G05  23035013.048   121049790.661       -1257.302          39.000    23035020.808    94324561.542        -979.724          37.000  
G24  22625508.283   118897850.858        2851.437          36.000    22625520.615    92647724.141        2221.742          38.000  
G18  22984984.372   120786905.650        2803.261          39.000    22984992.797    94119717.831        2184.387          40.000  
> 2025 05 12 10 26 15.0020000  0  9                     
G23  23765929.861   124890797.529        1212.610          35.000    23765942.767    97317582.451         945.099          38.000  
G11  25180221.876   132322966.781       -2897.189          34.000    25180236.076   103108856.336       -2257.269          36.000  
G20  24685393.892   129722595.803       -1577.356          32.000                                                                  
G29  21829715.636   114715922.428       -1472.151          40.000    21829722.720    89389068.113       -1147.278          38.000  
G15  20525201.029   107860644.868        -899.972          42.000    20525206.121    84047295.390        -701.505          41.000  
G13  22130559.060   116296869.523       -2964.391          39.000                                                                  
G05  23035252.231   121051047.894       -1257.182          39.000    23035260.066    94325541.185        -979.556          37.000  
G24  22624965.788   118894999.682        2850.981          37.000    22624978.096    92645502.460        2221.069          38.000  
G18  22984450.968   120784102.474        2802.625          39.000    22984459.321    94117533.539        2183.958          40.000  
> 2025 05 12 10 26 16.0020000  0  9                     
G23  23765699.055   124889584.427        1213.532          35.000    23765711.870    97316637.189         945.459          38.000  
G11  25180772.880   132325863.366       -2897.132          34.000    25180787.218   103111113.405       -2257.119          36.000  
G20  24685693.929   129724172.763       -1577.142          32.000                                                                  
G29  21829995.732   114717394.504       -1472.417          40.000    21830002.841    89390215.192       -1147.397          38.000  
G15  20525372.249   107861544.877        -900.295          42.000    20525377.436    84047996.694        -701.516          41.000  
G13  22131123.160   116299833.843       -2964.363          39.000                                                                  
G05  23035491.481   121052305.063       -1257.491          39.000    23035499.330    94326520.770        -979.003          37.000  
G24  22624423.244   118892148.649        2850.991          37.000    22624435.659    92643280.867        2221.500          38.000  
G18  22983917.523   120781299.271        2803.255          39.000    22983925.903    94115349.258        2184.224          40.000  
> 2025 05 12 10 26 17.0020000  0  9                     
G23  23765468.259   124888371.352        1212.574          35.000    23765481.012    97315691.934         945.307          38.000  
G11  25181324.193   132328760.213       -2897.423          33.000    25181338.447   103113370.688       -2256.974          36.000  
G20  24685994.084   129725749.797       -1577.122          32.000                                                                  
G29  21830275.911   114718867.149       -1472.894          40.000    21830283.086    89391362.701       -1148.049          38.000  
G15  20525543.660   107862445.382        -900.992          42.000    20525548.751    84048698.389        -701.956          41.000  
G13  22131687.350   116302798.507       -2964.518          39.000                                                                  
G05  23035730.624   121053562.196       -1257.055          39.000    23035738.550    94327500.400        -979.290          36.000  
G24  22623880.798   118889297.899        2850.034          37.000    22623893.161    92641059.493        2221.223          38.000  
G18  22983384.168   120778496.240        2802.929          39.000    22983392.519    94113165.092        2183.831          40.000  
