     3.03           OBSERVATION DATA    M (MIXED)           RINEX VERSION / TYPE
GPP.DLL V3.2.21                         20250313 103214 UTC PGM / RUN BY / DATE 
                                                            MARKER NAME         
                                                            MARKER NUMBER       
Non Geodetic                                                MARKER TYPE         
                                                            OBSERVER / AGENCY   
5034K69681          NetR9               5.01                REC # / TYPE / VERS 
                    GH                                      ANT # / TYPE        
 -1626347.7180  5730619.1851  2271881.7148                  APPROX POSITION XYZ 
        0.0000       -0.0000       -0.0000                  ANTENNA: DELTA H/E/N
G   16 L1C L2W L2X L5X C1C C2W C2X C5X D1C D2W D2X D5X S1C  SYS / # / OBS TYPES 
       S2W S2X S5X                                          SYS / # / OBS TYPES 
R   16 L1C L2C L1P L2P C1C C2C C1P C2P D1C D2C D1P D2P S1C  SYS / # / OBS TYPES 
       S2C S1P S2P                                          SYS / # / OBS TYPES 
E   16 L5X L7X L1X L8X C5X C7X C1X C8X D5X D7X D1X D8X S5X  SYS / # / OBS TYPES 
       S7X S1X S8X                                          SYS / # / OBS TYPES 
S    4 L1C C1C D1C S1C                                      SYS / # / OBS TYPES 
C    8 L7I L2I C7I C2I D7I D2I S7I S2I                      SYS / # / OBS TYPES 
G L2W   0.0000                                              SYS / PHASE SHIFT   
G L2X   0.0000                                              SYS / PHASE SHIFT   
G L5X   0.0000                                              SYS / PHASE SHIFT   
R L1P   0.0000                                              SYS / PHASE SHIFT   
R L2P   0.0000                                              SYS / PHASE SHIFT   
E L5X   0.0000                                              SYS / PHASE SHIFT   
E L7X   0.0000                                              SYS / PHASE SHIFT   
E L1X   0.0000                                              SYS / PHASE SHIFT   
E L8X   0.0000                                              SYS / PHASE SHIFT   
G L1C                                                       SYS / PHASE SHIFT   
R L1C                                                       SYS / PHASE SHIFT   
R L2C                                                       SYS / PHASE SHIFT   
C L7I                                                       SYS / PHASE SHIFT   
C L2I                                                       SYS / PHASE SHIFT   
 C1C          C1P          C2C          C2P                 GLONASS COD/PHS/BIS 
     1.000                                                  INTERVAL            
  2023     2    14    10    23   22.0000000     GPS         TIME OF FIRST OBS   
  2023     2    14    10    29   59.0000000     GPS         TIME OF LAST OBS    
  7 R05  1 R09 -2 R10 -7 R11  0 R20  2 R21  4 R22 -3        GLONASS SLOT / FRQ #
    18    18  2185     7                                    LEAP SECONDS        
    35                                                      # OF SATELLITES     
   G01   398   398   398   398   398   398   398   398   398PRN / # OF OBS      
         397   397   397   398   398   398   398            PRN / # OF OBS      
   G03   398   398   398   398   398   398   398   398   398PRN / # OF OBS      
         397   397   397   398   398   398   398            PRN / # OF OBS      
   G06   398   398   398   398   398   398   398   398   398PRN / # OF OBS      
         397   397   397   398   398   398   398            PRN / # OF OBS      
   G07   398   398   398     0   398   398   398     0   398PRN / # OF OBS      
         397   397     0   398   398   398     0            PRN / # OF OBS      
   G11   260   253   254   254   260   253   254   254   260PRN / # OF OBS      
         252   253   253   260   253   254   254            PRN / # OF OBS      
   G14   398   398   398   398   398   398   398   398   398PRN / # OF OBS      
         397   397   397   398   398   398   398            PRN / # OF OBS      
   G17   398   398   398     0   398   398   398     0   398PRN / # OF OBS      
         397   397     0   398   398   398     0            PRN / # OF OBS      
   G19   398   398     0     0   398   398     0     0   398PRN / # OF OBS      
         397     0     0   398   398     0     0            PRN / # OF OBS      
   G30   398   398   398   398   398   398   398   398   398PRN / # OF OBS      
         397   397   397   398   398   398   398            PRN / # OF OBS      
   R05   398   398   398   398   398   398   398   398   398PRN / # OF OBS      
         397   397   397   398   398   398   398            PRN / # OF OBS      
   R09   398   398   398   398   398   398   398   398   398PRN / # OF OBS      
         397   397   397   398   398   398   398            PRN / # OF OBS      
   R10   398     0   398     0   398     0   398     0   398PRN / # OF OBS      
           0   397     0   398     0   398     0            PRN / # OF OBS      
   R11   398   398   398   398   398   398   398   398   398PRN / # OF OBS      
         397   397   397   398   398   398   398            PRN / # OF OBS      
   R20   398   398   398   398   398   398   398   398   398PRN / # OF OBS      
         397   397   397   398   398   398   398            PRN / # OF OBS      
   R21   398   398   398   398   398   398   398   398   398PRN / # OF OBS      
         397   397   397   398   398   398   398            PRN / # OF OBS      
   R22   398   398   398   398   398   398   398   398   398PRN / # OF OBS      
         397   397   397   398   398   398   398            PRN / # OF OBS      
   S27   398   398   398   398                              PRN / # OF OBS      
   S37   398   398   398   398                              PRN / # OF OBS      
   E01   398   398   398   398   398   398   398   398   397PRN / # OF OBS      
         397   398   397   398   398   398   398            PRN / # OF OBS      
   E26   398   398   398   398   398   398   398   398   397PRN / # OF OBS      
         397   398   397   398   398   398   398            PRN / # OF OBS      
   E31   398   398   398   398   398   398   398   398   397PRN / # OF OBS      
         397   398   397   398   398   398   398            PRN / # OF OBS      
   E33   398   398   398   398   398   398   398   398   397PRN / # OF OBS      
         397   398   397   398   398   398   398            PRN / # OF OBS      
   C01   398   398   398   398   397   398   398   398      PRN / # OF OBS      
   C02   398   398   398   398   397   398   398   398      PRN / # OF OBS      
   C03   398   398   398   398   397   398   398   398      PRN / # OF OBS      
   C04   396   397   396   397   394   397   396   397      PRN / # OF OBS      
   C05   398   398   398   398   397   398   398   398      PRN / # OF OBS      
   C06   158   163   158   163   157   163   158   163      PRN / # OF OBS      
   C07   161   161   161   161   160   161   161   161      PRN / # OF OBS      
   C08   161   161   161   161   160   161   161   161      PRN / # OF OBS      
   C09   161   161   161   161   160   161   161   161      PRN / # OF OBS      
   C10   161   161   161   161   160   161   161   161      PRN / # OF OBS      
   C11   398   398   398   398   397   398   398   398      PRN / # OF OBS      
   C13   398   398   398   398   397   398   398   398      PRN / # OF OBS      
   C14   398   398   398   398   397   398   398   398      PRN / # OF OBS      
                                                            END OF HEADER       
> 2023 02 14 10 23 22.0000000  0 33
G30 115397030.20017  89919836.08417  89919790.08017  86173121.39218  21959325.023    21959344.703    21959344.895    21959348.359       -2488.566           0.000           0.000           0.000          45.000          46.000          46.000          50.000  
G17 114456687.68817  89187110.41917  89187111.41617                  21780383.492    21780403.199    21780403.211                         -78.266           0.000           0.000                          45.000          47.000          45.000                  
G19 117829908.91917  91815604.02415                                  22422285.211    22422306.996                                        1095.184           0.000                                          43.000          32.000                                  
G07 124149162.46616  96739665.53815  96739663.54316                  23624796.891    23624815.168    23624814.832                       -3458.672           0.000           0.000                          38.000          32.000          36.000                  
G01 122178251.72816  95203956.52213  95203873.53216  91237032.90117  23249751.945    23249779.773    23249779.102    23249782.734       -3495.988           0.000           0.000           0.000          38.000          23.000          40.000          45.000  
G14 106998477.61718  83375507.78117  83375507.76918  79901489.43819  20361133.258    20361150.000    20361150.086    20361157.684         684.676           0.000           0.000           0.000          48.000          43.000          53.000          56.000  
G03 117923932.10117  91888876.26816  91888802.25817  88060091.25318  22440179.125    22440202.637    22440203.098    22440208.395          24.234           0.000           0.000           0.000          42.000          41.000          44.000          48.000  
G06 112351565.63917  87546759.71518  87546761.71018  83898996.14518  21379791.953    21379812.715    21379813.070    21379817.379        1937.930           0.000           0.000           0.000          46.000          50.000          48.000          51.000  
R20 117627904.59516  91488422.64116 117627847.61815  91488420.64316  21997001.078    21997024.797    21997001.316    21997024.129       -2966.168           0.000           0.000           0.000          37.000          38.000          35.000          38.000  
E33  92786673.27718  95207184.03718 124253479.77818  93997037.76719  23644670.031    23644665.387    23644651.062    23644667.750           0.000           0.000        -951.406           0.000          52.000          53.000          49.000          59.000  
E01  94080529.05618  96534785.18218 125985996.48718  95307656.72919  23974357.266    23974352.859    23974337.984    23974355.160           0.000           0.000        -685.547           0.000          51.000          53.000          50.000          58.000  
E26 102975955.67317 105662269.90617 137898121.51616 104319121.89818  26241166.848    26241161.406    26241140.180    26241164.395           0.000           0.000       -2469.383           0.000          43.000          44.000          41.000          50.000  
E31  96109845.64618  98617058.93418 128703627.03318  97363474.89919  24491508.512    24491503.871    24491485.477    24491506.184           0.000           0.000        1803.973           0.000          49.000          50.000          49.000          56.000  
R22 119773932.12617  93157512.89616 119773928.14417  93157508.89216  22437694.758    22437714.906    22437694.613    22437715.148        1921.148           0.000           0.000           0.000          43.000          41.000          43.000          41.000  
R11 111859047.54318  87001479.16317 111859033.54718  87001475.15917  20932894.062    20932911.883    20932893.465    20932911.789        3164.934           0.000           0.000           0.000          50.000          47.000          49.000          46.000  
R21 109951755.56218  85518034.47618 109951746.57018  85518031.48017  20547114.094    20547131.418    20547112.770    20547131.859        -345.094           0.000           0.000           0.000          52.000          48.000          51.000          47.000  
R10 102762260.62217                 102762243.62217                  19277938.539                    19277937.402                        -867.062                           0.000                          47.000                          45.000                  
R09 115377239.75717  89737870.36417 115377249.76817  89737864.36717  21606454.094    21606468.262    21606453.180    21606468.504       -3743.148           0.000           0.000           0.000          46.000          45.000          45.000          44.000  
R05 129546330.05715 100758290.89015 129546229.02615 100758296.88915  24234305.953    24234334.227    24234305.332    24234334.289        1640.402           0.000           0.000           0.000          35.000          35.000          34.000          34.000  
C14 101276191.12216 130972381.09316  25151878.293    25151868.430           0.000        2077.328          41.000          37.000  
C13 148954724.92017 192631212.07717  36992811.125    36992798.836           0.000        1126.672          44.000          46.000  
C11  94474345.75317 122176082.84317  23462644.945    23462632.547           0.000       -1646.250          46.000          44.000  
C10 147500202.46517 190750206.58217  36631581.738    36631571.836           0.000         570.109          46.000          45.000  
C09 154589271.23116 199917931.27816  38392147.773    38392137.711           0.000       -1608.516          40.000          38.000  
C08 146915394.81617 189993947.76417  36486344.957    36486340.188           0.000        1124.621          46.000          44.000  
C07 146310865.18117 189212150.96117  36336210.598    36336204.648           0.000         449.355          47.000          46.000  
C05 154616772.34916 199953492.23916  38398977.621    38398966.586           0.000          25.195          40.000          36.000  
C04 156987462.02516 203019308.80316  38987736.605    38987724.797           0.000          17.055          40.000          36.000  
C03 145890093.04217 188668006.31717  36231712.539    36231707.125           0.000          34.578          47.000          44.000  
C02 148825152.83817 192463685.50416  36960632.609    36960627.492           0.000          15.508          45.000          41.000  
C01 151015633.37317 195296433.03316  37504636.859    37504626.906           0.000          31.406          43.000          40.000  
S27 203496710.11816  38724136.391          -9.844          40.000  
S37 193085199.38217  36742888.906          -4.387          42.000  
> 2023 02 14 10 23 23.0000000  0 33
G30 115399518.848 7  89921775.289 7  89921729.285 7  86174979.797 8  21959798.555    21959818.133    21959818.160    21959821.789       -2488.715       -1939.205       -1939.205       -1858.405          45.000          46.000          46.000          50.000  
G17 114456765.953 7  89187171.414 7  89187172.409 7                  21780398.266    21780418.285    21780418.051                         -78.160         -60.995         -60.993                          45.000          47.000          45.000                  
G19 117828813.733 7  91814750.631 5                                  22422076.422    22422098.695                                        1095.121         853.393                                          43.000          33.000                                  
G07 124152620.936 6  96742360.451 5  96742358.447 6                  23625454.359    23625473.195    23625473.191                       -3458.375       -2694.913       -2694.904                          37.000          32.000          36.000                  
G01 122181747.746 6  95206680.692 3  95206597.699 6  91239643.557 7  23250417.945    23250444.898    23250444.473    23250448.035       -3495.894       -2724.171       -2724.168       -2610.657          38.000          23.000          40.000          45.000  
G14 106997793.154 8  83374974.438 7  83374974.426 8  79900978.316 9  20361002.898    20361020.230    20361020.367    20361027.738         684.301         533.344         533.344         511.122          48.000          43.000          53.000          56.000  
G03 117923908.157 7  91888857.607 7  91888783.601 7  88060073.370 8  22440174.094    22440197.883    22440198.289    22440203.582          23.793          18.661          18.656          17.883          42.000          42.000          44.000          48.000  
G06 112349627.982 7  87545249.862 8  87545251.857 8  83897549.193 8  21379423.352    21379443.820    21379444.234    21379448.539        1937.473        1509.854        1509.854        1446.951          46.000          50.000          48.000          51.000  
R20 117630870.721 6  91490729.628 6 117630813.745 5  91490727.624 6  21997556.703    21997578.730    21997556.238    21997578.586       -2966.090       -2306.987       -2966.127       -2306.981          37.000          38.000          35.000          37.000  
E33  92787383.855 8  95207913.152 8 124254431.334 8  93997757.614 9  23644851.285    23644846.688    23644832.102    23644848.957        -710.577        -729.115        -951.703        -719.848          52.000          53.000          48.000          59.000  
E01  94081041.076 8  96535310.555 8 125986682.144 8  95308175.427 9  23974488.055    23974483.508    23974468.508    23974485.777        -512.020        -525.373        -685.758        -518.699          51.000          53.000          49.000          58.000  
E26 102977799.638 7 105664161.978 7 137900590.828 6 104320989.919 8  26241636.891    26241631.453    26241610.422    26241634.422       -1843.965       -1892.072       -2469.332       -1868.021          43.000          44.000          41.000          50.000  
E31  96108498.627 8  98615676.778 8 128701823.192 8  97362110.312 9  24491165.086    24491160.539    24491142.180    24491162.902        1347.019        1382.157        1803.824        1364.586          49.000          50.000          49.000          56.000  
R22 119772011.296 7  93156018.915 6 119772007.326 7  93156014.916 6  22437335.297    22437355.203    22437334.801    22437355.211        1920.770        1493.982        1920.818        1493.976          43.000          41.000          43.000          41.000  
R11 111855882.839 8  86999017.737 7 111855868.842 8  86999013.726 7  20932302.289    20932319.914    20932301.574    20932319.547        3164.488        2461.426        3164.705        2461.433          49.000          47.000          49.000          46.000  
R21 109952100.823 8  85518303.012 8 109952091.824 8  85518300.015 7  20547178.617    20547196.645    20547177.762    20547196.832        -345.398        -268.537        -345.253        -268.536          52.000          48.000          51.000          47.000  
R10 102763128.080 7                 102763111.083 7                  19278100.930                    19278099.441                        -867.852                        -867.462                          47.000                          45.000                  
R09 115380983.077 7  89740781.835 7 115380993.049 7  89740775.832 7  21607155.109    21607170.336    21607154.898    21607170.059       -3743.484       -2911.471       -3743.282       -2911.465          46.000          45.000          45.000          44.000  
R05 129544689.621 6 100757014.993 5 129544588.615 5 100757020.982 5  24233999.555    24234027.023    24233998.816    24234027.254        1640.445        1275.897        1640.411        1275.908          36.000          35.000          34.000          34.000  
C14 101274584.884 6 130970303.873 6  25151479.211    25151468.656        1606.238        2077.371          40.000          37.000  
C13 148953853.842 7 192630085.582 7  36992594.801    36992582.406         871.078        1126.504          44.000          45.000  
C11  94475618.735 7 122177729.091 7  23462961.086    23462948.922       -1272.982       -1646.242          46.000          44.000  
C10 147499761.564 7 190749636.395 7  36631472.211    36631462.438         440.901         570.293          47.000          45.000  
C09 154590515.074 6 199919539.846 6  38392456.539    38392446.258       -1243.842       -1608.672          40.000          38.000  
C08 146914525.277 7 189992823.263 7  36486129.324    36486124.461         869.540        1124.348          46.000          44.000  
C07 146310517.753 7 189211701.658 7  36336124.109    36336118.133         347.428         449.359          47.000          46.000  
C05 154616752.931 6 199953467.134 6  38398972.984    38398961.680          19.417          25.141          40.000          36.000  
C04 156987449.041 6 203019292.008 6  38987733.012    38987721.609          12.985          16.980          40.000          36.000  
C03 145890066.281 7 188667971.712 7  36231706.074    36231700.391          26.761          34.695          47.000          44.000  
C02 148825140.836 7 192463669.982 6  36960629.754    36960624.445          12.002          15.594          45.000          41.000  
C01 151015609.103 7 195296401.645 6  37504630.574    37504621.016          24.270          31.426          42.000          40.000  
S27 203496720.069 6  38724138.297          -9.891          40.000  
S37 193085203.833 7  36742890.234          -4.398          42.000  
> 2023 02 14 10 23 24.0000000  0 33
G30 115402007.881 7  89923714.794 7  89923668.790 7  86176838.490 8  21960272.211    21960291.707    21960291.832    21960295.484       -2489.203       -1939.505       -1939.504       -1858.693          45.000          46.000          46.000          50.000  
G17 114456844.242 7  89187232.420 7  89187233.415 7                  21780412.977    21780432.945    21780432.711                         -78.352         -61.006         -61.006                          45.000          47.000          45.000                  
G19 117827718.634 7  91813897.312 5                                  22421868.219    22421890.191                                        1095.043         853.319                                          43.000          32.000                                  
G07 124156079.508 6  96745055.445 5  96745053.442 6                  23626112.844    23626131.594    23626131.840                       -3458.688       -2694.994       -2694.995                          37.000          31.000          36.000                  
G01 122185243.920 6  95209404.986 3  95209321.989 6  91242254.338 7  23251082.453    23251110.168    23251109.586    23251113.418       -3496.305       -2724.294       -2724.290       -2610.780          38.000          23.000          40.000          45.000  
G14 106997109.188 8  83374441.474 7  83374441.470 8  79900467.565 9  20360873.227    20360889.922    20360889.773    20360897.492         683.680         532.964         532.956         510.751          48.000          43.000          53.000          56.000  
G03 117923884.838 7  91888839.437 7  91888765.428 7  88060055.957 8  22440169.641    22440193.598    22440194.094    22440199.297          23.012          18.170          18.173          17.413          42.000          42.000          44.000          48.000  
G06 112347690.827 7  87543740.388 8  87543742.383 8  83896102.618 8  21379055.070    21379075.387    21379075.777    21379080.051        1936.777        1509.474        1509.474        1446.575          46.000          50.000          48.000          51.000  
R20 117633836.861 6  91493036.625 6 117633779.875 5  91493034.629 6  21998111.273    21998134.559    21998111.395    21998133.969       -2966.145       -2306.997       -2966.130       -2307.005          36.000          37.000          35.000          37.000  
E33  92788094.679 8  95208642.517 8 124255383.217 8  93998477.707 9  23645032.426    23645027.785    23645013.367    23645030.137        -710.825        -729.365        -952.133        -720.092          52.000          52.000          49.000          59.000  
E01  94081553.390 8  96535836.242 8 125987368.200 8  95308694.424 9  23974618.715    23974613.934    23974599.086    23974616.363        -512.314        -525.687        -686.270        -518.997          51.000          53.000          50.000          58.000  
E26 102979643.650 7 105666054.089 7 137903060.206 7 104322857.981 8  26242106.609    26242101.215    26242080.047    26242104.242       -1844.012       -1892.111       -2469.434       -1868.062          43.000          44.000          42.000          50.000  
E31  96107151.784 8  98614294.796 8 128700019.574 8  97360745.895 9  24490822.008    24490817.504    24490799.078    24490819.805        1346.843        1381.982        1803.535        1364.417          49.000          50.000          49.000          56.000  
R22 119770090.959 7  93154525.317 6 119770086.943 7  93154521.321 6  22436975.367    22436994.961    22436975.105    22436995.484        1920.043        1493.598        1920.383        1493.595          43.000          41.000          43.000          41.000  
R11 111852718.698 8  86996556.744 7 111852704.686 8  86996552.740 7  20931709.594    20931727.188    20931709.234    20931727.180        3163.816        2460.992        3164.156        2460.986          50.000          47.000          48.000          46.000  
R21 109952446.506 8  85518571.876 8 109952437.529 8  85518568.880 7  20547243.422    20547261.008    20547241.980    20547261.309        -345.871        -268.864        -345.705        -268.865          52.000          48.000          51.000          47.000  
R10 102763996.442 7                 102763979.443 7                  19278263.641                    19278262.270                        -868.828                        -868.360                          47.000                          45.000                  
R09 115384726.826 7  89743693.644 7 115384736.837 7  89743687.640 7  21607856.406    21607870.992    21607855.375    21607870.969       -3744.000       -2911.808       -3743.788       -2911.807          46.000          45.000          44.000          43.000  
R05 129543049.612 6 100755739.412 5 129542948.576 5 100755745.400 5  24233693.617    24233721.004    24233692.406    24233720.793        1639.727        1275.581        1640.039        1275.581          36.000          35.000          33.000          33.000  
C14 101272978.656 6 130968226.665 6  25151080.172    25151069.531        1606.228        2077.285          41.000          37.000  
C13 148952982.876 7 192628959.227 7  36992378.555    36992366.000         870.967        1126.266          44.000          45.000  
C11  94476891.732 7 122179375.364 7  23463277.430    23463265.188       -1272.997       -1646.301          46.000          44.000  
C10 147499320.665 7 190749066.212 7  36631362.594    36631353.219         440.899         570.230          47.000          45.000  
C09 154591758.977 6 199921148.479 6  38392765.727    38392755.906       -1243.904       -1608.578          40.000          37.000  
C08 146913655.896 7 189991698.957 7  36485913.457    36485908.430         869.381        1124.266          46.000          44.000  
C07 146310170.340 7 189211252.367 7  36336037.938    36336031.734         347.413         449.273          47.000          46.000  
C05 154616733.572 6 199953442.093 6  38398967.930    38398957.156          19.359          24.977          40.000          36.000  
C04 156987436.078 6 203019275.240 5  38987730.309    38987718.461          12.963          16.785          40.000          35.000  
C03 145890039.579 7 188667937.177 7  36231699.379    36231694.109          26.702          34.582          47.000          44.000  
C02 148825128.892 7 192463654.532 6  36960626.348    36960621.180          11.944          15.461          45.000          41.000  
C01 151015584.857 7 195296370.282 6  37504624.680    37504615.242          24.247          31.211          42.000          40.000  
S27 203496730.003 6  38724140.062          -9.945          40.000  
S37 193085208.299 7  36742891.078          -4.453          42.000  
> 2023 02 14 10 23 25.0000000  0 33
G30 115404497.186 7  89925654.516 7  89925608.512 7  86178697.392 8  21960745.750    21960765.418    21960765.840    21960769.195       -2489.465       -1939.721       -1939.722       -1858.902          45.000          46.000          46.000          50.000  
G17 114456922.456 7  89187293.371 7  89187294.368 7                  21780428.555    21780448.059    21780447.961                         -78.160         -60.951         -60.953                          45.000          47.000          45.000                  
G19 117826623.558 7  91813044.022 5                                  22421660.711    22421681.812                                        1095.133         853.289                                          43.000          32.000                                  
G07 124159537.978 6  96747750.355 5  96747748.348 6                  23626770.633    23626789.668    23626789.766                       -3458.363       -2694.910       -2694.906                          37.000          32.000          36.000                  
G01 122188740.170 6  95212129.335 3  95212046.345 6  91244865.175 7  23251747.773    23251775.613    23251775.289    23251778.922       -3496.418       -2724.349       -2724.355       -2610.837          38.000          23.000          41.000          45.000  
G14 106996425.628 7  83373908.834 7  83373908.829 8  79899957.118 9  20360743.141    20360759.797    20360759.598    20360767.250         683.363         532.640         532.641         510.448          47.000          43.000          53.000          56.000  
G03 117923862.105 7  91888821.718 7  91888747.716 7  88060038.980 8  22440165.102    22440189.559    22440189.816    22440195.258          22.523          17.719          17.713          16.977          42.000          42.000          44.000          48.000  
G06 112345754.157 7  87542231.301 8  87542233.295 8  83894656.406 8  21378685.914    21378707.066    21378707.441    21378711.844        1936.434        1509.087        1509.088        1446.211          46.000          50.000          48.000          51.000  
R20 117636802.944 6  91495343.578 6 117636745.954 5  91495341.575 6  21998665.570    21998688.535    21998666.398    21998688.465       -2966.094       -2306.952       -2966.079       -2306.946          37.000          38.000          35.000          37.000  
E33  92788805.682 8  95209372.068 8 124256335.340 8  93999197.980 9  23645213.535    23645208.801    23645194.508    23645211.227        -711.003        -729.550        -952.227        -720.274          52.000          52.000          49.000          59.000  
E01  94082065.933 8  96536362.147 8 125988054.558 8  95309213.648 9  23974749.305    23974744.523    23974729.781    23974746.977        -512.543        -525.905        -686.500        -519.224          51.000          53.000          50.000          58.000  
E26 102981487.649 7 105667946.193 7 137905529.562 7 104324726.029 8  26242576.371    26242570.887    26242550.188    26242573.938       -1843.999       -1892.104       -2469.406       -1868.048          43.000          44.000          42.000          50.000  
E31  96105805.054 8  98612912.932 8 128698216.117 8  97359381.602 9  24490478.910    24490474.176    24490455.695    24490476.566        1346.730        1381.863        1803.355        1364.293          49.000          50.000          49.000          56.000  
R22 119768171.001 7  93153032.008 6 119768167.002 7  93153028.016 6  22436616.398    22436635.844    22436615.785    22436636.281        1919.809        1493.309        1919.941        1493.305          43.000          41.000          43.000          41.000  
R11 111849555.036 8  86994096.132 7 111849541.048 8  86994092.128 7  20931117.570    20931134.871    20931117.094    20931135.195        3163.477        2460.612        3163.638        2460.612          50.000          47.000          49.000          46.000  
R21 109952792.578 8  85518841.040 7 109952783.572 8  85518838.043 7  20547307.672    20547325.043    20547306.582    20547325.625        -346.242        -269.163        -346.043        -269.163          52.000          47.000          51.000          47.000  
R10 102764865.608 7                 102764848.616 7                  19278427.453                    19278425.730                        -869.496                        -869.173                          47.000                          46.000                  
R09 115388470.980 7  89746605.759 7 115388480.976 7  89746599.755 7  21608558.297    21608571.680    21608555.977    21608571.637       -3744.391       -2912.115       -3744.139       -2912.115          46.000          45.000          44.000          44.000  
R05 129541409.800 6 100754463.976 5 129541308.807 5 100754469.972 5  24233386.523    24233413.957    24233385.551    24233414.031        1639.695        1275.437        1639.770        1275.429          36.000          35.000          34.000          33.000  
C14 101271372.336 6 130966149.329 6  25150681.113    25150670.516        1606.320        2077.402          41.000          37.000  
C13 148952112.014 7 192627833.003 7  36992162.344    36992150.070         870.862        1126.117          44.000          45.000  
C11  94478164.687 7 122181021.578 7  23463593.363    23463581.352       -1272.955       -1646.176          46.000          44.000  
C10 147498879.708 7 190748495.958 7  36631253.172    36631243.516         440.957         570.297          47.000          45.000  
C09 154593002.771 6 199922756.989 6  38393074.770    38393064.539       -1243.794       -1608.481          40.000          38.000  
C08 146912786.635 7 189990574.813 7  36485697.582    36485692.609         869.261        1124.137          46.000          45.000  
C07 146309822.872 7 189210803.017 7  36335951.758    36335945.812         347.468         449.367          47.000          46.000  
C05 154616714.182 6 199953417.014 6  38398963.355    38398952.398          19.390          24.953          40.000          36.000  
C04 156987423.055 6 203019258.398 5  38987726.844    38987715.320          13.023          16.781          40.000          35.000  
C03 145890012.826 7 188667902.579 7  36231692.789    36231687.203          26.754          34.668          47.000          44.000  
C02 148825116.897 7 192463639.016 6  36960623.777    36960618.695          11.995          15.527          45.000          41.000  
C01 151015560.590 7 195296338.898 6  37504618.684    37504608.406          24.267          31.363          42.000          40.000  
S27 203496739.916 6  38724143.266          -9.887          40.000  
S37 193085212.754 7  36742893.500          -4.453          42.000  
> 2023 02 14 10 23 26.0000000  0 33
G30 115406986.767 7  89927594.449 7  89927548.444 7  86180556.491 8  21961219.977    21961239.289    21961239.488    21961243.066       -2489.699       -1939.933       -1939.932       -1859.099          45.000          46.000          46.000          50.000  
G17 114457000.637 7  89187354.293 7  89187355.290 7                  21780442.898    21780462.742    21780462.973                         -78.117         -60.922         -60.922                          45.000          47.000          45.000                  
G19 117825528.526 7  91812190.758 5                                  22421451.758    22421473.430                                        1094.953         853.264                                          43.000          32.000                                  
G07 124162996.449 6  96750445.262 5  96750443.262 6                  23627429.109    23627447.637    23627447.523                       -3458.289       -2694.907       -2694.914                          38.000          32.000          37.000                  
G01 122192236.433 6  95214853.696 3  95214770.710 6  91247476.020 7  23252413.367    23252440.824    23252440.383    23252444.191       -3496.192       -2724.361       -2724.366       -2610.845          38.000          23.000          41.000          45.000  
G14 106995742.533 8  83373376.557 7  83373376.553 8  79899447.019 9  20360612.672    20360629.660    20360629.477    20360637.230         682.891         532.277         532.276         510.099          48.000          43.000          53.000          56.000  
G03 117923839.893 7  91888804.415 6  91888730.411 7  88060022.391 8  22440160.844    22440185.277    22440185.328    22440190.918          21.941          17.304          17.305          16.589          42.000          41.000          44.000          48.000  
G06 112343817.943 7  87540722.567 8  87540724.555 8  83893210.537 8  21378317.781    21378338.520    21378338.852    21378343.180        1935.941        1508.734        1508.740        1445.870          46.000          50.000          48.000          52.000  
R20 117639768.918 6  91497650.449 6 117639711.975 5  91497648.446 6  21999221.344    21999242.738    21999220.527    21999242.703       -2965.988       -2306.871       -2966.021       -2306.871          37.000          38.000          35.000          38.000  
E33  92789516.898 8  95210101.835 8 124257287.752 8  93999918.478 9  23645394.844    23645390.250    23645375.766    23645392.559        -711.216        -729.768        -952.457        -720.498          51.000          52.000          48.000          59.000  
E01  94082578.749 8  96536888.342 8 125988741.281 8  95309733.154 9  23974879.754    23974875.160    23974860.398    23974877.480        -512.817        -526.196        -686.848        -519.506          51.000          52.000          50.000          58.000  
E26 102983331.658 7 105669838.307 7 137907998.934 7 104326594.094 8  26243046.328    26243040.844    26243020.023    26243043.937       -1844.009       -1892.114       -2469.266       -1868.065          43.000          44.000          42.000          50.000  
E31  96104458.449 8  98611531.195 8 128696412.828 8  97358017.427 9  24490135.637    24490130.949    24490112.680    24490133.418        1346.605        1381.738        1803.215        1364.175          49.000          50.000          49.000          56.000  
R22 119766251.471 7  93151539.046 6 119766247.478 7  93151535.049 6  22436255.945    22436275.730    22436255.684    22436276.324        1919.320        1492.962        1919.524        1492.967          43.000          41.000          42.000          41.000  
R11 111846391.878 8  86991635.914 7 111846377.881 8  86991631.910 7  20930525.953    20930544.168    20930526.180    20930544.215        3162.898        2460.218        3163.166        2460.218          50.000          47.000          48.000          46.000  
R21 109953139.005 8  85519110.486 8 109953130.012 8  85519107.490 7  20547372.250    20547389.707    20547371.629    20547390.793        -346.566        -269.446        -346.441        -269.446          52.000          48.000          51.000          47.000  
R10 102765735.619 7                 102765718.614 7                  19278589.953                    19278588.699                        -870.316                        -869.998                          47.000                          45.000                  
R09 115392215.511 7  89749518.169 7 115392225.514 7  89749512.167 7  21609259.414    21609273.422    21609258.031    21609273.391       -3744.726       -2912.411       -3744.538       -2912.412          46.000          45.000          44.000          44.000  
R05 129539770.381 5 100753188.862 5 129539669.384 5 100753194.863 5  24233078.891    24233107.187    24233078.152    24233107.141        1639.254        1275.113        1639.422        1275.108          35.000          35.000          33.000          34.000  
C14 101269765.968 6 130964071.945 6  25150282.363    25150271.766        1606.368        2077.586          40.000          37.000  
C13 148951241.239 7 192626706.902 7  36991946.273    36991933.422         870.775        1126.059          44.000          45.000  
C11  94479437.617 7 122182667.758 7  23463909.621    23463897.539       -1272.929       -1646.137          46.000          44.000  
C10 147498438.710 7 190747925.647 7  36631143.488    36631133.797         440.998         570.371          47.000          44.000  
C09 154594246.564 6 199924365.480 6  38393383.520    38393373.477       -1243.793       -1608.398          40.000          38.000  
C08 146911917.465 7 189989450.781 7  36485481.395    36485476.367         869.170        1123.988          46.000          44.000  
C07 146309475.401 7 189210353.658 7  36335865.516    36335859.578         347.471         449.430          47.000          46.000  
C05 154616694.738 6 199953391.861 6  38398958.348    38398947.312          19.445          25.309          40.000          36.000  
C04 156987410.026 6 203019241.544 5  38987723.426    38987712.547          13.029          16.816          40.000          35.000  
C03 145889986.077 7 188667867.979 7  36231686.020    36231680.133          26.749          34.566          47.000          44.000  
C02 148825104.897 7 192463623.499 6  36960620.574    36960615.438          11.999          15.516          45.000          41.000  
C01 151015536.305 7 195296307.496 6  37504612.824    37504603.023          24.285          31.465          42.000          40.000  
S27 203496749.881 6  38724143.922          -9.961          40.000  
S37 193085217.159 7  36742895.766          -4.367          42.000  
> 2023 02 14 10 23 27.0000000  0 33
G30 115409476.721 7  89929534.673 7  89929488.669 7  86182415.873 8  21961693.711    21961713.273    21961713.336    21961716.816       -2490.105       -1940.224       -1940.225       -1859.383          45.000          46.000          46.000          50.000  
G17 114457078.848 7  89187415.237 7  89187416.235 7                  21780458.086    21780477.742    21780477.879                         -78.223         -60.945         -60.945                          45.000          47.000          45.000                  
G19 117824433.622 7  91811337.592 5                                  22421243.156    22421265.148                                        1094.863         853.166                                          43.000          33.000                                  
G07 124166454.931 6  96753140.174 5  96753138.178 6                  23628087.703    23628105.867    23628105.988                       -3458.516       -2694.912       -2694.916                          37.000          32.000          37.000                  
G01 122195732.901 6  95217578.213 3  95217495.227 6  91250087.017 7  23253078.234    23253105.617    23253105.066    23253108.984       -3496.516       -2724.517       -2724.516       -2610.997          37.000          23.000          41.000          45.000  
G14 106995059.921 7  83372844.659 7  83372844.647 8  79898937.283 9  20360482.820    20360499.875    20360499.875    20360507.445         682.402         531.898         531.906         509.736          47.000          43.000          53.000          56.000  
G03 117923818.355 7  91888787.627 7  91888713.624 7  88060006.308 8  22440156.664    22440180.980    22440181.387    22440186.855          21.340          16.788          16.787          16.084          42.000          42.000          44.000          48.000  
G06 112341882.246 7  87539214.231 8  87539216.226 8  83891765.052 8  21377949.664    21377969.621    21377970.168    21377974.637        1935.520        1508.336        1508.329        1445.485          46.000          50.000          48.000          51.000  
R20 117642734.910 6  91499957.327 6 117642677.931 5  91499955.330 6  21999775.859    21999797.805    21999775.277    21999797.648       -2965.957       -2306.878       -2965.956       -2306.884          37.000          38.000          34.000          38.000  
E33  92790228.383 8  95210831.882 8 124258240.523 8  94000639.241 9  23645576.141    23645571.500    23645557.156    23645573.848        -711.485        -730.047        -952.945        -720.763          52.000          52.000          48.000          59.000  
E01  94083091.848 8  96537414.826 8 125989428.388 8  95310252.949 9  23975010.660    23975006.063    23974991.281    23975008.461        -513.098        -526.484        -687.227        -519.795          51.000          52.000          50.000          58.000  
E26 102985175.714 7 105671730.468 7 137910468.370 7 104328462.201 8  26243516.285    26243511.125    26243489.984    26243513.910       -1844.056       -1892.161       -2469.465       -1868.107          43.000          44.000          42.000          50.000  
E31  96103112.024 8  98610149.653 8 128694609.787 8  97356653.448 9  24489792.441    24489787.848    24489769.570    24489790.199        1346.425        1381.542        1803.031        1363.980          49.000          50.000          49.000          56.000  
R22 119764332.425 7  93150046.456 6 119764328.445 7  93150042.466 6  22435896.875    22435916.297    22435896.496    22435916.855        1918.867        1492.591        1919.033        1492.583          43.000          41.000          43.000          41.000  
R11 111843229.270 8  86989176.118 7 111843215.274 8  86989172.115 7  20929934.164    20929951.672    20929933.449    20929951.824        3162.348        2459.796        3162.607        2459.795          50.000          47.000          49.000          46.000  
R21 109953485.885 8  85519380.281 8 109953476.909 8  85519377.284 7  20547437.664    20547454.348    20547436.457    20547455.793        -347.016        -269.795        -346.896        -269.795          52.000          48.000          51.000          47.000  
R10 102766606.505 7                 102766589.490 7                  19278753.734                    19278752.129                        -871.258                        -870.876                          47.000                          46.000                  
R09 115395960.481 7  89752430.930 7 115395970.489 7  89752424.926 7  21609959.664    21609974.895    21609959.219    21609974.793       -3745.160       -2912.760       -3744.976       -2912.760          46.000          45.000          44.000          43.000  
R05 129538131.312 6 100751914.023 5 129538030.321 5 100751920.019 5  24232772.437    24232800.156    24232771.109    24232800.004        1639.062        1274.839        1639.063        1274.844          36.000          34.000          34.000          34.000  
C14 101268159.634 6 130961994.599 6  25149883.496    25149873.812        1606.335        2077.309          40.000          37.000  
C13 148950370.629 7 192625581.001 7  36991730.211    36991717.258         870.610        1125.793          44.000          45.000  
C11  94480710.581 7 122184313.979 7  23464225.457    23464213.273       -1272.964       -1646.223          46.000          44.000  
C10 147497997.698 7 190747355.319 7  36631033.914    36631024.422         441.012         570.344          46.000          44.000  
C09 154595490.363 6 199925973.978 6  38393692.238    38393682.680       -1243.799       -1608.301          40.000          38.000  
C08 146911048.467 7 189988326.970 7  36485265.641    36485260.773         868.998        1123.832          46.000          44.000  
C07 146309127.933 7 189209904.298 7  36335779.570    36335773.180         347.468         449.320          47.000          46.000  
C05 154616675.336 6 199953366.769 6  38398953.520    38398943.070          19.401          25.203          40.000          36.000  
C04 156987397.044 6 203019224.748 5  38987720.148    38987709.094          12.982          16.750          39.000          35.000  
C03 145889959.352 7 188667833.414 7  36231679.234    36231673.906          26.725          34.613          47.000          44.000  
C02 148825092.915 7 192463607.994 6  36960617.738    36960612.531          11.982          15.617          45.000          41.000  
C01 151015512.060 7 195296276.139 6  37504606.781    37504596.883          24.245          31.375          42.000          40.000  
S27 203496759.854 6  38724145.734          -9.910          40.000  
S37 193085221.621 7  36742890.641          -4.414          42.000  
> 2023 02 14 10 23 28.0000000  0 33
G30 115411966.927 7  89931475.095 7  89931429.090 7  86184275.441 8  21962167.391    21962186.703    21962186.988    21962190.539       -2490.316       -1940.422       -1940.421       -1859.567          45.000          46.000          46.000          50.000  
G17 114457156.976 7  89187476.119 7  89187477.116 7                  21780472.820    21780492.586    21780492.676                         -78.062         -60.881         -60.881                          45.000          47.000          44.000                  
G19 117823338.709 7  91810484.421 5                                  22421034.789    22421056.617                                        1094.941         853.172                                          43.000          33.000                                  
G07 124169913.342 6  96755835.044 5  96755833.041 6                  23628745.023    23628764.000    23628764.156                       -3458.320       -2694.870       -2694.863                          37.000          32.000          36.000                  
G01 122199229.371 6  95220302.741 3  95220219.747 6  91252698.012 7  23253744.047    23253771.320    23253770.625    23253774.980       -3496.562       -2724.528       -2724.520       -2610.995          38.000          22.000          41.000          45.000  
G14 106994377.724 8  83372313.076 7  83372313.065 8  79898427.851 9  20360353.234    20360369.961    20360370.195    20360377.648         682.066         531.583         531.582         509.432          48.000          43.000          53.000          56.000  
G03 117923797.418 7  91888771.312 6  91888697.308 7  88059990.670 8  22440152.500    22440177.344    22440177.457    22440182.984          20.738          16.315          16.316          15.638          42.000          41.000          44.000          48.000  
G06 112339947.012 7  87537706.258 8  87537708.253 8  83890319.915 8  21377581.414    21377601.320    21377601.664    21377606.102        1935.016        1507.973        1507.973        1445.137          46.000          50.000          48.000          51.000  
R20 117645700.879 6  91502264.190 6 117645643.897 5  91502262.194 6  22000330.391    22000351.918    22000329.457    22000351.996       -2965.895       -2306.863       -2965.967       -2306.864          37.000          37.000          35.000          38.000  
E33  92790940.042 8  95211562.112 8 124259193.534 8  94001360.186 9  23645757.598    23645752.859    23645738.336    23645755.258        -711.660        -730.230        -953.168        -720.946          52.000          53.000          48.000          59.000  
E01  94083605.185 8  96537941.556 8 125990115.811 8  95310772.979 9  23975141.355    23975136.668    23975121.945    23975139.129        -513.338        -526.729        -687.480        -520.030          51.000          53.000          51.000          58.000  
E26 102987019.734 7 105673622.593 7 137912937.754 6 104330330.276 8  26243986.090    26243980.840    26243959.992    26243983.723       -1844.020       -1892.125       -2469.465       -1868.075          43.000          44.000          41.000          50.000  
E31  96101765.694 8  98608768.197 8 128692806.863 8  97355289.555 9  24489449.469    24489444.734    24489426.414    24489447.098        1346.330        1381.456        1802.906        1363.893          49.000          50.000          49.000          56.000  
R22 119762413.789 7  93148554.193 6 119762409.782 7  93148550.196 6  22435537.242    22435556.391    22435536.746    22435557.121        1918.422        1492.263        1918.662        1492.270          43.000          41.000          42.000          41.000  
R11 111840067.114 8  86986716.669 7 111840053.139 8  86986712.666 7  20929341.812    20929359.969    20929341.215    20929359.445        3162.039        2459.449        3162.135        2459.449          50.000          47.000          49.000          46.000  
R21 109953833.157 8  85519650.383 8 109953824.150 8  85519647.386 7  20547502.500    20547519.707    20547501.527    20547520.598        -347.379        -270.103        -347.241        -270.102          52.000          48.000          51.000          47.000  
R10 102767478.175 7                 102767461.182 7                  19278916.437                    19278915.891                        -872.019                        -871.692                          47.000                          46.000                  
R09 115399705.864 7  89755344.005 7 115399715.859 7  89755338.002 7  21610661.227    21610675.680    21610660.195    21610675.613       -3745.637       -2913.075       -3745.370       -2913.076          47.000          45.000          45.000          43.000  
R05 129536492.557 6 100750639.416 5 129536391.586 5 100750645.412 5  24232466.820    24232493.340    24232464.789    24232493.750        1638.578        1274.607        1638.735        1274.607          36.000          35.000          34.000          34.000  
C14 101266553.175 6 130959917.088 6  25149484.742    25149474.508        1606.459        2077.574          40.000          36.000  
C13 148949500.094 7 192624455.203 7  36991513.848    36991500.938         870.536        1125.680          44.000          45.000  
C11  94481983.493 7 122185960.134 7  23464541.668    23464529.445       -1272.912       -1646.090          46.000          44.000  
C10 147497556.663 7 190746784.956 7  36630924.516    36630914.852         441.035         570.496          46.000          44.000  
C09 154596734.088 6 199927582.387 6  38394001.406    38393991.445       -1243.725       -1608.375          40.000          38.000  
C08 146910179.583 7 189987203.307 7  36485050.121    36485045.406         868.884        1123.562          47.000          45.000  
C07 146308780.402 7 189209454.860 7  36335692.926    36335686.875         347.531         449.586          47.000          46.000  
C05 154616655.947 6 199953341.691 6  38398948.758    38398937.664          19.390          25.320          40.000          36.000  
C04 156987384.045 6 203019207.932 5  38987716.801    38987705.195          12.999          16.840          40.000          35.000  
C03 145889932.593 7 188667798.805 7  36231672.648    36231667.164          26.759          34.695          47.000          44.000  
C02 148825080.940 7 192463592.513 6  36960614.742    36960609.328          11.975          15.535          45.000          41.000  
C01 151015487.773 7 195296244.724 6  37504600.652    37504590.539          24.287          31.484          42.000          40.000  
S27 203496769.810 6  38724147.547          -9.879          40.000  
S37 193085226.050 7  36742903.516          -4.340          42.000  
> 2023 02 14 10 23 29.0000000  0 33
G30 115414457.478 7  89933415.784 7  89933369.775 7  86186135.270 8  21962641.758    21962660.973    21962661.215    21962664.629       -2490.590       -1940.690       -1940.685       -1859.829          45.000          46.000          46.000          50.000  
G17 114457235.104 7  89187537.002 7  89187537.998 7                  21780487.844    21780507.582    21780507.793                         -78.141         -60.883         -60.882                          46.000          47.000          44.000                  
G19 117822243.878 7  91809631.314 5                                  22420826.102    22420848.488                                        1094.727         853.106                                          43.000          32.000                                  
G07 124173371.790 6  96758529.940 5  96758527.933 6                  23629403.391    23629422.055    23629422.184                       -3458.418       -2694.896       -2694.892                          37.000          31.000          36.000                  
G01 122202726.013 6  95223027.391 4  95222944.401 6  91255309.140 7  23254409.766    23254436.918    23254436.301    23254440.520       -3496.777       -2724.650       -2724.654       -2611.127          38.000          24.000          41.000          45.000  
G14 106993696.003 8  83371781.870 7  83371781.859 8  79897918.779 9  20360223.438    20360240.543    20360240.477    20360248.172         681.488         531.206         531.206         509.072          48.000          43.000          53.000          56.000  
G03 117923777.051 7  91888755.439 6  91888681.436 7  88059975.458 8  22440149.133    22440173.488    22440173.613    22440178.895          20.047          15.873          15.872          15.212          42.000          41.000          44.000          48.000  
G06 112338012.282 7  87536198.683 8  87536200.679 8  83888875.149 8  21377212.789    21377233.441    21377233.871    21377238.164        1934.461        1507.575        1507.575        1444.766          46.000          50.000          48.000          51.000  
R20 117648666.758 6  91504570.983 6 117648609.790 5  91504568.987 6  22000885.922    22000907.211    22000884.754    22000907.141       -2965.789       -2306.793       -2965.893       -2306.793          37.000          38.000          35.000          37.000  
E33  92791651.923 8  95212292.563 8 124260146.838 8  94002081.355 9  23645938.953    23645934.359    23645919.930    23645936.676        -711.881        -730.451        -953.453        -721.169          51.000          53.000          48.000          59.000  
E01  94084118.813 8  96538468.583 8 125990803.625 8  95311293.306 9  23975272.297    23975267.891    23975252.969    23975270.098        -513.628        -527.028        -687.965        -520.327          51.000          53.000          50.000          58.000  
E26 102988863.814 7 105675514.785 7 137915407.230 7 104332198.412 8  26244456.262    26244450.820    26244429.953    26244453.840       -1844.080       -1892.193       -2469.477       -1868.136          44.000          44.000          42.000          50.000  
E31  96100419.546 8  98607386.931 8 128691004.184 8  97353925.845 9  24489106.398    24489101.711    24489083.266    24489104.078        1346.148        1381.266        1802.680        1363.710          48.000          50.000          49.000          56.000  
R22 119760495.610 7  93147062.278 6 119760491.611 7  93147058.276 6  22435178.125    22435197.801    22435177.863    22435198.242        1917.945        1491.915        1918.172        1491.920          43.000          41.000          43.000          41.000  
R11 111836905.537 8  86984257.677 7 111836891.533 8  86984253.674 7  20928750.117    20928768.207    20928749.758    20928767.937        3161.363        2458.992        3161.606        2458.992          50.000          47.000          49.000          46.000  
R21 109954180.800 8  85519920.772 7 109954171.808 8  85519917.776 7  20547567.281    20547583.957    20547565.723    20547584.691        -347.812        -270.389        -347.658        -270.390          52.000          47.000          51.000          47.000  
R10 102768350.716 7                 102768333.733 7                  19279080.828                    19279079.926                        -872.906                        -872.551                          47.000                          45.000                  
R09 115403451.684 7  89758257.425 7 115403461.708 7  89758251.422 7  21611363.102    21611376.988    21611361.367    21611376.777       -3745.988       -2913.420       -3745.848       -2913.420          46.000          45.000          44.000          43.000  
R05 129534854.068 5 100749365.018 5 129534753.104 5 100749371.013 5  24232158.563    24232186.336    24232157.707    24232186.523        1638.379        1274.398        1638.481        1274.399          35.000          35.000          33.000          34.000  
C14 101264946.720 6 130957839.586 6  25149085.926    25149074.922        1606.455        2077.602          40.000          37.000  
C13 148948629.681 7 192623329.568 7  36991297.746    36991284.859         870.413        1125.574          44.000          45.000  
C11  94483256.397 7 122187606.276 7  23464857.527    23464845.438       -1272.904       -1646.074          46.000          44.000  
C10 147497115.578 7 190746214.536 7  36630815.137    36630805.750         441.085         570.387          46.000          44.000  
C09 154597977.816 6 199929190.805 6  38394310.242    38394300.227       -1243.727       -1608.262          40.000          38.000  
C08 146909310.852 7 189986079.840 7  36484833.828    36484829.164         868.731        1123.398          47.000          44.000  
C07 146308432.882 7 189209005.440 7  36335606.602    36335600.336         347.520         449.473          47.000          46.000  
C05 154616636.516 6 199953316.565 6  38398943.848    38398932.578          19.431          25.094          40.000          36.000  
C04 156987371.035 6 203019191.104 5  38987713.559    38987702.219          13.010          16.883          39.000          35.000  
C03 145889905.856 7 188667764.231 7  36231665.891    36231660.312          26.737          34.605          47.000          44.000  
C02 148825068.957 7 192463577.010 6  36960611.824    36960606.562          11.984          15.426          45.000          41.000  
C01 151015463.508 7 195296213.340 6  37504594.711    37504584.938          24.265          31.395          42.000          40.000  
S27 203496779.777 6  38724150.344          -9.941          40.000  
S37 193085230.507 7  36742898.156          -4.453          42.000  
> 2023 02 14 10 23 30.0000000  0 33
G30 115416948.365 7  89935356.733 7  89935310.729 7  86187995.348 8  21963115.758    21963135.000    21963135.035    21963138.602       -2491.102       -1940.948       -1940.954       -1860.078          45.000          46.000          46.000          50.000  
G17 114457313.216 7  89187597.871 7  89187598.868 7                  21780502.438    21780522.242    21780522.242                         -78.113         -60.869         -60.870                          45.000          47.000          44.000                  
G19 117821149.093 7  91808778.237 5                                  22420617.719    22420640.141                                        1094.684         853.077                                          43.000          32.000                                  
G07 124176830.227 6  96761224.820 5  96761222.816 6                  23630061.750    23630079.840    23630080.176                       -3458.562       -2694.880       -2694.883                          37.000          32.000          36.000                  
G01 122206222.676 6  95225752.055 3  95225669.065 6  91257920.278 7  23255074.969    23255102.211    23255101.777    23255105.758       -3496.922       -2724.665       -2724.665       -2611.138          38.000          22.000          41.000          45.000  
G14 106993014.756 8  83371251.024 7  83371251.019 8  79897410.059 9  20360093.734    20360110.715    20360110.637    20360118.227         681.020         530.846         530.840         508.720          48.000          43.000          52.000          56.000  
G03 117923757.289 7  91888740.044 6  91888666.035 7  88059960.702 8  22440145.383    22440169.340    22440169.559    22440174.980          19.398          15.395          15.401          14.756          42.000          41.000          44.000          48.000  
G06 112336078.039 7  87534691.481 8  87534693.476 8  83887430.752 8  21376845.266    21376865.344    21376865.660    21376870.008        1934.012        1507.201        1507.202        1444.397          46.000          50.000          48.000          51.000  
R20 117651632.631 6  91506877.771 6 117651575.693 5  91506875.777 6  22001440.445    22001461.391    22001438.691    22001461.387       -2965.836       -2306.788       -2965.903       -2306.790          37.000          38.000          35.000          37.000  
E33  92792364.035 8  95213023.246 8 124261100.444 8  94002802.750 9  23646120.363    23646115.719    23646101.414    23646118.059        -712.112        -730.683        -953.734        -721.395          52.000          53.000          48.000          59.000  
E01  94084632.695 8  96538995.869 8 125991491.774 8  95311813.889 9  23975403.281    23975398.730    23975383.836    23975401.031        -513.882        -527.286        -688.316        -520.582          51.000          52.000          50.000          58.000  
E26 102990707.888 7 105677406.964 7 137917876.688 6 104334066.535 8  26244926.211    26244920.910    26244899.914    26244923.734       -1844.074       -1892.178       -2469.520       -1868.123          44.000          44.000          41.000          50.000  
E31  96099073.522 8  98606005.793 8 128689201.675 8  97352562.268 9  24488763.371    24488758.730    24488740.188    24488761.129        1346.024        1381.138        1802.395        1363.576          49.000          50.000          49.000          56.000  
R22 119758577.863 7  93145570.692 6 119758573.863 7  93145566.688 6  22434818.078    22434838.188    22434818.051    22434838.188        1917.547        1491.586        1917.748        1491.588          43.000          41.000          43.000          41.000  
R11 111833744.472 8  86981799.082 7 111833730.468 8  86981795.079 7  20928159.305    20928176.695    20928158.473    20928176.609        3160.770        2458.594        3161.065        2458.594          50.000          46.000          49.000          46.000  
R21 109954528.872 8  85520191.499 7 109954519.889 8  85520188.503 7  20547632.203    20547650.254    20547631.465    20547650.672        -348.363        -270.727        -348.081        -270.727          52.000          47.000          51.000          47.000  
R10 102769224.117 7                 102769207.125 7                  19279245.055                    19279243.449                        -873.816                        -873.393                          47.000                          45.000                  
R09 115407197.980 7  89761171.208 7 115407207.976 7  89761165.205 7  21612064.750    21612079.312    21612063.484    21612079.074       -3746.516       -2913.783       -3746.268       -2913.783          46.000          45.000          45.000          44.000  
R05 129533216.048 5 100748090.984 5 129533115.022 5 100748096.980 5  24231852.281    24231880.430    24231851.426    24231880.570        1637.945        1274.033        1638.082        1274.033          35.000          35.000          34.000          35.000  
C14 101263340.234 6 130955762.050 6  25148686.891    25148676.242        1606.486        2077.559          40.000          37.000  
C13 148947759.368 7 192622204.057 7  36991081.211    36991068.906         870.313        1125.383          44.000          45.000  
C11  94484529.310 7 122189252.433 7  23465173.578    23465161.484       -1272.913       -1646.188          46.000          44.000  
C10 147496674.455 7 190745644.071 7  36630705.348    36630695.398         441.123         570.457          46.000          44.000  
C09 154599221.526 6 199930799.199 6  38394619.137    38394609.320       -1243.710       -1608.356          40.000          38.000  
C08 146908442.253 7 189984956.550 7  36484618.355    36484613.492         868.599        1123.184          47.000          44.000  
C07 146308085.350 7 189208555.995 7  36335520.031    36335513.883         347.533         449.316          47.000          46.000  
C05 154616617.122 6 199953291.479 6  38398938.957    38398928.281          19.393          25.020          40.000          36.000  
C04 156987358.062 6 203019174.318 5  38987710.578    38987699.109          12.973          16.828          39.000          35.000  
C03 145889879.128 7 188667729.669 7  36231659.430    36231653.797          26.728          34.492          46.000          44.000  
C02 148825056.964 7 192463561.501 6  36960608.703    36960603.711          11.993          15.434          45.000          41.000  
C01 151015439.256 7 195296181.972 6  37504588.824    37504578.617          24.253          31.367          42.000          40.000  
S27 203496789.710 6  38724152.031          -9.930          40.000  
S37 193085234.946 7  36742901.344          -4.520          42.000  
> 2023 02 14 10 23 31.0000000  0 33
G30 115419439.514 7  89937297.888 7  89937251.876 7  86189855.618 8  21963589.195    21963608.777    21963609.031    21963612.551       -2491.355       -1941.155       -1941.147       -1860.270          45.000          46.000          46.000          50.000  
G17 114457391.276 7  89187658.697 7  89187659.694 7                  21780517.641    21780537.527    21780537.430                         -78.113         -60.826         -60.826                          45.000          47.000          45.000                  
G19 117820054.352 7  91807925.198 5                                  22420409.617    22420431.617                                        1094.734         853.039                                          43.000          33.000                                  
G07 124180288.575 6  96763919.635 5  96763917.635 6                  23630719.000    23630738.277    23630738.469                       -3458.508       -2694.815       -2694.819                          37.000          32.000          36.000                  
G01 122209719.454 6  95228476.817 3  95228393.820 6  91260531.507 7  23255739.562    23255767.684    23255767.090    23255771.402       -3496.934       -2724.762       -2724.755       -2611.229          38.000          22.000          41.000          45.000  
G14 106992333.946 8  83370720.527 7  83370720.523 8  79896901.667 9  20359964.227    20359980.684    20359980.906    20359988.371         680.438         530.497         530.496         508.392          48.000          43.000          52.000          56.000  
G03 117923738.097 7  91888725.084 6  91888651.081 7  88059946.367 8  22440141.281    22440166.102    22440166.371    22440171.684          18.719          14.960          14.954          14.335          42.000          41.000          44.000          48.000  
G06 112334144.248 7  87533184.630 8  87533186.625 8  83885986.687 8  21376477.297    21376497.332    21376497.738    21376502.055        1933.504        1506.851        1506.851        1444.065          46.000          50.000          48.000          51.000  
R20 117654598.481 6  91509184.544 6 117654541.468 5  91509182.548 6  22001994.531    22002015.418    22001993.012    22002015.789       -2965.926       -2306.772       -2965.775       -2306.771          37.000          38.000          35.000          37.000  
E33  92793076.355 8  95213754.150 8 124262054.335 8  94003524.364 9  23646301.938    23646297.203    23646282.891    23646299.566        -712.320        -730.903        -954.250        -721.614          52.000          52.000          48.000          59.000  
E01  94085146.831 8  96539523.417 8 125992180.268 8  95312334.732 9  23975534.109    23975529.609    23975514.883    23975531.973        -514.136        -527.548        -688.770        -520.844          51.000          52.000          50.000          58.000  
E26 102992551.986 7 105679299.167 7 137920346.176 7 104335934.689 8  26245396.168    26245390.680    26245369.828    26245393.680       -1844.097       -1892.203       -2469.602       -1868.154          43.000          44.000          42.000          50.000  
E31  96097727.629 8  98604624.792 8 128687399.342 8  97351198.820 9  24488420.465    24488415.918    24488397.297    24488418.191        1345.893        1381.001        1802.125        1363.448          49.000          50.000          49.000          56.000  
R22 119756660.524 7  93144079.418 6 119756656.552 7  93144075.421 6  22434458.727    22434479.234    22434459.168    22434479.340        1917.121        1491.274        1917.310        1491.268          43.000          41.000          43.000          41.000  
R11 111830583.902 8  86979340.860 7 111830569.891 8  86979336.857 7  20927567.414    20927586.027    20927567.523    20927585.637        3160.188        2458.222        3160.577        2458.223          50.000          46.000          48.000          47.000  
R21 109954877.336 8  85520462.531 7 109954868.345 8  85520459.527 7  20547697.305    20547714.785    20547696.449    20547715.516        -348.789        -271.032        -348.457        -271.024          52.000          47.000          51.000          47.000  
R10 102770098.365 7                 102770081.362 7                  19279408.719                    19279407.582                        -874.773                        -874.237                          47.000                          45.000                  
R09 115410944.652 7  89764085.279 7 115410954.633 7  89764079.282 7  21612765.148    21612781.074    21612765.410    21612780.770       -3747.008       -2914.071       -3746.657       -2914.078          46.000          45.000          45.000          43.000  
R05 129531578.300 5 100746817.165 5 129531477.344 5 100746823.161 5  24231544.750    24231575.027    24231545.184    24231574.812        1637.258        1273.820        1637.679        1273.820          35.000          35.000          34.000          35.000  
C14 101261733.705 6 130953684.448 6  25148287.715    25148277.508        1606.529        2077.523          41.000          37.000  
C13 148946889.170 7 192621078.693 7  36990865.531    36990852.883         870.198        1125.168          44.000          46.000  
C11  94485802.160 7 122190898.514 7  23465489.664    23465477.453       -1272.850       -1646.203          46.000          44.000  
C10 147496233.283 7 190745073.532 7  36630595.695    36630586.008         441.172         570.535          46.000          44.000  
C09 154600465.177 6 199932407.516 6  38394927.793    38394917.836       -1243.651       -1608.414          40.000          38.000  
C08 146907573.763 7 189983833.391 7  36484402.574    36484397.922         868.490        1122.945          47.000          44.000  
C07 146307737.758 7 189208106.486 7  36335433.703    36335427.797         347.591         449.422          47.000          46.000  
C05 154616597.714 6 199953266.384 6  38398934.051    38398923.281          19.409          24.984          40.000          36.000  
C04 156987345.002 6 203019157.431 5  38987707.586    38987696.016          13.060          16.879          40.000          35.000  
C03 145889852.381 7 188667695.076 7  36231652.773    36231647.273          26.747          34.469          46.000          44.000  
C02 148825044.963 7 192463545.982 6  36960605.699    36960600.641          12.001          15.398          45.000          41.000  
C01 151015414.976 7 195296150.569 6  37504582.641    37504572.773          24.280          31.293          42.000          40.000  
S27 203496799.601 6  38724154.000         -10.051          40.000  
S37 193085239.354 7  36742894.203          -4.516          42.000  
> 2023 02 14 10 23 32.0000000  0 33
G30 115421931.002 7  89939239.303 7  89939193.297 7  86191716.144 8  21964063.383    21964083.293    21964083.359    21964087.012       -2491.570       -1941.415       -1941.421       -1860.526          45.000          46.000          46.000          50.000  
G17 114457469.329 7  89187719.521 7  89187720.516 7                  21780531.781    21780551.742    21780551.641                         -77.984         -60.824         -60.822                          45.000          47.000          45.000                  
G19 117818959.701 7  91807072.228 5                                  22420201.203    22420223.168                                        1094.691         852.970                                          43.000          33.000                                  
G07 124183746.972 6  96766614.494 5  96766612.491 6                  23631377.594    23631396.527    23631396.551                       -3458.352       -2694.859       -2694.855                          37.000          32.000          37.000                  
G01 122213216.304 6  95231201.635 3  95231118.634 6  91263142.786 7  23256405.812    23256432.895    23256432.504    23256436.555       -3496.934       -2724.818       -2724.814       -2611.279          38.000          23.000          40.000          45.000  
G14 106991653.591 8  83370190.378 7  83370190.374 8  79896393.609 9  20359834.602    20359851.496    20359851.621    20359859.242         680.086         530.148         530.148         508.058          48.000          43.000          53.000          56.000  
G03 117923719.476 7  91888710.572 6  91888636.571 7  88059932.460 8  22440137.875    22440162.598    22440162.789    22440168.238          18.371          14.512          14.510          13.908          42.000          41.000          44.000          48.000  
G06 112332210.973 7  87531678.187 8  87531680.182 8  83884543.015 8  21376109.070    21376129.320    21376129.781    21376133.922        1933.164        1506.443        1506.443        1443.672          46.000          50.000          48.000          51.000  
R20 117657564.215 6  91511491.226 6 117657507.263 6  91511489.229 6  22002549.633    22002570.875    22002547.996    22002570.816       -2965.547       -2306.682       -2965.795       -2306.680          37.000          38.000          36.000          37.000  
E33  92793788.898 8  95214485.279 8 124263008.520 8  94004246.198 9  23646483.609    23646478.777    23646464.305    23646481.195        -712.543        -731.129        -954.312        -721.834          52.000          52.000          48.000          59.000  
E01  94085661.247 8  96540051.246 8 125992869.135 8  95312855.858 9  23975665.180    23975660.633    23975645.922    23975663.004        -514.415        -527.828        -689.016        -521.126          51.000          52.000          50.000          58.000  
E26 102994396.094 7 105681191.386 7 137922815.681 7 104337802.852 8  26245866.129    26245860.594    26245839.742    26245863.563       -1844.109       -1892.219       -2469.504       -1868.163          43.000          44.000          42.000          50.000  
E31  96096381.881 8  98603243.936 8 128685597.196 8  97349835.516 9  24488077.469    24488072.828    24488054.422    24488075.207        1345.747        1380.856        1802.094        1363.305          49.000          50.000          49.000          56.000  
R22 119754743.665 7  93142588.524 7 119754739.663 7  93142584.527 6  22434100.523    22434118.816    22434098.852    22434119.371        1916.723        1490.894        1916.889        1490.894          43.000          42.000          43.000          41.000  
R11 111827423.846 8  86976883.045 7 111827409.850 8  86976879.042 7  20926976.281    20926994.328    20926976.039    20926994.195        3159.789        2457.816        3160.041        2457.815          50.000          46.000          48.000          46.000  
R21 109955226.247 8  85520733.903 7 109955217.264 8  85520730.905 7  20547762.687    20547779.848    20547761.363    20547780.625        -349.113        -271.372        -348.919        -271.378          52.000          47.000          51.000          47.000  
R10 102770973.485 7                 102770956.481 7                  19279572.375                    19279570.535                        -875.519                        -875.120                          47.000                          46.000                  
R09 115414691.735 7  89766999.671 7 115414701.746 7  89766993.674 7  21613467.484    21613482.426    21613466.688    21613482.332       -3747.258       -2914.392       -3747.112       -2914.392          46.000          45.000          45.000          44.000  
R05 129529940.940 5 100745543.645 5 129529839.968 5 100745549.641 5  24231238.367    24231268.332    24231238.566    24231268.102        1637.184        1273.520        1637.376        1273.520          35.000          35.000          34.000          35.000  
C14 101260127.094 6 130951606.738 6  25147888.648    25147878.828        1606.611        2077.770          40.000          37.000  
C13 148946019.083 7 192619953.475 7  36990649.496    36990636.828         870.088        1125.242          44.000          45.000  
C11  94487075.020 7 122192544.603 7  23465806.047    23465793.844       -1272.860       -1645.961          46.000          44.000  
C10 147495792.097 7 190744502.974 7  36630485.852    36630476.539         441.186         570.656          46.000          44.000  
C09 154601708.833 6 199934015.834 6  38395237.137    38395226.750       -1243.657       -1608.137          40.000          37.000  
C08 146906705.401 7 189982710.405 7  36484186.891    36484182.047         868.361        1122.965          47.000          44.000  
C07 146307390.167 7 189207656.969 7  36335347.652    36335341.617         347.591         449.672          47.000          46.000  
C05 154616578.290 6 199953241.260 6  38398929.141    38398918.352          19.423          25.160          40.000          36.000  
C04 156987332.000 6 203019140.614 5  38987704.156    38987692.258          13.001          16.887          39.000          35.000  
C03 145889825.638 7 188667660.494 7  36231645.984    36231640.734          26.743          34.582          46.000          44.000  
C02 148825032.968 7 192463530.468 6  36960602.738    36960597.375          11.996          15.582          45.000          40.000  
C01 151015390.694 7 195296119.170 6  37504576.543    37504566.680          24.282          31.453          42.000          40.000  
S27 203496809.518 6  38724155.875          -9.879          40.000  
S37 193085243.804 7  36742900.078          -4.371          42.000  
> 2023 02 14 10 23 33.0000000  0 33
G30 115424422.845 7  89941180.999 7  89941134.995 7  86193576.935 8  21964537.875    21964557.133    21964557.168    21964560.906       -2492.031       -1941.696       -1941.698       -1860.792          45.000          46.000          46.000          50.000  
G17 114457547.400 7  89187780.360 7  89187781.356 7                  21780546.836    21780566.734    21780566.504                         -78.055         -60.839         -60.840                          45.000          47.000          45.000                  
G19 117817865.152 7  91806219.346 5                                  22419993.461    22420015.078                                        1094.543         852.882                                          43.000          33.000                                  
G07 124187205.345 6  96769309.327 5  96769307.324 6                  23632035.500    23632054.516    23632054.543                       -3458.328       -2694.832       -2694.833                          36.000          31.000          37.000                  
G01 122216713.313 6  95233926.581 3  95233843.576 6  91265754.190 7  23257070.578    23257098.395    23257097.891    23257102.230       -3497.090       -2724.946       -2724.942       -2611.404          37.000          23.000          41.000          45.000  
G14 106990973.743 8  83369660.633 7  83369660.628 8  79895885.934 9  20359705.375    20359721.613    20359721.926    20359729.355         679.562         529.745         529.746         507.675          48.000          43.000          53.000          56.000  
G03 117923701.553 7  91888696.611 6  91888622.607 7  88059919.081 8  22440134.758    22440158.812    22440159.109    22440164.453          17.785          13.961          13.964          13.379          42.000          41.000          44.000          48.000  
G06 112330278.205 7  87530172.138 8  87530174.133 7  83883099.717 8  21375741.289    21375761.863    21375762.180    21375766.465        1932.559        1506.048        1506.048        1443.298          46.000          50.000          47.000          52.000  
R20 117660530.019 6  91513797.960 6 117660473.018 6  91513795.960 6  22003103.984    22003124.813    22003102.699    22003125.301       -2965.672       -2306.734       -2965.754       -2306.730          37.000          38.000          36.000          38.000  
E33  92794501.686 8  95215216.662 8 124263963.035 8  94004968.282 9  23646665.262    23646660.527    23646645.977    23646662.875        -712.788        -731.384        -954.668        -722.084          52.000          52.000          48.000          59.000  
E01  94086175.943 8  96540579.374 8 125993558.383 8  95313377.272 9  23975796.465    23975791.965    23975777.109    23975794.328        -514.696        -528.128        -689.461        -521.414          51.000          52.000          50.000          58.000  
E26 102996240.262 7 105683083.657 7 137925285.262 6 104339671.068 8  26246335.930    26246330.539    26246309.586    26246333.484       -1844.168       -1892.272       -2469.555       -1868.217          43.000          44.000          41.000          50.000  
E31  96095036.310 8  98601863.256 8 128683795.292 8  97348472.392 9  24487734.609    24487730.012    24487711.430    24487732.355        1345.571        1380.680        1801.746        1363.124          49.000          50.000          49.000          56.000  
R22 119752827.244 7  93141097.980 6 119752823.252 7  93141093.976 6  22433742.156    22433760.645    22433740.602    22433760.926        1916.242        1490.544        1916.411        1490.551          43.000          41.000          43.000          41.000  
R11 111824264.328 8  86974425.647 7 111824250.338 8  86974421.651 7  20926385.469    20926403.047    20926384.637    20926402.852        3159.242        2457.398        3159.512        2457.391          50.000          47.000          48.000          46.000  
R21 109955575.614 8  85521005.632 7 109955566.623 8  85521002.636 7  20547827.977    20547844.953    20547825.945    20547845.496        -349.594        -271.729        -349.359        -271.730          52.000          47.000          51.000          47.000  
R10 102771849.494 7                 102771832.488 7                  19279736.586                    19279735.566                        -876.438                        -876.007                          47.000                          46.000                  
R09 115418439.293 7  89769914.439 7 115418449.305 7  89769908.443 7  21614169.812    21614183.781    21614168.547    21614184.121       -3747.848       -2914.768       -3747.560       -2914.768          46.000          45.000          44.000          44.000  
R05 129528303.956 6 100744270.426 5 129528202.946 5 100744276.419 5  24230933.539    24230962.090    24230932.566    24230961.898        1636.957        1273.219        1637.022        1273.222          37.000          35.000          34.000          35.000  
C14 101258520.515 6 130949529.075 6  25147489.828    25147479.383        1606.579        2077.676          41.000          36.000  
C13 148945149.151 7 192618828.459 7  36990433.254    36990420.664         869.931        1124.914          44.000          46.000  
C11  94488347.903 7 122194190.724 7  23466122.199    23466109.867       -1272.884       -1646.145          46.000          44.000  
C10 147495350.905 7 190743932.406 7  36630376.555    36630366.914         441.192         570.605          46.000          44.000  
C09 154602952.478 6 199935624.140 6  38395545.242    38395535.188       -1243.644       -1608.469          40.000          38.000  
C08 146905837.229 7 189981587.671 7  36483971.430    36483966.609         868.173        1122.617          47.000          44.000  
C07 146307042.603 7 189207207.483 7  36335261.203    36335255.086         347.565         449.410          47.000          46.000  
C05 154616558.907 6 199953216.193 6  38398924.602    38398913.430          19.383          25.125          40.000          36.000  
C04 156987319.046 6 203019123.861 5  38987700.645    38987689.422          12.954          16.711          40.000          35.000  
C03 145889798.915 7 188667625.929 7  36231639.531    36231633.945          26.724          34.512          47.000          44.000  
C02 148825021.017 7 192463515.010 6  36960599.617    36960594.633          11.951          15.367          46.000          41.000  
C01 151015366.449 7 195296087.810 6  37504570.242    37504560.594          24.245          31.340          42.000          40.000  
S27 203496819.476 6  38724157.578          -9.953          40.000  
S37 193085248.269 7  36742900.812          -4.531          42.000  
> 2023 02 14 10 23 34.0000000  0 33
G30 115426915.194 7  89943123.091 7  89943077.087 7  86195438.104 8  21965012.336    21965031.457    21965031.805    21965035.469       -2492.648       -1942.092       -1942.092       -1861.169          46.000          46.000          46.000          51.000  
G17 114457625.651 7  89187841.332 7  89187842.329 7                  21780561.891    21780581.863    21780581.758                         -78.391         -60.972         -60.973                          45.000          47.000          45.000                  
G19 117816770.833 7  91805366.635 5                                  22419784.758    22419806.762                                        1094.133         852.711                                          43.000          33.000                                  
G07 124190663.947 6  96772004.339 5  96772002.336 6                  23632694.055    23632712.609    23632712.598                       -3458.660       -2695.012       -2695.012                          37.000          31.000          36.000                  
G01 122220210.650 6  95236651.782 3  95236568.770 6  91268365.834 7  23257736.727    23257763.859    23257763.148    23257767.637       -3497.586       -2725.201       -2725.194       -2611.645          37.000          23.000          40.000          45.000  
G14 106990294.540 8  83369131.387 7  83369131.382 8  79895378.738 9  20359576.508    20359593.406    20359593.234    20359600.914         678.816         529.246         529.246         507.196          48.000          43.000          53.000          56.000  
G03 117923684.424 7  91888683.264 7  91888609.261 7  88059906.291 8  22440131.062    22440155.410    22440155.988    22440161.168          16.629          13.347          13.346          12.791          42.000          42.000          44.000          48.000  
G06 112328346.144 7  87528666.635 8  87528668.630 8  83881656.944 8  21375373.750    21375394.312    21375394.699    21375398.914        1931.648        1505.503        1505.503        1442.773          46.000          50.000          48.000          52.000  
R20 117663495.927 6  91516104.783 6 117663438.979 6  91516102.780 6  22003658.672    22003680.254    22003658.207    22003680.270       -2965.973       -2306.822       -2965.962       -2306.820          37.000          38.000          36.000          37.000  
E33  92795214.847 8  95215948.427 8 124264918.053 8  94005690.746 9  23646846.848    23646842.156    23646827.773    23646844.543        -713.161        -731.765        -955.320        -722.464          52.000          52.000          49.000          59.000  
E01  94086691.063 8  96541107.932 8 125994248.190 8  95313899.108 9  23975927.598    23975922.957    23975908.383    23975925.363        -515.120        -528.558        -690.102        -521.836          51.000          52.000          49.000          58.000  
E26 102998084.587 7 105684976.102 7 137927755.059 6 104341539.457 8  26246806.020    26246800.676    26246779.398    26246803.566       -1844.325       -1892.445       -2469.965       -1868.388          42.000          44.000          41.000          50.000  
E31  96093691.032 8  98600482.891 8 128681993.783 8  97347109.574 9  24487391.844    24487387.156    24487368.695    24487389.559        1345.278        1380.366        1801.281        1362.819          49.000          50.000          49.000          56.000  
R22 119750911.494 7  93139607.952 6 119750907.510 7  93139603.954 6  22433383.875    22433401.828    22433381.734    22433402.199        1915.398        1490.028        1915.742        1490.022          43.000          41.000          42.000          41.000  
R11 111821105.547 8  86971968.824 7 111821091.543 8  86971964.822 7  20925793.680    20925811.117    20925793.082    20925811.270        3158.387        2456.823        3158.795        2456.829          50.000          47.000          48.000          46.000  
R21 109955925.553 8  85521277.810 8 109955916.570 8  85521274.814 8  20547893.188    20547910.547    20547892.098    20547911.320        -350.242        -272.178        -349.947        -272.178          52.000          48.000          51.000          48.000  
R10 102772726.530 7                 102772709.529 7                  19279901.773                    19279900.402                        -877.644                        -877.041                          47.000                          45.000                  
R09 115422187.463 7  89772829.687 7 115422197.496 7  89772823.690 7  21614871.812    21614886.734    21614870.898    21614886.320       -3748.461       -2915.248       -3748.192       -2915.248          46.000          45.000          44.000          44.000  
R05 129526667.504 6 100742997.614 5 129526566.499 5 100743003.610 5  24230627.812    24230656.430    24230627.543    24230656.453        1636.113        1272.812        1636.447        1272.809          36.000          35.000          35.000          35.000  
C14 101256914.032 6 130947451.535 6  25147090.777    25147080.500        1606.483        2077.602          40.000          36.000  
C13 148944279.476 7 192617703.771 7  36990217.297    36990204.828         869.676        1124.473          44.000          46.000  
C11  94489620.923 7 122195837.022 7  23466438.520    23466425.953       -1273.019       -1646.469          45.000          44.000  
C10 147494909.850 7 190743362.023 7  36630267.238    36630257.547         441.055         570.309          46.000          44.000  
C09 154604196.283 6 199937232.657 6  38395854.559    38395844.094       -1243.805       -1608.531          40.000          38.000  
C08 146904969.315 7 189980465.268 7  36483755.848    36483751.023         867.914        1122.215          47.000          45.000  
C07 146306695.177 7 189206758.184 7  36335174.816    36335169.016         347.426         449.062          47.000          46.000  
C05 154616539.688 6 199953191.340 6  38398919.648    38398908.812          19.219          24.559          40.000          36.000  
C04 156987306.193 6 203019107.239 5  38987697.922    38987685.906          12.853          16.488          40.000          35.000  
C03 145889772.349 7 188667591.568 7  36231632.602    36231627.523          26.566          34.238          47.000          44.000  
C02 148825009.192 7 192463499.712 6  36960596.707    36960591.523          11.825          15.219          45.000          41.000  
C01 151015342.354 7 195296056.646 6  37504564.512    37504554.602          24.094          31.074          42.000          40.000  
S27 203496829.622 6  38724158.688         -10.305          40.000  
S37 193085252.954 7  36742900.750          -4.855          42.000  
> 2023 02 14 10 23 35.0000000  0 33
G30 115429407.973 7  89945065.513 7  89945019.509 7  86197299.596 8  21965486.086    21965506.059    21965506.418    21965509.891       -2492.949       -1942.422       -1942.422       -1861.492          45.000          46.000          46.000          50.000  
G17 114457703.998 7  89187902.387 7  89187903.382 7                  21780577.156    21780596.734    21780596.961                         -78.363         -61.055         -61.053                          45.000          47.000          45.000                  
G19 117815676.695 7  91804514.068 5                                  22419577.180    22419598.812                                        1094.059         852.567                                          43.000          33.000                                  
G07 124194122.634 6  96774699.418 5  96774697.415 6                  23633352.508    23633370.875    23633371.055                       -3458.606       -2695.080       -2695.079                          36.000          31.000          37.000                  
G01 122223708.162 6  95239377.111 4  95239294.106 6  91270977.605 7  23258401.906    23258429.359    23258428.512    23258433.020       -3497.684       -2725.329       -2725.337       -2611.771          38.000          24.000          40.000          45.000  
G14 106989615.932 8  83368602.610 7  83368602.598 8  79894871.993 9  20359447.188    20359463.789    20359463.945    20359471.535         678.395         528.777         528.784         506.745          48.000          43.000          53.000          56.000  
G03 117923668.013 7  91888670.474 7  91888596.466 7  88059894.032 8  22440128.789    22440152.164    22440152.734    22440157.922          16.105          12.789          12.794          12.258          42.000          42.000          44.000          48.000  
G06 112326414.710 7  87527161.628 8  87527163.617 8  83880214.643 8  21375006.328    21375026.422    21375026.816    21375031.141        1931.152        1505.007        1505.013        1442.301          46.000          50.000          48.000          51.000  
R20 117666461.971 6  91518411.704 6 117666405.025 6  91518409.701 6  22004213.625    22004234.332    22004212.105    22004234.383       -2965.980       -2306.921       -2966.045       -2306.921          36.000          37.000          36.000          37.000  
E33  92795928.327 8  95216680.523 8 124265873.499 8  94006413.533 9  23647028.562    23647023.824    23647009.602    23647026.262        -713.480        -732.096        -955.629        -722.787          52.000          52.000          49.000          59.000  
E01  94087206.551 8  96541636.868 8 125994938.494 8  95314421.319 9  23976059.250    23976054.516    23976039.688    23976056.957        -515.488        -528.937        -690.410        -522.212          51.000          52.000          49.000          58.000  
E26 102999929.026 7 105686868.657 7 137930225.011 6 104343407.955 8  26247276.242    26247270.711    26247249.664    26247273.625       -1844.439       -1892.555       -2469.996       -1868.498          43.000          44.000          41.000          50.000  
E31  96092346.003 8  98599102.769 8 128680192.599 8  97345746.992 9  24487048.941    24487044.207    24487026.031    24487046.684        1345.029        1380.122        1801.039        1362.582          48.000          50.000          49.000          56.000  
R22 119748996.317 7  93138118.372 7 119748992.322 7  93138114.375 6  22433023.734    22433043.633    22433023.121    22433043.516        1915.008        1489.580        1915.188        1489.580          43.000          42.000          43.000          41.000  
R11 111817947.443 8  86969512.524 7 111817933.454 8  86969508.521 7  20925202.789    20925220.879    20925201.957    20925220.598        3157.801        2456.300        3158.089        2456.300          50.000          47.000          49.000          46.000  
R21 109956276.029 8  85521550.401 8 109956267.046 8  85521547.404 8  20547959.133    20547976.035    20547957.457    20547976.578        -350.680        -272.591        -350.476        -272.590          52.000          48.000          51.000          48.000  
R10 102773604.533 7                 102773587.546 7                  19280066.289                    19280064.684                        -878.484                        -878.017                          47.000                          46.000                  
R09 115425936.215 7  89775745.383 7 115425946.210 7  89775739.387 7  21615573.859    21615588.184    21615572.594    21615587.902       -3748.942       -2915.697       -3748.713       -2915.697          46.000          45.000          44.000          44.000  
R05 129525031.562 6 100741725.207 5 129524930.530 5 100741731.203 5  24230321.648    24230350.090    24230321.145    24230349.930        1635.840        1272.408        1635.969        1272.408          36.000          35.000          35.000          35.000  
C14 101255307.613 6 130945374.080 6  25146691.691    25146681.273        1606.419        2077.492          40.000          36.000  
C13 148943410.006 7 192616579.354 7  36990001.516    36989988.812         869.470        1124.231          44.000          45.000  
C11  94490894.044 7 122197483.452 7  23466754.820    23466742.305       -1273.121       -1646.453          46.000          44.000  
C10 147494468.848 7 190742791.710 7  36630157.621    36630147.805         441.002         570.316          46.000          44.000  
C09 154605440.132 6 199938841.223 6  38396163.129    38396153.594       -1243.849       -1608.570          39.000          37.000  
C08 146904101.672 7 189979343.212 7  36483540.547    36483535.406         867.644        1122.039          47.000          45.000  
C07 146306347.814 7 189206308.960 7  36335088.422    36335082.609         347.363         449.301          47.000          46.000  
C05 154616520.526 6 199953166.558 6  38398915.398    38398904.414          19.162          24.895          40.000          36.000  
C04 156987293.491 6 203019090.814 6  38987694.660    38987682.945          12.702          16.363          40.000          36.000  
C03 145889745.892 7 188667557.352 7  36231626.195    36231620.781          26.457          34.215          46.000          44.000  
C02 148824997.507 7 192463484.596 6  36960593.840    36960588.867          11.685          15.133          45.000          41.000  
C01 151015318.376 7 195296025.636 6  37504558.520    37504548.875          23.978          31.066          42.000          40.000  
S27 203496839.883 6  38724161.219         -10.258          40.000  
S37 193085257.757 7  36742906.828          -4.840          42.000  
> 2023 02 14 10 23 36.0000000  0 33
G30 115431901.125 7  89947008.228 7  89946962.224 7  86199161.362 8  21965960.906    21965980.449    21965980.602    21965984.227       -2493.297       -1942.714       -1942.714       -1861.766          45.000          46.000          46.000          50.000  
G17 114457782.363 7  89187963.455 7  89187964.452 7                  21780591.883    21780611.469    21780611.430                         -78.227         -61.068         -61.070                          46.000          47.000          45.000                  
G19 117814582.700 7  91803661.609 5                                  22419368.773    22419390.410                                        1093.957         852.459                                          43.000          33.000                                  
G07 124197581.410 6  96777394.566 5  96777392.562 6                  23634010.125    23634029.023    23634028.844                       -3458.840       -2695.147       -2695.147                          36.000          32.000          36.000                  
G01 122227205.800 6  95242102.530 3  95242019.539 6  91273589.475 7  23259067.883    23259094.910    23259094.137    23259098.805       -3497.562       -2725.419       -2725.433       -2611.870          37.000          23.000          40.000          45.000  
G14 106988937.836 8  83368074.221 7  83368074.217 9  79894365.622 9  20359318.281    20359334.871    20359334.855    20359342.500         677.855         528.388         528.381         506.371          48.000          43.000          54.000          56.000  
G03 117923652.248 7  91888658.187 6  91888584.184 7  88059882.261 8  22440125.086    22440149.590    22440150.078    22440155.406          15.473          12.287          12.282          11.771          42.000          41.000          44.000          48.000  
G06 112324483.768 7  87525656.998 8  87525658.993 8  83878772.710 8  21374638.828    21374659.250    21374659.684    21374664.090        1930.688        1504.630        1504.624        1441.933          46.000          50.000          48.000          51.000  
R20 117669428.017 6  91520718.623 6 117669370.984 5  91520716.628 6  22004768.367    22004788.688    22004766.848    22004788.992       -2966.309       -2306.919       -2965.959       -2306.927          37.000          38.000          35.000          38.000  
E33  92796642.060 8  95217412.874 8 124266829.280 8  94007136.579 9  23647210.559    23647205.918    23647191.508    23647208.254        -713.733        -732.351        -955.941        -723.046          51.000          52.000          49.000          59.000  
E01  94087722.329 8  96542166.097 8 125995629.184 8  95314943.826 9  23976190.391    23976185.750    23976171.156    23976188.137        -515.778        -529.229        -690.871        -522.506          51.000          52.000          49.000          58.000  
E26 103001773.499 7 105688761.245 7 137932695.000 6 104345276.477 8  26247746.066    26247740.676    26247719.719    26247743.543       -1844.473       -1892.588       -2470.012       -1868.522          43.000          44.000          41.000          50.000  
E31  96091001.126 8  98597722.810 8 128678391.626 8  97344384.576 9  24486706.180    24486701.488    24486683.266    24486703.941        1344.877        1379.959        1800.883        1362.417          49.000          50.000          49.000          56.000  
R22 119747081.578 7  93136629.135 6 119747077.599 7  93136625.144 6  22432665.117    22432684.164    22432664.270    22432684.969        1914.547        1489.237        1914.723        1489.231          43.000          41.000          43.000          41.000  
R11 111814789.859 8  86967056.636 7 111814775.870 8  86967052.633 7  20924611.844    20924629.641    20924611.246    20924629.684        3157.285        2455.889        3157.584        2455.889          50.000          47.000          49.000          46.000  
R21 109956626.958 8  85521823.342 8 109956617.958 8  85521820.344 8  20548024.594    20548041.871    20548023.270    20548042.719        -351.109        -272.941        -350.913        -272.941          52.000          48.000          51.000          48.000  
R10 102774483.426 7                 102774466.421 7                  19280231.453                    19280229.848                        -879.301                        -878.875                          47.000                          46.000                  
R09 115429685.417 7  89778661.432 7 115429695.443 7  89778655.435 7  21616275.734    21616290.645    21616275.055    21616290.492       -3749.394       -2916.049       -3749.233       -2916.048          46.000          45.000          44.000          43.000  
R05 129523396.015 6 100740453.102 5 129523295.003 5 100740459.102 5  24230015.242    24230044.746    24230015.441    24230043.688        1635.438        1272.105        1635.528        1272.101          36.000          35.000          34.000          35.000  
C14 101253701.203 6 130943296.638 6  25146292.695    25146282.414        1606.410        2077.461          40.000          36.000  
C13 148942540.712 7 192615455.153 7  36989785.305    36989772.695         869.294        1124.043          44.000          45.000  
C11  94492167.164 7 122199129.880 7  23467070.758    23467058.352       -1273.120       -1646.449          46.000          44.000  
C10 147494027.850 7 190742221.393 7  36630048.059    36630038.016         440.998         570.320          46.000          44.000  
C09 154606683.960 6 199940449.765 6  38396472.047    38396462.398       -1243.828       -1608.566          40.000          37.000  
C08 146903234.210 7 189978221.389 7  36483325.043    36483320.305         867.461        1121.656          47.000          45.000  
C07 146306000.473 7 189205859.773 7  36335002.312    36334996.758         347.342         449.215          47.000          46.000  
C05 154616501.436 6 199953141.872 6  38398910.426    38398899.430          19.090          24.676          40.000          36.000  
C04 156987280.784 6 203019074.369 6  38987691.484    38987679.766          12.707          16.547          40.000          36.000  
C03 145889719.469 7 188667523.181 7  36231619.637    36231614.070          26.423          34.180          46.000          44.000  
C02 148824985.822 7 192463469.484 6  36960590.863    36960586.016          11.686          15.113          45.000          41.000  
C01 151015294.417 7 195295994.652 6  37504552.629    37504543.281          23.959          30.855          42.000          40.000  
S27 203496850.200 6  38724162.469         -10.277          40.000  
S37 193085262.610 7  36742906.469          -4.793          42.000  
> 2023 02 14 10 23 37.0000000  0 33
G30 115434394.573 7  89948951.176 7  89948905.167 7  86201023.357 8  21966435.305    21966454.438    21966454.719    21966458.391       -2493.676       -1942.949       -1942.943       -1861.995          45.000          46.000          46.000          50.000  
G17 114457860.691 7  89188024.492 7  89188025.488 7                  21780606.688    21780626.922    21780626.812                         -78.344         -61.037         -61.036                          45.000          47.000          45.000                  
G19 117813488.708 7  91802809.150 5                                  22419160.391    22419182.176                                        1093.883         852.459                                          43.000          33.000                                  
G07 124201040.035 6  96780089.594 5  96780087.590 6                  23634667.594    23634687.145    23634686.941                       -3458.797       -2695.028       -2695.028                          37.000          31.000          36.000                  
G01 122230703.519 6  95244828.028 3  95244745.038 6  91276201.407 7  23259732.461    23259760.473    23259759.762    23259764.309       -3497.828       -2725.498       -2725.498       -2611.932          38.000          23.000          40.000          45.000  
G14 106988260.167 8  83367546.168 7  83367546.164 9  79893859.575 9  20359188.859    20359205.539    20359205.770    20359213.285         677.332         528.053         528.053         506.047          48.000          44.000          54.000          56.000  
G03 117923637.026 7  91888646.327 6  91888572.316 7  88059870.891 8  22440122.383    22440146.805    22440147.066    22440152.387          14.824          11.860          11.868          11.370          42.000          41.000          44.000          48.000  
G06 112322553.320 7  87524152.755 8  87524154.750 8  83877331.143 8  21374270.938    21374291.762    21374292.148    21374296.309        1930.184        1504.243        1504.244        1441.567          46.000          50.000          48.000          51.000  
R20 117672393.985 6  91523025.485 6 117672336.993 5  91523023.489 6  22005322.563    22005343.980    22005321.629    22005343.816       -2966.090       -2306.861       -2966.009       -2306.861          36.000          38.000          35.000          38.000  
E33  92797355.991 8  95218145.429 8 124267785.328 8  94007859.821 9  23647392.516    23647387.777    23647373.398    23647390.156        -713.931        -732.555        -956.277        -723.243          52.000          52.000          49.000          59.000  
E01  94088238.362 8  96542695.599 8 125996320.219 8  95315466.589 9  23976322.086    23976317.398    23976302.641    23976319.852        -516.033        -529.502        -691.270        -522.764          51.000          52.000          49.000          58.000  
E26 103003618.016 7 105690653.881 7 137935165.053 6 104347145.057 8  26248216.094    26248210.656    26248189.938    26248213.566       -1844.516       -1892.636       -2470.117       -1868.580          43.000          44.000          41.000          50.000  
E31  96089656.377 8  98596342.979 8 128676590.820 8  97343022.284 9  24486363.500    24486358.719    24486340.516    24486361.188        1344.749        1379.831        1800.672        1362.292          48.000          51.000          49.000          56.000  
R22 119745167.311 7  93135140.270 7 119745163.316 7  93135136.268 7  22432306.859    22432326.184    22432306.129    22432326.645        1913.988        1488.865        1914.283        1488.876          43.000          42.000          43.000          42.000  
R11 111811632.761 8  86964601.141 7 111811618.765 8  86964597.138 7  20924021.266    20924038.758    20924020.082    20924038.668        3156.797        2455.494        3157.105        2455.494          50.000          47.000          49.000          47.000  
R21 109956978.267 8  85522096.580 8 109956969.276 8  85522093.590 8  20548090.047    20548107.516    20548088.840    20548107.938        -351.613        -273.238        -351.317        -273.246          52.000          48.000          51.000          48.000  
R10 102775363.140 7                 102775346.128 7                  19280396.211                    19280395.074                        -880.277                        -879.706                          47.000                          45.000                  
R09 115433435.053 7  89781577.820 7 115433445.072 7  89781571.817 7  21616977.695    21616992.809    21616976.781    21616992.414       -3749.867       -2916.388       -3749.629       -2916.382          46.000          45.000          44.000          44.000  
R05 129521760.710 6 100739181.182 5 129521659.738 5 100739187.185 5  24229708.680    24229739.551    24229709.934    24229738.109        1635.270        1271.919        1635.265        1271.916          36.000          34.000          34.000          34.000  
C14 101252094.743 6 130941219.126 6  25145893.988    25145884.062        1606.460        2077.461          40.000          36.000  
C13 148941671.498 7 192614331.068 7  36989569.598    36989557.094         869.214        1123.895          44.000          45.000  
C11  94493440.267 7 122200776.281 7  23467386.828    23467374.633       -1273.103       -1646.512          46.000          44.000  
C10 147493586.806 7 190741651.020 7  36629938.613    36629928.844         441.045         570.375          46.000          44.000  
C09 154607927.811 6 199942058.332 6  38396781.270    38396771.453       -1243.851       -1608.609          40.000          37.000  
C08 146902366.852 7 189977099.701 7  36483109.719    36483104.797         867.359        1121.504          46.000          44.000  
C07 146305653.112 7 189205410.558 7  36334916.320    36334909.961         347.361         449.070          47.000          46.000  
C05 154616482.324 6 199953117.153 6  38398905.359    38398894.766          19.112          24.711          40.000          36.000  
C04 156987268.117 6 203019057.980 5  38987688.277    38987676.594          12.667          16.184          39.000          35.000  
C03 145889693.023 7 188667488.978 7  36231613.180    36231607.922          26.446          34.191          47.000          44.000  
C02 148824974.126 7 192463454.363 6  36960588.250    36960582.898          11.695          15.059          45.000          41.000  
C01 151015270.463 7 195295963.670 6  37504546.645    37504536.680          23.954          30.922          42.000          40.000  
S27 203496860.562 6  38724165.609         -10.418          40.000  
S37 193085267.433 7  36742903.047          -4.855          42.000  
> 2023 02 14 10 23 38.0000000  0 33
G30 115436888.263 7  89950894.312 7  89950848.301 7  86202885.524 8  21966909.766    21966929.074    21966929.383    21966932.910       -2493.852       -1943.136       -1943.134       -1862.167          45.000          46.000          46.000          50.000  
G17 114457938.946 7  89188085.475 7  89188086.471 7                  21780621.883    21780641.758    21780641.598                         -78.250         -60.983         -60.983                          45.000          47.000          45.000                  
G19 117812394.734 7  91801956.716 5                                  22418952.289    22418973.816                                        1093.984         852.434                                          43.000          34.000                                  
G07 124204498.637 6  96782784.604 5  96782782.604 6                  23635326.516    23635345.328    23635344.961                       -3458.332       -2695.010       -2695.014                          37.000          31.000          36.000                  
G01 122234201.301 6  95247553.563 3  95247470.577 6  91278813.386 7  23260398.664    23260426.336    23260425.762    23260430.113       -3497.824       -2725.536       -2725.540       -2611.979          38.000          23.000          40.000          45.000  
G14 106987582.907 7  83367018.440 7  83367018.436 8  79893353.830 9  20359060.047    20359077.055    20359077.152    20359084.508         676.984         527.729         527.729         505.745          47.000          44.000          53.000          56.000  
G03 117923622.366 7  91888634.902 7  91888560.896 7  88059859.942 8  22440119.883    22440143.961    22440144.301    22440149.656          14.375          11.425          11.420          10.949          42.000          42.000          44.000          48.000  
G06 112320623.297 7  87522648.844 8  87522650.840 7  83875889.890 8  21373904.086    21373924.523    21373925.238    21373929.188        1929.797        1503.911        1503.909        1441.253          46.000          50.000          47.000          51.000  
R20 117675359.870 6  91525332.283 6 117675302.866 5  91525330.287 6  22005876.836    22005899.152    22005876.488    22005898.660       -2965.859       -2306.798       -2965.873       -2306.798          36.000          38.000          35.000          38.000  
E33  92798070.103 8  95218878.173 8 124268741.618 8  94008583.249 9  23647574.426    23647569.738    23647555.430    23647572.125        -714.112        -732.743        -956.445        -723.427          52.000          52.000          49.000          59.000  
E01  94088754.624 8  96543225.325 8 125997011.558 8  95315989.584 9  23976453.410    23976448.816    23976434.250    23976451.262        -516.262        -529.726        -691.523        -522.995          51.000          52.000          50.000          58.000  
E26 103005462.481 7 105692546.461 7 137937635.037 6 104349013.580 8  26248685.988    26248680.738    26248659.547    26248683.508       -1844.466       -1892.579       -2469.914       -1868.523          43.000          44.000          41.000          50.000  
E31  96088311.742 8  98594963.267 8 128674790.173 8  97341660.116 9  24486020.875    24486016.375    24485997.883    24486018.707        1344.636        1379.712        1800.617        1362.168          48.000          51.000          49.000          56.000  
R22 119743253.408 7  93133651.672 7 119743249.430 7  93133647.670 6  22431948.469    22431967.367    22431947.270    22431967.844        1913.750        1488.598        1913.886        1488.598          44.000          42.000          43.000          41.000  
R11 111808476.159 8  86962146.030 7 111808462.156 8  86962142.019 7  20923430.187    20923448.965    20923430.414    20923448.816        3156.391        2455.112        3156.608        2455.119          50.000          47.000          49.000          47.000  
R21 109957329.918 8  85522370.089 8 109957320.933 8  85522367.093 8  20548156.117    20548173.551    20548154.793    20548173.809        -351.824        -273.510        -351.658        -273.503          52.000          48.000          51.000          48.000  
R10 102776243.632 7                 102776226.631 7                  19280560.711                    19280560.398                        -880.934                        -880.504                          47.000                          45.000                  
R09 115437185.059 7  89784494.489 7 115437195.064 7  89784488.485 7  21617680.383    21617693.965    21617678.531    21617693.961       -3750.141       -2916.669       -3749.993       -2916.668          46.000          45.000          44.000          44.000  
R05 129520125.800 6 100737909.572 5 129520024.795 5 100737915.575 5  24229404.195    24229433.824    24229403.926    24229432.551        1634.641        1271.610        1634.944        1271.610          36.000          35.000          35.000          34.000  
C14 101250488.197 6 130939141.507 6  25145494.961    25145484.664        1606.546        2077.684          40.000          36.000  
C13 148940802.349 7 192613207.067 7  36989353.449    36989341.273         869.149        1123.957          44.000          46.000  
C11  94494713.291 7 122202422.589 7  23467703.070    23467690.758       -1273.024       -1646.340          46.000          44.000  
C10 147493145.682 7 190741080.544 7  36629829.191    36629819.133         441.124         570.531          46.000          44.000  
C09 154609171.578 6 199943666.809 6  38397090.363    38397080.070       -1243.768       -1608.398          40.000          37.000  
C08 146901499.597 7 189975978.141 7  36482894.234    36482889.391         867.254        1121.477          46.000          44.000  
C07 146305305.706 7 189204961.283 7  36334829.926    36334823.930         347.405         449.324          47.000          46.000  
C05 154616463.182 6 199953092.398 6  38398901.008    38398889.727          19.142          24.727          40.000          36.000  
C04 156987255.360 6 203019041.486 5  38987685.344    38987673.242          12.757          16.512          39.000          35.000  
C03 145889666.555 7 188667454.748 7  36231606.488    36231601.508          26.468          34.219          47.000          44.000  
C02 148824962.396 7 192463439.195 6  36960585.258    36960580.438          11.731          15.082          45.000          41.000  
C01 151015246.436 7 195295932.594 6  37504540.973    37504530.930          24.028          30.926          42.000          40.000  
S27 203496870.943 6  38724166.406         -10.410          40.000  
S37 193085272.236 7  36742901.562          -4.797          42.000  
> 2023 02 14 10 23 39.0000000  0 33
G30 115439382.287 7  89952837.707 7  89952791.698 7  86204747.945 8  21967384.180    21967404.012    21967404.000    21967407.613       -2494.242       -1943.395       -1943.397       -1862.421          46.000          46.000          46.000          50.000  
G17 114458017.199 7  89188146.449 7  89188147.451 7                  21780636.172    21780655.934    21780656.062                         -78.348         -60.974         -60.979                          46.000          47.000          45.000                  
G19 117811300.841 7  91801104.339 5                                  22418743.516    22418766.012                                        1093.742         852.376                                          43.000          33.000                                  
G07 124207957.289 6  96785479.660 5  96785477.656 6                  23635985.312    23636003.832    23636003.410                       -3458.715       -2695.056       -2695.052                          37.000          31.000          36.000                  
G01 122237699.188 6  95250279.178 3  95250196.199 6  91281425.440 7  23261064.211    23261092.090    23261091.371    23261095.930       -3498.074       -2725.614       -2725.622       -2612.055          38.000          23.000          40.000          45.000  
G14 106986906.109 8  83366491.070 7  83366491.058 8  79892848.437 9  20358931.352    20358948.051    20358947.988    20358955.680         676.488         527.370         527.378         505.392          48.000          43.000          53.000          56.000  
G03 117923608.323 7  91888623.957 6  91888549.953 7  88059849.457 8  22440117.133    22440141.379    22440141.785    22440147.078          13.699          10.945          10.943          10.485          42.000          41.000          44.000          48.000  
G06 112318693.796 7  87521145.335 8  87521147.338 8  83874449.039 8  21373537.000    21373557.523    21373557.863    21373562.188        1929.242        1503.509        1503.502        1440.851          46.000          50.000          48.000          51.000  
R20 117678325.703 6  91527639.034 6 117678268.705 6  91527637.032 6  22006431.922    22006453.961    22006430.520    22006452.969       -2966.000       -2306.752       -2965.839       -2306.745          37.000          38.000          36.000          37.000  
E33  92798784.460 8  95219611.161 8 124269698.234 8  94009306.918 9  23647756.332    23647751.781    23647737.617    23647754.066        -714.357        -732.988        -956.863        -723.670          52.000          52.000          49.000          59.000  
E01  94089271.171 8  96543755.343 8 125997703.275 8  95316512.866 9  23976585.129    23976580.629    23976565.883    23976582.957        -516.548        -530.017        -692.004        -523.282          51.000          52.000          50.000          58.000  
E26 103007306.987 7 105694439.080 7 137940105.074 6 104350882.142 8  26249156.168    26249151.008    26249129.625    26249153.680       -1844.505       -1892.619       -2470.047       -1868.562          43.000          44.000          41.000          50.000  
E31  96086967.270 8  98593583.718 8 128672989.735 8  97340298.099 9  24485678.270    24485673.625    24485655.242    24485675.961        1344.472        1379.550        1800.250        1362.017          48.000          51.000          49.000          56.000  
R22 119741339.969 7  93132163.435 7 119741335.983 7  93132159.436 6  22431589.977    22431609.469    22431589.363    22431610.133        1913.184        1488.237        1913.447        1488.234          43.000          42.000          43.000          41.000  
R11 111805320.117 8  86959691.337 7 111805306.113 8  86959687.334 7  20922839.797    20922857.437    20922838.613    20922856.770        3155.621        2454.693        3156.042        2454.685          50.000          47.000          49.000          47.000  
R21 109957682.008 8  85522643.936 8 109957673.016 8  85522640.946 8  20548221.516    20548238.770    20548220.426    20548239.625        -352.402        -273.846        -352.083        -273.853          52.000          48.000          51.000          48.000  
R10 102777125.001 7                 102777108.005 7                  19280727.180                    19280726.160                        -881.832                        -881.374                          47.000                          46.000                  
R09 115440935.464 7  89787411.465 7 115440945.474 7  89787405.461 7  21618382.547    21618397.141    21618381.984    21618397.441       -3750.703       -2916.976       -3750.409       -2916.976          46.000          45.000          44.000          44.000  
R05 129518491.149 6 100736638.174 5 129518390.143 5 100736644.169 5  24229098.117    24229127.352    24229097.145    24229126.660        1634.301        1271.398        1634.651        1271.406          37.000          35.000          34.000          34.000  
C14 101248881.636 6 130937063.859 6  25145096.043    25145085.672        1606.561        2077.551          41.000          37.000  
C13 148939933.337 7 192612083.238 7  36989137.625    36989125.367         869.012        1123.660          44.000          45.000  
C11  94495986.340 7 122204068.917 7  23468019.316    23468007.312       -1273.049       -1646.371          46.000          44.000  
C10 147492704.572 7 190740510.089 7  36629719.562    36629709.742         441.110         570.328          46.000          44.000  
C09 154610415.309 6 199945275.229 6  38397399.098    38397388.961       -1243.731       -1608.391          40.000          37.000  
C08 146900632.471 7 189974856.757 7  36482678.824    36482673.906         867.126        1121.297          46.000          44.000  
C07 146304958.292 7 189204511.995 7  36334743.578    36334737.523         347.415         449.195          47.000          46.000  
C05 154616443.997 6 199953067.586 6  38398896.254    38398885.070          19.185          24.895          40.000          36.000  
C04 156987243.56616 203019026.04115  38987681.684    38987670.430          12.847          16.723          38.000          35.000  
C03 145889640.097 7 188667420.528 7  36231599.969    36231594.477          26.458          34.172          46.000          44.000  
C02 148824950.661 7 192463424.016 6  36960582.402    36960577.164          11.735          15.148          45.000          41.000  
C01 151015222.418 7 195295901.531 6  37504534.824    37504524.828          24.017          30.953          42.000          40.000  
S27 203496881.349 6  38724168.141         -10.461          40.000  
S37 193085277.020 7  36742915.953          -4.918          42.000  
> 2023 02 14 10 23 40.0000000  0 33
G30 115441876.663 7  89954781.378 7  89954735.369 7  86206610.631 8  21967858.961    21967878.457    21967878.551    21967882.352       -2494.496       -1943.671       -1943.671       -1862.687          46.000          46.000          46.000          50.000  
G17 114458095.454 7  89188207.430 7  89188208.433 7                  21780651.734    21780671.426    21780671.656                         -78.148         -60.981         -60.982                          45.000          47.000          45.000                  
G19 117810207.043 7  91800252.040 5                                  22418535.664    22418557.535                                        1093.703         852.300                                          42.000          33.000                                  
G07 124211415.966 6  96788174.738 5  96788172.727 5                  23636643.156    23636661.715    23636661.156                       -3458.789       -2695.078       -2695.071                          36.000          31.000          35.000                  
G01 122241197.211 6  95253004.919 3  95252921.925 6  91284037.602 7  23261730.250    23261757.281    23261757.012    23261761.117       -3497.957       -2725.742       -2725.726       -2612.162          38.000          22.000          40.000          45.000  
G14 106986229.830 8  83365964.103 7  83365964.092 8  79892343.429 9  20358802.523    20358819.336    20358819.359    20358826.902         676.164         526.967         526.967         505.009          48.000          43.000          53.000          56.000  
G03 117923594.925 7  91888613.515 6  91888539.512 7  88059839.449 8  22440114.383    22440138.789    22440139.309    22440144.430          13.113          10.442          10.441          10.008          42.000          41.000          44.000          48.000  
G06 112316764.811 7  87519642.237 8  87519644.232 7  83873008.565 8  21373169.867    21373189.898    21373190.168    21373194.504        1928.883        1503.099        1503.107        1440.475          46.000          50.000          47.000          51.000  
R20 117681291.594 6  91529945.831 6 117681234.618 5  91529943.835 6  22006986.406    22007008.449    22006984.887    22007007.656       -2965.836       -2306.797       -2965.914       -2306.802          37.000          38.000          35.000          38.000  
E33  92799499.050 8  95220344.394 8 124270655.164 8  94010030.833 9  23647938.613    23647934.066    23647919.586    23647936.348        -714.590        -733.234        -957.031        -723.915          52.000          53.000          49.000          59.000  
E01  94089787.994 8  96544285.646 8 125998395.368 8  95317036.432 9  23976716.730    23976712.180    23976697.523    23976714.570        -516.822        -530.303        -692.176        -523.566          51.000          52.000          50.000          58.000  
E26 103009151.522 7 105696331.740 7 137942575.154 6 104352750.739 8  26249626.277    26249620.648    26249599.781    26249623.586       -1844.535       -1892.660       -2469.988       -1868.597          43.000          44.000          41.000          50.000  
E31  96085622.948 8  98592204.329 8 128671189.508 8  97338936.252 9  24485335.859    24485331.121    24485312.641    24485333.531        1344.322        1379.389        1800.152        1361.848          49.000          51.000          49.000          56.000  
R22 119739426.998 7  93130675.558 7 119739423.011 7  93130671.567 6  22431231.164    22431251.156    22431230.902    22431251.516        1912.824        1487.877        1912.972        1487.869          43.000          42.000          43.000          41.000  
R11 111802164.591 8  86957237.038 7 111802150.595 8  86957233.035 7  20922248.625    20922266.816    20922248.383    20922266.613        3155.398        2454.298        3155.518        2454.299          50.000          47.000          49.000          47.000  
R21 109958034.532 8  85522918.123 7 109958025.541 8  85522915.126 7  20548287.250    20548305.109    20548286.395    20548305.566        -352.621        -274.188        -352.525        -274.180          52.000          47.000          51.000          47.000  
R10 102778007.246 7                 102777990.259 7                  19280892.461                    19280890.855                        -882.562                        -882.254                          47.000                          46.000                  
R09 115444686.300 7  89790328.775 7 115444696.324 7  89790322.779 7  21619085.055    21619099.426    21619084.023    21619099.691       -3750.945       -2917.310       -3750.850       -2917.318          46.000          45.000          44.000          44.000  
R05 129516856.891 6 100735367.083 5 129516755.902 5 100735373.074 5  24228792.703    24228821.738    24228791.613    24228820.930        1634.195        1271.091        1634.241        1271.095          37.000          34.000          35.000          34.000  
C14 101247275.058 6 130934986.196 6  25144696.992    25144686.820        1606.578        2077.727          41.000          37.000  
C13 148939064.456 7 192610959.585 7  36988922.230    36988909.750         868.881        1123.672          44.000          46.000  
C11  94497259.412 7 122205715.281 7  23468335.223    23468323.148       -1273.072       -1646.293          46.000          45.000  
C10 147492263.410 7 190739939.569 7  36629609.840    36629600.258         441.161         570.617          46.000          44.000  
C09 154611659.056 6 199946883.666 6  38397707.871    38397697.594       -1243.747       -1608.457          40.000          38.000  
C08 146899765.500 7 189973735.569 7  36482463.430    36482458.680         866.971        1121.125          46.000          45.000  
C07 146304610.887 7 189204062.721 7  36334657.488    36334651.312         347.404         449.262          47.000          46.000  
C05 154616424.894 6 199953042.880 6  38398891.562    38398879.938          19.103          24.652          41.000          36.000  
C04 156987230.932 6 203019009.600 5  38987678.434    38987667.344          12.634          16.430          39.000          35.000  
C03 145889613.641 7 188667386.316 7  36231593.461    36231588.117          26.456          34.273          46.000          44.000  
C02 148824938.985 7 192463408.914 6  36960579.438    36960574.312          11.675          15.078          45.000          41.000  
C01 151015198.465 7 195295870.549 6  37504528.852    37504519.305          23.953          30.863          42.000          40.000  
S27 203496891.732 6  38724169.953         -10.293          40.000  
S37 193085281.862 7  36742910.875          -4.805          42.000  
> 2023 02 14 10 23 41.0000000  0 33
G30 115444371.348 7  89956725.286 7  89956679.282 7  86208473.548 8  21968333.883    21968353.621    21968353.844    21968357.457       -2494.832       -1943.907       -1943.913       -1862.916          45.000          46.000          46.000          50.000  
G17 114458173.702 7  89188268.406 7  89188269.408 7                  21780666.180    21780686.074    21780686.051                         -78.203         -60.976         -60.975                          45.000          47.000          45.000                  
G19 117809113.286 7  91799399.769 5                                  22418327.875    22418349.793                                        1093.738         852.270                                          43.000          33.000                                  
G07 124214874.524 6  96790869.712 5  96790867.713 6                  23637301.219    23637319.953    23637319.242                       -3458.547       -2694.974       -2694.986                          36.000          31.000          36.000                  
G01 122244695.279 6  95255730.689 3  95255647.691 6  91286649.792 7  23262396.203    23262422.926    23262422.582    23262426.762       -3498.086       -2725.770       -2725.766       -2612.190          38.000          23.000          40.000          45.000  
G14 106985553.976 8  83365437.460 7  83365437.456 8  79891838.734 9  20358673.641    20358690.680    20358690.750    20358698.367         675.602         526.644         526.636         504.694          48.000          43.000          53.000          56.000  
G03 117923582.110 7  91888603.530 6  91888529.529 7  88059829.881 8  22440111.984    22440136.086    22440136.254    22440141.785          12.488           9.985           9.983           9.568          42.000          41.000          45.000          48.000  
G06 112314836.275 7  87518139.486 8  87518141.481 8  83871568.427 8  21372802.656    21372823.148    21372823.320    21372827.695        1928.191        1502.751        1502.751        1440.138          46.000          50.000          48.000          51.000  
R20 117684257.375 6  91532252.554 6 117684200.358 5  91532250.559 6  22007540.312    22007563.437    22007539.848    22007562.809       -2965.887       -2306.723       -2965.740       -2306.724          37.000          38.000          35.000          37.000  
E33  92800213.845 8  95221077.837 8 124271612.368 8  94010754.950 9  23648120.691    23648116.191    23648101.578    23648118.430        -714.795        -733.443        -957.391        -724.117          52.000          53.000          49.000          59.000  
E01  94090305.075 8  96544816.224 8 125999087.807 8  95317560.261 9  23976848.469    23976843.828    23976829.273    23976846.297        -517.081        -530.578        -692.656        -523.829          51.000          52.000          50.000          58.000  
E26 103010996.091 7 105698224.428 7 137945045.282 6 104354619.372 8  26250096.129    26250090.781    26250069.852    26250093.676       -1844.569       -1892.688       -2470.215       -1868.633          43.000          45.000          41.000          50.000  
E31  96084278.772 8  98590825.086 8 128669389.470 8  97337574.542 9  24484993.125    24484988.438    24484970.164    24484990.797        1344.176        1379.243        1799.820        1361.710          49.000          51.000          49.000          56.000  
R22 119737514.457 7  93129188.031 7 119737510.465 7  93129184.039 6  22430873.094    22430892.957    22430872.012    22430892.852        1912.277        1487.527        1912.546        1487.527          43.000          42.000          43.000          41.000  
R11 111799009.575 8  86954783.138 7 111798995.577 8  86954779.135 7  20921658.687    20921677.105    20921658.680    20921676.746        3154.742        2453.901        3155.018        2453.900          50.000          47.000          49.000          46.000  
R21 109958387.454 8  85523192.620 7 109958378.469 8  85523189.624 7  20548353.008    20548370.613    20548352.035    20548371.102        -353.168        -274.497        -352.928        -274.498          52.000          47.000          51.000          47.000  
R10 102778890.337 7                 102778873.337 7                  19281058.047                    19281056.676                        -883.562                        -883.077                          47.000                          46.000                  
R09 115448437.580 7  89793246.440 7 115448447.568 7  89793240.443 7  21619786.914    21619801.387    21619785.648    21619801.160       -3751.598       -2917.665       -3751.244       -2917.665          46.000          45.000          44.000          44.000  
R05 129515222.980 5 100734096.257 5 129515122.023 5 100734102.250 5  24228486.320    24228516.156    24228486.168    24228515.547        1633.676        1270.826        1633.879        1270.824          35.000          34.000          34.000          34.000  
C14 101245668.387 6 130932908.415 6  25144297.695    25144287.641        1606.671        2077.938          41.000          37.000  
C13 148938195.680 7 192609836.064 7  36988706.336    36988693.594         868.777        1123.410          44.000          45.000  
C11  94498532.440 7 122207361.591 7  23468651.824    23468639.406       -1273.028       -1646.312          46.000          44.000  
C10 147491822.233 7 190739369.025 7  36629500.406    36629490.648         441.177         570.516          46.000          44.000  
C09 154612902.746 6 199948492.038 6  38398017.086    38398006.773       -1243.691       -1608.340          40.000          37.000  
C08 146898898.651 7 189972614.542 7  36482248.336    36482243.703         866.849        1120.910          46.000          45.000  
C07 146304263.470 7 189203613.434 7  36334571.258    36334565.125         347.418         449.227          47.000          46.000  
C05 154616405.785 6 199953018.158 6  38398886.613    38398875.492          19.109          24.578          41.000          36.000  
C04 156987218.277 6 203018993.180 5  38987675.340    38987664.156          12.655          16.266          39.000          35.000  
C03 145889587.194 7 188667352.116 7  36231586.781    36231581.633          26.447          34.199          46.000          44.000  
C02 148824927.276 7 192463393.766 6  36960576.195    36960571.555          11.710          15.074          46.000          41.000  
C01 151015174.487 7 195295839.536 6  37504522.883    37504512.789          23.977          31.086          42.000          40.000  
S27 203496902.076 6  38724172.703         -10.277          40.000  
S37 193085286.681 7  36742904.328          -4.848          42.000  
> 2023 02 14 10 23 42.0000000  0 33
G30 115446866.351 7  89958669.449 7  89958623.438 7  86210336.694 8  21968808.391    21968827.590    21968827.922    21968831.543       -2495.180       -1944.163       -1944.156       -1863.146          45.000          46.000          46.000          50.000  
G17 114458251.925 7  89188329.363 7  89188330.360 7                  21780681.148    21780700.766    21780700.938                         -78.301         -60.957         -60.952                          46.000          47.000          45.000                  
G19 117808019.620 7  91798547.566 5                                  22418119.906    22418141.422                                        1093.688         852.203                                          43.000          33.000                                  
G07 124218333.149 6  96793564.739 5  96793562.747 6                  23637958.805    23637977.855    23637977.520                       -3458.558       -2695.028       -2695.034                          36.000          31.000          36.000                  
G01 122248193.494 6  95258456.574 3  95258373.573 6  91289262.095 7  23263061.203    23263088.605    23263088.496    23263092.383       -3498.301       -2725.884       -2725.881       -2612.303          38.000          23.000          40.000          45.000  
G14 106984878.609 8  83364911.206 7  83364911.201 9  79891334.406 9  20358545.484    20358562.203    20358562.238    20358569.891         675.219         526.254         526.255         504.329          48.000          44.000          54.000          56.000  
G03 117923569.888 7  91888594.010 6  91888520.006 7  88059820.754 8  22440109.977    22440134.062    22440134.492    22440139.820          12.070           9.520           9.523           9.127          42.000          41.000          44.000          48.000  
G06 112312908.265 7  87516637.145 8  87516639.140 8  83870128.685 8  21372435.766    21372456.086    21372456.555    21372460.691        1927.812        1502.340        1502.340        1439.742          46.000          50.000          48.000          51.000  
R20 117687223.141 6  91534559.255 6 117687166.156 6  91534557.267 6  22008095.586    22008116.605    22008093.949    22008116.719       -2965.723       -2306.701       -2965.799       -2306.708          36.000          38.000          36.000          37.000  
E33  92800928.877 8  95221811.522 8 124272569.891 8  94011479.308 9  23648302.973    23648298.281    23648283.883    23648300.539        -715.032        -733.685        -957.672        -724.358          52.000          53.000          49.000          59.000  
E01  94090822.440 8  96545347.081 8 125999780.623 8  95318084.371 9  23976980.582    23976975.848    23976961.203    23976978.270        -517.365        -530.858        -693.055        -524.109          51.000          52.000          50.000          58.000  
E26 103012840.661 7 105700117.118 7 137947515.406 6 104356488.005 8  26250566.238    26250560.801    26250540.000    26250563.770       -1844.570       -1892.689       -2470.258       -1868.633          43.000          45.000          41.000          50.000  
E31  96082934.744 8  98589445.992 8 128667589.628 8  97336212.974 9  24484650.727    24484646.086    24484627.609    24484648.465        1344.028        1379.094        1799.797        1361.568          49.000          51.000          49.000          56.000  
R22 119735602.382 7  93127700.865 7 119735598.369 7  93127696.868 6  22430514.367    22430534.977    22430514.105    22430534.621        1911.719        1487.166        1912.096        1487.172          43.000          42.000          42.000          41.000  
R11 111795855.082 8  86952329.657 7 111795841.086 8  86952325.647 7  20921068.297    20921086.656    20921068.055    20921086.387        3154.191        2453.480        3154.492        2453.488          50.000          47.000          48.000          46.000  
R21 109958740.787 8  85523467.447 7 109958731.803 8  85523464.443 7  20548419.766    20548436.262    20548418.207    20548437.062        -353.578        -274.827        -353.334        -274.819          52.000          47.000          51.000          47.000  
R10 102779774.290 7                 102779757.283 7                  19281224.227                    19281222.738                        -884.426                        -883.947                          47.000                          45.000                  
R09 115452189.277 7  89796164.432 7 115452199.295 7  89796158.429 7  21620489.813    21620504.441    21620488.664    21620504.254       -3751.805       -2917.992       -3751.726       -2917.985          46.000          45.000          44.000          44.000  
R05 129513589.486 6 100732825.751 5 129513488.467 5 100732831.739 5  24228181.273    24228210.523    24228181.121    24228210.047        1633.125        1270.506        1633.556        1270.511          36.000          34.000          34.000          34.000  
C14 101244061.782 6 130930830.724 6  25143898.910    25143889.133        1606.605        2077.688          41.000          36.000  
C13 148937327.024 7 192608712.699 7  36988490.590    36988478.023         868.656        1123.301          44.000          45.000  
C11  94499805.483 7 122209007.918 7  23468967.582    23468955.656       -1273.043       -1646.359          46.000          44.000  
C10 147491381.035 7 190738798.454 7  36629390.637    36629381.219         441.199         570.672          46.000          44.000  
C09 154614146.445 6 199950100.412 6  38398325.723    38398315.680       -1243.699       -1608.383          40.000          37.000  
C08 146898031.947 7 189971493.699 7  36482033.242    36482028.172         866.704        1120.762          46.000          45.000  
C07 146303916.034 7 189203164.111 7  36334484.898    36334478.859         347.436         449.258          47.000          46.000  
C05 154616386.665 6 199952993.435 6  38398881.836    38398870.609          19.120          24.641          41.000          36.000  
C04 156987205.579 6 203018976.752 6  38987672.387    38987661.188          12.699          16.258          39.000          36.000  
C03 145889560.771 7 188667317.939 7  36231579.887    36231575.008          26.422          34.074          46.000          44.000  
C02 148824915.597 7 192463378.662 6  36960573.426    36960568.461          11.678          15.055          45.000          41.000  
C01 151015150.525 7 195295808.547 6  37504516.934    37504507.031          23.962          31.055          42.000          40.000  
S27 203496912.388 6  38724174.156         -10.320          40.000  
S37 193085291.516 7  36742910.266          -4.789          42.000  
> 2023 02 14 10 23 43.0000000  0 33
G30 115449361.697 7  89960613.873 7  89960567.868 7  86212200.103 8  21969283.117    21969302.953    21969303.109    21969306.785       -2495.473       -1944.425       -1944.429       -1863.409          45.000          46.000          45.000          50.000  
G17 114458330.120 7  89188390.296 7  89188391.299 7                  21780696.156    21780715.809    21780715.750                         -78.125         -60.933         -60.938                          45.000          47.000          45.000                  
G19 117806925.969 7  91797695.382 5                                  22417911.875    22417933.305                                        1093.664         852.184                                          43.000          33.000                                  
G07 124221791.751 6  96796259.750 5  96796257.754 6                  23638616.867    23638635.996    23638635.543                       -3458.547       -2695.011       -2695.007                          36.000          30.000          36.000                  
G01 122251691.787 6  95261182.512 3  95261099.514 6  91291874.451 7  23263726.852    23263754.395    23263754.023    23263758.113       -3498.144       -2725.938       -2725.941       -2612.356          38.000          22.000          41.000          45.000  
G14 106984203.706 8  83364385.307 7  83364385.303 8  79890830.422 9  20358417.070    20358434.086    20358433.926    20358441.539         674.746         525.899         525.898         503.984          48.000          43.000          53.000          56.000  
G03 117923558.303 7  91888584.983 7  91888510.979 7  88059812.102 8  22440107.414    22440131.805    22440132.281    22440137.562          11.344           9.027           9.027           8.652          42.000          42.000          45.000          48.000  
G06 112310980.747 7  87515135.183 8  87515137.178 7  83868689.303 8  21372069.086    21372089.496    21372089.832    21372094.219        1927.312        1501.963        1501.963        1439.382          46.000          50.000          47.000          51.000  
R20 117690188.862 6  91536865.929 6 117690131.856 6  91536863.933 6  22008650.508    22008672.156    22008649.223    22008671.996       -2965.648       -2306.673       -2965.700       -2306.667          37.000          38.000          36.000          37.000  
E33  92801644.151 8  95222545.457 8 124273527.735 8  94012203.915 9  23648485.340    23648480.605    23648466.195    23648482.922        -715.274        -733.935        -958.031        -724.607          52.000          52.000          48.000          59.000  
E01  94091340.079 8  96545878.223 8 126000473.810 8  95318608.765 9  23977112.355    23977107.715    23977093.016    23977110.141        -517.639        -531.142        -693.344        -524.394          51.000          52.000          50.000          58.000  
E26 103014685.277 7 105702009.852 7 137949985.587 6 104358356.676 8  26251036.336    26251030.852    26251010.055    26251033.801       -1844.617       -1892.734       -2470.176       -1868.671          43.000          44.000          41.000          50.000  
E31  96081590.879 8  98588067.070 8 128665790.007 8  97334851.586 9  24484308.238    24484303.547    24484285.234    24484305.930        1343.866        1378.922        1799.562        1361.389          49.000          50.000          49.000          56.000  
R22 119733690.744 7  93126214.041 7 119733686.740 7  93126210.044 7  22430156.750    22430176.500    22430155.785    22430176.441        1911.453        1486.824        1911.629        1486.824          43.000          42.000          43.000          42.000  
R11 111792701.141 8  86949876.590 7 111792687.159 8  86949872.587 7  20920477.891    20920496.027    20920477.293    20920495.598        3153.742        2453.067        3153.927        2453.059          50.000          47.000          48.000          47.000  
R21 109959094.561 8  85523742.599 7 109959085.576 8  85523739.602 7  20548485.055    20548502.664    20548484.434    20548503.723        -353.973        -275.152        -353.773        -275.158          52.000          47.000          51.000          47.000  
R10 102780659.080 7                 102780642.073 7                  19281389.852                    19281388.012                        -885.207                        -884.790                          47.000                          45.000                  
R09 115455941.438 7  89799082.780 7 115455951.449 7  89799076.778 7  21621192.578    21621206.918    21621191.430    21621207.262       -3752.328       -2918.348       -3752.154       -2918.349          46.000          45.000          44.000          44.000  
R05 129511956.306 6 100731555.478 5 129511855.329 5 100731561.473 5  24227876.883    24227904.973    24227875.203    24227904.117        1632.809        1270.273        1633.138        1270.266          36.000          34.000          34.000          34.000  
C14 101242455.095 6 130928752.918 6  25143499.906    25143489.797        1606.688        2077.895          41.000          36.000  
C13 148936458.509 7 192607589.514 7  36988274.531    36988262.344         868.515        1123.168          44.000          45.000  
C11  94501078.499 7 122210654.212 7  23469283.922    23469271.656       -1273.016       -1646.254          46.000          44.000  
C10 147490939.783 7 190738227.818 7  36629281.352    36629271.727         441.252         570.629          46.000          44.000  
C09 154615390.136 6 199951708.781 6  38398634.441    38398624.664       -1243.691       -1608.246          40.000          37.000  
C08 146897165.397 7 189970373.059 7  36481818.188    36481812.859         866.550        1120.637          46.000          44.000  
C07 146303568.578 7 189202714.766 7  36334398.570    36334392.055         347.456         449.336          47.000          46.000  
C05 154616367.541 6 199952968.703 6  38398877.285    38398866.430          19.124          24.660          40.000          36.000  
C04 156987192.867 6 203018960.325 5  38987669.559    38987657.883          12.711          16.215          39.000          35.000  
C03 145889534.340 7 188667283.755 7  36231573.691    36231568.383          26.431          34.223          46.000          44.000  
C02 148824903.906 7 192463363.543 6  36960570.828    36960565.570          11.692          15.215          45.000          41.000  
C01 151015126.561 7 195295777.552 6  37504510.973    37504501.078          23.964          31.090          42.000          40.000  
S27 203496922.671 6  38724176.609         -10.281          40.000  
S37 193085296.365 7  36742911.422          -4.863          42.000  
> 2023 02 14 10 23 44.0000000  0 33
G30 115451857.326 7  89962558.519 7  89962512.513 7  86214063.719 8  21969758.375    21969777.898    21969778.098    21969781.852       -2495.883       -1944.645       -1944.645       -1863.616          45.000          46.000          45.000          50.000  
G17 114458408.308 7  89188451.227 7  89188452.227 7                  21780710.484    21780730.422    21780730.238                         -78.246         -60.932         -60.928                          45.000          47.000          45.000                  
G19 117805832.429 7  91796843.279 5                                  22417704.102    22417725.195                                        1093.516         852.104                                          43.000          33.000                                  
G07 124225250.319 6  96798954.733 5  96798952.744 6                  23639275.273    23639294.023    23639293.629                       -3458.465       -2694.982       -2694.990                          36.000          31.000          37.000                  
G01 122255190.180 6  95263908.530 3  95263825.525 6  91294486.886 7  23264391.961    23264420.266    23264419.805    23264423.750       -3498.270       -2726.018       -2726.011       -2612.435          38.000          23.000          40.000          45.000  
G14 106983529.266 7  83363859.775 7  83363859.764 8  79890326.784 9  20358288.766    20358306.023    20358305.906    20358313.594         674.160         525.532         525.539         503.638          47.000          44.000          53.000          56.000  
G03 117923547.302 7  91888576.406 7  91888502.403 7  88059803.887 8  22440105.102    22440129.875    22440130.242    22440135.457          10.605           8.577           8.576           8.215          42.000          42.000          45.000          48.000  
G06 112309053.736 7  87513633.617 8  87513635.612 7  83867250.310 8  21371702.266    21371722.707    21371723.078    21371727.254        1926.793        1501.566        1501.566        1438.993          46.000          50.000          47.000          51.000  
R20 117693154.559 6  91539172.579 6 117693097.536 6  91539170.583 6  22009204.203    22009226.613    22009203.621    22009226.355       -2965.684       -2306.651       -2965.680       -2306.650          37.000          38.000          36.000          37.000  
E33  92802359.631 8  95223279.605 8 124274485.860 8  94012928.727 9  23648667.750    23648662.922    23648648.383    23648665.305        -715.480        -734.148        -958.344        -724.812          52.000          53.000          48.000          59.000  
E01  94091857.989 8  96546409.649 8 126001167.355 8  95319133.429 9  23977244.484    23977239.844    23977225.008    23977242.246        -517.910        -531.426        -693.750        -524.664          51.000          52.000          50.000          58.000  
E26 103016529.866 7 105703902.563 7 137952455.741 6 104360225.326 8  26251506.352    26251500.820    26251480.227    26251503.824       -1844.589       -1892.712       -2470.234       -1868.650          43.000          44.000          41.000          50.000  
E31  96080247.140 8  98586688.276 8 128663990.557 8  97333490.315 9  24483965.770    24483961.082    24483942.820    24483963.539        1343.739        1378.794        1799.281        1361.271          49.000          50.000          49.000          56.000  
R22 119731779.561 7  93124727.564 6 119731775.556 7  93124723.567 6  22429798.906    22429818.594    22429797.586    22429818.367        1910.879        1486.477        1911.184        1486.477          43.000          41.000          43.000          41.000  
R11 111789547.714 8  86947423.934 7 111789533.733 8  86947419.923 7  20919888.250    20919905.445    20919887.535    20919905.680        3153.215        2452.656        3153.426        2452.664          50.000          47.000          48.000          47.000  
R21 109959448.752 8  85524018.079 8 109959439.761 8  85524015.075 7  20548551.297    20548569.242    20548550.324    20548569.602        -354.398        -275.480        -354.185        -275.473          52.000          48.000          51.000          47.000  
R10 102781544.725 7                 102781527.726 7                  19281555.758                    19281554.270                        -886.109                        -885.653                          47.000                          45.000                  
R09 115459694.046 7  89802001.472 7 115459704.020 7  89801995.469 7  21621895.594    21621909.398    21621893.977    21621909.484       -3752.949       -2918.692       -3752.571       -2918.691          46.000          45.000          44.000          44.000  
R05 129510323.514 6 100730285.509 5 129510222.462 5 100730291.505 5  24227570.961    24227599.031    24227569.750    24227598.875        1632.438        1269.969        1632.867        1269.968          36.000          34.000          35.000          34.000  
C14 101240848.383 6 130926675.085 6  25143100.715    25143090.125        1606.712        2077.586          41.000          36.000  
C13 148935590.113 7 192606466.481 7  36988058.996    36988046.867         868.396        1122.906          44.000          45.000  
C11  94502351.514 7 122212300.499 7  23469600.152    23469587.852       -1273.015       -1646.270          46.000          44.000  
C10 147490498.529 7 190737657.175 7  36629171.770    36629162.117         441.254         570.668          46.000          44.000  
C09 154616633.807 6 199953317.115 6  38398943.156    38398933.727       -1243.670       -1608.453          40.000          37.000  
C08 146896298.963 7 189969252.563 7  36481602.746    36481597.648         866.434        1120.375          46.000          45.000  
C07 146303221.107 7 189202265.408 7  36334312.027    36334305.922         347.471         449.340          47.000          46.000  
C05 154616348.425 6 199952943.981 6  38398872.375    38398861.688          19.116          24.637          41.000          36.000  
C04 156987180.180 6 203018943.938 5  38987666.707    38987654.586          12.687          16.367          39.000          35.000  
C03 145889507.919 7 188667249.586 7  36231566.969    36231561.828          26.422          34.066          46.000          44.000  
C02 148824892.249 7 192463348.463 6  36960567.738    36960562.539          11.657          15.020          45.000          41.000  
C01 151015102.603 7 195295746.564 6  37504504.727    37504495.094          23.958          30.938          42.000          40.000  
S27 203496933.022 6  38724179.172         -10.406          40.000  
S37 193085301.212 7  36742907.703          -4.887          42.000  
> 2023 02 14 10 23 45.0000000  0 33
G30 115454353.232 7  89964503.377 7  89964457.373 7  86215927.548 8  21970233.516    21970252.465    21970252.699    21970256.418       -2496.133       -1944.858       -1944.860       -1863.829          45.000          46.000          45.000          50.000  
G17 114458486.423 7  89188512.100 7  89188513.095 7                  21780725.742    21780745.426    21780745.363                         -78.145         -60.872         -60.869                          46.000          47.000          45.000                  
G19 117804738.902 7  91795991.184 5                                  22417495.781    22417517.484                                        1093.430         852.095                                          43.000          33.000                                  
G07 124228708.799 6  96801649.652 5  96801647.656 6                  23639933.500    23639952.184    23639951.809                       -3458.359       -2694.919       -2694.912                          36.000          31.000          36.000                  
G01 122258688.628 6  95266634.589 3  95266551.584 6  91297099.355 7  23265058.500    23265085.996    23265085.363    23265089.422       -3498.524       -2726.059       -2726.059       -2612.469          39.000          23.000          40.000          45.000  
G14 106982855.252 8  83363334.575 7  83363334.564 8  79889823.461 9  20358160.578    20358177.445    20358177.328    20358185.012         673.664         525.200         525.199         503.322          48.000          43.000          53.000          56.000  
G03 117923536.860 7  91888568.269 7  91888494.265 7  88059796.089 8  22440103.539    22440127.926    22440128.227    22440133.508          10.090           8.137           8.138           7.798          42.000          42.000          45.000          48.000  
G06 112307127.158 7  87512132.390 8  87512134.385 7  83865811.632 8  21371335.773    21371356.492    21371356.965    21371361.211        1926.188        1501.227        1501.227        1438.678          46.000          50.000          47.000          51.000  
R20 117696120.134 6  91541479.140 6 117696063.159 6  91541477.144 6  22009758.008    22009781.922    22009758.363    22009781.137       -2965.711       -2306.561       -2965.622       -2306.561          36.000          37.000          36.000          38.000  
E33  92803075.296 8  95224013.932 8 124275444.225 8  94013653.722 9  23648849.813    23648845.219    23648830.742    23648847.555        -715.665        -734.327        -958.641        -724.995          52.000          52.000          48.000          59.000  
E01  94092376.125 8  96546941.294 8 126001861.199 8  95319658.316 9  23977376.496    23977371.902    23977357.203    23977374.273        -518.136        -531.645        -694.090        -524.887          51.000          52.000          50.000          58.000  
E26 103018374.493 7 105705795.309 7 137954925.935 6 104362094.016 8  26251976.535    26251971.094    26251950.219    26251973.945       -1844.627       -1892.746       -2470.293       -1868.690          43.000          44.000          41.000          50.000  
E31  96078903.513 8  98585309.597 8 128662191.255 8  97332129.162 9  24483623.430    24483618.836    24483600.438    24483621.074        1343.627        1378.679        1799.199        1361.153          49.000          50.000          49.000          56.000  
R22 119729868.763 7  93123241.391 7 119729864.771 7  93123237.392 6  22429440.797    22429460.207    22429439.598    22429460.367        1910.547        1486.173        1910.785        1486.175          43.000          42.000          43.000          41.000  
R11 111786394.774 8  86944971.656 7 111786380.785 8  86944967.652 7  20919297.680    20919315.793    20919297.555    20919315.746        3152.633        2452.278        3152.948        2452.271          50.000          47.000          48.000          47.000  
R21 109959803.265 8  85524293.810 8 109959794.282 8  85524290.806 7  20548617.727    20548635.160    20548616.637    20548635.711        -354.781        -275.731        -354.521        -275.731          52.000          48.000          51.000          47.000  
R10 102782431.192 7                 102782414.201 7                  19281721.672                    19281720.418                        -886.965                        -886.475                          47.000                          45.000                  
R09 115463446.992 7  89804920.430 7 115463457.003 7  89804914.428 7  21622598.680    21622612.648    21622597.531    21622612.809       -3753.250       -2918.958       -3752.983       -2918.959          46.000          45.000          44.000          43.000  
R05 129508690.920 6 100729015.689 5 129508589.952 5 100729021.694 5  24227266.109    24227293.293    24227264.312    24227293.215        1632.395        1269.820        1632.510        1269.811          36.000          35.000          34.000          34.000  
C14 101239241.569 6 130924597.111 6  25142701.551    25142691.453        1606.813        2077.949          41.000          37.000  
C13 148934721.794 7 192605343.554 7  36987843.410    36987831.133         868.319        1122.844          44.000          45.000  
C11  94503624.484 7 122213946.734 7  23469916.172    23469904.000       -1272.970       -1646.234          46.000          44.000  
C10 147490057.193 7 190737086.429 7  36629062.090    36629052.562         441.336         570.660          46.000          44.000  
C09 154617877.406 6 199954925.359 6  38399252.027    38399241.812       -1243.600       -1608.340          40.000          38.000  
C08 146895432.628 7 189968132.199 7  36481387.422    36481382.469         866.335        1120.211          46.000          45.000  
C07 146302873.606 7 189201816.012 7  36334225.918    36334219.836         347.501         449.258          47.000          46.000  
C05 154616329.307 6 199952919.257 6  38398867.434    38398856.586          19.118          24.727          41.000          36.000  
C04 156987167.444 6 203018927.475 5  38987663.062    38987651.320          12.736          16.598          39.000          35.000  
C03 145889481.457 7 188667215.368 7  36231560.488    36231555.211          26.462          34.145          46.000          44.000  
C02 148824880.548 7 192463333.332 6  36960564.898    36960559.742          11.701          14.957          45.000          41.000  
C01 151015078.622 7 195295715.547 6  37504498.848    37504488.891          23.982          30.879          42.000          40.000  
S27 203496943.392 6  38724180.688         -10.438          40.000  
S37 193085306.022 7  36742908.484          -4.891          42.000  
> 2023 02 14 10 23 46.0000000  0 33
G30 115456849.534 7  89966448.548 7  89966402.544 7  86217791.667 8  21970708.086    21970727.781    21970728.102    21970731.617       -2496.484       -1945.171       -1945.171       -1864.119          45.000          46.000          46.000          50.000  
G17 114458564.602 7  89188573.019 7  89188574.016 7                  21780740.453    21780760.691    21780760.508                         -78.129         -60.920         -60.921                          46.000          47.000          45.000                  
G19 117803645.502 7  91795139.193 5                                  22417287.500    22417308.988                                        1093.379         851.991                                          43.000          32.000                                  
G07 124232167.421 6  96804344.679 5  96804342.680 6                  23640591.711    23640610.289    23640610.184                       -3458.586       -2695.027       -2695.024                          36.000          30.000          36.000                  
G01 122262187.237 6  95269360.782 3  95269277.777 6  91299711.952 7  23265724.344    23265751.785    23265751.113    23265755.270       -3498.558       -2726.193       -2726.193       -2612.596          38.000          23.000          40.000          45.000  
G14 106982181.751 8  83362809.770 7  83362809.758 8  79889320.525 9  20358032.398    20358049.172    20358049.012    20358056.680         673.250         524.806         524.806         502.936          48.000          43.000          53.000          56.000  
G03 117923527.065 7  91888560.637 6  91888486.628 7  88059788.774 8  22440101.281    22440126.375    22440126.824    22440131.840           9.633           7.632           7.637           7.316          42.000          41.000          45.000          48.000  
G06 112305201.142 7  87510631.603 8  87510633.598 8  83864373.374 8  21370969.922    21370989.609    21370990.105    21370994.215        1925.762        1500.787        1500.787        1438.258          46.000          50.000          48.000          51.000  
R20 117699085.793 6  91543785.762 6 117699028.782 6  91543783.768 6  22010312.352    22010336.180    22010312.707    22010335.523       -2965.695       -2306.622       -2965.623       -2306.624          36.000          37.000          36.000          37.000  
E33  92803791.238 8  95224748.550 8 124276402.965 8  94014379.002 9  23649032.543    23649027.855    23649013.266    23649030.137        -715.942        -734.617        -958.906        -725.280          52.000          53.000          48.000          59.000  
E01  94092894.578 8  96547473.279 8 126002555.479 8  95320183.538 9  23977508.469    23977503.875    23977489.070    23977506.176        -518.453        -531.985        -694.477        -525.222          51.000          52.000          50.000          58.000  
E26 103020219.168 7 105707688.108 7 137957396.199 6 104363962.747 8  26252446.512    26252441.027    26252420.125    26252443.973       -1844.675       -1892.799       -2470.246       -1868.732          43.000          44.000          41.000          50.000  
E31  96077560.097 8  98583931.134 8 128660392.236 8  97330768.222 9  24483281.141    24483276.594    24483258.031    24483278.812        1343.416        1378.463        1798.910        1360.940          49.000          50.000          49.000          56.000  
R22 119727958.480 7  93121755.616 6 119727954.483 7  93121751.617 6  22429082.508    22429102.734    22429082.363    22429102.715        1910.008        1485.775        1910.288        1485.775          43.000          41.000          42.000          41.000  
R11 111783242.407 8  86942519.823 7 111783228.418 8  86942515.819 7  20918707.695    20918725.480    20918707.570    20918725.699        3152.078        2451.832        3152.367        2451.832          51.000          46.000          48.000          47.000  
R21 109960158.278 8  85524569.928 8 109960149.294 8  85524566.931 7  20548684.070    20548701.441    20548683.332    20548702.332        -355.242        -276.118        -355.012        -276.125          52.000          48.000          51.000          47.000  
R10 102783318.589 7                 102783301.579 7                  19281888.641                    19281887.152                        -887.773                        -887.378                          47.000                          45.000                  
R09 115467200.458 7  89807839.789 7 115467210.483 7  89807833.786 7  21623301.219    21623316.055    21623300.070    21623315.605       -3753.656       -2919.359       -3753.480       -2919.358          46.000          45.000          44.000          44.000  
R05 129507058.847 6 100727746.278 5 129506957.836 5 100727752.289 5  24226960.398    24226988.254    24226959.660    24226988.270        1631.953        1269.410        1632.116        1269.405          36.000          34.000          34.000          34.000  
C14 101237634.797 6 130922519.205 6  25142302.465    25142292.352        1606.772        2078.012          41.000          36.000  
C13 148933853.611 7 192604220.798 7  36987627.891    36987615.539         868.183        1122.684          44.000          45.000  
C11  94504897.517 7 122215593.048 7  23470232.375    23470220.062       -1273.033       -1646.258          46.000          43.000  
C10 147489615.872 7 190736515.706 7  36628952.402    36628942.602         441.320         570.793          46.000          44.000  
C09 154619121.036 6 199956533.642 6  38399560.910    38399551.188       -1243.629       -1608.262          40.000          38.000  
C08 146894566.470 7 189967012.066 7  36481172.441    36481167.523         866.158        1120.090          46.000          45.000  
C07 146302526.140 7 189201366.659 7  36334139.758    36334133.516         347.466         449.375          47.000          46.000  
C05 154616310.198 6 199952894.544 6  38398862.742    38398851.297          19.109          24.621          41.000          36.000  
C04 156987154.784 6 203018911.115 5  38987660.055    38987648.469          12.660          16.262          39.000          35.000  
C03 145889455.061 7 188667181.230 7  36231553.766    36231548.578          26.396          34.129          46.000          44.000  
C02 148824868.896 7 192463318.260 6  36960561.949    36960556.812          11.652          15.051          45.000          41.000  
C01 151015054.670 7 195295684.577 6  37504492.848    37504483.469          23.952          31.047          42.000          40.000  
S27 203496953.847 6  38724183.109         -10.445          40.000  
S37 193085310.910 7  36742913.531          -4.902          42.000  
> 2023 02 14 10 23 47.0000000  0 33
G30 115459346.128 7  89968393.943 7  89968347.939 7  86219656.011 8  21971183.031    21971202.645    21971202.840    21971206.535       -2496.734       -1945.395       -1945.395       -1864.344          45.000          46.000          46.000          50.000  
G17 114458642.706 7  89188633.881 7  89188634.878 7                  21780755.336    21780775.262    21780775.219                         -78.012         -60.861         -60.862                          45.000          47.000          45.000                  
G19 117802552.147 7  91794287.227 5                                  22417079.094    22417101.219                                        1093.629         851.966                                          43.000          32.000                                  
G07 124235625.966 6  96807039.647 5  96807037.644 6                  23641249.477    23641268.273    23641268.270                       -3458.254       -2694.969       -2694.965                          36.000          31.000          36.000                  
G01 122265685.911 6  95272087.021 3  95272004.016 6  91302324.598 7  23266390.094    23266417.590    23266417.172    23266420.957       -3498.692       -2726.239       -2726.239       -2612.646          38.000          23.000          40.000          44.000  
G14 106981508.696 8  83362285.316 7  83362285.304 8  79888817.930 9  20357904.203    20357921.043    20357921.039    20357928.555         672.934         524.454         524.454         502.596          48.000          43.000          53.000          56.000  
G03 117923517.891 7  91888553.484 7  91888479.481 7  88059781.916 8  22440099.781    22440123.875    22440124.348    22440129.574           8.992           7.153           7.147           6.858          42.000          42.000          45.000          48.000  
G06 112303275.590 7  87509131.174 8  87509133.169 8  83862935.468 8  21370603.125    21370623.035    21370623.477    21370627.875        1925.414        1500.429        1500.429        1437.906          46.000          50.000          48.000          51.000  
R20 117702051.279 6  91546092.247 6 117701994.366 6  91546090.251 6  22010867.570    22010891.004    22010867.223    22010890.078       -2965.508       -2306.485       -2965.584       -2306.483          37.000          38.000          36.000          38.000  
E33  92804507.380 8  95225483.375 8 124277361.972 8  94015104.485 9  23649214.867    23649210.180    23649195.922    23649212.516        -716.143        -734.825        -959.019        -725.483          52.000          52.000          49.000          59.000  
E01  94093413.296 8  96548005.530 8 126003250.107 8  95320709.020 9  23977640.902    23977636.164    23977621.297    23977638.629        -518.718        -532.251        -694.613        -525.482          51.000          52.000          50.000          58.000  
E26 103022063.845 7 105709580.907 7 137959866.466 6 104365831.485 8  26252916.422    26252911.215    26252890.438    26252914.176       -1844.677       -1892.799       -2470.168       -1868.738          43.000          44.000          41.000          50.000  
E31  96076216.796 8  98582552.797 8 128658593.377 8  97329407.406 9  24482938.891    24482934.203    24482915.586    24482936.582        1343.301        1378.337        1798.836        1360.817          49.000          50.000          49.000          56.000  
R22 119726048.618 7  93120270.171 6 119726044.616 7  93120266.169 6  22428726.844    22428744.898    22428724.469    22428744.883        1909.641        1485.445        1909.867        1485.448          43.000          41.000          43.000          41.000  
R11 111780090.535 8  86940068.386 7 111780076.539 8  86940064.374 7  20918118.797    20918135.613    20918117.730    20918135.922        3151.711        2451.438        3151.879        2451.445          51.000          47.000          48.000          46.000  
R21 109960513.667 8  85524846.336 8 109960504.675 8  85524843.347 7  20548750.648    20548767.668    20548749.324    20548768.441        -355.508        -276.408        -355.381        -276.416          52.000          48.000          51.000          47.000  
R10 102784206.812 7                 102784189.805 7                  19282055.656                    19282053.934                        -888.523                        -888.226                          47.000                          45.000                  
R09 115470954.324 7  89810759.462 7 115470964.334 7  89810753.465 7  21624004.594    21624019.055    21624003.094    21624018.758       -3753.980       -2919.673       -3753.850       -2919.679          46.000          45.000          44.000          43.000  
R05 129505426.995 6 100726477.056 5 129505326.036 5 100726483.059 5  24226655.344    24226682.340    24226654.016    24226682.398        1631.777        1269.222        1631.800        1269.230          37.000          34.000          34.000          33.000  
C14 101236027.981 6 130920441.237 6  25141903.574    25141894.047        1606.816        2077.949          40.000          37.000  
C13 148932985.541 7 192603098.185 7  36987412.203    36987399.758         868.070        1122.684          45.000          45.000  
C11  94506170.497 7 122217239.294 7  23470548.777    23470536.734       -1272.980       -1646.156          46.000          43.000  
C10 147489174.527 7 190735944.947 7  36628842.730    36628832.742         441.346         570.934          46.000          44.000  
C09 154620364.630 6 199958141.886 6  38399869.668    38399859.562       -1243.595       -1608.055          40.000          37.000  
C08 146893700.481 7 189965892.146 7  36480957.281    36480952.430         865.989        1119.984          46.000          44.000  
C07 146302178.629 7 189200917.250 7  36334053.316    36334047.078         347.511         449.535          47.000          46.000  
C05 154616291.112 6 199952869.859 6  38398858.137    38398847.445          19.086          24.684          41.000          37.000  
C04 156987142.117 6 203018894.724 5  38987656.531    38987644.992          12.667          16.508          39.000          35.000  
C03 145889428.650 7 188667147.067 7  36231547.527    36231542.008          26.411          34.270          46.000          44.000  
C02 148824857.209 7 192463303.144 6  36960559.027    36960553.891          11.687          15.281          45.000          41.000  
C01 151015030.742 7 195295653.627 6  37504487.145    37504477.586          23.928          31.012          42.000          40.000  
S27 203496964.354 6  38724184.844         -10.391          40.000  
S37 193085315.753 7  36742915.875          -4.746          42.000  
> 2023 02 14 10 23 48.0000000  0 33
G30 115461843.003 7  89970339.561 7  89970293.557 7  86221520.560 8  21971658.297    21971677.801    21971678.250    21971681.750       -2497.055       -1945.618       -1945.617       -1864.550          45.000          46.000          46.000          50.000  
G17 114458720.794 7  89188694.727 7  89188695.725 7                  21780770.297    21780790.676    21780790.879                         -78.031         -60.847         -60.847                          45.000          47.000          45.000                  
G19 117801458.825 7  91793435.292 5                                  22416871.195    22416892.930                                        1093.254         851.935                                          43.000          33.000                                  
G07 124239084.494 6  96809734.601 5  96809732.598 6                  23641907.727    23641926.656    23641926.742                       -3458.312       -2694.953       -2694.953                          36.000          31.000          36.000                  
G01 122269184.677 6  95274813.331 4  95274730.329 6  91304937.312 7  23267056.219    23267083.688    23267083.320    23267086.938       -3498.641       -2726.310       -2726.313       -2612.714          38.000          24.000          41.000          45.000  
G14 106980836.096 8  83361761.211 7  83361761.207 8  79888315.663 9  20357776.414    20357793.582    20357793.289    20357800.977         672.387         524.105         524.097         502.267          48.000          43.000          53.000          56.000  
G03 117923509.267 7  91888546.765 7  91888472.757 7  88059775.480 8  22440098.125    22440122.246    22440122.445    22440127.828           8.328           6.719           6.724           6.436          42.000          42.000          45.000          48.000  
G06 112301350.526 7  87507631.126 8  87507633.128 8  83861497.923 8  21370236.586    21370256.891    21370257.301    21370261.730        1924.848        1500.048        1500.042        1437.545          46.000          50.000          48.000          51.000  
R20 117705016.822 6  91548398.780 6 117704959.837 5  91548396.784 6  22011422.578    22011445.602    22011422.699    22011444.926       -2965.359       -2306.533       -2965.471       -2306.533          36.000          38.000          35.000          38.000  
E33  92805223.741 8  95226218.423 8 124278321.276 8  94015830.192 9  23649397.445    23649392.758    23649378.438    23649395.133        -716.361        -735.048        -959.402        -725.707          52.000          53.000          49.000          58.000  
E01  94093932.271 8  96548538.042 8 126003945.083 8  95321234.768 9  23977772.953    23977768.312    23977753.586    23977770.723        -518.975        -532.511        -695.125        -525.748          51.000          52.000          50.000          58.000  
E26 103023908.538 7 105711473.723 7 137962336.757 6 104367700.240 8  26253386.648    26253381.254    26253360.461    26253384.168       -1844.693       -1892.816       -2470.289       -1868.755          43.000          44.000          41.000          50.000  
E31  96074873.638 8  98581174.597 8 128656794.700 8  97328046.727 9  24482596.414    24482591.680    24482573.414    24482594.090        1343.158        1378.200        1798.551        1360.679          49.000          50.000          49.000          56.000  
R22 119724139.166 7  93118785.042 6 119724135.192 7  93118781.038 6  22428367.820    22428386.750    22428366.738    22428387.047        1909.227        1485.129        1909.424        1485.131          43.000          41.000          43.000          41.000  
R11 111776939.178 8  86937617.335 7 111776925.182 8  86937613.331 7  20917528.734    20917546.086    20917528.020    20917546.203        3151.141        2451.051        3151.356        2451.043          50.000          47.000          48.000          47.000  
R21 109960869.443 8  85525123.056 8 109960860.459 8  85525120.060 7  20548816.930    20548834.164    20548816.191    20548835.152        -355.926        -276.720        -355.784        -276.713          52.000          48.000          51.000          47.000  
R10 102785095.853 7                 102785078.849 7                  19282223.375                    19282220.832                        -889.531                        -889.045                          47.000                          45.000                  
R09 115474708.614 7  89813679.468 7 115474718.602 7  89813673.470 7  21624707.102    21624722.031    21624705.953    21624721.746       -3754.496       -2920.007       -3754.268       -2920.006          46.000          45.000          44.000          44.000  
R05 129503795.553 6 100725208.153 5 129503694.549 5 100725214.149 5  24226349.891    24226377.184    24226348.918    24226377.074        1631.324        1268.904        1631.486        1268.910          36.000          33.000          34.000          33.000  
C14 101234421.118 6 130918363.205 6  25141504.578    25141494.688        1606.863        2078.070          41.000          36.000  
C13 148932117.572 7 192601975.708 7  36987196.488    36987184.500         867.969        1122.441          45.000          45.000  
C11  94507443.481 7 122218885.538 7  23470864.871    23470852.539       -1272.984       -1646.273          46.000          44.000  
C10 147488733.129 7 190735374.121 7  36628733.246    36628723.156         441.398         570.883          46.000          44.000  
C09 154621608.172 6 199959750.057 6  38400178.793    38400168.234       -1243.542       -1608.082          40.000          37.000  
C08 146892834.595 7 189964772.361 7  36480742.141    36480737.477         865.886        1119.746          46.000          44.000  
C07 146301831.114 7 189200467.831 7  36333966.680    36333960.625         347.515         449.527          47.000          46.000  
C05 154616271.986 6 199952845.123 6  38398853.555    38398842.531          19.126          24.602          40.000          36.000  
C04 156987129.423 6 203018878.304 6  38987653.465    38987642.109          12.694          16.402          39.000          36.000  
C03 145889402.230 7 188667112.898 7  36231540.887    36231535.492          26.420          34.230          46.000          44.000  
C02 148824845.540 7 192463288.053 6  36960556.152    36960551.133          11.669          15.152          45.000          41.000  
C01 151015006.786 7 195295622.647 6  37504481.074    37504471.781          23.956          31.086          42.000          40.000  
S27 203496974.789 6  38724186.688         -10.473          40.000  
S37 193085320.609 7  36742916.312          -4.793          42.000  
> 2023 02 14 10 23 49.0000000  0 33
G30 115464340.243 7  89972285.463 7  89972239.459 7  86223385.379 8  21972133.695    21972153.242    21972153.480    21972157.020       -2497.516       -1945.901       -1945.902       -1864.819          45.000          46.000          46.000          50.000  
G17 114458798.860 7  89188755.565 7  89188756.560 7                  21780785.023    21780805.047    21780805.293                         -78.059         -60.837         -60.835                          45.000          47.000          45.000                  
G19 117800365.561 7  91792583.408 5                                  22416663.305    22416685.098                                        1093.172         851.885                                          43.000          32.000                                  
G07 124242543.005 6  96812429.538 5  96812427.534 6                  23642566.359    23642584.848    23642584.859                       -3458.586       -2694.937       -2694.936                          37.000          31.000          36.000                  
G01 122272683.573 6  95277539.733 4  95277456.743 6  91307550.125 7  23267721.617    23267749.262    23267749.055    23267752.574       -3498.992       -2726.403       -2726.415       -2612.813          38.000          24.000          40.000          44.000  
G14 106980163.960 8  83361237.473 7  83361237.469 8  79887813.749 9  20357648.516    20357665.336    20357665.410    20357672.965         671.801         523.738         523.738         501.914          48.000          43.000          53.000          56.000  
G03 117923501.288 7  91888540.551 7  91888466.541 7  88059769.522 8  22440096.547    22440120.812    22440121.109    22440126.453           7.711           6.213           6.216           5.958          42.000          42.000          45.000          48.000  
G06 112299425.961 7  87506131.471 8  87506133.466 8  83860060.750 8  21369870.102    21369890.207    21369890.680    21369895.047        1924.285        1499.655        1499.661        1437.173          46.000          50.000          48.000          51.000  
R20 117707982.337 6  91550705.289 6 117707925.374 5  91550703.293 6  22011976.023    22011999.250    22011976.496    22011998.859       -2965.473       -2306.508       -2965.537       -2306.508          36.000          38.000          35.000          38.000  
E33  92805940.332 8  95226953.709 8 124279280.884 8  94016556.132 9  23649580.137    23649575.449    23649561.055    23649577.816        -716.591        -735.285        -959.781        -725.940          51.000          52.000          49.000          58.000  
E01  94094451.522 8  96549070.835 8 126004640.421 8  95321760.787 9  23977905.328    23977900.641    23977885.938    23977903.078        -519.251        -532.793        -695.543        -526.019          51.000          52.000          50.000          58.000  
E26 103025753.237 7 105713366.549 7 137964807.058 6 104369569.004 8  26253856.676    26253851.332    26253830.531    26253854.195       -1844.698       -1892.826       -2470.309       -1868.764          43.000          44.000          41.000          50.000  
E31  96073530.629 8  98579796.548 8 128654996.226 8  97326686.199 9  24482254.168    24482249.434    24482231.125    24482251.816        1343.009        1378.049        1798.395        1360.528          49.000          50.000          49.000          56.000  
R22 119722230.169 7  93117300.271 6 119722226.185 7  93117296.259 6  22428010.430    22428029.012    22428009.230    22428029.801        1908.719        1484.772        1909.007        1484.779          44.000          41.000          43.000          41.000  
R11 111773788.367 8  86935166.709 7 111773774.377 8  86935162.706 7  20916938.859    20916956.613    20916938.500    20916956.531        3150.480        2450.625        3150.805        2450.625          50.000          46.000          48.000          46.000  
R21 109961225.675 8  85525400.128 8 109961216.676 8  85525397.132 7  20548883.273    20548900.879    20548882.887    20548901.801        -356.504        -277.071        -356.216        -277.071          52.000          48.000          51.000          47.000  
R10 102785985.762 7                 102785968.771 7                  19282389.727                    19282388.121                        -890.305                        -889.921                          47.000                          45.000                  
R09 115478463.301 7  89816599.780 7 115478473.310 7  89816593.777 7  21625410.195    21625424.688    21625408.930    21625424.578       -3754.976       -2920.312       -3754.708       -2920.307          46.000          45.000          44.000          44.000  
R05 129502164.406 6 100723939.472 5 129502063.403 5 100723945.468 5  24226044.141    24226071.555    24226043.168    24226071.547        1631.012        1268.681        1631.146        1268.681          36.000          33.000          34.000          33.000  
C14 101232814.221 6 130916285.131 6  25141105.562    25141095.016        1606.897        2077.988          41.000          37.000  
C13 148931249.767 7 192600853.442 7  36986981.270    36986968.445         867.805        1122.180          44.000          45.000  
C11  94508716.443 7 122220531.761 7  23471180.668    23471168.672       -1272.963       -1646.305          46.000          44.000  
C10 147488291.714 7 190734803.278 7  36628623.191    36628613.703         441.415         570.781          46.000          44.000  
C09 154622851.725 6 199961358.245 6  38400487.617    38400477.367       -1243.553       -1608.066          40.000          37.000  
C08 146891968.877 7 189963652.792 7  36480527.395    36480522.562         865.718        1119.465          46.000          45.000  
C07 146301483.576 7 189200018.389 7  36333880.668    36333874.641         347.538         449.449          47.000          46.000  
C05 154616252.902 6 199952820.446 6  38398848.539    38398837.891          19.084          24.633          41.000          37.000  
C04 156987116.790 6 203018861.964 5  38987650.324    38987638.727          12.632          16.262          39.000          35.000  
C03 145889375.817 7 188667078.739 7  36231534.285    36231528.969          26.412          34.094          46.000          44.000  
C02 148824833.879 7 192463272.968 6  36960553.293    36960548.508          11.661          15.129          45.000          41.000  
C01 151014982.846 7 195295591.682 6  37504475.242    37504465.359          23.940          30.969          42.000          40.000  
S27 203496985.142 6  38724187.969         -10.395          40.000  
S37 193085325.482 7  36742909.875          -4.910          42.000  
> 2023 02 14 10 23 50.0000000  0 33
G30 115466837.802 7  89974231.616 7  89974185.611 7  86225250.438 8  21972609.078    21972628.277    21972628.938    21972632.289       -2497.848       -1946.153       -1946.152       -1865.059          45.000          46.000          46.000          50.000  
G17 114458876.985 7  89188816.444 7  89188817.441 7                  21780800.391    21780819.953    21780820.156                         -78.156         -60.879         -60.881                          45.000          47.000          45.000                  
G19 117799272.457 7  91791731.653 5                                  22416455.125    22416476.938                                        1092.965         851.754                                          43.000          33.000                                  
G07 124246001.565 6  96815124.521 5  96815122.521 6                  23643224.016    23643242.703    23643242.367                       -3458.875       -2694.983       -2694.987                          37.000          31.000          37.000                  
G01 122276182.601 6  95280266.244 3  95280183.254 6  91310163.037 7  23268387.539    23268415.047    23268414.504    23268418.355       -3499.184       -2726.510       -2726.510       -2612.911          38.000          22.000          40.000          44.000  
G14 106979492.351 8  83360714.140 7  83360714.135 8  79887312.223 9  20357520.625    20357537.301    20357537.453    20357545.047         671.367         523.333         523.334         501.526          48.000          44.000          53.000          56.000  
G03 117923493.959 7  91888534.841 7  91888460.831 7  88059764.049 8  22440095.023    22440119.246    22440119.547    22440124.711           6.996           5.710           5.710           5.472          42.000          42.000          45.000          48.000  
G06 112297501.932 7  87504632.224 8  87504634.227 8  83858623.977 8  21369503.883    21369524.359    21369524.793    21369529.199        1923.664        1499.247        1499.239        1436.773          46.000          50.000          48.000          51.000  
R20 117710947.840 6  91553011.792 6 117710890.876 5  91553009.796 6  22012530.031    22012553.957    22012531.094    22012553.324       -2965.508       -2306.503       -2965.502       -2306.503          36.000          37.000          35.000          37.000  
E33  92806657.180 8  95227689.258 8 124280240.838 8  94017282.329 9  23649762.723    23649757.984    23649743.656    23649760.363        -716.847        -735.549        -960.203        -726.197          51.000          52.000          49.000          59.000  
E01  94094971.082 8  96549603.947 8 126005336.175 8  95322287.122 9  23978037.680    23978032.852    23978018.281    23978035.379        -519.559        -533.112        -696.023        -526.335          51.000          51.000          50.000          58.000  
E26 103027598.053 7 105715259.487 7 137967277.505 7 104371437.881 8  26254326.766    26254321.559    26254300.508    26254324.391       -1844.816       -1892.938       -2470.586       -1868.877          43.000          44.000          42.000          50.000  
E31  96072187.820 8  98578418.706 8 128653198.019 8  97325325.874 9  24481912.141    24481907.453    24481888.867    24481909.844        1342.808        1377.841        1798.066        1360.325          49.000          50.000          50.000          56.000  
R22 119720321.680 7  93115815.890 6 119720317.689 7  93115811.886 6  22427653.312    22427671.348    22427651.406    22427671.816        1908.285        1484.380        1908.496        1484.372          44.000          41.000          43.000          40.000  
R11 111770638.141 8  86932716.541 7 111770624.137 8  86932712.538 7  20916349.703    20916367.316    20916348.871    20916366.984        3149.910        2450.169        3150.240        2450.169          50.000          47.000          48.000          47.000  
R21 109961582.382 8  85525677.567 8 109961573.383 8  85525674.570 8  20548950.570    20548967.672    20548949.246    20548968.305        -357.016        -277.440        -356.707        -277.439          52.000          48.000          51.000          48.000  
R10 102786876.584 7                 102786859.576 7                  19282556.102                    19282555.316                        -891.352                        -890.805                          47.000                          45.000                  
R09 115482218.469 7  89819520.461 7 115482228.465 7  89819514.464 7  21626113.094    21626128.531    21626112.648    21626128.289       -3755.574       -2920.681       -3755.155       -2920.687          46.000          45.000          44.000          44.000  
R05 129500533.747 6 100722671.173 5 129500432.751 5 100722677.162 5  24225739.609    24225767.297    24225738.637    24225767.191        1630.371        1268.298        1630.652        1268.306          36.000          32.000          35.000          34.000  
C14 101231207.340 6 130914207.069 6  25140706.223    25140696.523        1606.881        2077.902          40.000          36.000  
C13 148930382.102 7 192599731.355 7  36986765.543    36986753.469         867.665        1121.949          44.000          45.000  
C11  94509989.427 7 122222178.008 7  23471497.086    23471484.672       -1272.984       -1646.379          46.000          44.000  
C10 147487850.320 7 190734232.454 7  36628513.961    36628504.172         441.394         570.730          46.000          44.000  
C09 154624095.286 6 199962966.439 6  38400796.215    38400786.023       -1243.561       -1608.344          40.000          37.000  
C08 146891103.317 7 189962533.424 7  36480312.812    36480307.555         865.560        1119.148          46.000          44.000  
C07 146301136.089 7 189199569.001 7  36333794.258    36333787.883         347.487         449.309          47.000          46.000  
C05 154616233.849 6 199952795.805 6  38398843.969    38398833.039          19.052          24.391          41.000          36.000  
C04 156987104.154 6 203018845.618 5  38987647.418    38987636.359          12.636          16.086          39.000          35.000  
C03 145889349.461 7 188667044.651 7  36231527.496    36231521.984          26.356          33.992          46.000          44.000  
C02 148824822.271 7 192463257.955 6  36960550.441    36960545.430          11.608          14.977          45.000          41.000  
C01 151014958.968 7 195295560.793 6  37504469.266    37504459.453          23.879          30.652          43.000          40.000  
S27 203496995.557 6  38724190.984         -10.500          40.000  
S37 193085330.415 7  36742915.719          -5.051          42.000  
> 2023 02 14 10 23 51.0000000  0 33
G30 115469335.848 7  89976178.140 7  89976132.136 7  86227115.859 8  21973084.477    21973103.742    21973104.328    21973107.578       -2498.207       -1946.524       -1946.525       -1865.420          45.000          46.000          46.000          50.000  
G17 114458955.208 7  89188877.401 7  89188878.396 7                  21780814.852    21780834.996    21780835.105                         -78.270         -60.957         -60.955                          45.000          47.000          45.000                  
G19 117798179.519 7  91790880.013 5                                  22416247.055    22416268.898                                        1092.953         851.640                                          43.000          32.000                                  
G07 124249460.244 6  96817819.595 5  96817817.599 6                  23643882.656    23643900.941    23643900.719                       -3458.637       -2695.073       -2695.078                          37.000          31.000          36.000                  
G01 122279681.857 6  95282992.932 3  95282909.941 6  91312776.111 7  23269053.125    23269080.980    23269080.488    23269084.289       -3499.402       -2726.688       -2726.688       -2613.074          38.000          23.000          40.000          44.000  
G14 106978821.345 8  83360191.285 7  83360191.274 8  79886811.150 9  20357392.758    20357409.926    20357409.777    20357417.551         670.777         522.856         522.861         501.073          48.000          44.000          53.000          56.000  
G03 117923487.368 6  91888529.703 7  91888455.699 7  88059759.131 8  22440093.875    22440118.020    22440118.184    22440123.602           6.371           5.138           5.131           4.918          41.000          42.000          44.000          48.000  
G06 112295578.531 7  87503133.475 8  87503135.470 8  83857187.675 8  21369138.625    21369158.438    21369158.898    21369163.332        1923.129        1498.749        1498.757        1436.302          46.000          50.000          48.000          51.000  
R20 117713913.478 6  91555318.402 6 117713856.511 5  91555316.399 6  22013085.680    22013108.934    22013085.801    22013108.320       -2965.754       -2306.610       -2965.635       -2306.603          36.000          38.000          35.000          37.000  
E33  92807374.377 8  95228425.163 8 124281201.259 8  94018008.882 9  23649945.566    23649940.832    23649926.414    23649943.219        -717.197        -735.906        -960.695        -726.553          52.000          52.000          49.000          59.000  
E01  94095491.011 8  96550137.440 8 126006032.427 8  95322813.835 9  23978170.156    23978165.375    23978150.836    23978167.863        -519.929        -533.493        -696.516        -526.713          51.000          51.000          50.000          58.000  
E26 103029442.921 7 105717152.487 7 137969748.034 7 104373306.812 8  26254797.012    26254791.805    26254770.812    26254794.668       -1844.869       -1893.000       -2470.648       -1868.930          43.000          44.000          42.000          50.000  
E31  96070845.261 8  98577041.126 8 128651400.147 8  97323965.803 9  24481569.895    24481565.254    24481546.969    24481567.602        1342.560        1377.580        1797.664        1360.071          49.000          50.000          49.000          56.000  
R22 119718413.789 7  93114331.979 6 119718409.810 7  93114327.975 6  22427295.211    22427314.711    22427294.480    22427314.758        1907.695        1483.912        1907.880        1483.912          44.000          41.000          43.000          41.000  
R11 111767488.572 8  86930266.882 7 111767474.583 8  86930262.879 7  20915760.281    20915777.871    20915759.332    20915777.578        3149.227        2449.658        3149.554        2449.658          50.000          47.000          48.000          46.000  
R21 109961939.612 8  85525955.412 8 109961930.621 8  85525952.415 8  20549017.055    20549034.605    20549016.199    20549035.016        -357.547        -277.844        -357.238        -277.844          52.000          48.000          50.000          48.000  
R10 102787768.395 7                 102787751.390 7                  19282723.023                    19282721.887                        -892.281                        -891.814                          47.000                          45.000                  
R09 115485974.212 7  89822441.597 7 115485984.210 7  89822435.595 7  21626816.602    21626831.027    21626815.805    21626831.246       -3755.984       -2921.136       -3755.745       -2921.131          46.000          45.000          44.000          44.000  
R05 129498903.576 6 100721403.243 5 129498802.570 5 100721409.239 5  24225433.937    24225462.664    24225434.488    24225462.379        1629.875        1267.931        1630.181        1267.923          36.000          34.000          35.000          33.000  
C14 101229600.535 6 130912129.116 6  25140307.371    25140296.859        1606.805        2077.785          40.000          36.000  
C13 148929514.662 7 192598609.559 7  36986550.215    36986537.859         867.440        1121.711          44.000          45.000  
C11  94511262.530 7 122223824.413 7  23471813.426    23471801.250       -1273.103       -1646.512          46.000          44.000  
C10 147487409.016 7 190733661.747 7  36628404.121    36628394.438         441.304         570.680          46.000          44.000  
C09 154625338.952 6 199964574.778 6  38401105.383    38401096.016       -1243.666       -1608.434          40.000          38.000  
C08 146890238.028 7 189961414.412 7  36480097.203    36480092.547         865.290        1118.824          46.000          45.000  
C07 146300788.682 7 189199119.729 7  36333708.285    36333701.992         347.407         449.246          47.000          46.000  
C05 154616214.897 6 199952771.294 6  38398839.078    38398827.992          18.952          24.508          41.000          36.000  
C04 156987091.651 6 203018829.439 5  38987644.223    38987632.609          12.503          16.062          40.000          35.000  
C03 145889323.206 7 188667010.697 7  36231521.348    36231515.852          26.255          33.918          46.000          44.000  
C02 148824810.768 7 192463243.076 6  36960547.488    36960542.625          11.502          14.754          45.000          41.000  
C01 151014935.184 7 195295530.034 6  37504463.383    37504453.688          23.784          30.707          42.000          40.000  
S27 203497006.144 6  38724192.422         -10.668          40.000  
S37 193085335.487 7  36742913.500          -5.184          42.000  
> 2023 02 14 10 23 52.0000000  0 33
G30 115471834.193 7  89978124.901 7  89978078.897 7  86228981.506 8  21973559.484    21973578.785    21973579.270    21973582.738       -2498.512       -1946.761       -1946.761       -1865.647          45.000          46.000          46.000          50.000  
G17 114459033.418 7  89188938.346 7  89188939.343 7                  21780829.172    21780849.379    21780849.672                         -78.270         -60.945         -60.947                          45.000          47.000          45.000                  
G19 117797086.652 7  91790028.441 5                                  22416039.336    22416061.234                                        1092.836         851.572                                          43.000          33.000                                  
G07 124252918.914 6  96820514.665 5  96820512.662 6                  23644539.922    23644559.402    23644559.199                       -3458.777       -2695.071       -2695.063                          37.000          30.000          36.000                  
G01 122283181.163 6  95285719.671 3  95285636.673 6  91315389.223 7  23269719.406    23269746.637    23269746.359    23269750.121       -3499.371       -2726.740       -2726.732       -2613.113          37.000          23.000          40.000          45.000  
G14 106978150.788 8  83359668.777 7  83359668.765 8  79886310.410 9  20357265.148    20357282.340    20357282.336    20357289.910         670.250         522.508         522.509         500.739          48.000          43.000          53.000          56.000  
G03 117923481.367 7  91888525.027 7  91888451.024 7  88059754.639 8  22440092.805    22440116.891    22440117.156    22440122.473           5.723           4.676           4.675           4.492          42.000          42.000          45.000          48.000  
G06 112293655.606 7  87501635.098 8  87501637.094 8  83855751.725 8  21368772.727    21368792.902    21368793.285    21368797.625        1922.711        1498.376        1498.376        1435.951          46.000          50.000          48.000          51.000  
R20 117716878.995 6  91557624.909 6 117716822.031 5  91557622.911 6  22013639.641    22013663.688    22013640.586    22013662.836       -2965.477       -2306.508       -2965.520       -2306.512          36.000          37.000          35.000          38.000  
E33  92808091.756 8  95229161.261 8 124282161.924 8  94018735.618 9  23650128.395    23650123.703    23650109.250    23650126.031        -717.379        -736.098        -960.922        -726.736          51.000          52.000          49.000          59.000  
E01  94096011.197 8  96550671.198 8 126006729.024 8  95323340.806 9  23978302.898    23978298.211    23978283.266    23978300.578        -520.187        -533.758        -696.812        -526.971          51.000          52.000          50.000          58.000  
E26 103031287.836 7 105719045.533 7 137972218.622 7 104375175.796 8  26255267.074    26255261.918    26255241.008    26255264.633       -1844.915       -1893.046       -2470.512       -1868.984          43.000          44.000          42.000          50.000  
E31  96069502.811 8  98575663.651 8 128649602.420 8  97322605.840 9  24481227.902    24481223.262    24481204.594    24481225.566        1342.450        1377.475        1797.523        1359.963          49.000          50.000          49.000          56.000  
R22 119716506.330 7  93112848.403 6 119716502.344 7  93112844.399 6  22426936.930    22426957.016    22426936.551    22426957.039        1907.125        1483.575        1907.466        1483.575          44.000          41.000          43.000          41.000  
R11 111764339.498 8  86927817.607 7 111764325.515 8  86927813.604 7  20915170.719    20915188.535    20915170.359    20915188.395        3148.730        2449.275        3149.067        2449.276          50.000          46.000          49.000          46.000  
R21 109962297.178 8  85526233.520 8 109962288.187 8  85526230.523 8  20549083.313    20549101.488    20549083.043    20549101.969        -357.836        -278.109        -357.567        -278.109          52.000          49.000          50.000          48.000  
R10 102788661.033 7                 102788644.019 7                  19282890.477                    19282889.691                        -893.125                        -892.629                          47.000                          45.000                  
R09 115489730.329 7  89825363.023 7 115489740.334 7  89825357.019 7  21627520.039    21627534.215    21627518.656    21627534.438       -3756.367       -2921.426       -3756.124       -2921.424          46.000          45.000          45.000          44.000  
R05 129497273.711 6 100720135.553 5 129497172.734 5 100720141.557 5  24225128.211    24225157.727    24225129.582    24225157.234        1629.613        1267.690        1629.836        1267.682          37.000          33.000          35.000          33.000  
C14 101227993.669 6 130910051.082 6  25139908.082    25139897.984        1606.866        2078.051          40.000          36.000  
C13 148928647.309 7 192597487.877 7  36986334.707    36986322.602         867.352        1121.535          44.000          45.000  
C11  94512535.582 7 122225470.757 7  23472129.473    23472116.961       -1273.052       -1646.445          46.000          44.000  
C10 147486967.625 7 190733090.923 7  36628294.414    36628284.539         441.391         570.734          45.000          44.000  
C09 154626582.556 6 199966183.032 6  38401414.387    38401404.016       -1243.604       -1608.316          40.000          37.000  
C08 146889372.831 7 189960295.519 7  36479882.480    36479877.641         865.196        1118.801          46.000          45.000  
C07 146300441.263 7 189198670.437 7  36333621.797    36333616.016         347.418         449.141          47.000          46.000  
C05 154616195.928 6 199952746.765 6  38398834.613    38398823.648          18.968          24.473          41.000          36.000  
C04 156987079.138 6 203018813.250 5  38987641.020    38987629.352          12.513          16.020          40.000          35.000  
C03 145889296.949 7 188666976.747 7  36231514.844    36231509.406          26.257          33.883          46.000          44.000  
C02 148824799.239 7 192463228.168 6  36960544.711    36960539.617          11.529          14.789          45.000          41.000  
C01 151014911.372 7 195295499.245 6  37504457.676    37504447.883          23.812          30.695          42.000          40.000  
S27 203497016.751 6  38724194.828         -10.723          40.000  
S37 193085340.552 7  36742916.734          -5.172          42.000  
> 2023 02 14 10 23 53.0000000  0 33
G30 115474332.849 7  89980071.911 7  89980025.901 7  86230847.389 8  21974035.148    21974054.781    21974055.242    21974058.730       -2498.770       -1947.010       -1947.004       -1865.883          45.000          46.000          46.000          50.000  
G17 114459111.607 7  89188999.276 7  89189000.272 7                  21780844.477    21780864.430    21780864.434                         -78.047         -60.930         -60.929                          46.000          47.000          45.000                  
G19 117795993.848 7  91789176.916 5                                  22415831.297    22415853.254                                        1092.852         851.525                                          43.000          33.000                                  
G07 124256377.536 6  96823209.690 5  96823207.691 6                  23645197.516    23645217.219    23645217.102                       -3458.672       -2695.025       -2695.029                          36.000          30.000          36.000                  
G01 122286680.621 6  95288446.515 3  95288363.525 6  91318002.454 7  23270385.070    23270412.512    23270412.660    23270415.941       -3499.453       -2726.844       -2726.851       -2613.231          38.000          23.000          41.000          45.000  
G14 106977480.696 8  83359146.632 7  83359146.622 8  79885810.023 9  20357137.500    20357154.441    20357154.641    20357162.242         669.910         522.144         522.143         500.387          48.000          43.000          53.000          56.000  
G03 117923475.963 7  91888520.817 6  91888446.806 7  88059750.608 8  22440091.484    22440115.934    22440116.074    22440121.516           5.246           4.210           4.218           4.031          42.000          41.000          45.000          48.000  
G06 112291733.205 7  87500137.128 8  87500139.123 8  83854316.175 8  21368406.742    21368426.988    21368427.512    21368431.766        1922.266        1497.971        1497.971        1435.549          46.000          50.000          48.000          52.000  
R20 117719844.552 6  91559931.444 6 117719787.516 6  91559929.447 6  22014195.273    22014217.828    22014194.457    22014217.316       -2965.648       -2306.534       -2965.486       -2306.535          37.000          38.000          36.000          38.000  
E33  92808809.370 8  95229897.589 8 124283122.901 8  94019462.592 9  23650311.008    23650306.504    23650292.094    23650308.762        -717.614        -736.328        -961.066        -726.974          51.000          52.000          49.000          59.000  
E01  94096531.661 8  96551205.234 8 126007425.987 8  95323868.056 9  23978435.328    23978430.590    23978415.992    23978433.012        -520.464        -534.037        -697.074        -527.250          51.000          52.000          50.000          58.000  
E26 103033132.779 7 105720938.596 7 137974689.239 7 104377044.799 8  26255737.141    26255731.844    26255710.914    26255734.723       -1844.942       -1893.063       -2470.625       -1869.003          43.000          44.000          42.000          50.000  
E31  96068160.523 8  98574286.350 8 128647804.914 8  97321246.046 9  24480885.840    24480881.148    24480862.680    24480883.426        1342.288        1377.301        1797.512        1359.794          49.000          50.000          49.000          56.000  
R22 119714599.299 7  93111365.153 6 119714595.312 7  93111361.157 6  22426580.203    22426599.250    22426579.121    22426599.578        1906.887        1483.251        1907.032        1483.243          44.000          41.000          43.000          41.000  
R11 111761190.945 8  86925368.747 7 111761176.957 8  86925364.743 7  20914582.484    20914599.066    20914581.066    20914599.320        3148.352        2448.860        3148.558        2448.860          51.000          47.000          49.000          46.000  
R21 109962655.172 8  85526511.962 8 109962646.173 8  85526508.965 8  20549150.641    20549168.629    20549150.605    20549169.457        -358.164        -278.442        -357.986        -278.442          52.000          48.000          51.000          48.000  
R10 102789554.514 7                 102789537.512 7                  19283058.227                    19283056.855                        -893.879                        -893.493                          47.000                          45.000                  
R09 115493486.888 7  89828284.788 7 115493496.885 7  89828278.791 7  21628223.055    21628238.426    21628223.078    21628238.516       -3756.688       -2921.765       -3756.551       -2921.771          46.000          45.000          45.000          44.000  
R05 129495644.237 6 100718868.172 5 129495543.219 6 100718874.171 5  24224824.617    24224852.969    24224825.285    24224852.387        1629.336        1267.381        1629.515        1267.386          36.000          33.000          36.000          34.000  
C14 101226386.766 6 130907973.006 6  25139508.984    25139498.547        1606.903        2077.988          40.000          36.000  
C13 148927780.084 7 192596366.366 7  36986119.426    36986107.008         867.225        1121.469          44.000          45.000  
C11  94513808.645 7 122227117.103 7  23472445.562    23472433.242       -1273.062       -1646.242          46.000          44.000  
C10 147486526.223 7 190732520.092 7  36628184.691    36628175.211         441.402         570.980          45.000          44.000  
C09 154627826.144 6 199967791.268 6  38401723.227    38401712.828       -1243.589       -1608.020          40.000          37.000  
C08 146888507.760 7 189959176.794 7  36479667.531    36479662.773         865.071        1118.773          46.000          44.000  
C07 146300093.818 7 189198221.112 7  36333535.547    36333529.438         347.445         449.367          47.000          46.000  
C05 154616177.009 6 199952722.295 6  38398829.570    38398818.805          18.919          24.316          41.000          36.000  
C04 156987066.638 6 203018797.083 6  38987637.895    38987626.508          12.499          16.277          40.000          36.000  
C03 145889270.698 7 188666942.794 7  36231508.359    36231502.836          26.250          33.988          46.000          44.000  
C02 148824787.712 7 192463213.260 6  36960542.137    36960537.000          11.528          14.949          45.000          41.000  
C01 151014887.581 7 195295468.473 6  37504451.434    37504441.805          23.791          30.832          42.000          40.000  
S27 203497027.340 6  38724197.859         -10.516          40.000  
S37 193085345.609 7  36742925.000          -5.004          42.000  
> 2023 02 14 10 23 54.0000000  0 33
G30 115476831.866 7  89982019.193 7  89981973.187 7  86232713.539 8  21974510.766    21974529.992    21974530.254    21974533.828       -2499.168       -1947.282       -1947.286       -1866.150          45.000          46.000          45.000          50.000  
G17 114459189.816 7  89189060.215 7  89189061.218 7                  21780858.867    21780879.523    21780879.398                         -78.289         -60.939         -60.946                          46.000          47.000          45.000                  
G19 117794901.155 7  91788325.474 5                                  22415623.148    22415645.105                                        1092.535         851.442                                          43.000          34.000                                  
G07 124259836.204 6  96825904.757 5  96825902.753 6                  23645856.508    23645875.645    23645875.238                       -3458.808       -2695.067       -2695.062                          36.000          30.000          36.000                  
G01 122290180.196 6  95291173.462 3  95291090.461 6  91320615.776 7  23271051.766    23271078.609    23271078.469    23271082.094       -3499.859       -2726.947       -2726.936       -2613.322          38.000          23.000          41.000          45.000  
G14 106976811.104 8  83358624.877 7  83358624.865 8  79885310.008 9  20357010.391    20357026.891    20357027.035    20357034.637         669.277         521.756         521.757         500.015          48.000          43.000          53.000          56.000  
G03 117923471.221 7  91888517.115 6  91888443.111 7  88059747.064 8  22440090.367    22440114.953    22440115.230    22440120.770           4.309           3.703           3.696           3.545          42.000          41.000          45.000          48.000  
G06 112289811.319 7  87498639.561 8  87498641.555 7  83852881.001 8  21368041.375    21368061.418    21368061.695    21368065.902        1921.516        1497.567        1497.568        1435.174          46.000          50.000          47.000          51.000  
R20 117722810.066 6  91562237.955 6 117722753.043 5  91562235.959 6  22014750.602    22014772.227    22014749.434    22014771.832       -2965.652       -2306.511       -2965.526       -2306.512          37.000          37.000          35.000          37.000  
E33  92809527.233 8  95230634.181 8 124284084.217 8  94020189.816 9  23650494.043    23650489.309    23650474.930    23650491.695        -717.864        -736.592        -961.570        -727.224          51.000          52.000          49.000          59.000  
E01  94097052.431 8  96551739.589 8 126008123.363 8  95324395.620 9  23978568.062    23978563.516    23978548.734    23978565.863        -520.770        -534.355        -697.621        -527.564          51.000          52.000          50.000          58.000  
E26 103034977.764 7 105722831.711 7 137977159.915 7 104378913.846 8  26256207.492    26256202.238    26256181.141    26256205.102       -1844.986       -1893.115       -2470.766       -1869.047          43.000          44.000          42.000          50.000  
E31  96066818.428 8  98572909.244 8 128646007.663 8  97319886.445 9  24480543.605    24480538.914    24480520.773    24480541.355        1342.095        1377.106        1797.074        1359.600          48.000          50.000          49.000          56.000  
R22 119712692.748 7  93109882.279 6 119712688.761 7  93109878.284 6  22426223.594    22426242.422    22426222.273    22426242.922        1906.379        1482.874        1906.551        1482.873          45.000          41.000          43.000          41.000  
R11 111758042.991 8  86922920.341 7 111758028.987 8  86922916.339 7  20913992.297    20914010.066    20913992.172    20914010.086        3147.633        2448.406        3147.970        2448.405          51.000          47.000          49.000          47.000  
R21 109963013.657 8  85526790.784 8 109963004.681 8  85526787.788 8  20549217.328    20549234.703    20549216.355    20549235.227        -358.812        -278.822        -358.508        -278.823          52.000          48.000          50.000          48.000  
R10 102790448.901 7                 102790431.909 7                  19283226.805                    19283225.199                        -894.891                        -894.396                          47.000                          45.000                  
R09 115497243.919 7  89831206.925 7 115497253.923 7  89831200.922 7  21628927.664    21628941.625    21628925.930    21628941.430       -3757.320       -2922.137       -3757.037       -2922.132          46.000          45.000          45.000          44.000  
R05 129494015.161 6 100717601.100 5 129493914.155 5 100717607.091 5  24224519.805    24224548.273    24224519.887    24224547.715        1628.852        1267.072        1629.064        1267.080          36.000          34.000          35.000          34.000  
C14 101224779.877 6 130905894.943 6  25139110.023    25139099.992        1606.889        2078.121          40.000          37.000  
C13 148926913.009 7 192595245.043 7  36985904.062    36985891.633         867.075        1121.250          44.000          45.000  
C11  94515081.734 7 122228763.489 7  23472761.594    23472749.367       -1273.089       -1646.461          46.000          44.000  
C10 147486084.842 7 190731949.286 7  36628075.508    36628065.547         441.381         570.723          46.000          44.000  
C09 154629069.777 6 199969399.563 6  38402031.969    38402021.602       -1243.633       -1608.320          40.000          37.000  
C08 146887642.884 7 189958058.324 7  36479452.668    36479447.758         864.877        1118.273          47.000          45.000  
C07 146299746.401 7 189197771.816 7  36333449.211    36333443.016         347.417         449.113          47.000          46.000  
C05 154616158.077 6 199952697.807 6  38398824.828    38398814.133          18.932          24.406          41.000          36.000  
C04 156987054.187 6 203018780.980 6  38987635.066    38987623.820          12.452          15.840          40.000          36.000  
C03 145889244.475 7 188666908.883 7  36231501.801    36231496.281          26.223          33.828          46.000          44.000  
C02 148824776.222 7 192463198.403 6  36960539.039    36960534.211          11.490          14.859          45.000          41.000  
C01 151014863.822 7 195295437.741 6  37504446.027    37504436.188          23.759          30.641          43.000          40.000  
S27 203497038.054 6  38724199.719         -10.785          40.000  
S37 193085350.710 7  36742918.422          -5.141          42.000  
> 2023 02 14 10 23 55.0000000  0 33
G30 115479331.214 7  89983966.742 7  89983920.733 7  86234579.933 8  21974986.508    21975005.375    21975005.656    21975009.211       -2499.504       -1947.549       -1947.545       -1866.394          45.000          46.000          45.000          50.000  
G17 114459268.029 7  89189121.166 7  89189122.163 7                  21780874.750    21780894.336    21780894.336                         -78.281         -60.951         -60.945                          46.000          47.000          45.000                  
G19 117793808.503 7  91787474.058 5                                  22415415.469    22415436.887                                        1092.590         851.416                                          43.000          33.000                                  
G07 124263294.846 6  96828599.799 5  96828597.803 6                  23646515.195    23646533.762    23646533.379                       -3458.606       -2695.042       -2695.049                          36.000          31.000          36.000                  
G01 122293679.872 6  95293900.481 3  95293817.476 6  91323229.168 7  23271717.555    23271745.004    23271745.020    23271748.605       -3499.863       -2727.019       -2727.015       -2613.392          38.000          22.000          41.000          45.000  
G14 106976141.998 8  83358103.494 7  83358103.490 8  79884810.352 9  20356883.000    20356899.891    20356899.930    20356907.516         668.832         521.383         521.375         499.656          48.000          43.000          53.000          56.000  
G03 117923467.089 7  91888513.895 6  91888439.889 7  88059743.976 8  22440089.813    22440114.188    22440114.477    22440119.828           3.777           3.220           3.222           3.088          42.000          41.000          44.000          48.000  
G06 112287889.927 7  87497142.369 8  87497144.364 7  83851446.199 8  21367675.008    21367695.363    21367695.883    21367700.203        1921.211        1497.193        1497.192        1434.803          46.000          50.000          47.000          51.000  
R20 117725775.547 6  91564544.450 6 117725718.598 5  91564542.448 6  22015303.516    22015326.512    22015303.402    22015326.195       -2965.531       -2306.495       -2965.555       -2306.488          36.000          37.000          35.000          37.000  
E33  92810245.343 8  95231371.025 8 124285045.860 8  94020917.294 9  23650677.211    23650672.566    23650657.992    23650674.836        -718.110        -736.844        -961.832        -727.478          51.000          52.000          48.000          59.000  
E01  94097573.478 8  96552274.231 8 126008821.110 8  95324923.461 9  23978700.793    23978696.102    23978681.500    23978698.512        -521.047        -534.642        -697.922        -527.841          51.000          52.000          50.000          58.000  
E26 103036822.776 7 105724724.859 7 137979630.630 6 104380782.926 8  26256677.656    26256672.312    26256651.359    26256675.090       -1845.011       -1893.148       -2470.703       -1869.080          43.000          44.000          41.000          50.000  
E31  96065476.469 8  98571532.272 8 128644210.591 8  97318526.980 9  24480201.676    24480197.078    24480178.758    24480199.422        1341.959        1376.972        1796.953        1359.466          49.000          50.000          49.000          56.000  
R22 119710786.681 7  93108399.775 6 119710782.684 7  93108395.781 6  22425866.063    22425884.918    22425864.980    22425885.203        1905.887        1482.504        1906.077        1482.503          45.000          41.000          43.000          41.000  
R11 111754895.552 8  86920472.340 7 111754881.555 8  86920468.344 7  20913403.445    20913420.957    20913402.496    20913420.637        3147.113        2448.001        3147.432        2447.994          50.000          47.000          49.000          46.000  
R21 109963372.598 8  85527069.965 8 109963363.600 8  85527066.968 8  20549284.844    20549302.445    20549284.105    20549303.008        -359.207        -279.181        -358.920        -279.180          52.000          48.000          50.000          48.000  
R10 102791344.155 7                 102791327.158 7                  19283394.391                    19283392.785                        -895.699                        -895.249                          47.000                          45.000                  
R09 115501001.391 7  89834129.402 7 115501011.400 7  89834123.399 7  21629630.445    21629645.941    21629630.117    21629645.367       -3757.715       -2922.477       -3757.477       -2922.477          46.000          44.000          45.000          43.000  
R05 129492386.401 6 100716334.266 5 129492285.418 5 100716340.262 5  24224215.234    24224243.090    24224215.434    24224242.480        1628.492        1266.834        1628.738        1266.829          37.000          34.000          35.000          33.000  
C14 101223172.983 6 130903816.867 6  25138711.145    25138700.898        1606.894        2078.055          40.000          36.000  
C13 148926046.064 7 192594123.885 7  36985688.859    36985676.477         866.945        1121.094          44.000          45.000  
C11  94516354.806 7 122230409.855 7  23473078.094    23473065.695       -1273.072       -1646.352          46.000          44.000  
C10 147485643.437 7 190731378.444 7  36627965.883    36627956.086         441.404         570.789          46.000          44.000  
C09 154630313.345 6 199971007.771 6  38402340.547    38402329.914       -1243.568       -1608.203          40.000          37.000  
C08 146886778.142 7 189956940.013 7  36479238.027    36479233.258         864.742        1118.133          46.000          45.000  
C07 146299398.960 7 189197322.499 7  36333363.125    36333356.688         347.441         449.305          47.000          46.000  
C05 154616139.187 6 199952673.376 6  38398820.070    38398808.977          18.890          24.234          41.000          36.000  
C04 156987041.703 6 203018764.832 6  38987631.484    38987620.656          12.484          16.141          39.000          36.000  
C03 145889218.274 7 188666874.998 7  36231495.395    36231489.570          26.202          33.824          46.000          44.000  
C02 148824764.775 7 192463183.592 6  36960535.996    36960530.852          11.447          14.762          45.000          41.000  
C01 151014840.104 7 195295407.064 6  37504439.719    37504429.789          23.718          30.660          42.000          40.000  
S27 203497048.735 6  38724200.078         -10.680          40.000  
S37 193085355.854 7  36742921.938          -5.129          42.000  
> 2023 02 14 10 23 56.0000000  0 33
G30 115481830.913 7  89985914.559 7  89985868.547 7  86236446.591 8  21975462.125    21975481.227    21975481.570    21975485.180       -2499.930       -1947.816       -1947.814       -1866.658          45.000          46.000          46.000          50.000  
G17 114459346.237 7  89189182.111 7  89189183.108 7                  21780889.484    21780909.566    21780909.520                         -78.293         -60.946         -60.946                          45.000          47.000          45.000                  
G19 117792715.972 7  91786622.742 5                                  22415207.469    22415229.500                                        1092.449         851.316                                          43.000          33.000                                  
G07 124266753.516 6  96831294.868 5  96831292.869 6                  23647172.992    23647192.023    23647191.934                       -3458.668       -2695.069       -2695.066                          37.000          31.000          36.000                  
G01 122297179.707 6  95296627.618 3  95296544.613 6  91325842.680 7  23272382.984    23272410.539    23272410.547    23272414.203       -3499.961       -2727.137       -2727.137       -2613.513          37.000          23.000          41.000          45.000  
G14 106975473.373 8  83357582.490 7  83357582.485 8  79884311.059 9  20356755.523    20356772.770    20356772.801    20356780.281         668.340         521.004         521.005         499.294          48.000          43.000          53.000          56.000  
G03 117923463.575 7  91888511.157 6  91888437.151 7  88059741.353 8  22440089.367    22440113.641    22440113.957    22440119.164           3.121           2.738           2.738           2.623          42.000          41.000          44.000          48.000  
G06 112285969.082 7  87495645.612 8  87495647.608 8  83850011.806 8  21367309.594    21367329.691    21367330.203    21367334.414        1920.613        1496.756        1496.756        1434.393          46.000          50.000          48.000          51.000  
R20 117728741.067 6  91566850.963 6 117728684.062 6  91566848.959 6  22015858.758    22015881.250    22015857.941    22015880.848       -2965.625       -2306.512       -2965.464       -2306.511          37.000          38.000          36.000          37.000  
E33  92810963.686 8  95232108.107 8 124286007.813 8  94021645.007 9  23650860.125    23650855.480    23650841.109    23650857.762        -718.343        -737.083        -962.094        -727.713          51.000          52.000          48.000          59.000  
E01  94098094.809 8  96552809.160 8 126009519.236 8  95325451.593 9  23978833.562    23978828.922    23978814.242    23978831.375        -521.332        -534.930        -698.348        -528.132          51.000          52.000          50.000          58.000  
E26 103038667.826 7 105726618.037 7 137982101.391 6 104382652.043 8  26257147.695    26257142.586    26257121.516    26257145.328       -1845.050       -1893.179       -2470.926       -1869.118          43.000          44.000          41.000          50.000  
E31  96064134.679 8  98570155.482 8 128642413.755 8  97317167.691 9  24479859.918    24479855.137    24479836.719    24479857.516        1341.790        1376.791        1796.738        1359.289          49.000          50.000          49.000          56.000  
R22 119708881.066 7  93106917.633 6 119708877.069 7  93106913.636 6  22425509.141    22425528.238    22425508.176    22425528.445        1905.328        1482.143        1905.614        1482.146          45.000          41.000          43.000          41.000  
R11 111751748.662 8  86918024.776 7 111751734.665 8  86918020.773 7  20912814.422    20912832.094    20912814.062    20912832.105        3146.594        2447.564        3146.891        2447.572          51.000          47.000          49.000          46.000  
R21 109963731.955 8  85527349.464 8 109963722.963 8  85527346.467 8  20549352.031    20549369.082    20549350.824    20549369.855        -359.629        -279.499        -359.363        -279.499          52.000          48.000          51.000          48.000  
R10 102792240.302 7                 102792223.296 7                  19283562.211                    19283560.840                        -896.625                        -896.138                          47.000                          45.000                  
R09 115504759.306 7  89837052.225 7 115504769.294 7  89837046.222 7  21630334.516    21630348.914    21630333.602    21630348.910       -3758.215       -2922.823       -3757.894       -2922.823          46.000          44.000          44.000          43.000  
R05 129490758.053 6 100715067.753 5 129490657.035 5 100715073.744 5  24223910.875    24223939.199    24223910.723    24223938.207        1627.902        1266.513        1628.382        1266.518          36.000          32.000          35.000          33.000  
C14 101221566.051 6 130901738.749 6  25138311.777    25138301.531        1606.932        2078.105          40.000          36.000  
C13 148925179.257 7 192593002.912 7  36985473.246    36985461.062         866.807        1120.887          44.000          45.000  
C11  94517627.921 7 122232056.270 7  23473394.012    23473381.898       -1273.115       -1646.422          46.000          43.000  
C10 147485202.048 7 190730807.619 7  36627855.660    36627846.453         441.390         570.805          46.000          44.000  
C09 154631556.978 6 199972616.058 6  38402649.648    38402639.016       -1243.632       -1608.371          40.000          37.000  
C08 146885913.577 7 189955821.937 7  36479023.207    36479018.680         864.564        1117.984          46.000          45.000  
C07 146299051.538 8 189196873.205 7  36333276.547    36333270.586         347.422         449.301          48.000          47.000  
C05 154616120.320 6 199952648.975 6  38398815.637    38398804.711          18.867          24.316          41.000          36.000  
C04 156987029.252 6 203018748.729 5  38987628.305    38987617.664          12.451          16.039          39.000          35.000  
C03 145889192.097 7 188666841.145 7  36231489.027    36231483.258          26.176          33.789          47.000          44.000  
C02 148824753.329 7 192463168.787 6  36960533.316    36960528.000          11.446          14.750          45.000          41.000  
C01 151014816.389 7 195295376.393 6  37504433.629    37504424.133          23.714          30.660          43.000          40.000  
S27 203497059.345 6  38724202.578         -10.457          40.000  
S37 193085361.040 7  36742921.078          -5.242          42.000  
> 2023 02 14 10 23 57.0000000  0 33
G30 115484330.877 7  89987862.580 7  89987816.576 7  86238313.449 8  21975937.594    21975957.406    21975957.543    21975961.242       -2500.160       -1948.021       -1948.029       -1866.858          45.000          46.000          46.000          50.000  
G17 114459424.393 7  89189243.016 7  89189244.013 7                  21780904.148    21780923.949    21780923.957                         -78.363         -60.905         -60.905                          46.000          47.000          45.000                  
G19 117791623.464 7  91785771.448 5                                  22414999.867    22415021.488                                        1092.352         851.294                                          43.000          33.000                                  
G07 124270212.175 6  96833989.928 5  96833987.929 5                  23647831.227    23647850.004    23647849.879                       -3458.703       -2695.061       -2695.061                          36.000          31.000          35.000                  
G01 122300679.568 6  95299354.779 3  95299271.774 6  91328456.205 7  23273050.141    23273076.277    23273076.195    23273079.879       -3500.035       -2727.161       -2727.161       -2613.525          37.000          23.000          41.000          45.000  
G14 106974805.191 8  83357061.831 7  83357061.826 8  79883812.092 9  20356628.742    20356645.332    20356645.340    20356652.902         667.844         520.659         520.659         498.967          48.000          43.000          53.000          56.000  
G03 117923460.648 7  91888508.881 6  91888434.870 7  88059739.169 8  22440089.164    22440112.570    22440112.551    22440118.328           2.516           2.276           2.281           2.183          42.000          41.000          44.000          48.000  
G06 112284048.700 7  87494149.210 8  87494151.205 7  83848577.752 8  21366944.250    21366964.262    21366964.730    21366968.922        1920.102        1496.403        1496.403        1434.054          46.000          50.000          47.000          51.000  
R20 117731706.487 6  91569157.393 6 117731649.490 6  91569155.397 6  22016414.437    22016436.051    22016412.449    22016435.332       -2965.578       -2306.430       -2965.428       -2306.438          37.000          38.000          36.000          38.000  
E33  92811682.229 8  95232845.395 8 124286970.038 8  94022372.919 9  23651043.164    23651038.570    23651024.281    23651040.895        -718.543        -737.288        -962.488        -727.912          52.000          52.000          49.000          59.000  
E01  94098616.395 8  96553344.353 8 126010217.705 8  95325979.980 9  23978966.719    23978961.938    23978947.250    23978964.348        -521.586        -535.192        -698.754        -528.387          51.000          52.000          51.000          58.000  
E26 103040512.890 7 105728511.230 7 137984572.174 6 104384521.169 8  26257617.781    26257612.762    26257591.414    26257615.469       -1845.064       -1893.192       -2470.934       -1869.125          43.000          44.000          41.000          50.000  
E31  96062793.033 8  98568778.833 8 128640617.103 8  97315808.542 9  24479518.020    24479513.328    24479494.930    24479515.711        1341.646        1376.649        1796.457        1359.150          49.000          50.000          49.000          56.000  
R22 119706975.863 7  93105435.811 6 119706971.880 7  93105431.812 6  22425152.930    22425171.887    22425151.609    22425171.992        1904.957        1481.821        1905.189        1481.823          45.000          41.000          43.000          41.000  
R11 111748602.263 8  86915577.587 7 111748588.266 8  86915573.583 7  20912225.664    20912243.121    20912224.949    20912243.023        3146.020        2447.190        3146.398        2447.190          50.000          47.000          49.000          46.000  
R21 109964091.699 8  85527629.263 8 109964082.700 8  85527626.267 7  20549419.188    20549436.770    20549418.332    20549437.297        -360.023        -279.799        -359.736        -279.800          52.000          48.000          51.000          47.000  
R10 102793137.245 7                 102793120.239 7                  19283730.539                    19283728.934                        -897.481                        -896.943                          47.000                          45.000                  
R09 115508517.624 7  89839975.362 7 115508527.612 7  89839969.359 7  21631037.852    21631052.660    21631037.406    21631052.754       -3758.652       -2923.137       -3758.318       -2923.137          46.000          45.000          44.000          44.000  
R05 129489129.984 6 100713801.454 5 129489028.984 5 100713807.458 5  24223606.117    24223633.121    24223605.496    24223632.926        1627.789        1266.299        1628.051        1266.287          36.000          33.000          35.000          33.000  
C14 101219959.089 6 130899660.589 6  25137912.930    25137902.781        1606.962        2078.180          40.000          37.000  
C13 148924312.548 7 192591882.063 7  36985258.207    36985245.891         866.709        1120.703          44.000          45.000  
C11  94518900.972 7 122233702.609 7  23473710.277    23473697.570       -1273.051       -1646.344          46.000          44.000  
C10 147484760.568 7 190730236.681 7  36627746.371    36627736.930         441.480         570.902          46.000          44.000  
C09 154632800.525 6 199974224.243 6  38402958.570    38402947.625       -1243.547       -1608.160          40.000          37.000  
C08 146885049.123 7 189954704.003 7  36478808.766    36478803.977         864.454        1117.758          46.000          45.000  
C07 146298704.078 7 189196423.858 7  36333190.293    36333184.102         347.459         449.254          47.000          46.000  
C05 154616101.426 6 199952624.537 6  38398810.953    38398800.008          18.894          24.320          41.000          36.000  
C04 156987016.795 6 203018732.613 5  38987625.469    38987614.117          12.457          16.086          39.000          35.000  
C03 145889165.915 7 188666807.288 7  36231482.129    36231477.086          26.182          33.676          47.000          44.000  
C02 148824741.880 7 192463153.975 6  36960530.230    36960525.531          11.450          14.781          45.000          41.000  
C01 151014792.647 7 195295345.693 6  37504427.812    37504418.156          23.742          30.688          43.000          40.000  
S27 203497069.972 6  38724206.703         -10.738          40.000  
S37 193085366.174 7  36742924.438          -5.258          42.000  
> 2023 02 14 10 23 58.0000000  0 33
G30 115486831.145 7  89989810.847 7  89989764.838 7  86240180.535 8  21976413.398    21976432.695    21976433.086    21976436.531       -2500.332       -1948.267       -1948.261       -1867.087          45.000          46.000          46.000          50.000  
G17 114459502.524 7  89189303.902 7  89189304.893 7                  21780919.281    21780939.340    21780939.188                         -78.090         -60.886         -60.880                          46.000          47.000          45.000                  
G19 117790531.004 7  91784920.183 5                                  22414791.789    22414813.574                                        1092.418         851.265                                          43.000          33.000                                  
G07 124273670.734 6  96836684.905 5  96836682.909 5                  23648489.125    23648508.262    23648508.262                       -3458.422       -2694.977       -2694.979                          36.000          30.000          35.000                  
G01 122304179.504 6  95302081.998 3  95301998.993 6  91331069.790 7  23273715.406    23273742.902    23273742.617    23273746.797       -3499.926       -2727.219       -2727.219       -2613.585          37.000          23.000          41.000          45.000  
G14 106974137.453 8  83356541.522 7  83356541.511 8  79883313.460 9  20356501.578    20356518.344    20356518.246    20356525.973         667.613         520.308         520.315         498.631          48.000          43.000          53.000          56.000  
G03 117923458.263 7  91888507.022 7  91888433.011 7  88059737.387 8  22440088.336    22440112.199    22440112.516    22440117.957           2.184           1.859           1.859           1.782          42.000          42.000          44.000          48.000  
G06 112282128.759 7  87492653.150 8  87492655.153 7  83847144.035 8  21366578.641    21366599.012    21366599.352    21366603.793        1919.707        1496.059        1496.052        1433.716          46.000          50.000          47.000          51.000  
R20 117734671.833 6  91571463.765 6 117734614.828 6  91571461.776 6  22016968.344    22016991.160    22016967.879    22016990.637       -2965.172       -2306.371       -2965.338       -2306.379          37.000          38.000          36.000          37.000  
E33  92812400.963 8  95233582.875 8 124287932.514 8  94023101.025 9  23651226.359    23651221.809    23651207.289    23651224.039        -718.734        -737.480        -962.559        -728.106          52.000          53.000          49.000          59.000  
E01  94099138.232 8  96553879.806 8 126010916.515 8  95326508.625 9  23979099.508    23979094.914    23979080.297    23979097.277        -521.837        -535.453        -698.875        -528.645          51.000          52.000          50.000          58.000  
E26 103042357.907 7 105730404.381 7 137987042.905 6 104386390.252 8  26258088.016    26258082.855    26258061.477    26258085.637       -1845.017       -1893.151       -2470.570       -1869.083          43.000          44.000          41.000          50.000  
E31  96061451.496 8  98567402.297 8 128638820.600 8  97314449.505 9  24479176.191    24479171.500    24479153.219    24479173.789        1341.537        1376.536        1796.484        1359.037          49.000          50.000          49.000          56.000  
R22 119705071.081 7  93103954.321 6 119705067.087 7  93103950.316 6  22424795.563    22424815.117    22424794.480    22424814.969        1904.648        1481.491        1904.793        1481.496          45.000          41.000          43.000          41.000  
R11 111745456.356 8  86913130.778 7 111745442.366 8  86913126.774 7  20911636.727    20911654.336    20911636.602    20911654.496        3145.758        2446.808        3145.900        2446.808          50.000          47.000          49.000          46.000  
R21 109964451.793 8  85527909.339 8 109964442.815 8  85527906.343 8  20549486.820    20549504.371    20549486.434    20549505.059        -360.227        -280.076        -360.116        -280.076          52.000          48.000          51.000          48.000  
R10 102794035.013 7                 102794018.007 7                  19283899.109                    19283897.504                        -898.106                        -897.768                          47.000                          46.000                  
R09 115512276.329 7  89842898.793 7 115512286.317 7  89842892.796 7  21631742.141    21631757.406    21631741.344    21631757.062       -3758.887       -2923.431       -3758.705       -2923.437          46.000          45.000          44.000          44.000  
R05 129487502.195 6 100712535.381 5 129487401.238 5 100712541.377 5  24223300.891    24223329.309    24223301.793    24223329.164        1627.758        1266.073        1627.746        1266.081          36.000          34.000          35.000          33.000  
C14 101218352.049 6 130897582.328 6  25137514.250    25137503.633        1607.040        2078.320          41.000          36.000  
C13 148923445.924 7 192590761.327 7  36985043.090    36985030.734         866.624        1120.797          44.000          45.000  
C11  94520174.006 7 122235348.923 7  23474026.066    23474013.805       -1273.034       -1646.172          46.000          44.000  
C10 147484319.040 7 190729665.690 7  36627636.570    36627627.516         441.528         571.043          46.000          44.000  
C09 154634044.035 6 199975832.382 6  38403267.379    38403256.547       -1243.510       -1607.996          40.000          37.000  
C08 146884184.800 7 189953586.239 7  36478594.074    36478589.266         864.324        1117.684          46.000          44.000  
C07 146298356.604 7 189195974.490 7  36333103.969    36333097.727         347.474         449.387          47.000          46.000  
C05 154616082.483 6 199952600.040 6  38398806.105    38398795.602          18.943          24.512          41.000          36.000  
C04 156987004.356 6 203018716.516 5  38987622.359    38987610.625          12.439          16.176          39.000          35.000  
C03 145889139.680 7 188666773.361 7  36231475.559    36231469.883          26.235          34.055          47.000          44.000  
C02 148824730.400 7 192463139.133 6  36960527.543    36960522.844          11.479          14.945          45.000          41.000  
C01 151014768.908 7 195295314.985 6  37504421.973    37504412.477          23.739          30.754          43.000          40.000  
S27 203497080.611 6  38724207.312         -10.516          40.000  
S37 193085371.286 7  36742920.828          -5.004          42.000  
> 2023 02 14 10 23 59.0000000  0 33
G30 115489331.717 7  89991759.340 7  89991713.337 7  86242047.842 8  21976889.531    21976908.426    21976908.711    21976912.316       -2500.715       -1948.493       -1948.499       -1867.307          45.000          46.000          45.000          50.000  
G17 114459580.607 7  89189364.745 8  89189365.741 7                  21780934.172    21780953.973    21780954.016                         -78.051         -60.843         -60.848                          45.000          48.000          45.000                  
G19 117789438.565 7  91784068.933 5                                  22414583.922    22414606.047                                        1092.441         851.250                                          43.000          33.000                                  
G07 124277129.301 6  96839379.884 5  96839377.895 6                  23649147.008    23649166.352    23649166.438                       -3458.496       -2694.979       -2694.987                          36.000          31.000          36.000                  
G01 122307679.527 6  95304809.283 3  95304726.285 6  91333683.442 7  23274380.969    23274408.859    23274408.531    23274412.699       -3500.090       -2727.285       -2727.292       -2613.652          37.000          23.000          40.000          45.000  
G14 106973470.164 8  83356021.553 7  83356021.549 8  79882815.168 9  20356374.547    20356391.500    20356391.582    20356399.188         667.086         519.970         519.962         498.293          48.000          43.000          53.000          56.000  
G03 117923456.519 7  91888505.657 7  91888431.648 7  88059736.081 8  22440088.023    22440112.297    22440112.555    22440117.758           1.461           1.365           1.363           1.307          42.000          42.000          45.000          48.000  
G06 112280209.339 7  87491157.503 8  87491159.500 7  83845710.701 8  21366213.383    21366233.750    21366234.133    21366238.648        1919.254        1495.647        1495.654        1433.334          46.000          50.000          47.000          51.000  
R20 117737637.160 6  91573770.127 6 117737580.166 6  91573768.139 6  22017522.578    22017544.602    22017521.879    22017544.441       -2965.188       -2306.362       -2965.337       -2306.362          37.000          38.000          36.000          37.000  
E33  92813119.934 8  95234320.604 8 124288895.310 8  94023829.378 9  23651409.465    23651404.918    23651390.422    23651407.156        -718.971        -737.728        -962.883        -728.353          51.000          52.000          49.000          59.000  
E01  94099660.326 8  96554415.519 8 126011615.669 8  95327037.530 9  23979232.578    23979227.938    23979213.164    23979230.363        -522.094        -535.714        -699.285        -528.905          51.000          52.000          50.000          58.000  
E26 103044202.968 7 105732297.578 7 137989513.687 6 104388259.382 8  26258558.441    26258553.000    26258531.984    26258555.793       -1845.061       -1893.197       -2470.734       -1869.130          43.000          44.000          41.000          50.000  
E31  96060110.117 8  98566025.928 8 128637024.310 8  97313090.631 9  24478834.281    24478829.500    24478811.188    24478831.891        1341.379        1376.369        1796.227        1358.874          49.000          50.000          49.000          56.000  
R22 119703166.750 7  93102473.175 6 119703162.762 7  93102469.163 6  22424438.687    22424458.203    22424437.957    22424458.301        1904.176        1481.146        1904.325        1481.153          45.000          41.000          43.000          40.000  
R11 111742310.985 8  86910684.382 7 111742296.989 8  86910680.379 7  20911047.992    20911065.938    20911047.984    20911065.824        3145.191        2446.396        3145.377        2446.396          50.000          47.000          49.000          46.000  
R21 109964812.312 8  85528189.739 8 109964803.320 8  85528186.742 8  20549553.781    20549571.336    20549553.277    20549571.988        -360.680        -280.400        -360.504        -280.399          52.000          48.000          51.000          48.000  
R10 102794933.628 7                 102794916.637 7                  19284067.195                    19284066.293                        -898.945                        -898.630                          47.000                          45.000                  
R09 115516035.438 7  89845822.546 7 115516045.454 7  89845816.549 7  21632447.008    21632461.367    21632445.625    21632461.121       -3759.254       -2923.753       -3759.137       -2923.753          46.000          45.000          44.000          43.000  
R05 129485874.852 6 100711269.656 5 129485773.818 5 100711275.659 5  24222997.336    24223024.234    24222996.246    24223024.297        1627.254        1265.725        1627.421        1265.718          36.000          33.000          35.000          33.000  
C14 101216744.969 6 130895504.017 6  25137114.598    25137103.883        1607.080        2078.340          40.000          37.000  
C13 148922579.415 7 192589640.739 7  36984828.145    36984815.586         866.509        1120.602          44.000          45.000  
C11  94521447.038 7 122236995.240 7  23474342.449    23474329.625       -1273.032       -1646.344          46.000          43.000  
C10 147483877.509 7 190729094.686 7  36627527.355    36627517.578         441.531         571.023          46.000          44.000  
C09 154635287.497 6 199977440.449 6  38403576.246    38403565.227       -1243.462       -1608.117          40.000          38.000  
C08 146883320.608 7 189952468.643 7  36478379.477    36478374.789         864.192        1117.426          46.000          44.000  
C07 146298009.122 7 189195525.117 7  36333017.684    36333011.469         347.482         449.438          47.000          46.000  
C05 154616063.598 6 199952575.621 6  38398801.488    38398790.562          18.885          24.559          41.000          36.000  
C04 156986991.889 6 203018700.394 5  38987618.965    38987607.711          12.467          16.262          39.000          35.000  
C03 145889113.481 7 188666739.477 7  36231469.195    36231464.023          26.199          33.879          46.000          44.000  
C02 148824718.926 7 192463124.294 6  36960524.629    36960519.531          11.475          14.812          45.000          41.000  
C01 151014745.165 7 195295284.279 6  37504416.129    37504406.164          23.743          30.688          42.000          40.000  
S27 203497091.212 6  38724209.656         -10.512          40.000  
S37 193085376.433 7  36742927.391          -5.141          42.000  
> 2023 02 14 10 24  0.0000000  0 33
G30 115491832.594 7  89993708.079 7  89993662.068 7  86243915.382 8  21977365.172    21977384.527    21977384.727    21977388.480       -2500.992       -1948.739       -1948.732       -1867.539          46.000          46.000          46.000          50.000  
G17 114459658.666 7  89189425.573 7  89189426.569 7                  21780948.578    21780968.840    21780968.750                         -77.898         -60.829         -60.829                          46.000          47.000          44.000                  
G19 117788346.228 7  91783217.775 5                                  22414376.023    22414397.812                                        1092.356         851.158                                          43.000          33.000                                  
G07 124280587.869 6  96842074.869 5  96842072.873 6                  23649806.039    23649824.422    23649824.367                       -3458.266       -2694.985       -2694.977                          36.000          30.000          36.000                  
G01 122311179.670 6  95307536.663 3  95307453.673 6  91336297.185 7  23275047.328    23275074.750    23275074.336    23275078.410       -3500.156       -2727.379       -2727.387       -2613.743          38.000          23.000          40.000          44.000  
G14 106972803.354 8  83355501.968 7  83355501.956 8  79882317.222 9  20356247.531    20356264.293    20356264.430    20356272.039         666.602         519.585         519.593         497.945          48.000          43.000          53.000          56.000  
G03 117923455.327 7  91888504.723 6  91888430.720 7  88059735.185 8  22440088.312    22440112.051    22440112.516    22440117.750           1.070           0.934           0.928           0.896          42.000          41.000          44.000          48.000  
G06 112278290.392 7  87489662.221 8  87489664.217 7  83844277.730 8  21365848.531    21365868.625    21365869.395    21365873.465        1918.672        1495.282        1495.282        1432.971          46.000          50.000          47.000          52.000  
R20 117740602.401 6  91576076.435 6 117740545.442 6  91576074.438 6  22018078.117    22018099.910    22018077.301    22018099.387       -2965.207       -2306.308       -2965.276       -2306.300          36.000          38.000          36.000          37.000  
E33  92813839.125 8  95235058.558 8 124289858.403 8  94024557.949 9  23651592.910    23651588.176    23651573.641    23651590.621        -719.191        -737.954        -963.172        -728.571          51.000          52.000          49.000          59.000  
E01  94100182.695 8  96554951.520 8 126012315.186 8  95327566.715 9  23979365.688    23979361.047    23979346.273    23979363.410        -522.369        -536.001        -699.609        -529.185          51.000          52.000          50.000          58.000  
E26 103046048.063 7 105734190.807 7 137991984.512 6 104390128.544 8  26259028.566    26259023.176    26259002.016    26259025.996       -1845.095       -1893.229       -2470.660       -1869.163          43.000          43.000          41.000          50.000  
E31  96058768.881 8  98564649.701 8 128635228.211 8  97311731.896 9  24478492.566    24478487.738    24478469.383    24478490.191        1341.236        1376.227        1796.008        1358.735          49.000          50.000          49.000          56.000  
R22 119701262.876 7  93100992.376 6 119701258.874 7  93100988.372 6  22424082.039    22424101.547    22424081.074    22424101.332        1903.668        1480.798        1903.888        1480.791          44.000          41.000          43.000          40.000  
R11 111739166.131 8  86908238.401 7 111739152.142 8  86908234.398 7  20910460.039    20910476.695    20910458.855    20910476.676        3144.668        2445.981        3144.847        2445.980          50.000          47.000          49.000          46.000  
R21 109965173.204 8  85528470.434 8 109965164.213 8  85528467.437 8  20549621.164    20549639.406    20549620.660    20549639.609        -360.980        -280.695        -360.893        -280.695          52.000          48.000          51.000          48.000  
R10 102795833.098 7                 102795816.106 7                  19284236.492                    19284234.887                        -899.797                        -899.469                          47.000                          45.000                  
R09 115519795.000 7  89848746.652 7 115519804.989 7  89848740.649 7  21633150.109    21633164.930    21633149.078    21633164.687       -3759.762       -2924.106       -3759.535       -2924.101          46.000          45.000          44.000          43.000  
R05 129484247.831 6 100710004.183 5 129484146.791 5 100710010.184 5  24222693.687    24222719.680    24222692.008    24222719.793        1626.895        1265.473        1627.027        1265.475          36.000          34.000          35.000          34.000  
C14 101215137.863 6 130893425.675 6  25136715.715    25136705.031        1607.106        2078.531          40.000          37.000  
C13 148921713.034 7 192588520.311 7  36984612.738    36984600.250         866.381        1120.457          44.000          45.000  
C11  94522720.035 7 122238641.507 7  23474658.516    23474646.477       -1272.997       -1646.133          46.000          44.000  
C10 147483435.900 7 190728523.594 7  36627417.766    36627407.930         441.609         571.191          46.000          44.000  
C09 154636530.963 6 199979048.531 6  38403884.973    38403874.312       -1243.466       -1608.051          39.000          37.000  
C08 146882456.520 7 189951351.184 7  36478165.105    36478159.969         864.088        1117.492          46.000          45.000  
C07 146297661.604 7 189195075.698 7  36332931.473    36332925.484         347.518         449.527          47.000          46.000  
C05 154616044.701 6 199952551.174 6  38398796.609    38398785.836          18.897          24.559          41.000          36.000  
C04 156986979.438 6 203018684.287 5  38987616.203    38987605.266          12.451          16.086          39.000          35.000  
C03 145889087.272 7 188666705.579 7  36231462.445    36231457.305          26.208          33.945          47.000          44.000  
C02 148824707.453 7 192463109.454 6  36960521.766    36960517.070          11.472          14.816          45.000          41.000  
C01 151014721.420 7 195295253.568 6  37504410.316    37504400.063          23.745          30.715          42.000          40.000  
S27 203497101.799 6  38724211.078         -10.613          40.000  
S37 193085381.556 7  36742923.609          -5.102          42.000  
> 2023 02 14 10 24  1.0000000  0 33
G30 115494333.828 7  89995657.087 7  89995611.082 7  86245783.183 8  21977841.266    21977860.523    21977860.934    21977864.414       -2501.375       -1949.008       -1949.014       -1867.802          46.000          46.000          46.000          50.000  
G17 114459736.727 7  89189486.403 7  89189487.393 7                  21780964.031    21780983.738    21780983.805                         -78.023         -60.830         -60.824                          45.000          47.000          45.000                  
G19 117787253.921 7  91782366.639 5                                  22414167.797    22414189.996                                        1092.324         851.136                                          43.000          33.000                                  
G07 124284046.434 6  96844769.848 5  96844767.852 6                  23650463.148    23650482.754    23650482.512                       -3458.703       -2694.979       -2694.979                          36.000          30.000          36.000                  
G01 122314679.920 6  95310264.120 3  95310181.144 6  91338911.006 7  23275713.336    23275740.625    23275740.191    23275744.406       -3500.465       -2727.457       -2727.472       -2613.821          37.000          23.000          41.000          45.000  
G14 106972136.989 8  83354982.726 7  83354982.714 8  79881819.620 9  20356120.773    20356137.754    20356137.805    20356145.324         666.055         519.242         519.242         497.602          48.000          43.000          53.000          56.000  
G03 117923454.811 7  91888504.325 6  91888430.321 7  88059734.805 8  22440087.641    22440111.930    22440112.117    22440117.570           0.344           0.398           0.399           0.380          42.000          41.000          44.000          48.000  
G06 112276371.939 7  87488167.324 8  87488169.319 8  83842845.117 8  21365482.953    21365502.840    21365503.195    21365507.738        1918.176        1494.897        1494.898        1432.613          46.000          50.000          48.000          51.000  
R20 117743567.675 6  91578382.764 6 117743510.685 5  91578380.767 6  22018632.055    22018654.121    22018631.473    22018653.766       -2965.234       -2306.329       -2965.244       -2306.329          36.000          38.000          35.000          38.000  
E33  92814558.538 8  95235796.736 8 124290821.792 8  94025286.747 9  23651776.102    23651771.648    23651756.977    23651773.898        -719.413        -738.179        -963.609        -728.798          52.000          52.000          48.000          59.000  
E01  94100705.345 8  96555487.801 8 126013015.078 8  95328096.181 9  23979499.000    23979494.312    23979479.594    23979496.699        -522.650        -536.280        -700.098        -529.466          51.000          52.000          50.000          58.000  
E26 103047893.190 7 105736084.068 7 137994455.382 6 104391997.738 8  26259498.879    26259493.582    26259472.508    26259496.359       -1845.127       -1893.261       -2470.828       -1869.193          44.000          44.000          41.000          50.000  
E31  96057427.777 8  98563273.611 8 128633432.294 8  97310373.308 9  24478150.688    24478146.047    24478127.711    24478148.414        1341.103        1376.089        1795.801        1358.589          49.000          50.000          49.000          56.000  
R22 119699359.421 7  93099511.908 6 119699355.432 7  93099507.903 6  22423724.586    22423744.367    22423724.559    22423744.945        1903.242        1480.468        1903.442        1480.469          44.000          41.000          43.000          40.000  
R11 111736021.842 8  86905792.859 7 111736007.845 8  86905788.855 7  20909871.422    20909889.348    20909871.180    20909889.289        3143.906        2445.542        3144.297        2445.543          50.000          47.000          49.000          46.000  
R21 109965534.520 8  85528751.456 8 109965525.529 8  85528748.459 8  20549689.062    20549706.473    20549688.324    20549707.145        -361.551        -281.022        -361.316        -281.022          52.000          48.000          51.000          48.000  
R10 102796733.411 7                 102796716.403 7                  19284404.703                    19284403.918                        -900.703                        -900.296                          47.000                          45.000                  
R09 115523554.966 7  89851671.066 7 115523564.952 7  89851665.070 7  21633854.289    21633869.406    21633853.609    21633869.016       -3760.215       -2924.414       -3759.963       -2924.421          47.000          45.000          44.000          44.000  
R05 129482621.155 6 100708738.992 5 129482520.184 5 100708744.988 5  24222388.250    24222415.500    24222387.395    24222415.391        1626.434        1265.191        1626.607        1265.197          36.000          34.000          35.000          34.000  
C14 101213530.732 6 130891347.294 6  25136316.309    25136306.297        1607.131        2078.297          41.000          36.000  
C13 148920846.767 7 192587400.037 7  36984397.418    36984385.031         866.268        1120.234          45.000          45.000  
C11  94523993.047 7 122240287.787 7  23474974.852    23474962.195       -1273.012       -1646.270          46.000          44.000  
C10 147482994.313 7 190727952.522 7  36627307.648    36627298.422         441.587         571.117          46.000          44.000  
C09 154637774.408 6 199980656.576 6  38404193.648    38404183.562       -1243.445       -1607.926          39.000          38.000  
C08 146881592.609 7 189950233.952 7  36477950.594    36477945.461         863.911        1117.086          46.000          45.000  
C07 146297314.088 7 189194626.284 7  36332845.359    36332838.867         347.516         449.543          47.000          46.000  
C05 154616025.795 6 199952526.725 6  38398791.992    38398780.969          18.906          24.371          41.000          36.000  
C04 156986966.987 6 203018668.183 5  38987613.168    38987601.438          12.452          16.145          39.000          35.000  
C03 145889061.086 7 188666671.710 7  36231455.953    36231450.664          26.186          33.863          46.000          44.000  
C02 148824695.991 7 192463094.622 6  36960518.750    36960513.867          11.462          14.797          45.000          41.000  
C01 151014697.688 7 195295222.867 6  37504404.320    37504394.555          23.732          30.695          43.000          40.000  
S27 203497112.479 6  38724212.906         -10.719          40.000  
S37 193085386.695 7  36742922.094          -5.129          42.000  
> 2023 02 14 10 24  2.0000000  0 33
G30 115496835.335 7  89997606.312 7  89997560.308 7  86247651.193 8  21978317.281    21978336.598    21978336.910    21978340.609       -2501.695       -1949.225       -1949.226       -1868.009          45.000          46.000          46.000          50.000  
G17 114459814.759 7  89189547.209 8  89189548.199 7                  21780978.695    21780998.371    21780998.273                         -77.984         -60.806         -60.805                          45.000          48.000          45.000                  
G19 117786161.692 7  91781515.561 5                                  22413959.984    22413982.062                                        1092.227         851.078                                          43.000          33.000                                  
G07 124287504.921 6  96847464.770 5  96847462.771 6                  23651121.805    23651140.875    23651140.934                       -3458.558       -2694.921       -2694.918                          37.000          30.000          36.000                  
G01 122318180.212 6  95312991.626 3  95312908.644 6  91341524.861 7  23276379.469    23276406.359    23276405.895    23276410.078       -3500.457       -2727.506       -2727.500       -2613.854          37.000          23.000          41.000          45.000  
G14 106971471.099 8  83354463.850 7  83354463.845 8  79881322.370 9  20355994.117    20356010.801    20356010.906    20356018.605         665.656         518.876         518.869         497.251          48.000          44.000          53.000          56.000  
G03 117923454.871 7  91888504.373 7  91888430.370 7  88059734.850 8  22440087.461    22440111.570    22440111.785    22440117.152          -0.398          -0.049          -0.050          -0.045          42.000          42.000          44.000          48.000  
G06 112274453.974 7  87486672.810 8  87486674.805 8  83841412.878 8  21365118.602    21365138.730    21365139.211    21365143.395        1917.707        1494.514        1494.514        1432.239          46.000          50.000          48.000          51.000  
R20 117746532.867 6  91580689.020 6 117746475.867 5  91580687.023 6  22019187.461    22019208.922    22019186.059    22019208.219       -2965.332       -2306.257       -2965.182       -2306.256          36.000          38.000          35.000          37.000  
E33  92815278.171 8  95236535.142 8 124291785.474 8  94026015.767 9  23651959.691    23651955.051    23651940.453    23651957.340        -719.633        -738.406        -963.891        -729.020          51.000          52.000          48.000          59.000  
E01  94101228.246 8  96556024.343 8 126013715.311 8  95328625.905 9  23979632.293    23979627.508    23979612.844    23979629.906        -522.900        -536.542        -700.477        -529.724          51.000          52.000          50.000          58.000  
E26 103049738.302 7 105737977.308 7 137996926.228 6 104393866.917 8  26259968.891    26259963.684    26259942.484    26259966.402       -1845.112       -1893.241       -2470.934       -1869.180          44.000          44.000          41.000          50.000  
E31  96056086.838 8  98561897.688 8 128631636.583 8  97309014.868 9  24477808.969    24477804.234    24477786.023    24477806.691        1340.939        1375.923        1795.586        1358.439          49.000          50.000          49.000          56.000  
R22 119697456.390 7  93098031.770 6 119697452.405 7  93098027.766 6  22423369.008    22423388.164    22423368.043    22423388.305        1902.715        1480.138        1903.027        1480.137          44.000          41.000          43.000          41.000  
R11 111732878.057 8  86903347.691 7 111732864.045 8  86903343.687 7  20909282.773    20909300.676    20909282.766    20909300.801        3143.449        2445.168        3143.800        2445.168          50.000          47.000          49.000          46.000  
R21 109965896.259 8  85529032.814 8 109965887.268 8  85529029.817 8  20549756.469    20549773.445    20549755.379    20549774.305        -362.004        -281.358        -361.739        -281.359          52.000          48.000          51.000          48.000  
R10 102797634.577 7                 102797617.570 7                  19284573.984                    19284572.613                        -901.652                        -901.167                          47.000                          45.000                  
R09 115527315.382 7  89854595.837 7 115527325.382 7  89854589.835 7  21634558.859    21634573.039    21634557.828    21634572.930       -3760.699       -2924.770       -3760.430       -2924.764          47.000          45.000          44.000          43.000  
R05 129480994.851 5 100707474.086 5 129480893.872 5 100707480.074 5  24222082.469    24222111.078    24222082.434    24222110.770        1626.231        1264.907        1626.312        1264.914          35.000          34.000          34.000          34.000  
C14 101211923.591 6 130889268.903 6  25135917.137    25135906.984        1607.141        2078.539          40.000          37.000  
C13 148919980.612 7 192586279.902 7  36984182.570    36984170.023         866.155        1120.129          45.000          46.000  
C11  94525266.030 7 122241934.040 7  23475290.625    23475278.688       -1272.983       -1646.250          46.000          44.000  
C10 147482552.694 7 190727381.408 7  36627197.832    36627188.102         441.619         571.055          46.000          44.000  
C09 154639017.839 6 199982264.603 6  38404502.426    38404492.602       -1243.431       -1608.121          40.000          38.000  
C08 146880728.816 7 189949116.880 7  36477735.961    36477730.570         863.793        1116.996          46.000          45.000  
C07 146296966.573 7 189194176.862 7  36332758.930    36332752.648         347.516         449.402          47.000          46.000  
C05 154616006.882 6 199952502.269 6  38398787.172    38398776.125          18.913          24.453          41.000          37.000  
C04 156986954.521 6 203018652.058 5  38987610.316    38987598.133          12.466          16.086          39.000          35.000  
C03 145889034.884 7 188666637.821 7  36231449.816    36231444.445          26.202          33.867          46.000          44.000  
C02 148824684.513 7 192463079.780 6  36960515.934    36960510.711          11.478          14.805          45.000          41.000  
C01 151014673.960 7 195295192.177 6  37504398.484    37504388.664          23.729          30.605          42.000          40.000  
S27 203497123.170 6  38724215.562         -10.719          40.000  
S37 193085391.839 7  36742922.828          -5.230          42.000  
> 2023 02 14 10 24  3.0000000  0 33
G30 115499337.132 7  89999555.764 7  89999509.760 7  86249519.415 8  21978793.109    21978812.430    21978812.809    21978816.266       -2501.945       -1949.452       -1949.452       -1868.223          45.000          46.000          46.000          50.000  
G17 114459892.759 7  89189607.993 7  89189608.984 7                  21780993.312    21781013.301    21781013.539                         -77.949         -60.783         -60.785                          45.000          47.000          45.000                  
G19 117785069.507 7  91780664.511 5                                  22413752.523    22413774.234                                        1092.098         851.050                                          43.000          33.000                                  
G07 124290963.466 6  96850159.731 5  96850157.735 6                  23651779.891    23651799.102    23651799.102                       -3458.457       -2694.961       -2694.964                          37.000          30.000          36.000                  
G01 122321680.582 6  95315719.176 3  95315636.198 6  91344138.766 7  23277045.641    23277073.109    23277072.699    23277076.887       -3500.453       -2727.550       -2727.554       -2613.905          37.000          23.000          41.000          45.000  
G14 106970805.636 8  83353945.314 7  83353945.303 8  79880825.431 9  20355867.555    20355884.172    20355884.043    20355891.738         665.258         518.536         518.542         496.939          48.000          43.000          53.000          56.000  
G03 117923455.501 7  91888504.862 6  91888430.857 7  88059735.322 8  22440087.969    22440112.207    22440112.312    22440117.848          -0.918          -0.489          -0.487          -0.472          42.000          41.000          44.000          48.000  
G06 112272536.469 7  87485178.657 8  87485180.645 8  83839980.973 8  21364753.547    21364773.805    21364774.316    21364778.523        1917.281        1494.153        1494.160        1431.905          46.000          50.000          48.000          51.000  
R20 117749498.005 6  91582995.232 6 117749440.980 5  91582993.229 6  22019741.563    22019763.520    22019740.629    22019762.906       -2965.133       -2306.212       -2965.113       -2306.206          37.000          38.000          35.000          37.000  
E33  92815997.997 8  95237273.747 8 124292749.418 8  94026744.985 9  23652143.031    23652138.156    23652123.891    23652140.637        -719.826        -738.605        -964.125        -729.219          52.000          53.000          49.000          59.000  
E01  94101751.396 8  96556561.139 8 126014415.873 8  95329155.877 9  23979765.598    23979760.770    23979746.133    23979763.184        -523.150        -536.796        -700.812        -529.973          51.000          52.000          50.000          58.000  
E26 103051583.429 7 105739870.569 7 137999397.099 7 104395736.111 8  26260439.168    26260433.871    26260412.602    26260436.570       -1845.127       -1893.260       -2470.855       -1869.194          44.000          44.000          42.000          50.000  
E31  96054746.017 8  98560521.893 8 128629841.043 8  97307656.563 9  24477467.441    24477462.656    24477444.227    24477465.016        1340.821        1375.795        1795.367        1358.305          49.000          50.000          49.000          56.000  
R22 119695553.794 7  93096551.982 6 119695549.802 7  93096547.977 6  22423012.391    22423031.793    22423011.426    22423031.746        1902.336        1479.789        1902.603        1479.790          44.000          41.000          43.000          41.000  
R11 111729734.757 8  86900902.907 7 111729720.761 8  86900898.903 7  20908694.695    20908712.637    20908694.453    20908712.332        3142.859        2444.783        3143.284        2444.783          50.000          47.000          49.000          46.000  
R21 109966258.401 8  85529314.483 8 109966249.418 8  85529311.486 7  20549824.461    20549841.539    20549823.605    20549842.387        -362.359        -281.669        -362.150        -281.668          52.000          48.000          51.000          47.000  
R10 102798536.571 7                 102798519.579 7                  19284743.109                    19284742.324                        -902.445                        -902.009                          47.000                          45.000                  
R09 115531076.158 7  89857520.882 7 115531086.160 7  89857514.885 7  21635263.937    21635277.738    21635262.203    21635277.641       -3760.973       -2925.045       -3760.778       -2925.051          47.000          45.000          44.000          44.000  
R05 129479368.855 6 100706209.404 5 129479267.854 5 100706215.393 5  24221778.609    24221807.957    24221779.043    24221807.453        1625.781        1264.682        1626.018        1264.681          37.000          33.000          35.000          34.000  
C14 101210316.388 6 130887190.434 6  25135518.273    25135507.781        1607.204        2078.484          40.000          36.000  
C13 148919114.559 7 192585159.904 7  36983967.332    36983954.742         866.053        1119.898          44.000          45.000  
C11  94526538.985 7 122243580.250 7  23475607.180    23475594.695       -1272.955       -1646.164          46.000          44.000  
C10 147482111.006 7 190726810.206 7  36627088.316    36627078.766         441.688         571.133          46.000          44.000  
C09 154640261.215 6 199983872.566 6  38404811.227    38404801.367       -1243.376       -1607.988          40.000          38.000  
C08 146879865.162 7 189947999.984 7  36477521.070    36477516.414         863.654        1116.715          47.000          45.000  
C07 146296618.988 7 189193727.353 7  36332672.652    36332666.070         347.585         449.465          46.000          46.000  
C05 154615987.960 6 199952477.791 6  38398782.762    38398771.891          18.922          24.266          40.000          37.000  
C04 156986942.069 6 203018635.954 5  38987607.180    38987595.414          12.452          16.129          39.000          35.000  
C03 145889008.671 7 188666603.923 7  36231443.254    36231437.930          26.213          33.844          46.000          44.000  
C02 148824673.035 7 192463064.933 6  36960513.512    36960507.781          11.478          14.852          46.000          41.000  
C01 151014650.195 7 195295161.445 6  37504392.555    37504382.406          23.765          30.762          43.000          40.000  
S27 203497133.823 6  38724218.469         -10.578          40.000  
S37 193085396.952 7  36742932.125          -5.156          42.000  
> 2023 02 14 10 24  4.0000000  0 33
G30 115501839.252 7  90001505.468 7  90001459.464 7  86251387.884 8  21979269.312    21979288.730    21979288.949    21979292.625       -2502.289       -1949.704       -1949.704       -1868.469          45.000          46.000          46.000          50.000  
G17 114459970.732 7  89189668.749 7  89189669.746 7                  21781007.719    21781027.996    21781028.105                         -78.020         -60.756         -60.762                          45.000          47.000          45.000                  
G19 117783977.367 7  91779813.496 5                                  22413544.805    22413566.816                                        1092.117         851.016                                          43.000          33.000                                  
G07 124294421.924 6  96852854.638 5  96852852.635 5                  23652437.836    23652457.398    23652457.555                       -3458.695       -2694.908       -2694.901                          37.000          31.000          35.000                  
G01 122325181.078 6  95318446.841 3  95318363.851 6  91346752.773 7  23277711.805    23277739.074    23277738.480    23277742.793       -3500.508       -2727.665       -2727.653       -2614.007          38.000          23.000          41.000          45.000  
G14 106970140.667 8  83353427.158 7  83353427.147 8  79880328.872 9  20355740.859    20355757.855    20355757.891    20355765.480         664.750         518.155         518.156         496.559          48.000          44.000          53.000          56.000  
G03 117923456.729 7  91888505.821 6  91888431.812 7  88059736.235 8  22440087.648    22440111.949    22440112.074    22440117.648          -1.516          -0.959          -0.955          -0.912          42.000          41.000          44.000          48.000  
G06 112270619.482 7  87483684.899 8  87483686.894 8  83838549.462 8  21364388.719    21364408.730    21364409.398    21364413.512        1916.719        1493.758        1493.751        1431.511          46.000          50.000          48.000          51.000  
R20 117752463.081 6  91585301.397 6 117752406.071 5  91585299.401 6  22020296.953    22020317.418    22020294.730    22020317.199       -2965.172       -2306.165       -2965.091       -2306.172          37.000          38.000          35.000          38.000  
E33  92816718.050 8  95238012.589 8 124293713.664 8  94027474.427 9  23652326.430    23652321.645    23652307.484    23652324.102        -720.053        -738.842        -964.426        -729.441          52.000          53.000          49.000          59.000  
E01  94102274.824 8  96557098.219 8 126015116.809 8  95329686.135 9  23979898.887    23979894.289    23979879.570    23979896.602        -523.428        -537.080        -701.148        -530.258          51.000          52.000          49.000          58.000  
E26 103053428.572 7 105741763.846 7 138001867.989 6 104397605.314 8  26260909.262    26260903.961    26260882.953    26260906.754       -1845.143       -1893.277       -2470.938       -1869.203          43.000          44.000          41.000          50.000  
E31  96053405.337 8  98559146.232 8 128628045.681 8  97306298.393 9  24477125.621    24477120.840    24477102.602    24477123.336        1340.680        1375.662        1795.277        1358.170          50.000          50.000          49.000          56.000  
R22 119693651.654 7  93095072.537 7 119693647.656 7  93095068.538 6  22422655.977    22422675.594    22422655.480    22422675.719        1901.859        1479.445        1902.146        1479.439          44.000          42.000          43.000          41.000  
R11 111726591.988 8  86898458.540 7 111726577.992 8  86898454.537 7  20908106.734    20908124.594    20908106.727    20908124.531        3142.441        2444.367        3142.769        2444.366          50.000          47.000          48.000          47.000  
R21 109966620.963 8  85529596.472 8 109966611.957 8  85529593.475 7  20549891.937    20549909.836    20549891.199    20549910.262        -362.816        -281.989        -362.539        -281.989          52.000          48.000          51.000          47.000  
R10 102799439.431 7                 102799422.426 7                  19284913.266                    19284911.426                        -903.387                        -902.847                          46.000                          45.000                  
R09 115534837.331 7  89860446.240 7 115534847.349 7  89860440.236 7  21635968.273    21635981.777    21635966.070    21635981.609       -3761.328       -2925.359       -3761.188       -2925.351          46.000          45.000          44.000          44.000  
R05 129477743.178 6 100704944.960 5 129477642.191 6 100704950.956 5  24221476.469    24221503.715    24221475.258    24221503.793        1625.320        1264.444        1625.663        1264.438          37.000          34.000          36.000          34.000  
C14 101208709.123 6 130885111.885 6  25135118.699    25135108.812        1607.264        2078.559          40.000          36.000  
C13 148918248.613 7 192584040.036 7  36983752.133    36983739.883         865.946        1119.672          44.000          45.000  
C11  94527811.937 7 122245226.454 7  23475923.113    23475910.875       -1272.951       -1646.277          46.000          44.000  
C10 147481669.284 7 190726238.957 7  36626978.527    36626968.961         441.722         571.254          46.000          44.000  
C09 154641504.547 6 199985480.464 6  38405119.910    38405109.828       -1243.332       -1607.875          40.000          37.000  
C08 146879001.657 7 189946883.277 7  36477306.820    36477302.055         863.505        1116.625          46.000          44.000  
C07 146296271.418 7 189193277.862 7  36332586.078    36332579.852         347.570         449.422          47.000          46.000  
C05 154615969.044 6 199952453.327 6  38398778.008    38398767.383          18.916          24.422          41.000          36.000  
C04 156986929.613 6 203018619.841 5  38987604.070    38987591.961          12.456          15.992          39.000          35.000  
C03 145888982.458 7 188666570.019 7  36231436.699    36231430.992          26.213          33.797          46.000          44.000  
C02 148824661.561 7 192463050.096 6  36960510.465    36960505.195          11.473          14.781          45.000          41.000  
C01 151014626.454 7 195295130.739 6  37504386.645    37504376.680          23.741          30.637          42.000          40.000  
S27 203497144.485 6  38724220.469         -10.688          40.000  
S37 193085402.073 7  36742931.812          -5.160          42.000  
