     3.04           OBSERVATION DATA    M: Mixed            RINEX VERSION / TYPE
RTKCONV demo5 b34i                      20250404 103054 UTC PGM / RUN BY / DATE 
format: u-blox UBX                                          COMMENT             
log: D:\20242\demo5_b34i\data\HoDenLu\chung\hdl2.ubx        COMMENT             
                                                            MARKER NAME         
                                                            MARKER NUMBER       
                                                            MARKER TYPE         
                                                            OBSERVER / AGENCY   
                                                            REC # / TYPE / VERS 
                                                            ANT # / TYPE        
 -1627740.4698  5730994.5971  2269822.4388                  APPROX POSITION XYZ 
        0.0000        0.0000        0.0000                  ANTENNA: DELTA H/E/N
G    8 C1C L1C D1C S1C C2X L2X D2X S2X                      SYS / # / OBS TYPES 
R    8 C1C L1C D1C S1C C2C L2C D2C S2C                      SYS / # / OBS TYPES 
E    8 C1X L1X D1X S1X C7X L7X D7X S7X                      SYS / # / OBS TYPES 
  2025    04    04    10    15   29.9990000     GPS         TIME OF FIRST OBS   
  2025    04    04    10    30   28.9990000     GPS         TIME OF LAST OBS    
G L1C                                                       SYS / PHASE SHIFT   
G L2X  0.00000                                              SYS / PHASE SHIFT   
R L1C                                                       SYS / PHASE SHIFT   
R L2C                                                       SYS / PHASE SHIFT   
E L1X  0.00000                                              SYS / PHASE SHIFT   
E L7X  0.00000                                              SYS / PHASE SHIFT   
  7 R05  1 R06 -4 R07  5 R11  0 R20  2 R21  4 R22 -3        GLONASS SLOT / FRQ #
 C1C    0.000 C1P    0.000 C2C    0.000 C2P    0.000        GLONASS COD/PHS/BIS 
                                                            END OF HEADER       
> 2025 04 04 10 15 29.9990000  0 23                     
G25  23036797.067   121059188.1751      -1495.451          39.000    23036817.330                       -1170.200          15.000  
G05  20500282.551   107729711.7021       -832.751          46.000    20500301.206    83945310.5691       -649.554          34.000  
G06  23170292.990   121760704.7901      -2048.102          44.000    23170323.647    94878599.7901      -1596.441          41.000  
G11  21686889.660   113965378.0981      -1217.668          41.000    21686910.333    88804272.2801       -949.321          45.000  
R21  20661374.346   110563199.8131       1136.322          44.000    20661397.145    85993684.8381        884.271          42.000  
R05  22327392.817                       -4833.372          22.000    22327375.332    92829813.0801      -3757.803          36.000  
R06  18862662.964   100654795.6981       -982.643          35.000                                                                  
R07  20503449.765   109756569.5851       2442.047          38.000    20503494.388    85366407.8683       1900.549          33.000  
G12  22394770.150   117685305.6461      -2856.704          40.000    22394792.922    91702936.6671      -2225.845          35.000  
G19  23086612.133   121320974.4111      -4264.856          36.000                                                                  
G29  23805985.742   125101295.7221       2538.389          41.000    23806007.319    97481623.0741       1977.568          32.000  
G20  20985995.741   110282151.5441      -2422.512          46.000                                                                  
R20  20881171.747   111660970.4741      -1208.729          32.000    20881199.091    86847571.7421       -940.699          44.000  
E27  25904336.038   136128206.2901      -1144.372          43.000    25904377.304   104306191.1301       -878.585          29.000  
E30  25581364.957   134430973.0951      -2982.002          40.000    25581401.084   103005701.7991      -2285.146          35.000  
E34  24877159.597   130730357.5421      -1157.291          41.000    24877194.831   100170159.2011       -886.496          43.000  
G13  21169861.149   111248267.6191       1899.154          24.000                                                                  
E15  24852819.673   130602452.1901       -162.094          41.000    24852853.734   100072151.7031       -124.771          41.000  
E05  24039345.795   126327595.0111      -2013.819          41.000    24039385.251    96796648.6181      -1542.887          42.000  
E18  20962085.413   110156526.1741      -7188.825          38.000                                                                  
E03  23874100.722   125459232.2911        442.563          41.000    23874134.169    96131250.7311        338.467          41.000  
E02                                                                  27501289.703   110736318.5781      -2594.904          30.000  
E36                                                                  28063658.814                       -1440.197          25.000  
> 2025 04 04 10 15 30.9990000  0 23                     
G25  23037081.440   121060683.021       -1494.020          37.000    23037103.150                       -1163.180          27.000  
G05  20500440.811   107730543.898        -831.390          46.000    20500459.581    83945959.022        -648.145          35.000  
G06  23170682.649   121762752.383       -2046.696          44.000    23170713.282    94880195.288       -1594.953          41.000  
G11  21687121.292   113966595.451       -1216.369          42.000    21687141.959    88805220.844        -948.110          45.000  
R21  20661161.957   110562062.850        1138.092          43.000    20661184.687    85992800.544         884.277          41.000  
R05  22328293.643                       -4828.046          25.000    22328278.973    92833570.790       -3756.367          37.000  
R06  18862847.008   100655778.090        -982.047          35.000                                                                  
R07  20502993.498   109754127.739        2443.066          38.000    20503023.110    85364445.3612       1900.043          44.000  
G12  22395313.556   117688161.399       -2855.212          43.000    22395336.267    91705161.958       -2225.230          37.000  
G19  23087423.594   121325238.728       -4263.746          39.000                                                                  
G29  23805502.661   125098757.014        2540.329          40.000    23805524.145    97479644.948        1978.096          32.000  
G20  20986456.659   110284573.068       -2420.520          46.000                                                                  
R20  20881397.642   111662178.286       -1208.068          32.000    20881424.946    86848511.084        -938.703          43.000  
E27  25904553.714   136129349.894       -1142.765          42.000    25904593.311   104307067.329        -874.980          32.000  
E30  25581932.522   134433954.506       -2980.502          41.000    25581968.280   103007986.214       -2283.992          37.000  
E34  24877379.482   130731514.054       -1155.398          41.000    24877414.993   100171045.367        -885.269          43.000  
G13  21169499.252   111246368.494        1899.809          32.000                                                                  
E15  24852850.304   130602614.006        -160.454          43.000    24852884.563   100072275.713        -123.300          41.000  
E05  24039729.457   126329608.609       -2012.439          41.000    24039768.554    96798191.536       -1541.937          42.000  
E18  20963453.202   110163714.776       -7187.667          40.000                                                                  
E03  23874016.335   125458789.714         443.166          40.000    23874050.157    96130911.537         339.726          39.000  
E02                                                                  27501933.631   110738911.446       -2592.059          31.000  
E36                                                                  28064014.543   113002156.9231      -1439.069          27.000  
> 2025 04 04 10 15 31.9990000  0 24                     
G25  23037365.485   121062177.100       -1494.430          39.000    23037387.834                       -1167.207          26.000  
G05  20500598.950   107731375.262        -830.792          44.000    20500617.686    83946606.822        -647.546          34.000  
G06  23171072.094   121764798.831       -2046.050          44.000    23171102.706    94881789.949       -1594.781          41.000  
G11  21687352.742   113967811.631       -1216.108          42.000    21687373.377    88806168.512        -947.391          45.000  
R21  20660949.229   110560924.692        1138.287          44.000    20660971.990    85991915.344         885.242          41.000  
R05  22329192.999   119362332.6623      -4830.193          31.000    22329182.546    92837327.770       -3756.632          34.000  
R06  18863031.109   100656760.087        -982.194          35.000                                                                  
R07  20502537.334                        2443.991          28.000    20502564.112    85362545.3982       1899.457          36.000  
G12  22395856.730   117691016.257       -2854.976          42.000    22395879.567    91707386.560       -2224.669          41.000  
G19  23088234.801   121329502.032       -4261.533          33.000                                                                  
G29  23805019.388   125096217.252        2540.283          39.000    23805040.879    97477665.853        1979.276          32.000  
G20  20986917.326   110286993.438       -2420.243          46.000                                                                  
R20  20881623.399   111663385.066       -1206.062          31.000    20881650.664    86849449.729        -938.339          43.000  
E27  25904771.387   136130492.666       -1142.634          44.000    25904810.479                        -875.392          33.000  
E30  25582500.360   134436934.873       -2979.509          38.000    25582535.639   103010269.988       -2284.184          30.000  
E34  24877599.219   130732669.285       -1154.078          41.000    24877634.873   100171930.565        -884.815          43.000  
G13  21169137.723   111244468.332        1900.363          36.000                                                                  
E15  24852880.760   130602774.463        -159.958          44.000    24852915.141   100072398.661        -122.729          40.000  
E05  24040112.707   126331621.446       -2012.773          42.000    24040151.652    96799733.826       -1542.289          42.000  
E18  20964820.762   110170902.488       -7187.917          36.000                                                                  
E03  23873932.133   125458346.231         443.604          41.000    23873965.800    96130571.774         340.072          41.000  
E02                                                                  27502577.127   110741503.253       -2591.340          36.000  
E36                                                                  28064372.624   113003595.717       -1438.054          26.000  
G15                                                                  23121434.403                        2174.579          22.000  
> 2025 04 04 10 15 32.9990000  0 23                     
G25  23037649.844   121063671.904       -1494.499          40.000    23037674.077                       -1168.498          25.000  
G05  20500757.198   107732207.389        -831.903          45.000    20500775.945    83947255.261        -648.523          36.000  
G06  23171461.665   121766845.674       -2046.301          44.000    23171492.244    94883384.886       -1594.902          41.000  
G11  21687584.236   113969028.237       -1216.918          43.000    21687604.824    88807116.532        -948.010          44.000  
R21  20660736.696   110559787.077        1137.848          44.000    20660759.360    85991030.486         884.998          44.000  
R05  22330085.793   119367105.8572      -4831.449          32.000    22330086.105    92841085.211       -3757.279          33.000  
R06  18863215.410   100657743.325        -984.097          35.000                                                                  
R07  20502075.125                        2442.311          24.000    20502110.627    85360645.6701       1899.365          40.000  
G12  22396400.001   117693871.765       -2855.537          42.000    22396422.948    91709611.563       -2224.808          41.000  
G19  23089046.237   121333766.079       -4263.851          36.000                                                                  
G29  23804536.145   125093677.904        2539.062          36.000    23804557.853    97475687.334        1978.033          30.000  
G20  20987377.947   110289414.317       -2420.988          46.000                                                                  
R20  20881849.315   111664592.656       -1206.876          32.000    20881876.457    86850388.980        -939.637          44.000  
E27  25904988.580   136131636.190       -1143.808          43.000    25905027.150   104308809.1741       -875.155          28.000  
E30  25583067.833   134439915.794       -2980.345          38.000    25583103.078   103012554.090       -2283.596          35.000  
E02  27503177.714   144530173.7391      -3382.645          28.000    27503220.724   110744095.150       -2592.001          35.000  
E34  24877819.088   130733824.945       -1155.103          40.000    24877854.864   100172816.014        -885.304          44.000  
G13  21168775.811   111242569.126        1898.544          40.000                                                                  
E15  24852911.596   130602935.392        -160.937          40.000    24852946.135   100072521.945        -122.942          38.000  
E05  24040496.531   126333634.984       -2013.870          42.000    24040534.851    96801276.667       -1543.100          42.000  
E18  20966188.375   110178091.116       -7188.599          38.000                                                                  
E03  23873847.972   125457903.470         442.164          40.000    23873881.496    96130232.507         338.833          40.000  
E36                                                                  28064730.251                       -1437.684          26.000  
> 2025 04 04 10 15 33.9990000  0 23                     
G25  23037934.309   121065166.734       -1495.605          39.000    23037960.440                       -1163.674          26.000  
G05  20500915.480   107733039.401        -832.690          46.000    20500934.304    83947903.504        -648.804          36.000  
G06  23171851.081   121768892.202       -2047.011          35.000    23171881.711    94884979.602       -1595.477          35.000  
G11  21687815.715   113970244.430       -1216.567          38.000    21687836.236    88808064.208        -947.729          41.000  
R21  20660523.992   110558648.988        1137.781          40.000    20660546.852    85990145.310         885.168          42.000  
R05  22330987.356                       -4836.965          26.000    22330989.805    92844842.480       -3758.115          35.000  
R06  18863399.712   100658726.897        -984.366          35.000                                                                  
R07  20501620.676   109746780.0703       2440.397          31.000    20501652.667    85358746.431        1899.274          39.000  
G12  22396943.406   117696727.072       -2855.534          42.000    22396966.453    91711836.478       -2225.476          41.000  
G19  23089857.336   121338029.835       -4264.790          36.000                                                                  
G29  23804052.882   125091138.152        2539.742          43.000    23804074.635    97473708.187        1978.897          33.000  
G20  20987838.505   110291834.781       -2420.847          46.000                                                                  
R20  20882075.085   111665800.000       -1209.217          28.000    20882102.254    86851328.111        -940.170          40.000  
E27  25905206.131   136132779.558       -1143.694          43.000    25905246.931   104309685.476        -876.914          29.000  
E30  25583634.595   134442896.354       -2980.888          37.000    25583670.408   103014837.805       -2283.156          35.000  
E02  27503828.188   144533555.719       -3382.226          33.000    27503864.287   110746686.542       -2592.233          35.000  
E34  24878038.929   130734980.008       -1156.097          36.000    24878074.629   100173701.116        -885.289          37.000  
G13  21168414.230   111240669.611        1898.884          39.000                                                                  
E15  24852942.187   130603095.476        -161.152          41.000    24852976.571   100072644.563        -122.795          39.000  
E05  24040879.583   126335648.682       -2014.656          27.000    24040918.185    96802819.772       -1544.507          36.000  
E18  20967556.404   110185279.625       -7189.644          38.000                                                                  
E03  23873763.776   125457460.580         442.091          40.000    23873797.333    96129893.106         339.077          41.000  
E36                                                                  28065084.852                       -1439.759          24.000  
> 2025 04 04 10 15 34.9990000  0 23                     
G25  23038218.861   121066661.913       -1494.060          39.000    23038245.924                       -1170.245          26.000  
G05  20501073.905   107733871.675        -831.152          46.000    20501092.651    83948552.030        -645.850          34.000  
G06  23172241.071   121770947.7493      -2045.665          39.000    23172271.425    94886575.348       -1594.716          40.000  
G11  21688047.111   113971460.588       -1214.131          43.000    21688067.624    88809011.917        -946.625          45.000  
R21  20660311.285   110557510.909        1139.771          44.000    20660334.153    85989260.141         886.578          40.000  
R05  22331889.141                       -4826.748          26.000    22331893.502    92848599.997       -3757.245          35.000  
R06  18863584.220   100659711.316        -983.192          35.000                                                                  
R07  20501164.624   109744338.6862       2444.653          29.000    20501197.013    85356847.628        1899.597          39.000  
G12  22397486.788   117699582.563       -2853.927          43.000    22397509.726    91714061.584       -2224.117          39.000  
G19  23090668.840                       -4251.291          26.000                                                                  
G29  23803569.627   125088598.405        2540.910          41.000    23803590.655    97471724.0601       1980.208          33.000  
G20  20988299.066   110294255.334       -2419.130          46.000                                                                  
R20  20882301.760   111667051.1333      -1205.764          28.000    20882328.975    86852264.4093       -940.256          44.000  
E27  25905423.979   136133923.330       -1142.078          43.000    25905465.626   104310561.636        -874.489          32.000  
E30  25584201.954   134445876.894       -2978.635          39.000    25584237.673   103017121.687       -2282.147          33.000  
E02  27504468.857   144536937.521       -3379.574          31.000    27504507.684   110749277.743       -2589.704          35.000  
E34  24878258.757   130736134.914       -1152.588          42.000    24878294.749   100174586.035        -884.064          44.000  
G13  21168052.653   111238770.353        1900.975          39.000                                                                  
E15  24852972.383   130603255.503        -158.334          41.000    24853007.032   100072767.264        -120.873          41.000  
E05  24041261.380   126337681.2601      -2012.947          36.000    24041301.413    96804362.425       -1540.430          39.000  
E18  20968926.878                       -7187.123          27.000                                                                  
E03  23873679.653   125457017.998         444.450          37.000    23873713.347    96129554.010         340.678          37.000  
E36                                                                  28065445.078                       -1437.502          22.000  
> 2025 04 04 10 15 35.9990000  0 23                     
G25  23038503.150   121068155.855       -1493.902          39.000    23038531.510                       -1168.139          24.000  
G05  20501231.959   107734702.602        -830.469          45.000    20501250.857    83949199.582        -647.089          34.000  
G06  23172628.167   121772992.5192      -2044.944          42.000    23172660.536    94888168.593       -1592.774          40.000  
G11  21688278.226   113972675.198       -1214.374          43.000    21688298.862    88809958.286        -946.080          44.000  
R21  20660098.388   110556371.101        1140.308          45.000    20660121.137    85988373.616         886.749          42.000  
R05  22332792.938                       -4827.799          27.000    22332796.908    92852356.255       -3755.268          31.000  
R06  18863768.321   100660694.882        -983.875          36.000                                                                  
R07  20500706.437   109741896.3512       2444.068          28.000    20500738.844    85354947.762        1900.696          37.000  
G12  22398029.874   117702436.723       -2854.167          42.000    22398052.897    91716285.603       -2224.198          41.000  
G19  23091476.305   121346526.2183      -4262.767          38.000                                                                  
G29  23803086.017   125086057.006        2541.411          42.000    23803106.056    97469743.770        1981.654          35.000  
G20  20988759.369   110296674.238       -2418.514          46.000                                                                  
R20  20882525.766   111668257.2092      -1204.286          28.000    20882554.463    86853202.4852       -937.631          45.000  
E27  25905641.603   136135065.720       -1142.165          44.000    25905681.544   104311437.052        -874.146          28.000  
E30  25584768.847   134448855.945       -2978.256          38.000    25584804.726   103019404.403       -2283.155          35.000  
E34  24878478.107   130737288.101       -1152.538          42.000    24878514.084   100175469.660        -883.655          44.000  
G13  21167690.865   111236869.805        1900.643          41.000                                                                  
E15  24853002.516   130603413.767        -157.867          41.000    24853037.180   100072888.450        -120.484          40.000  
E05  24041647.815   126339693.701       -2012.200          40.000    24041684.560    96805904.535       -1541.344          42.000  
E18  20970291.306   110199623.9301      -7187.266          40.000                                                                  
E03  23873595.054   125456574.047         444.254          41.000    23873629.042    96129213.875         340.837          39.000  
E02                                                                  27505150.862   110751867.749       -2591.481          30.000  
E36                                                                  28065803.669                       -1436.927          23.000  
> 2025 04 04 10 15 36.9990000  0 24                     
G25  23038787.249   121069649.241       -1492.674          39.000    23038815.818                       -1162.970          23.000  
G05  20501390.046   107735532.990        -830.139          46.000    20501408.954    83949846.630        -647.083          34.000  
G06  23173018.036   121775036.552       -2043.953          41.000    23173049.491    94889761.304       -1592.096          41.000  
G11  21688509.263   113973888.920       -1214.056          38.000    21688529.782    88810904.045        -944.852          40.000  
R21  20659885.150   110555230.459        1141.510          45.000    20659907.982    85987486.449         886.780          42.000  
R05  22333701.784   119386435.4243      -4825.855          27.000    22333699.182    92856105.5023      -3755.208          31.000  
R06  18863952.623   100661678.297        -983.367          36.000                                                                  
R07  20500250.580   109739445.5043       2443.109          36.000    20500282.288    85353047.554        1899.835          41.000  
G12  22398572.731   117705290.164       -2852.233          43.000    22398595.926    91718509.057       -2222.932          41.000  
G19  23092288.038   121350792.1122      -4262.516          34.000                                                                  
G29  23802602.265   125083514.753        2542.656          43.000    23802622.759    97467762.799        1981.828          34.000  
G20  20989219.525   110299092.302       -2417.744          46.000                                                                  
R20  20882751.931   111669458.9103      -1204.880          30.000    20882780.185    86854140.098        -936.666          44.000  
E27  25905858.480   136136207.559       -1141.615          43.000    25905899.164   104312312.014        -873.578          29.000  
E30  25585335.241   134451834.156       -2977.800          39.000    25585371.420   103021686.188       -2281.200          31.000  
E02  27505744.362                       -3376.703          25.000    27505793.789   110754456.555       -2589.377          33.000  
E34  24878697.361   130738440.330       -1151.783          32.000    24878733.473   100176352.625        -882.323          37.000  
G13  21167329.047   111234968.731        1899.510          31.000                                                                  
E15  24853032.418   130603570.888        -156.398          42.000    24853066.961   100073008.919        -119.577          40.000  
E05  24042029.506   126341705.594       -2011.108          43.000    24042067.196    96807446.052       -1540.889          42.000  
E18  20971662.010   110206810.994       -7186.792          36.000                                                                  
E03  23873510.474   125456129.545         444.920          40.000    23873544.339    96128873.257         340.938          42.000  
E36                                                                  28066158.390                       -1436.352          25.000  
G15                                                                  23118778.195                        2175.908          22.000  
> 2025 04 04 10 15 37.9990000  0 23                     
G25  23039071.211   121071141.621       -1491.132          39.000    23039098.718                       -1170.446          22.000  
G05  20501547.878   107736362.284        -828.467          46.000    20501566.632    83950492.846        -645.093          34.000  
G06  23173407.160   121777079.181       -2041.631          44.000    23173438.202    94891352.934       -1590.958          41.000  
G11  21688740.036   113975101.357       -1211.114          38.000    21688760.409    88811848.769        -944.050          41.000  
R21  20659671.828   110554088.441        1142.859          43.000    20659694.535    85986598.215         889.093          42.000  
R05  22334604.481                       -4826.669          26.000    22334598.403    92859860.3192      -3753.146          28.000  
R06  18864136.916   100662661.135        -981.924          35.000                                                                  
R07  20499794.334   109737001.4092       2445.068          38.000    20499825.471    85351146.635        1901.624          42.000  
G12  22399115.426   117708142.555       -2851.622          43.000    22399138.718    91720731.585       -2221.967          39.000  
G19  23093100.927   121355052.5922      -4259.999          39.000                                                                  
G29  23802118.229   125080971.119        2544.438          42.000    23802139.515    97465780.817        1982.462          29.000  
G20  20989679.356   110301509.029       -2416.062          45.000                                                                  
R20  20882979.937   111670663.3362      -1203.923          29.000    20883003.552    86855076.885        -936.330          45.000  
E27  25906075.730   136137348.342       -1140.138          43.000    25906116.933   104313197.0191       -872.984          30.000  
E30  25585901.215   134454811.112       -2975.975          40.000    25585937.744   103023967.278       -2280.487          41.000  
E02  27506390.174   144547055.2541      -3376.020          30.000    27506436.342   110757044.036       -2586.324          27.000  
E34  24878916.368   130739591.326       -1149.533          32.000    24878952.434   100177234.433        -881.394          39.000  
G13  21166966.878   111233066.424        1902.260          32.000                                                                  
E15  24853062.052   130603726.562        -154.784          42.000    24853096.589   100073128.180        -118.861          39.000  
E05  24042412.582   126343716.487       -2010.174          40.000    24042449.752    96808986.877       -1540.573          39.000  
E18  20973023.802   110213996.978       -7185.273          39.000                                                                  
E03  23873425.528   125455683.917         446.263          40.000    23873459.582    96128531.824         342.270          41.000  
E36                                                                  28066515.318   113012226.3661      -1435.065          26.000  
> 2025 04 04 10 15 38.9990000  0 24                     
G25  23039355.065   121072632.949       -1491.819          39.000    23039381.977                       -1157.783          22.000  
G15  23117708.643                        2794.622          24.000    23117719.471                        2166.140          18.000  
G05  20501705.476   107737190.391        -828.125          47.000    20501723.764    83951138.083        -645.581          31.000  
G06  23173794.508   121779120.295       -2040.889          44.000    23173826.618    94892943.457       -1590.449          41.000  
G11  21688970.340   113976311.839       -1211.197          32.000    21688990.874    88812792.169        -943.381          35.000  
R21  20659458.107   110552944.807        1143.878          44.000    20659480.909    85985708.701         890.350          35.000  
R05  22335507.072                       -4824.674          24.000    22335498.472    92863586.0423      -3752.985          28.000  
R06  18864321.084   100663643.240        -982.239          36.000                                                                  
R07  20499338.437   109734556.0621       2445.239          40.000    20499368.305    85349245.013        1901.776          45.000  
G12  22399657.962   117710993.543       -2850.810          41.000    22399681.293    91722953.213       -2221.507          39.000  
G19  23093912.875   121359311.8782      -4259.701          34.000                                                                  
G29  23801633.917   125078426.040        2545.114          42.000    23801655.905    97463797.538        1983.153          34.000  
G20  20990139.058   110303924.316       -2414.365          36.000                                                                  
R20  20883205.875   111671866.0081      -1203.563          31.000    20883228.871    86856012.606        -935.783          46.000  
E27  25906292.300   136138487.916       -1139.688          42.000    25906330.613   104314070.227        -873.386          30.000  
E30  25586467.270   134457786.586       -2974.855          40.000    25586503.664   103026247.200       -2280.136          39.000  
E34  24879135.164   130740740.224       -1149.124          36.000    24879171.302   100178114.761        -880.471          35.000  
G13  21166605.117   111231260.1333       1905.463          31.000                                                                  
E15  24853091.328   130603880.498        -153.427          42.000    24853125.822   100073246.135        -117.593          41.000  
E05  24042791.872   126345726.213       -2009.296          39.000    24042832.287    96810526.830       -1539.867          40.000  
E18  20974394.981   110221181.810       -7184.671          37.000                                                                  
E03  23873340.430   125455237.104         446.685          37.000    23873374.721    96128189.576         342.371          36.000  
E02                                                                  27507080.429                       -2585.746          25.000  
E36                                                                  28066873.204                       -1437.599          26.000  
> 2025 04 04 10 15 39.9990000  0 24                     
G25  23039638.958   121074124.468       -1492.919          38.000    23039665.489                       -1162.837          25.000  
G15  23117175.701                        2794.622          24.000    23117187.907                        2179.529          19.000  
G05  20501862.986   107738018.672        -828.882          46.000    20501881.001    83951783.591        -646.332          33.000  
G06  23174183.131   121781161.327       -2041.701          42.000    23174215.028    94894533.873       -1591.202          40.000  
G11  21689198.202   113977505.7813      -1210.846          32.000    21689221.262    88813735.663        -944.077          41.000  
R21  20659244.464   110551801.166        1142.773          47.000    20659267.340    85984819.212         888.977          44.000  
R05  22336414.828                       -4828.015          22.000    22336403.921    92867340.0082      -3754.602          36.000  
R06  18864505.280   100664625.986        -983.415          36.000                                                                  
R07  20498885.800   109732111.387        2443.616          40.000    20498911.247    85347343.613        1900.842          46.000  
G12  22400200.590   117713844.699       -2851.771          41.000    22400223.852    91725174.856       -2222.015          39.000  
G19  23094720.693   121363571.1482      -4259.711          37.000                                                                  
G29  23801149.563   125075880.818        2544.242          44.000    23801172.297    97461814.310        1981.523          33.000  
G20  20990598.659   110306339.518       -2415.723          46.000                                                                  
R20  20883429.342   111673069.105       -1202.625          29.000    20883453.858    86856948.526        -936.478          42.000  
E27  25906509.588   136139627.691       -1140.389          45.000    25906548.379   104314943.644        -873.995          33.000  
E30  25587033.598   134460761.984       -2975.894          42.000    25587069.728   103028527.071       -2280.657          39.000  
E34  24879353.725   130741889.309       -1149.152          34.000    24879389.928   100178995.235        -880.794          36.000  
G13  21166241.775   111229356.9272       1902.062          31.000                                                                  
E15  24853120.184   130604034.172        -153.977          42.000    24853155.071   100073363.920        -118.287          39.000  
E05  24043173.385   126347736.370       -2010.741          34.000    24043214.986    96812066.978       -1540.822          38.000  
E18  20975760.191   110228366.875       -7186.378          36.000                                                                  
E03  23873255.403   125454790.490         445.408          39.000    23873289.708    96127847.252         341.672          40.000  
E02                                                                  27507724.427   110762207.2791      -2586.112          28.000  
E36                                                                  28067229.098   113015100.2891      -1434.815          26.000  
> 2025 04 04 10 15 40.9990000  0 24                     
G25  23039923.043   121075618.392       -1493.741          40.000    23039947.959                       -1168.332          23.000  
G05  20502021.014   107738849.332        -830.151          44.000    20502039.025    83952430.804        -647.144          36.000  
G06  23174572.672   121783204.466       -2041.629          37.000    23174603.723    94896126.018       -1590.496          32.000  
G11  21689429.879   113978718.3122      -1211.663          38.000    21689452.029    88814680.550        -944.587          42.000  
R21  20659031.073   110550659.610        1142.145          44.000    20659053.911    85983931.331         888.385          42.000  
R05  22337302.315                       -4831.313          29.000    22337309.186    92871095.1911      -3755.313          36.000  
R06  18864690.174   100665611.674        -985.737          35.000                                                                  
R07  20498427.227   109729669.108        2443.127          38.000    20498454.474    85345444.142        1899.469          44.000  
G12  22400743.626   117716698.116       -2852.809          41.000    22400766.920    91727398.322       -2222.945          41.000  
G19  23095531.983   121367832.8652      -4261.969          40.000                                                                  
G29  23800665.621   125073337.624        2543.679          42.000    23800686.092    97459832.530        1983.606          32.000  
G20  20991058.695   110308756.810       -2416.743          47.000                                                                  
R20  20883652.311                       -1199.670          20.000    20883679.003    86857886.531        -937.497          39.000  
E27  25906727.042   136140769.876       -1142.038          41.000    25906764.745   104315818.769        -874.485          27.000  
E30  25587600.479   134463739.539       -2977.358          41.000    25587636.095   103030808.555       -2281.023          39.000  
E34  24879571.724   130743030.9911      -1149.742          37.000    24879609.232   100179876.953        -881.998          42.000  
G13  21165873.196   111227455.5102       1902.601          26.000                                                                  
E15  24853149.723   130604189.765        -155.496          42.000    24853184.918   100073483.116        -118.805          40.000  
E18  20977128.475   110235554.462       -7187.890          40.000                                                                  
E03  23873170.849   125454346.208         444.508          42.000    23873205.336    96127506.804         340.364          43.000  
E02                                                                  27508365.828   110764794.722       -2587.354          29.000  
E36                                                                  28067585.811                       -1434.575          25.000  
E05                                                                  24043598.284    96813608.784       -1541.733          38.000  
G15                                                                  23116656.089                        2183.177          18.000  
> 2025 04 04 10 15 41.9990000  0 24                     
G25  23040207.104   121077111.418       -1493.501          40.000    23040233.821                       -1159.525          20.000  
G05  20502178.889   107739678.897        -830.310          46.000    20502196.860    83953077.262        -647.156          34.000  
G06  23174961.222   121785246.216       -2042.422          44.000    23174992.166    94897716.790       -1591.236          41.000  
G11  21689658.738   113979929.7982      -1212.552          41.000    21689682.575    88815624.506        -943.798          43.000  
R21  20658817.581   110549516.570        1142.529          44.000    20658840.248    85983042.309         888.678          41.000  
R05  22338205.795                       -4827.938          22.000    22338212.147    92874849.834       -3753.723          35.000  
R06  18864874.792   100666596.762        -986.098          35.000                                                                  
R07  20497971.631   109727226.207        2442.755          39.000    20497997.846    85343544.015        1899.591          43.000  
G12  22401286.394   117719550.390       -2853.178          40.000    22401309.668    91729620.894       -2222.755          41.000  
G19  23096342.927   121372093.2532      -4260.846          39.000                                                                  
G29  23800181.259   125070793.095        2544.304          41.000    23800201.441    97457849.812        1982.390          33.000  
G20  20991518.459   110311172.786       -2417.114          46.000                                                                  
R20  20883878.158                       -1205.640          28.000    20883904.260    86858823.071        -938.090          44.000  
E27  25906943.860   136141910.981       -1142.055          43.000    25906983.086   104316693.203        -876.498          32.000  
E30  25588166.866   134466715.766       -2976.516          42.000    25588202.347   103033089.033       -2280.403          39.000  
E34  24879789.164   130744180.426       -1149.041          41.000    24879827.917   100180757.686        -880.433          43.000  
G13  21165516.666   111225540.0103       1901.276          32.000                                                                  
E15  24853179.164   130604343.825        -154.602          42.000    24853214.520   100073601.168        -118.415          41.000  
E05  24043939.352   126351753.7911      -2011.974          41.000    24043981.188    96815149.940       -1541.337          44.000  
E18  20978496.554   110242740.866       -7186.544          39.000                                                                  
E03  23873086.123   125453900.955         444.750          31.000    23873120.898    96127165.696         340.562          37.000  
E02                                                                  27509006.872   110767380.699       -2585.135          29.000  
E36                                                                  28067940.610                       -1439.030          23.000  
G15                                                                  23116124.982                        2183.693          19.000  
> 2025 04 04 10 15 42.9990000  0 24                     
G25  23040491.136   121078604.224       -1492.297          41.000    23040517.323                       -1164.472          21.000  
G05  20502336.636   107740508.222        -828.632          46.000    20502354.632    83953723.522        -645.929          36.000  
G06  23175349.605   121787287.461       -2040.512          45.000    23175380.512    94899307.457       -1590.157          43.000  
G11  21689889.470   113981140.653       -1210.193          41.000    21689913.032    88816568.031        -942.986          44.000  
R21  20658603.821   110548373.118        1144.006          43.000    20658626.585    85982152.943         889.752          39.000  
R05  22339107.043                       -4830.549          23.000    22339115.427    92878604.306       -3753.918          33.000  
R06  18865059.529   100667582.102        -985.324          36.000                                                                  
R07  20497514.547   109724783.024        2443.750          34.000    20497541.394    85341643.916        1901.007          39.000  
G12  22401829.052   117722402.354       -2851.141          40.000    22401852.390    91731843.211       -2221.633          41.000  
G19  23097153.990   121376353.313       -4259.728          37.000                                                                  
G29  23799697.008   125068248.088        2545.743          41.000    23799717.142    97455866.697        1984.546          36.000  
G20  20991978.114   110313588.233       -2414.773          45.000                                                                  
R20  20884102.931   111676683.1453      -1203.211          29.000    20884129.615    86859759.712        -936.240          47.000  
E27  25907161.235   136143051.860       -1140.395          43.000    25907201.031   104317567.443        -874.807          29.000  
E30  25588733.572   134469691.557       -2975.461          42.000    25588768.482   103035369.159       -2279.527          36.000  
E02  27509607.321   144563961.3871      -3373.026          25.000    27509649.971   110769966.152       -2584.247          29.000  
E34  24880007.466   130745329.247       -1148.193          40.000    24880046.037   100181637.929        -879.972          42.000  
G13  21165154.999   111223637.456        1902.892          35.000                                                                  
E15  24853208.626   130604497.167        -152.889          42.000    24853243.592   100073718.670        -117.022          41.000  
E05  24044322.583   126353764.785       -2010.697          39.000    24044363.638    96816690.919       -1540.655          41.000  
E18  20979864.170   110249927.215       -7185.994          36.000                                                                  
E03  23873001.422   125453455.441         446.331          36.000    23873036.478    96126824.303         341.512          39.000  
E36                                                                  28068295.360                       -1438.710          23.000  
G15                                                                  23115591.031                        2214.943          17.000  
> 2025 04 04 10 15 43.9990000  0 24                     
G25  23040775.016   121080096.068       -1492.044          40.000    23040800.947                       -1163.167          23.000  
G15  23115028.438                        2795.654          25.000    23115058.314                        2180.055          21.000  
G05  20502494.160   107741336.505        -827.948          45.000    20502512.193    83954368.946        -645.972          35.000  
G06  23175737.808   121789327.363       -2039.754          44.000    23175768.666    94900896.986       -1589.338          43.000  
G11  21690120.317   113982350.180       -1209.608          41.000    21690143.164    88817510.484        -942.284          44.000  
R21  20658389.805   110547228.185        1145.081          45.000    20658412.465    85981262.469         890.985          41.000  
R05  22340007.961                       -4828.501          22.000    22340018.115    92882357.888       -3752.745          32.000  
R06  18865244.138   100668566.804        -984.604          36.000                                                                  
R07  20497058.271   109722339.119        2444.159          34.000    20497084.674    85339742.993        1900.940          45.000  
G12  22402371.437   117725253.186       -2850.680          42.000    22402394.957    91734064.644       -2221.475          40.000  
G19  23097964.413   121380612.148       -4258.631          38.000                                                                  
G29  23799212.482   125065701.695        2546.549          43.000    23799232.583    97453882.480        1984.578          34.000  
G20  20992437.464   110316002.403       -2413.799          46.000                                                                  
R20  20884328.748   111677886.3792      -1203.484          29.000    20884354.767    86860695.427        -935.512          46.000  
E27  25907378.020   136144191.692       -1139.709          43.000    25907417.043   104318440.680        -873.207          28.000  
E30  25589300.037   134472666.036       -2974.042          42.000    25589334.595   103037648.275       -2278.296          34.000  
E02  27510244.462                       -3370.499          26.000    27510289.987   110772550.497       -2584.116          34.000  
E34  24880226.461   130746476.555       -1146.702          40.000    24880264.194   100182517.040        -878.840          42.000  
G13  21164793.432   111221733.996        1903.693          38.000                                                                  
E15  24853237.206   130604648.964        -151.471          42.000    24853272.133   100073835.002        -116.085          41.000  
E05  24044707.298   126355774.822       -2009.903          39.000    24044746.105    96818231.101       -1540.315          41.000  
E18  20981231.596   110257112.464       -7185.152          39.000                                                                  
E03  23872916.482   125453008.789         446.824          38.000    23872951.632    96126482.053         342.354          41.000  
E36                                                                  28068653.284                       -1432.286          24.000  
> 2025 04 04 10 15 44.9990000  0 24                     
G25  23041058.698   121081587.213       -1491.237          39.000    23041083.904                       -1162.094          24.000  
G05  20502651.523   107742164.046        -827.112          46.000    20502669.608    83955013.771        -644.849          34.000  
G06  23176125.755   121791366.244       -2038.348          44.000    23176156.652    94902485.718       -1588.374          44.000  
G11  21690350.559   113983558.622       -1207.831          41.000    21690373.180    88818452.160        -941.292          44.000  
R21  20658175.750   110546082.223        1146.625          45.000    20658198.421    85980371.185         891.626          42.000  
R05  22340909.374                       -4825.242          22.000    22340920.609    92886110.672       -3752.124          33.000  
R06  18865428.577   100669551.302        -984.380          36.000                                                                  
R07  20496601.870   109719894.347        2445.734          36.000    20496627.697    85337841.635        1901.441          44.000  
G12  22402913.675   117728103.190       -2849.373          43.000    22402937.299    91736285.440       -2220.565          40.000  
G19  23098774.762   121384870.160       -4257.374          37.000                                                                  
G29  23798727.769   125063154.281        2547.943          43.000    23798747.905    97451897.456        1985.925          35.000  
G20  20992896.524   110318415.560       -2412.648          46.000                                                                  
R20  20884549.495   111679088.0941      -1201.378          29.000    20884579.728    86861630.570        -934.800          46.000  
E27  25907594.866   136145330.829       -1138.770          44.000    25907633.936   104319313.617        -873.119          29.000  
E30  25589865.639   134475639.581       -2972.822          43.000    25589900.361   103039926.759       -2277.881          39.000  
E02  27510887.383   144570688.4691      -3371.506          27.000    27510930.830   110775133.702       -2582.871          36.000  
E34  24880444.112   130747622.718       -1145.435          40.000    24880482.229   100183395.272        -877.673          42.000  
G13  21164431.143   111219829.637        1904.767          36.000                                                                  
E15  24853265.687   130604799.603        -150.120          41.000    24853300.670   100073950.408        -114.805          40.000  
E05  24045089.291   126357784.167       -2008.896          38.000    24045128.437    96819770.727       -1539.411          42.000  
E18  20982598.454   110264297.006       -7184.056          39.000                                                                  
E03  23872831.651   125452561.398         447.940          37.000    23872866.627    96126139.277         343.034          40.000  
E36                                                                  28069009.675                       -1432.330          24.000  
G15                                                                  23114527.250                        2180.435          24.000  
> 2025 04 04 10 15 45.9990000  0 24                     
G25  23041342.339   121083077.787       -1490.450          39.000    23041367.024                       -1161.780          25.000  
G15  23113986.821                        2796.997          26.000    23113996.270                        2181.099          23.000  
G05  20502808.950   107742990.922        -826.849          46.000    20502826.898    83955658.102        -644.098          34.000  
G06  23176513.551   121793404.154       -2037.518          44.000    23176544.374    94904073.683       -1587.745          44.000  
G11  21690580.353   113984766.113       -1206.948          41.000    21690603.062    88819393.057        -940.657          44.000  
R21  20657961.537   110544935.274        1147.229          45.000    20657984.002    85979479.151         891.974          42.000  
R05  22341808.913                       -4824.059          25.000    22341823.106    92889862.985       -3751.215          33.000  
R06  18865612.849   100670535.563        -984.153          36.000                                                                  
R07  20496145.307   109717449.243        2445.337          36.000    20496170.652    85335939.828        1901.837          46.000  
G12  22403455.953   117730952.491       -2849.154          41.000    22403479.550    91738505.659       -2220.294          40.000  
G19  23099584.835   121389127.500       -4256.999          38.000                                                                  
G29  23798242.881   125060605.919        2548.355          43.000    23798263.109    97449911.764        1986.111          34.000  
G20  20993355.651   110320827.763       -2411.902          46.000                                                                  
R20  20884772.118   111680289.718       -1201.438          28.000    20884804.427    86862565.153        -934.468          46.000  
E27  25907811.489   136146469.302       -1138.449          43.000    25907851.264   104320185.886        -873.197          30.000  
E30  25590431.300   134478612.179       -2972.228          42.000    25590466.032   103042204.508       -2277.454          39.000  
E02  27511528.207   144574058.406       -3369.195          27.000    27511572.084   110777716.075       -2582.585          32.000  
E34  24880663.205   130748767.826       -1144.775          40.000    24880700.053   100184272.666        -877.017          42.000  
G13  21164068.278   111217924.667        1904.530          32.000                                                                  
E15  24853294.177   130604949.084        -149.156          41.000    24853328.971   100074064.977        -114.261          40.000  
E05  24045470.001   126359792.858       -2008.587          38.000    24045510.743    96821309.839       -1539.094          41.000  
E18  20983965.512   110271481.062       -7183.915          37.000                                                                  
E03  23872746.233   125452113.367         447.927          37.000    23872781.286    96125795.946         343.404          40.000  
E36                                                                  28069364.916                       -1430.870          25.000  
> 2025 04 04 10 15 46.9990000  0 24                     
G25  23041625.912   121084568.546       -1490.965          38.000    23041651.233                       -1161.308          24.000  
G05  20502966.219   107743817.927        -826.971          45.000    20502984.237    83956302.501        -644.470          35.000  
G06  23176901.395   121795441.926       -2037.726          44.000    23176932.128    94905661.540       -1587.781          43.000  
G11  21690810.225   113985973.459       -1207.230          41.000    21690832.745    88820333.863        -940.886          44.000  
R21  20657747.093   110543788.223        1147.302          44.000    20657769.635    85978586.950         892.389          42.000  
R05  22342708.896   119434583.1753      -4824.503          25.000    22342725.554    92893615.314       -3752.539          34.000  
R06  18865797.554   100671520.531        -985.140          36.000                                                                  
R07  20495688.441   109715004.411        2445.166          38.000    20495713.608    85334038.274        1901.392          47.000  
G12  22403998.208   117733801.836       -2849.306          42.000    22404021.837    91740725.929       -2220.245          39.000  
G19  23100395.018   121393384.773       -4257.553          38.000                                                                  
G29  23797757.948   125058057.406        2548.197          43.000    23797778.167    97447925.858        1985.918          35.000  
G20  20993814.682   110323239.849       -2411.946          45.000                                                                  
R20  20884995.265   111681491.358       -1201.642          28.000    20885029.124    86863499.782        -934.720          46.000  
E27  25908028.017   136147607.924       -1138.832          44.000    25908067.993   104321058.281        -872.317          29.000  
E30  25590996.940   134481584.721       -2972.482          42.000    25591031.672   103044482.112       -2277.785          37.000  
E02  27512172.268   144577428.204       -3370.182          26.000    27512213.721   110780298.000       -2581.980          33.000  
E34  24880880.267   130749912.636       -1144.456          40.000    24880917.987   100185149.882        -877.094          42.000  
G13  21163705.392   111216019.699        1904.713          35.000                                                                  
E15  24853322.395   130605098.256        -149.115          41.000    24853357.187   100074179.284        -114.066          40.000  
E05  24045851.716   126361801.736       -2009.062          38.000    24045892.945    96822849.111       -1539.541          41.000  
E18  20985332.268   110278665.220       -7184.211          37.000                                                                  
E03  23872661.210   125451665.374         447.794          37.000    23872696.078    96125452.720         343.102          40.000  
E36                                                                  28069720.900                       -1431.829          26.000  
G15                                                                  23113464.910                        2186.728          21.000  
> 2025 04 04 10 15 47.9990000  0 24                     
G25  23041909.778   121086059.767       -1491.649          39.000    23041933.349                       -1155.586          22.000  
G05  20503123.671   107744645.321        -827.563          45.000    20503141.754    83956947.252        -645.630          35.000  
G06  23177289.075   121797479.788       -2038.347          44.000    23177319.969    94907249.482       -1588.001          43.000  
G11  21691040.139   113987180.885       -1207.402          42.000    21691062.564    88821274.708        -941.022          44.000  
R21  20657532.911   110542641.251        1146.698          44.000    20657555.300    85977694.865         891.443          41.000  
R05  22343610.330   119439407.8572      -4825.857          26.000    22343628.083    92897367.812       -3752.710          34.000  
R06  18865982.334   100672506.332        -986.091          36.000                                                                  
R07  20495231.783   109712560.114        2443.988          38.000    20495256.778    85332137.121        1900.836          46.000  
G12  22404540.542   117736651.473       -2849.957          42.000    22404564.032    91742946.429       -2220.958          40.000  
G19  23101205.301   121397642.339       -4258.053          38.000                                                                  
G29  23797272.982   125055508.953        2548.318          43.000    23797293.382    97445940.061        1986.222          35.000  
G20  20994273.669   110325652.051       -2412.158          45.000                                                                  
R20  20885220.375   111682693.414       -1202.562          27.000    20885253.900    86864434.714        -935.038          45.000  
E27  25908244.878   136148746.926       -1139.388          44.000    25908284.417   104321931.082        -872.812          29.000  
E30  25591562.588   134484557.372       -2972.859          42.000    25591597.232   103046759.891       -2277.649          37.000  
E02  27512814.262                       -3368.506          25.000    27512855.676   110782879.983       -2582.963          29.000  
E34  24881098.039   130751057.464       -1144.728          40.000    24881135.858   100186027.067        -877.392          42.000  
G13  21163342.431   111214115.048        1904.493          36.000                                                                  
E15  24853350.515   130605247.334        -149.422          39.000    24853385.519   100074293.525        -114.940          40.000  
E05  24046235.092   126363810.987       -2009.557          39.000    24046275.135    96824388.652       -1539.890          40.000  
E18  20986699.340   110285849.858       -7185.002          37.000                                                                  
E03  23872576.178   125451217.867         447.195          38.000    23872610.865    96125109.814         342.616          40.000  
E36                                                                  28070074.973                       -1431.167          26.000  
G15                                                                  23112933.718                        2175.074          16.000  
> 2025 04 04 10 15 48.9990000  0 24                     
G25  23042193.519   121087551.674       -1492.249          39.000    23042216.882                       -1161.300          22.000  
G05  20503281.255   107745473.325        -828.326          46.000    20503299.326    83957592.413        -645.575          35.000  
G06  23177676.899   121799517.971       -2038.300          43.000    23177707.853    94908837.665       -1588.215          43.000  
G11  21691270.210   113988388.625       -1207.885          42.000    21691292.455    88822215.798        -941.306          44.000  
R21  20657318.665   110541494.548        1146.387          44.000    20657340.946    85976802.995         891.608          42.000  
R05  22344512.386   119444232.4241      -4825.347          28.000    22344530.580    92901120.687       -3752.628          34.000  
R06  18866167.246   100673493.253        -987.900          36.000                                                                  
R07  20494775.141   109710116.508        2442.725          36.000    20494800.236    85330236.637        1900.421          43.000  
G12  22405082.852   117739501.627       -2850.262          42.000    22405106.357    91745167.279       -2221.192          40.000  
G19  23102015.541   121401900.341       -4258.374          38.000                                                                  
G29  23796788.079   125052960.821        2548.161          43.000    23796808.580    97443954.507        1985.063          34.000  
G20  20994732.694   110328064.611       -2412.823          45.000                                                                  
R20  20885445.382   111683895.917       -1202.484          28.000    20885478.727    86865370.037        -935.430          45.000  
E27  25908461.762   136149886.545       -1139.853          43.000    25908501.269   104322804.318        -873.531          29.000  
E30  25592128.342   134487530.431       -2973.222          43.000    25592162.906   103049037.888       -2277.618          39.000  
E02  27513457.544                       -3369.758          24.000    27513496.825   110785461.682       -2581.628          33.000  
E34  24881316.926   130752202.456       -1144.966          40.000    24881353.671   100186904.407        -877.345          43.000  
G13  21162979.820   111212210.995        1903.137          38.000                                                                  
E15  24853378.657   130605396.531        -149.014          40.000    24853413.912   100074407.823        -113.973          40.000  
E05  24046617.482   126365820.867       -2010.161          39.000    24046657.671    96825928.712       -1540.131          42.000  
E18  20988066.602   110293035.131       -7185.787          37.000                                                                  
E03  23872491.190   125450770.924         446.850          40.000    23872525.607    96124767.378         342.236          40.000  
E36                                                                  28070431.677                       -1431.903          26.000  
G15                                                                  23112403.495                        2182.227          15.000  
> 2025 04 04 10 15 49.9990000  0 24                     
G25  23042477.325   121089043.558       -1491.777          40.000    23042500.257                       -1165.728          23.000  
G15  23111856.591   121453625.9903       2801.020          28.000    23111871.857                        2184.931          17.000  
G05  20503438.774   107746301.240        -827.747          45.000    20503456.897    83958237.504        -644.702          34.000  
G06  23178064.771   121801555.768       -2037.301          43.000    23178095.598    94910425.550       -1587.665          44.000  
G11  21691500.028   113989595.956       -1206.985          42.000    21691522.157    88823156.608        -940.569          45.000  
R21  20657104.386   110540347.433        1147.644          46.000    20657126.595    85975910.792         892.517          42.000  
R05  22345417.306                       -4825.050          26.000    22345432.978    92904873.511       -3752.429          33.000  
R06  18866352.418   100674480.564        -988.105          36.000                                                                  
R07  20494318.574   109707673.111        2444.037          35.000    20494343.757    85328336.177        1900.641          43.000  
G12  22405625.073   117742351.657       -2850.046          41.000    22405648.684    91747388.085       -2220.555          38.000  
G19  23102825.793   121406158.190       -4257.448          37.000                                                                  
G29  23796303.068   125050412.341        2548.483          42.000    23796323.725    97441968.690        1986.070          30.000  
G20  20995191.770   110330476.812       -2411.876          46.000                                                                  
R20  20885669.732                       -1202.724          26.000    20885703.753    86866305.261        -935.089          46.000  
E27  25908678.770   136151026.136       -1139.536          43.000    25908717.956   104323677.449        -873.413          30.000  
E30  25592694.380   134490503.132       -2972.350          44.000    25592728.730   103051315.700       -2278.040          40.000  
E02  27514103.124   144587587.1951      -3368.932          31.000    27514137.647   110788043.007       -2580.652          35.000  
E34  24881535.438   130753346.939       -1144.146          40.000    24881571.378   100187781.412        -876.870          43.000  
G13  21162617.152   111210306.840        1904.401          37.000                                                                  
E15  24853407.279   130605545.179        -148.430          42.000    24853442.307   100074521.732        -113.539          41.000  
E05  24047000.101   126367830.756       -2009.482          39.000    24047039.992    96827468.723       -1540.200          42.000  
E18  20989434.282   110300220.400       -7185.215          37.000                                                                  
E03  23872406.240   125450323.927         446.744          37.000    23872440.567    96124424.845         342.504          39.000  
E36                                                                  28070786.776                       -1431.151          26.000  
> 2025 04 04 10 15 50.9990000  0 24                     
G25  23042761.296   121090535.431       -1492.233          40.000    23042786.006                       -1158.938          22.000  
G15  23111321.425   121450825.9432       2799.642          27.000    23111338.946                        2180.823          16.000  
G05  20503596.286   107747129.096        -828.339          45.000    20503614.370    83958882.641        -645.190          34.000  
G06  23178452.603   121803593.223       -2038.011          41.000    23178483.322    94912013.150       -1588.269          36.000  
G11  21691729.787   113990802.937       -1206.612          44.000    21691751.733    88824097.074        -941.153          44.000  
R21  20656889.929   110539200.003        1147.308          45.000    20656912.058    85975018.299         892.065          43.000  
R05  22346323.004   119453903.1553      -4825.067          27.000    22346335.591    92908626.158       -3753.594          34.000  
R06  18866537.584   100675468.298        -988.375          36.000                                                                  
R07  20493862.157   109705229.838        2442.291          39.000    20493887.233    85326435.777        1899.792          47.000  
G12  22406167.378   117745201.522       -2850.424          40.000    22406190.917    91749608.752       -2220.309          39.000  
G19  23103636.090   121410415.898       -4258.422          39.000                                                                  
G29  23795818.039   125047863.551        2547.932          43.000    23795838.664    97439982.571        1986.656          33.000  
G20  20995650.795   110332888.668       -2412.136          45.000                                                                  
R20  20885892.726                       -1199.739          26.000    20885928.648    86867240.519        -935.415          34.000  
E27  25908895.590   136152165.643       -1140.244          44.000    25908934.793   104324550.494        -873.489          30.000  
E30  25593259.879   134493475.582       -2972.900          42.000    25593294.607   103053593.252       -2277.441          37.000  
E34  24881753.205   130754490.965       -1144.193          43.000    24881789.004   100188657.987        -877.192          43.000  
G13  21162254.415   111208402.560        1905.085          31.000                                                                  
E15  24853435.416   130605693.330        -148.359          40.000    24853470.560   100074635.228        -113.887          40.000  
E05  24047382.812   126369840.552       -2010.323          40.000    24047422.408    96829008.681       -1540.735          40.000  
E18  20990801.648   110307405.670       -7186.228          35.000                                                                  
E03  23872320.821   125449876.611         446.948          39.000    23872355.508    96124082.142         342.061          39.000  
E02                                                                  27514778.809   110790623.997       -2580.512          30.000  
E36                                                                  28071143.216   113030861.2411      -1430.895          26.000  
> 2025 04 04 10 15 51.9990000  0 24                     
G25  23043045.284   121092027.925       -1492.616          38.000    23043070.493                       -1165.449          21.000  
G05  20503753.831   107747957.399        -828.412          45.000    20503772.001    83959528.044        -644.690          32.000  
G06  23178840.370   121805630.828       -2037.270          41.000    23178871.123    94913600.916       -1587.896          39.000  
G11  21691959.529   113992010.157       -1207.846          41.000    21691981.466    88825037.735        -940.172          44.000  
R21  20656675.520   110538052.731        1146.863          43.000    20656697.542    85974126.023         892.780          43.000  
R05  22347228.835   119458728.4362      -4826.305          28.000    22347238.099    92912379.082       -3753.751          36.000  
R06  18866722.843   100676457.032        -989.070          36.000                                                                  
R07  20493405.696   109702787.195        2442.639          37.000    20493430.720    85324535.907        1899.542          48.000  
G12  22406709.690   117748051.854       -2849.946          38.000    22406733.363    91751829.776       -2221.304          39.000  
G19  23104446.509   121414673.999       -4258.229          37.000                                                                  
G29  23795333.026   125045314.851        2548.179          42.000    23795353.752    97437996.692        1985.510          33.000  
G20  20996109.721   110335300.768       -2411.959          45.000                                                                  
R20  20886116.991                       -1203.615          24.000    20886153.422    86868175.838        -936.047          40.000  
E27  25909112.534   136153305.671       -1140.734          43.000    25909151.747                        -876.118          31.000  
E30  25593825.683   134496448.218       -2972.721          41.000    25593860.164   103055871.124       -2278.084          37.000  
E02  27515379.385                       -3368.712          24.000    27515419.607   110793204.907       -2580.751          34.000  
E34  24881970.883   130755635.134       -1143.959          39.000    24882006.886   100189534.675        -876.610          44.000  
G13  21161891.391   111206499.025        1902.270          26.000                                                                  
E15  24853463.675   130605841.480        -148.284          40.000    24853498.691   100074748.766        -113.588          41.000  
E05  24047765.295   126371850.930       -2010.955          42.000    24047805.035    96830549.047       -1540.596          43.000  
E18  20992169.600   110314591.500       -7186.381          36.000                                                                  
E03  23872235.744   125449429.982         446.538          41.000    23872270.316    96123739.893         342.036          41.000  
E36                                                                  28071500.206                       -1425.552          25.000  
G15                                                                  23110805.298                        2186.098          20.000  
> 2025 04 04 10 15 52.9990000  0 24                     
G25  23043329.301   121093520.570       -1492.048          40.000    23043356.772                       -1174.102          18.000  
G05  20503911.355   107748785.847        -828.418          46.000    20503929.681    83960173.588        -645.148          34.000  
G06  23179228.155   121807668.328       -2036.873          43.000    23179258.893    94915188.519       -1587.593          40.000  
G11  21692189.277   113993217.153       -1206.333          42.000    21692211.171    88825978.273        -940.295          44.000  
R21  20656461.036   110536905.247        1148.083          44.000    20656483.080    85973233.522         893.164          42.000  
R05  22348132.426   119463553.633       -4824.809          29.000    22348140.613    92916132.021       -3752.627          37.000  
R06  18866908.299   100677446.347        -989.124          35.000                                                                  
R07  20492949.439   109700344.814        2442.767          37.000    20492974.278    85322636.345        1899.732          48.000  
G12  22407252.125   117750902.153       -2850.318          41.000    22407275.784    91754050.822       -2221.682          39.000  
G19  23105256.762   121418932.031       -4257.613          39.000                                                                  
G29  23794848.015   125042766.023        2549.258          42.000    23794868.774    97436010.588        1986.079          34.000  
G20  20996568.672   110337712.737       -2411.951          46.000                                                                  
R20  20886341.612                       -1203.021          25.000    20886378.371    86869111.457        -935.914          42.000  
E27  25909329.412   136154445.815       -1140.334          43.000    25909371.130   104326300.7051       -874.225          29.000  
E30  25594391.605   134499420.812       -2972.253          43.000    25594425.919   103058148.731       -2278.818          39.000  
E02  27516025.868                       -3370.922          24.000    27516060.352   110795785.351       -2579.821          36.000  
E34  24882188.438   130756778.995       -1143.518          41.000    24882224.690   100190411.144        -876.262          44.000  
G13  21161528.897   111204584.0773       1903.760          32.000                                                                  
E15  24853491.646   130605989.284        -147.448          41.000    24853526.799   100074862.026        -112.871          39.000  
E05  24048147.942   126373861.372       -2010.129          40.000    24048187.385    96832089.570       -1540.512          41.000  
E18  20993536.994   110321777.363       -7185.797          38.000                                                                  
E03  23872150.544   125448983.511         446.372          40.000    23872185.101    96123397.805         342.040          41.000  
E36                                                                  28071854.976                       -1427.051          24.000  
G15                                                                  23110271.823                        2184.291          22.000  
> 2025 04 04 10 15 53.9990000  0 24                     
G25  23043613.390   121095013.283       -1493.372          39.000    23043641.386                       -1164.003          22.000  
G05  20504069.055   107749614.237        -828.760          46.000    20504087.369    83960819.093        -646.600          35.000  
G06  23179615.836   121809705.532       -2037.384          43.000    23179646.565    94916775.993       -1587.494          40.000  
G11  21692418.911   113994423.833       -1206.906          41.000    21692440.754    88826918.541        -940.504          44.000  
R21  20656246.503   110535757.492        1147.357          44.000    20656268.530    85972340.844         892.120          41.000  
R05  22349037.040   119468378.733       -4825.105          33.000    22349043.219    92919884.840       -3753.515          37.000  
R06  18867093.917   100678436.126        -990.281          35.000                                                                  
R07  20492493.120   109697902.558        2441.406          37.000    20492517.977    85320736.796        1899.060          47.000  
G12  22407794.407   117753752.324       -2850.481          40.000    22407818.098    91756271.761       -2221.331          39.000  
G19  23106067.244   121423190.054       -4258.698          36.000                                                                  
G29  23794362.827   125040216.879        2549.319          42.000    23794383.764    97434024.204        1987.118          34.000  
G20  20997027.570   110340124.383       -2412.185          45.000                                                                  
R20  20886565.924   111689854.0293      -1203.200          26.000    20886603.423    86870047.013        -935.512          46.000  
E27  25909546.220   136155585.924       -1140.457          43.000    25909585.330                        -874.595          28.000  
E30  25594957.225   134502393.112       -2972.852          42.000    25594991.638   103060426.242       -2277.990          39.000  
E02  27516664.447   144601046.8411      -3367.612          31.000    27516700.616   110798365.429       -2580.051          38.000  
E34  24882406.094   130757922.398       -1143.812          39.000    24882442.214   100191287.243        -876.247          43.000  
G13  21161166.138   111202680.0292       1904.138          32.000                                                                  
E15  24853519.812   130606136.605        -147.915          41.000    24853554.960   100074974.900        -113.125          41.000  
E05  24048530.266   126375871.845       -2010.632          40.000    24048570.031    96833630.057       -1541.016          42.000  
E18  20994904.792   110328963.387       -7186.280          35.000                                                                  
E03  23872065.969   125448536.994         446.067          39.000    23872100.167    96123055.638         342.311          39.000  
E36                                                                  28072210.777                       -1438.857          25.000  
G15                                                                  23109740.295                        2179.389          22.000  
> 2025 04 04 10 15 54.9990000  0 24                     
G25  23043897.549   121096506.580       -1493.310          39.000    23043926.435                       -1160.785          23.000  
G15  23109196.729                        2800.102          25.000    23109207.669                        2184.601          22.000  
G05  20504226.776   107750443.156        -828.772          46.000    20504245.137    83961464.999        -645.740          35.000  
G06  23180003.524   121811742.917       -2037.022          43.000    23180034.288    94918363.595       -1587.460          39.000  
G11  21692648.686   113995630.738       -1206.693          41.000    21692670.410    88827858.981        -940.205          45.000  
R21  20656032.164   110534609.930        1147.809          44.000    20656053.918    85971448.299         892.761          41.000  
R05  22349937.064   119473204.195       -4823.976          30.000    22349945.916    92923638.026       -3753.052          37.000  
R06  18867279.792   100679426.947        -990.937          35.000                                                                  
R07  20492037.084   109695460.949        2442.395          37.000    20492061.767    85318837.794        1899.182          47.000  
G12  22408336.827   117756603.021       -2850.550          41.000    22408360.618    91758493.069       -2221.635          39.000  
G19  23106877.773   121427448.404       -4259.090          34.000                                                                  
G29  23793877.916   125037668.004        2549.257          42.000    23793898.712    97432038.034        1987.107          33.000  
G20  20997486.446   110342536.296       -2411.628          46.000                                                                  
R20  20886792.319   111691057.338       -1203.843          28.000    20886828.409    86870982.860        -935.831          43.000  
E27  25909763.180   136156726.589       -1140.316          43.000    25909801.867   104328035.4011       -874.365          29.000  
E30  25595522.767   134505365.692       -2972.243          42.000    25595557.319   103062703.911       -2277.315          38.000  
E02  27517305.351   144604413.960       -3366.732          32.000    27517341.166   110800945.452       -2579.467          38.000  
E34  24882623.513   130759065.934       -1143.123          40.000    24882659.899   100192163.462        -875.966          43.000  
G13  21160803.691   111200776.749        1903.793          33.000                                                                  
E15  24853547.731   130606283.949        -146.656          41.000    24853583.080   100075087.842        -112.493          41.000  
E05  24048913.018   126377882.863       -2010.802          40.000    24048952.722    96835170.951       -1540.772          41.000  
E18  20996272.616   110336149.913       -7186.252          32.000                                                                  
E03  23871980.986   125448090.960         446.408          40.000    23872015.118    96122713.892         342.091          41.000  
E36                                                                  28072564.200                       -1430.673          25.000  
> 2025 04 04 10 15 55.9990000  0 24                     
G25  23044181.737   121098000.008       -1493.408          39.000    23044210.358                       -1168.566          23.000  
G15  23108668.226                        2800.682          25.000    23108675.720                        2179.072          22.000  
G05  20504384.668   107751272.188        -829.230          46.000    20504402.877    83962111.021        -646.277          34.000  
G06  23180391.258   121813780.142       -2037.184          43.000    23180421.954    94919951.007       -1587.397          42.000  
G11  21692878.393   113996837.417       -1206.930          41.000    21692900.079    88828799.269        -940.249          44.000  
R21  20655817.687   110533462.218        1147.644          44.000    20655839.307    85970555.597         893.237          41.000  
R05  22350837.901   119478029.758       -4826.223          31.000    22350848.834    92927391.216       -3753.076          37.000  
R06  18867465.491   100680418.326        -991.422          36.000                                                                  
R07  20491580.930   109693019.603        2441.553          37.000    20491605.585    85316938.973        1898.584          47.000  
G12  22408879.248   117759453.689       -2850.887          40.000    22408903.005    91760714.360       -2221.464          39.000  
G19  23107688.124   121431706.602       -4258.046          35.000                                                                  
G29  23793392.835   125035118.895        2548.946          42.000    23793413.588    97430051.787        1985.289          34.000  
G20  20997945.415   110344948.073       -2411.781          46.000                                                                  
R20  20887017.617   111692260.653       -1203.212          29.000    20887053.428    86871918.753        -936.006          43.000  
E27  25909980.103   136157867.374       -1140.618          43.000    25910023.084   104328909.433        -874.280          29.000  
E30  25596088.389   134508338.141       -2972.239          42.000    25596123.181   103064981.487       -2277.423          38.000  
E02  27517944.045   144607780.535       -3365.568          35.000    27517981.482   110803525.064       -2579.439          38.000  
E34  24882841.272   130760209.172       -1143.194          40.000    24882877.262   100193039.447        -875.845          44.000  
G13  21160441.447   111198873.572        1903.187          35.000                                                                  
E15  24853575.659   130606430.961        -146.726          40.000    24853610.881   100075200.495        -112.948          41.000  
E05  24049295.832   126379894.007       -2011.118          40.000    24049335.472    96836711.995       -1541.186          41.000  
E18  20997640.299   110343336.584       -7186.628          32.000                                                                  
E03  23871896.224   125447645.046         445.774          40.000    23871930.137    96122372.223         341.480          40.000  
E36                                                                  28072918.682   113038009.9281      -1430.326          27.000  
> 2025 04 04 10 15 56.9990000  0 24                     
G25  23044465.920   121099493.395       -1492.826          39.000    23044494.151                       -1160.834          22.000  
G15  23108133.173   121434059.1973       2802.128          25.000    23108143.080                        2182.913          23.000  
G05  20504542.436   107752101.086        -828.760          46.000    20504560.568    83962756.916        -645.587          35.000  
G06  23180778.803   121815816.957       -2036.704          42.000    23180809.454    94921538.134       -1587.333          40.000  
G11  21693107.926   113998043.683       -1205.874          41.000    21693129.603    88829739.224        -939.753          44.000  
R21  20655602.980   110532314.070        1148.389          43.000    20655624.728    85969662.592         892.987          41.000  
R05  22351740.574   119482855.090       -4825.992          30.000    22351751.522    92931144.185       -3752.448          36.000  
R06  18867651.192   100681410.089        -991.976          35.000                                                                  
R07  20491124.775   109690578.272        2441.522          36.000    20491149.457    85315040.152        1898.883          48.000  
G12  22409421.663   117762304.128       -2849.847          40.000    22409445.545    91762935.509       -2220.735          41.000  
G19  23108498.311   121435964.671       -4258.294          35.000                                                                  
G29  23792907.610   125032569.399        2549.790          42.000    23792928.550    97428065.151        1985.989          33.000  
G20  20998404.383   110347359.430       -2411.563          45.000                                                                  
R20  20887244.180   111693463.833       -1203.252          28.000    20887278.345    86872854.537        -935.877          44.000  
E27  25910197.134   136159008.060       -1140.808          43.000    25910241.210   104329783.445        -873.936          29.000  
E30  25596654.130   134511310.259       -2971.888          42.000    25596688.568   103067258.780       -2276.864          38.000  
E02  27518588.515                       -3365.881          26.000    27518622.122   110806104.220       -2578.421          33.000  
E34  24883058.639   130761351.892       -1142.533          40.000    24883094.546   100193915.028        -875.336          43.000  
G13  21160079.078   111196970.188        1902.683          30.000                                                                  
E15  24853603.362   130606577.387        -146.140          40.000    24853638.802   100075312.682        -112.249          40.000  
E05  24049678.221   126381905.056       -2010.909          40.000    24049718.257    96838252.926       -1541.040          42.000  
E18  20999007.826   110350523.176       -7187.271          32.000                                                                  
E03  23871811.461   125447198.976         445.900          41.000    23871845.361    96122030.456         341.764          40.000  
E36                                                                  28073275.860   113039440.217       -1430.529          27.000  
> 2025 04 04 10 15 57.9990000  0 24                     
G25  23044750.108   121100986.803       -1494.040          39.000    23044777.427                       -1157.255          22.000  
G15  23107600.099                        2801.920          25.000    23107611.030                        2179.305          22.000  
G05  20504700.166   107752929.945        -828.967          46.000    20504718.328    83963402.776        -645.898          36.000  
G06  23181166.335   121817853.402       -2036.734          43.000    23181197.097    94923125.007       -1587.098          41.000  
G11  21693337.361   113999249.613       -1205.876          41.000    21693359.006    88830678.887        -939.628          44.000  
R21  20655388.244   110531165.528        1148.566          43.000    20655410.084    85968769.322         893.005          42.000  
R05  22352640.866   119487680.105       -4824.909          33.000    22352654.258    92934897.096       -3753.412          37.000  
R06  18867837.114   100682402.277        -992.833          35.000                                                                  
R07  20490668.803   109688137.106        2440.472          33.000    20490693.381    85313141.541        1898.419          42.000  
G12  22409964.042   117765154.499       -2850.320          40.000    22409988.003    91765156.535       -2221.268          40.000  
G19  23109308.831   121440222.587       -4257.725          35.000                                                                  
G29  23792422.339   125030019.532        2549.673          41.000    23792443.405    97426078.219        1986.927          33.000  
G20  20998863.135   110349770.440       -2411.062          46.000                                                                  
R20  20887470.558   111694666.771       -1202.900          29.000    20887503.314    86873790.243        -935.446          42.000  
E27  25910414.077   136160148.639       -1140.679          43.000    25910453.012   104330657.426        -874.056          29.000  
E30  25597219.616   134514282.035       -2971.848          42.000    25597254.009   103069535.916       -2277.413          38.000  
E02  27519228.722   144614522.9291      -3365.819          29.000    27519262.464   110808682.756       -2578.356          32.000  
E34  24883275.750   130762494.088       -1142.016          39.000    24883311.971   100194790.236        -875.202          43.000  
G13  21159716.780   111195066.591        1903.154          37.000                                                                  
E15  24853631.198   130606723.253        -145.993          41.000    24853666.490   100075424.440        -111.799          41.000  
E05  24050060.706   126383916.078       -2011.408          40.000    24050100.795    96839793.824       -1541.342          42.000  
E18  21000374.888   110357709.859       -7186.501          35.000                                                                  
E03  23871726.297   125446752.846         445.971          40.000    23871760.429    96121688.602         341.534          38.000  
E36                                                                  28073630.336   113040870.285       -1430.121          27.000  
> 2025 04 04 10 15 58.9990000  0 24                     
G25  23045034.433   121102481.003       -1494.023          39.000    23045061.964                       -1172.433          22.000  
G15  23107065.517                        2801.143          25.000    23107078.141                        2179.305          19.000  
G05  20504858.063   107753759.514        -829.150          45.000    20504876.244    83964049.197        -645.966          36.000  
G06  23181553.954   121819890.316       -2036.366          42.000    23181584.733    94924712.197       -1586.573          43.000  
G11  21693567.006   114000455.936       -1205.551          41.000    21693588.515    88831618.876        -939.494          44.000  
R21  20655173.623   110530017.398        1148.627          43.000    20655195.525    85967876.334         893.622          41.000  
R05  22353543.385   119492505.795       -4824.621          33.000    22353557.097    92938650.328       -3752.715          39.000  
R06  18868023.223   100683395.659        -992.573          36.000                                                                  
R07  20490213.013   109685696.801        2440.857          33.000    20490237.590    85311243.567        1898.486          43.000  
G12  22410506.413   117768005.464       -2849.915          40.000    22410530.581    91767378.079       -2220.836          39.000  
G19  23110119.212   121444481.086       -4257.749          35.000                                                                  
G29  23791937.207   125027470.063        2550.426          42.000    23791958.382    97424091.675        1986.596          34.000  
G20  20999322.130   110352181.918       -2410.593          45.000                                                                  
R20  20887696.274   111695870.563       -1203.509          28.000    20887728.512    86874726.465        -935.679          45.000  
E27  25910631.200   136161290.010       -1140.822          43.000    25910673.037   104331531.902        -873.717          31.000  
E30  25597784.988   134517254.297       -2971.500          43.000    25597819.746   103071813.344       -2276.886          40.000  
E02  27519867.933   144617888.378       -3364.268          30.000    27519903.039   110811261.560       -2578.595          33.000  
E34  24883493.176   130763636.645       -1141.590          40.000    24883529.522   100195665.697        -874.681          43.000  
G13  21159354.600   111193163.729        1903.617          35.000                                                                  
E15  24853659.104   130606869.394        -145.323          40.000    24853694.297   100075536.426        -111.152          41.000  
E05  24050443.727   126385927.807       -2011.053          40.000    24050483.785    96841335.293       -1540.856          42.000  
E18  21001743.333   110364897.205       -7186.544          31.000                                                                  
E03  23871641.468   125446307.437         446.103          40.000    23871675.803    96121347.347         341.800          38.000  
E36                                                                  28073984.641   113042300.585       -1429.719          26.000  
> 2025 04 04 10 15 59.9990000  0 24                     
G25  23045318.762   121103975.710       -1494.399          40.000    23045347.397                       -1173.146          23.000  
G15  23106530.499                        2802.262          25.000    23106546.684                        2179.452          17.000  
G05  20505016.056   107754589.538        -829.810          46.000    20505034.205    83964695.958        -646.478          36.000  
G06  23181941.559   121821927.310       -2037.050          41.000    23181972.392    94926299.482       -1587.351          38.000  
G11  21693796.549   114001662.440       -1206.090          41.000    21693818.103    88832559.008        -939.821          44.000  
R21  20654958.909   110528869.467        1148.383          42.000    20654980.903    85966983.507         892.981          42.000  
R05  22354446.101   119497331.786       -4825.632          33.000    22354460.028    92942403.922       -3753.022          37.000  
R06  18868209.495   100684390.030        -994.335          35.000                                                                  
R07  20489757.434   109683257.181        2439.294          32.000    20489781.786    85309346.074        1897.571          43.000  
G12  22411049.040   117770856.865       -2851.629          41.000    22411073.217    91769599.911       -2221.629          39.000  
G19  23110929.503   121448739.934       -4258.154          34.000                                                                  
G29  23791452.140   125024920.839        2549.261          42.000    23791473.117    97422105.214        1986.564          33.000  
G20  20999781.020   110354593.615       -2411.490          45.000                                                                  
R20  20887920.692   111697074.661       -1204.124          28.000    20887953.719    86875663.026        -936.511          43.000  
E27  25910848.617   136162431.830       -1141.706          43.000    25910888.601   104332406.874        -875.208          31.000  
E30  25598350.519   134520226.806       -2972.323          43.000    25598385.483   103074090.962       -2277.392          39.000  
E02  27520509.832   144621253.819       -3365.262          30.000    27520543.605   110813840.250       -2578.772          34.000  
E34  24883710.665   130764779.293       -1142.767          40.000    24883747.046   100196541.193        -875.081          43.000  
G13  21158992.689   111191261.325        1902.605          35.000                                                                  
E15  24853686.847   130607015.530        -145.836          40.000    24853722.418   100075648.420        -111.993          41.000  
E05  24050826.675   126387940.096       -2012.398          39.000    24050866.914    96842877.171       -1541.749          42.000  
E18  21003111.966   110372085.139       -7187.993          32.000                                                                  
E03  23871556.757   125445862.507         444.938          40.000    23871591.258    96121006.411         340.906          38.000  
E36                                                                  28074340.257                       -1430.962          25.000  
> 2025 04 04 10 16 00.9990000  0 24                     
G25  23045603.270   121105470.418       -1494.917          40.000    23045630.417                       -1164.579          22.000  
G15  23105995.417                        2799.962          24.000    23106015.722                        2187.024          13.000  
G05  20505173.981   107755419.416        -829.993          46.000    20505192.260    83965342.614        -646.576          37.000  
G06  23182329.302   121823964.095       -2036.806          40.000    23182360.109    94927886.527       -1586.847          41.000  
G11  21694025.949   114002868.517       -1206.248          41.000    21694047.555    88833498.806        -939.718          43.000  
R21  20654744.315   110527721.124        1148.694          43.000    20654766.201    85966090.355         893.311          41.000  
R05  22355348.899   119502157.541       -4825.585          33.000    22355362.944    92946157.361       -3753.913          39.000  
R06  18868395.770   100685384.756        -995.372          36.000                                                                  
R07  20489301.765   109680817.456        2439.008          33.000    20489326.007    85307448.511        1897.284          43.000  
G12  22411591.503   117773708.000       -2850.921          39.000    22411615.788    91771821.606       -2221.504          39.000  
G19  23111739.872   121452998.450       -4258.194          34.000                                                                  
G29  23790966.933   125022371.134        2549.779          42.000    23790987.970    97420118.469        1986.355          34.000  
G20  21000239.874   110357004.902       -2411.292          45.000                                                                  
R20  20888147.319   111698278.605       -1204.138          28.000    20888178.807    86876599.471        -936.291          42.000  
E27  25911065.612   136163573.537       -1141.676          42.000    25911106.860   104333281.653        -874.769          31.000  
E30  25598915.867   134523198.956       -2972.008          42.000    25598950.980   103076368.364       -2277.184          37.000  
E02  27521148.912   144624618.502       -3364.614          30.000    27521184.109   110816418.355       -2577.642          34.000  
E34  24883928.007   130765921.373       -1142.205          39.000    24883964.312   100197416.303        -875.103          43.000  
G13  21158630.636   111189358.699        1902.286          34.000                                                                  
E15  24853714.653   130607161.048        -145.421          40.000    24853750.029   100075759.895        -111.090          41.000  
E05  24051209.427   126389952.164       -2012.031          40.000    24051249.697    96844418.893       -1541.793          41.000  
E18  21004479.960   110379272.862       -7188.340          32.000                                                                  
E03  23871472.213   125445417.407         444.917          40.000    23871506.420    96120665.359         340.940          38.000  
E36                                                                  28074695.776                       -1429.821          24.000  
> 2025 04 04 10 16 01.9990000  0 24                     
G25  23045887.949   121106965.506       -1496.730          39.000    23045916.772                       -1164.216          24.000  
G05  20505332.044   107756249.609        -831.598          46.000    20505350.359    83965989.533        -648.468          36.000  
G06  23182716.913   121826000.684       -2038.089          40.000    23182747.737    94929473.414       -1587.785          39.000  
G11  21694255.442   114004074.617       -1207.495          42.000    21694276.938    88834438.607        -940.927          44.000  
R21  20654529.764   110526572.817        1146.985          44.000    20654551.630    85965197.215         891.888          41.000  
R05  22356251.717   119506983.630       -4827.396          33.000    22356266.047    92949910.925       -3755.114          38.000  
R06  18868582.348   100686380.300        -997.247          36.000                                                                  
R07  20488846.170   109678378.236        2438.123          41.000    20488870.315    85305551.373        1895.496          44.000  
G12  22412133.939   117776559.375       -2853.196          40.000    22412158.388    91774043.488       -2223.427          39.000  
G19  23112550.410   121457257.319       -4259.688          32.000                                                                  
G29  23790481.692   125019821.541        2547.820          42.000    23790502.817    97418131.740        1985.886          34.000  
G20  21000698.702   110359416.272       -2412.937          45.000                                                                  
R20  20888373.087   111699482.868       -1205.584          30.000    20888403.898    86877536.036        -937.517          40.000  
E27  25911282.844   136164715.574       -1143.420          43.000    25911323.166   104334156.728        -875.569          31.000  
E30  25599481.764   134526171.209       -2974.231          42.000    25599516.875   103078645.742       -2278.824          37.000  
E02  27521788.441   144627982.815       -3365.147          31.000    27521824.236   110818996.373       -2579.337          34.000  
E34  24884145.079   130767063.299       -1143.270          41.000    24884181.709   100198291.320        -876.279          44.000  
G13  21158268.339   111187456.091        1899.830          30.000                                                                  
E15  24853742.186   130607306.428        -146.399          40.000    24853777.586   100075871.302        -112.381          41.000  
E05  24051591.972   126391964.772       -2014.324          36.000    24051632.944    96845961.022       -1543.455          41.000  
E18  21005847.614   110386461.016       -7189.919          32.000                                                                  
E03  23871387.654   125444972.759         442.609          39.000    23871422.008    96120324.665         339.327          36.000  
E36                                                                  28075050.765   113046595.1451      -1430.668          26.000  
G15                                                                  23105481.227                        2184.605          12.000  
> 2025 04 04 10 16 02.9990000  0 23                     
G25  23046172.506   121108460.516       -1495.357          40.000    23046202.043    94370343.9821      -1165.044          26.000  
G05  20505489.988   107757079.684        -830.072          46.000    20505508.327    83966636.374        -646.802          36.000  
G06  23183104.394   121828037.000       -2035.964          44.000    23183135.263    94931060.171       -1585.597          44.000  
G11  21694485.035   114005280.276       -1205.327          41.000    21694506.368    88835378.087        -939.454          44.000  
R21  20654315.181   110525424.081        1149.127          42.000    20654336.886    85964303.757         893.256          41.000  
R05  22357154.419   119511809.384       -4825.440          33.000    22357169.074    92953664.263       -3753.242          40.000  
R06  18868768.929   100687376.164        -995.517          37.000                                                                  
R07  20488390.447   109675939.134        2439.172          37.000    20488414.552    85303654.219        1897.168          47.000  
G12  22412676.415   117779410.560       -2851.299          39.000    22412700.990    91776265.234       -2222.037          39.000  
G19  23113360.696   121461515.643       -4254.703          32.000                                                                  
G29  23789996.551   125017271.455        2550.081          42.000    23790017.530    97416144.599        1986.919          34.000  
G20  21001157.362   110361827.244       -2411.243          45.000                                                                  
R20  20888598.852   111700687.149       -1206.625          29.000    20888629.064    86878472.586        -935.662          47.000  
E27  25911500.308   136165857.517       -1141.695          43.000    25911538.998   104335031.735        -875.339          29.000  
E30  25600047.300   134529143.053       -2971.809          43.000    25600082.331   103080922.891       -2276.704          37.000  
E02  27522427.449   144631346.878       -3364.465          31.000    27522464.117   110821573.781       -2577.166          36.000  
E34  24884362.377   130768204.800       -1141.439          39.000    24884398.857   100199165.934        -874.322          42.000  
E15  24853769.510   130607451.209        -144.735          40.000    24853805.072   100075982.241        -110.463          41.000  
E05  24051974.723   126393977.113       -2011.488          36.000    24052015.874    96847503.017       -1542.974          40.000  
E18  21007214.014   110393648.847       -7187.058          31.000                                                                  
E03  23871303.120   125444527.798         444.176          38.000    23871337.518    96119983.751         340.246          34.000  
E36                                                                  28075405.475   113048024.830       -1429.313          27.000  
G15                                                                  23104948.514                        2196.347          13.000  
> 2025 04 04 10 16 03.9990000  0 24                     
G25  23046457.012   121109955.401       -1494.056          40.000    23046486.375                       -1163.826          27.000  
G13  21157546.890                        1902.642          38.000                                                                  
G05  20505647.872   107757909.625        -829.578          45.000    20505666.323    83967283.009        -645.715          36.000  
G06  23183491.700   121830072.624       -2034.570          42.000    23183522.683    94932646.308       -1585.561          38.000  
G11  21694714.381   114006485.415       -1205.488          27.000    21694735.856    88836317.275        -940.083          33.000  
R21  20654100.288   110524274.682        1150.067          40.000    20654122.147    85963409.738         894.934          34.000  
R05  22358057.265   119516634.869       -4826.239          29.000    22358071.948    92957417.408       -3752.997          34.000  
R06  18868955.569   100688372.342        -995.674          29.000                                                                  
R07  20487935.088   109673499.985        2439.221          34.000    20487958.927    85301757.122        1897.553          44.000  
G12  22413218.904   117782261.520       -2851.145          40.000    22413243.403    91778486.740       -2220.919          38.000  
G19  23114171.086   121465774.118       -4257.406          35.000                                                                  
G29  23789511.097   125014720.901        2551.615          42.000    23789532.251    97414157.154        1988.803          33.000  
G20  21001616.069   110364237.585       -2409.121          37.000                                                                  
R20  20888824.320                       -1207.060          21.000    20888854.130    86879408.341        -932.929          27.000  
E27  25911717.910   136166999.326       -1141.838          44.000    25911756.972   104335906.589        -875.406          29.000  
E30  25600612.406   134532114.472       -2970.682          43.000    25600647.723   103083199.813       -2277.157          37.000  
E02  27523068.004   144634697.7811      -3362.252          34.000    27523104.002   110824150.686       -2576.437          38.000  
E34  24884579.607   130769345.512       -1140.208          33.000    24884616.153   100200040.180        -874.230          37.000  
E15  24853796.828   130607595.298        -142.502          31.000    24853832.657   100076092.776        -110.110          38.000  
E05  24052358.316   126395989.520       -2012.225          36.000    24052399.138    96849044.757       -1541.469          38.000  
E18  21008581.409   110400836.978       -7186.889          35.000                                                                  
E03  23871220.905   125444111.6591        445.108          38.000    23871253.026    96119642.584         340.583          30.000  
E36                                                                  28075760.045   113049453.964       -1428.274          27.000  
G15                                                                  23104416.512                        2179.653          15.000  
> 2025 04 04 10 16 04.9990000  0 24                     
G25  23046741.500   121111450.084       -1495.174          40.000    23046771.346                       -1165.704          27.000  
G13  21157183.494   111181756.3203       1899.651          27.000                                                                  
G05  20505805.769   107758739.193        -830.591          46.000    20505824.228    83967929.417        -646.637          33.000  
G06  23183878.995   121832108.083       -2034.655          39.000    23183910.017    94934232.412       -1585.740          38.000  
G11  21694943.408   114007696.5033      -1204.601          40.000    21694965.064    88837255.836        -939.622          40.000  
R21  20653885.467   110523124.964        1151.593          41.000    20653907.414    85962515.627         893.195          44.000  
R05  22358960.851                       -4827.200          27.000    22358974.846    92961170.395       -3753.069          38.000  
R06  18869141.381   100689353.3433       -995.900          28.000                                                                  
R07  20487479.588   109671060.653        2438.928          34.000    20487503.357    85299860.013        1896.655          45.000  
G12  22413761.357   117785112.115       -2851.047          42.000    22413785.781    91780707.927       -2221.883          38.000  
G19  23114981.445   121470031.954       -4258.033          40.000                                                                  
G29  23789025.541   125012169.792        2550.662          43.000    23789046.710    97412169.295        1988.719          32.000  
G20  21002074.792   110366647.754       -2411.061          49.000                                                                  
R20  20889048.942                       -1202.667          21.000    20889079.943    86880342.6133       -936.408          39.000  
E27  25911934.827   136168140.821       -1143.248          45.000    25911975.167   104336786.1451       -874.653          29.000  
E30  25601177.530   134535085.420       -2971.375          43.000    25601213.133   103085476.152       -2276.645          36.000  
E02  27523706.668   144638059.972       -3363.120          34.000    27523743.675   110826726.809       -2576.220          35.000  
E34  24884795.852   130770484.6481      -1139.472          36.000    24884833.398   100200913.756        -874.256          39.000  
E15  24853824.134   130607726.7511       -143.529          41.000    24853859.730   100076202.588        -109.899          41.000  
E05  24052741.511   126398001.229       -2010.844          34.000    24052782.098    96850586.388       -1540.427          36.000  
E18  21009949.423   110408024.653       -7188.404          37.000                                                                  
E03  23871136.145   125443666.523         444.432          32.000    23871168.400    96119301.671         340.510          34.000  
E36                                                                  28076115.237   113050882.749       -1428.612          27.000  
G15                                                                  23103884.388                        2185.848          15.000  
> 2025 04 04 10 16 05.9990000  0 24                     
G25  23047025.864   121112944.987       -1495.191          40.000    23047055.846                       -1172.648          26.000  
G13  21156821.403   111179853.0322       1902.828          27.000                                                                  
G05  20505963.722   107759568.925        -829.919          47.000    20505982.313    83968576.009        -647.052          34.000  
G06  23184266.288   121834143.106       -2035.132          43.000    23184297.297    94935818.192       -1585.753          41.000  
G11  21695172.665   114008901.0582      -1205.097          43.000    21695194.260    88838194.419        -937.934          43.000  
R21  20653670.486   110521974.957        1150.793          44.000    20653692.348    85961621.114         895.502          40.000  
R05  22359865.466   119526294.7013      -4823.839          31.000    22359877.751    92964923.270       -3752.791          39.000  
R06  18869328.102   100690350.3672       -997.529          34.000                                                                  
R07  20487024.304                        2435.403          25.000    20487047.690    85297963.036        1896.430          42.000  
G12  22414303.841   117787962.820       -2850.776          40.000    22414328.320    91782929.220       -2221.185          39.000  
G19  23115791.711   121474289.777       -4258.457          26.000                                                                  
G29  23788540.111   125009618.576        2550.903          42.000    23788561.225    97410181.363        1987.958          33.000  
G20  21002533.436   110369057.518       -2409.401          45.000                                                                  
R20  20889273.834   111704333.8843      -1203.669          29.000    20889303.516    86881278.6322       -936.700          45.000  
E27  25912152.268   136169282.415       -1141.831          43.000    25912191.123   104337660.964        -873.967          29.000  
E30  25601743.160   134538056.307       -2970.969          43.000    25601778.296   103087752.512       -2276.594          40.000  
E02  27524345.562   144641421.397       -3360.314          25.000    27524383.433   110829302.791       -2575.605          32.000  
E34  24885013.056   130771624.787       -1140.519          40.000    24885050.212   100201787.276        -873.554          42.000  
E15  24853849.751   130607869.899        -143.080          41.000    24853886.922   100076312.287        -109.807          40.000  
E05  24053124.223   126400013.526       -2012.381          42.000    24053164.532    96852128.214       -1541.595          43.000  
E18  21011317.069   110415212.278       -7187.691          26.000                                                                  
E03  23871049.879   125443221.109         445.767          35.000    23871083.882    96118960.329         342.218          32.000  
E36                                                                  28076469.911   113052311.556       -1429.318          25.000  
G15                                                                  23103351.654                        2175.841          14.000  
> 2025 04 04 10 16 06.9990000  0 24                     
G25  23047310.366   121114440.268       -1495.835          40.000    23047340.975                       -1164.769          25.000  
G13  21156459.142   111177950.0542       1903.409          35.000                                                                  
G05  20506121.712   107760398.999        -830.621          47.000    20506140.304    83969222.827        -646.814          36.000  
G06  23184653.553   121836178.198       -2035.476          43.000    23184684.583    94937403.966       -1586.026          41.000  
G11  21695401.872   114010105.0281      -1204.670          42.000    21695423.414    88839132.949        -938.527          42.000  
R21  20653455.650   110520824.996        1149.670          45.000    20653477.448    85960726.683         893.951          40.000  
R05  22360769.684   119531119.5391      -4825.219          26.000    22360780.705    92968676.328       -3753.234          39.000  
R06  18869515.175   100691347.7501       -998.656          36.000                                                                  
R07  20486574.077   109666234.7743       2437.195          32.000    20486592.218    85296066.525        1896.362          42.000  
G12  22414846.242   117790813.635       -2851.057          40.000    22414870.736    91785150.674       -2221.445          39.000  
G19  23116602.568   121478547.937       -4258.481          36.000                                                                  
G29  23788054.702   125007067.358        2550.901          43.000    23788075.760    97408193.406        1988.065          34.000  
G20  21002992.103   110371467.429       -2410.015          46.000                                                                  
R20  20889497.252   111705528.8042      -1204.518          30.000    20889531.207    86882214.4931       -936.671          44.000  
E27  25912369.281   136170424.393       -1142.353          44.000    25912409.514   104338535.978        -875.248          29.000  
E30  25602308.837   134541027.211       -2971.270          43.000    25602343.435   103090028.910       -2276.351          40.000  
E02  27524994.515                       -3362.287          26.000    27525023.451   110831878.482       -2575.616          32.000  
E34  24885227.475   130772764.573       -1139.434          38.000    24885266.860   100202660.601        -873.371          41.000  
E15  24853873.699   130608012.767        -142.804          40.000    24853914.223   100076421.780        -110.029          41.000  
E05  24053506.911   126402026.029       -2013.084          41.000    24053547.284    96853670.260       -1542.417          43.000  
E18  21012684.302   110422400.791       -7188.975          33.000                                                                  
E03  23870968.203   125442776.128         444.492          39.000    23870999.141    96118619.298         341.008          37.000  
E36                                                                  28076824.688   113053740.088       -1429.050          27.000  
G15                                                                  23102819.826                        2160.656          12.000  
> 2025 04 04 10 16 07.9990000  0 24                     
G25  23047595.029   121115936.500       -1496.059          40.000    23047624.937                       -1166.100          25.000  
G13  21156097.175   111176047.9571       1902.023          34.000                                                                  
G05  20506279.946   107761229.937        -830.829          46.000    20506298.513    83969870.357        -647.687          36.000  
G06  23185040.966   121838213.913       -2035.355          43.000    23185072.003    94938990.224       -1585.875          40.000  
G11  21695631.311   114011310.076       -1204.795          42.000    21695652.712    88840071.961        -938.854          43.000  
R21  20653240.937   110519675.645        1149.371          44.000    20653262.647    85959832.735         894.543          41.000  
R05  22361670.341   119535945.677       -4826.620          27.000    22361683.741    92972430.023       -3753.561          36.000  
R06  18869702.502   100692346.995        -999.825          35.000                                                                  
R07  20486115.758   109663797.4812       2437.524          36.000    20486136.954    85294170.726        1895.368          46.000  
G12  22415388.899   117793665.376       -2851.997          40.000    22415413.416    91787372.759       -2221.915          39.000  
G19  23117413.083   121482806.728       -4258.788          39.000                                                                  
G29  23787569.395   125004516.718        2550.970          43.000    23787590.568    97406205.931        1987.180          33.000  
G20  21003450.814   110373877.972       -2410.695          46.000                                                                  
R20  20889722.403   111706733.5532      -1205.252          29.000    20889756.132    86883151.516        -937.391          42.000  
E27  25912586.829   136171567.276       -1143.013          43.000    25912625.388   104339411.737        -876.650          29.000  
E30  25602874.551   134543998.787       -2971.899          43.000    25602909.083   103092305.879       -2277.656          36.000  
E02  27525632.270                       -3362.667          25.000    27525663.354   110834454.445       -2576.621          32.000  
E34  24885444.149   130773904.948       -1140.574          38.000    24885483.759   100203534.394        -873.999          41.000  
E15  24853902.540   130608156.163        -143.453          39.000    24853941.489   100076531.620        -109.949          40.000  
E05  24053889.768   126404039.442       -2013.914          40.000    24053930.555    96855213.028       -1543.268          42.000  
E18  21014052.154   110429589.913       -7189.795          35.000                                                                  
E03  23870882.291   125442332.108         444.077          41.000    23870914.445    96118279.120         339.760          39.000  
E36                                                                  28077179.359   113055169.150       -1429.044          28.000  
G15                                                                  23102288.326                        2179.821          16.000  
> 2025 04 04 10 16 08.9990000  0 24                     
G25  23047880.021   121117433.591       -1497.338          41.000    23047910.652                       -1168.487          24.000  
G13  21155734.924   111174146.712        1899.507          34.000                                                                  
G05  20506438.216   107762061.662        -832.135          47.000    20506456.812    83970518.401        -648.383          36.000  
G06  23185428.425   121840250.104       -2036.415          43.000    23185459.571    94940576.925       -1586.784          39.000  
G11  21695860.768   114012515.592       -1205.364          42.000    21695882.101    88841011.345        -939.642          43.000  
R21  20653026.377   110518526.735        1149.158          44.000    20653047.988    85958939.158         893.463          41.000  
R05  22362575.408   119540772.431       -4827.192          27.000    22362586.821    92976184.218       -3754.896          36.000  
R06  18869887.818   100693347.489       -1001.180          35.000                                                                  
R07  20485656.893   109661359.6781       2436.128          30.000    20485681.946    85292275.770        1894.507          41.000  
G12  22415931.694   117796517.830       -2853.317          37.000    22415956.297    91789595.432       -2222.870          39.000  
G19  23118223.608   121487066.284       -4259.815          39.000                                                                  
G29  23787084.135   125001966.582        2549.682          43.000    23787105.463    97404218.810        1986.868          34.000  
G20  21003909.628   110376288.968       -2411.342          47.000                                                                  
R20  20889951.287   111707938.979       -1205.172          29.000    20889980.542    86884089.101        -937.910          45.000  
E27  25912804.572   136172710.938       -1144.070          43.000    25912843.527   104340288.087        -876.441          29.000  
E30  25603440.295   134546970.860       -2972.149          43.000    25603474.767   103094583.170       -2278.064          36.000  
E02  27526273.234   144651541.2111      -3362.332          27.000    27526303.145   110837030.582       -2576.372          30.000  
E34  24885662.557   130775045.622       -1140.970          39.000    24885700.899   100204408.424        -874.284          41.000  
G15  23101706.087                        2802.992          25.000    23101756.894                        2177.780          19.000  
E15  24853931.152   130608299.802        -143.971          40.000    24853968.808   100076641.703        -110.561          41.000  
E05  24054272.539   126406053.673       -2014.167          33.000    24054313.822    96856756.434       -1543.991          38.000  
E18  21015419.827   110436779.879       -7189.527          35.000                                                                  
E03  23870796.853   125441888.825         442.961          40.000    23870829.984    96117939.454         339.262          41.000  
E36                                                                  28077533.906   113056598.531       -1430.013          27.000  
> 2025 04 04 10 16 09.9990000  0 24                     
G25  23048165.101   121118931.518       -1497.053          40.000    23048196.105    94378509.3171      -1167.398          27.000  
G13  21155373.303   111172246.392        1900.714          36.000                                                                  
G05  20506596.606   107762894.145        -831.787          46.000    20506615.365    83971167.091        -647.467          35.000  
G06  23185816.078   121842286.760       -2035.726          44.000    23185847.121    94942163.837       -1585.759          43.000  
G11  21696090.341   114013721.627       -1205.284          41.000    21696111.736    88841951.101        -938.773          42.000  
R21  20652811.777   110517378.416        1148.969          43.000    20652833.373    85958045.991         894.012          42.000  
R05  22363476.922   119545600.010       -4827.196          33.000    22363490.151    92979938.926       -3753.803          37.000  
R06  18870077.518   100694349.255       -1000.986          35.000                                                                  
R07  20485199.556   109658924.035        2438.676          29.000    20485226.989    85290381.543        1894.708          40.000  
G12  22416474.644   117799370.881       -2851.950          38.000    22416499.332    91791818.608       -2222.608          39.000  
G19  23119034.335   121491326.433       -4258.563          36.000                                                                  
G29  23786598.999   124999416.941        2550.710          41.000    23786620.297    97402232.042        1988.076          34.000  
G20  21004368.549   110378700.491       -2410.660          45.000                                                                  
R20  20890175.981   111709145.171       -1204.205          30.000    20890205.661    86885027.185        -937.634          43.000  
E27  25913022.140   136173855.369       -1143.843          42.000    25913060.041   104341164.946        -875.865          29.000  
E30  25604006.578   134549943.498       -2971.650          40.000    25604040.677   103096860.833       -2276.755          32.000  
E02  27526917.796   144654903.363       -3361.025          26.000    27526943.034   110839606.799       -2575.162          33.000  
E34  24885878.900   130776186.676       -1140.015          39.000    24885917.775   100205282.755        -873.329          40.000  
E15  24853957.910   130608443.774        -143.174          39.000    24853996.255   100076751.976        -109.600          41.000  
E05  24054656.669   126408068.838       -2014.356          38.000    24054697.363    96858300.462       -1543.282          40.000  
E18  21016787.976   110443970.651       -7189.315          34.000                                                                  
E03  23870712.111   125441446.342         443.146          40.000    23870745.515    96117600.446         339.295          41.000  
E36                                                                  28077889.425   113058028.180       -1428.725          28.000  
G15                                                                  23101221.913                        2182.717          21.000  
> 2025 04 04 10 16 10.9990000  0 24                     
G25  23048450.120   121120429.113       -1497.758          40.000    23048481.150    94379676.183       -1166.342          27.000  
G13  21155011.651   111170345.605        1900.630          36.000                                                                  
G05  20506755.011   107763726.224        -832.172          46.000    20506773.667    83971815.516        -648.303          38.000  
G06  23186203.640   121844322.879       -2035.730          35.000    23186234.611    94943750.456       -1586.770          37.000  
G11  21696319.738   114014926.982       -1204.842          41.000    21696341.092    88842890.309        -939.151          45.000  
R21  20652596.955   110516229.346        1149.030          42.000    20652618.556    85957152.313         892.651          42.000  
R05  22364380.479   119550427.012       -4828.611          33.000    22364393.281    92983693.261       -3754.114          37.000  
R06  18870265.143   100695351.148       -1002.427          35.000                                                                  
R07  20484741.461   109656424.3883       2437.128          33.000    20484772.113    85288487.053        1894.354          41.000  
G12  22417017.238   117802223.354       -2852.336          38.000    22417042.163    91794041.401       -2222.747          39.000  
G19  23119844.834   121495586.078       -4259.273          39.000                                                                  
G29  23786113.641   124996866.586        2550.391          42.000    23786135.017    97400244.799        1987.207          34.000  
G20  21004827.300   110381111.380       -2411.030          45.000                                                                  
R20  20890402.667   111710351.070       -1206.575          29.000    20890431.017    86885965.130        -937.980          40.000  
E27  25913239.552   136174999.420       -1143.789          41.000    25913278.480   104342041.572        -876.848          29.000  
E30  25604571.912   134552915.529       -2971.978          42.000    25604606.184   103099138.146       -2277.213          36.000  
E02  27527555.091   144658264.571       -3362.501          27.000    27527582.901   110842182.284       -2575.547          33.000  
E34  24886097.047   130777326.939       -1140.224          42.000    24886134.762   100206156.413        -873.572          43.000  
E15  24853985.746   130608586.856        -143.244          41.000    24854023.294   100076861.635        -109.393          41.000  
E05  24055040.377   126410083.297       -2013.837          35.000    24055080.789    96859844.100       -1543.809          39.000  
E18  21018156.268   110451161.138       -7190.203          37.000                                                                  
E03  23870627.550   125441003.433         442.582          40.000    23870661.115    96117261.064         339.080          40.000  
E36                                                                  28078244.413   113059457.290       -1429.315          28.000  
G15                                                                  23100688.801                        2176.043          21.000  
> 2025 04 04 10 16 11.9990000  0 24                     
G25  23048735.332   121121927.370       -1498.972          40.000    23048768.233    94380843.652       -1168.526          26.000  
G13  21154650.147   111168445.378        1899.737          37.000                                                                  
G05  20506913.463   107764558.859        -833.044          46.000    20506932.233    83972464.319        -649.664          37.000  
G06  23186591.180   121846359.132       -2036.765          39.000    23186622.174    94945337.150       -1586.520          38.000  
G11  21696549.040   114016132.526       -1205.873          39.000    21696570.536    88843829.753        -939.741          44.000  
R21  20652382.276   110515080.516        1148.505          43.000    20652403.844    85956258.742         893.616          41.000  
R05  22365283.836   119555254.305       -4828.089          33.000    22365296.551    92987447.934       -3754.630          37.000  
R06  18870453.054   100696354.051       -1003.554          35.000                                                                  
R07  20484286.048   109653989.3382       2434.808          32.000    20484317.146    85286593.152        1893.286          44.000  
G12  22417560.168   117805076.459       -2853.206          38.000    22417585.034    91796264.587       -2223.543          39.000  
G19  23120655.511   121499846.184       -4260.583          37.000                                                                  
G29  23785628.367   124994316.496        2550.154          41.000    23785649.723    97398257.718        1986.572          33.000  
G20  21005286.141   110383522.504       -2411.370          45.000                                                                  
R20  20890631.706                       -1207.907          27.000    20890656.381    86886903.317        -938.126          39.000  
E27  25913457.204   136176144.071       -1145.155          43.000    25913496.397   104342918.615        -877.057          30.000  
E30  25605137.225   134555887.845       -2972.595          43.000    25605171.679   103101415.649       -2277.586          38.000  
E02  27528192.741   144661626.024       -3362.442          27.000    27528222.501   110844757.889       -2576.958          31.000  
E34  24886314.329   130778467.373       -1140.875          39.000    24886351.638   100207030.247        -873.777          42.000  
E15  24854012.694   130608730.046        -143.739          40.000    24854050.464   100076971.365        -109.813          41.000  
E05  24055423.682   126412098.600       -2015.852          41.000    24055464.205    96861388.194       -1544.742          43.000  
E18  21019524.088   110458352.230       -7191.880          36.000                                                                  
E03  23870542.599   125440561.073         441.811          41.000    23870576.997    96116922.084         338.910          41.000  
E36                                                                  28078600.601   113060886.525       -1429.879          27.000  
G15                                                                  23100153.953                        2184.586          19.000  
> 2025 04 04 10 16 12.9990000  0 24                     
G25  23049020.559   121123426.165       -1498.860          40.000    23049053.938                       -1167.759          26.000  
G13  21154288.827   111166545.865        1899.104          35.000                                                                  
G05  20507071.970   107765392.016        -833.051          46.000    20507090.854    83973113.496        -649.048          37.000  
G06  23186978.681   121848395.568       -2036.475          42.000    23187009.785    94946923.945       -1586.766          41.000  
G11  21696778.455   114017338.328       -1205.082          41.000    21696800.153    88844769.339        -939.677          44.000  
R21  20652167.593   110513931.928        1148.535          43.000    20652189.279    85955365.359         893.921          41.000  
R05  22366187.858   119560082.122       -4827.720          32.000    22366199.885    92991202.936       -3755.060          37.000  
R06  18870641.382   100697357.998       -1004.720          35.000                                                                  
R07  20483831.288   109651551.9873       2434.332          36.000    20483862.272    85284699.763        1893.189          45.000  
G12  22418103.231   117807929.993       -2853.291          40.000    22418128.065    91798488.087       -2223.365          39.000  
G19  23121466.373   121504106.689       -4259.679          37.000                                                                  
G29  23785143.156   124991766.696        2550.286          41.000    23785164.396    97396270.753        1987.741          34.000  
G20  21005745.014   110385933.919       -2411.213          45.000                                                                  
R20  20890854.019   111712784.0323      -1206.623          28.000    20890882.048    86887841.789        -938.816          43.000  
E27  25913675.387   136177289.231       -1145.169          43.000    25913715.068   104343796.107        -878.677          29.000  
E30  25605702.908   134558860.490       -2972.594          41.000    25605737.190   103103693.433       -2277.638          37.000  
E02  27528833.245                       -3360.656          12.000    27528862.044   110847333.408       -2575.678          30.000  
E34  24886531.920   130779607.885       -1139.760          41.000    24886568.772   100207904.191        -873.914          43.000  
E15  24854041.566   130608873.267        -142.909          40.000    24854077.654   100077081.128        -109.884          41.000  
E05  24055807.452   126414114.389       -2015.997          39.000    24055847.682    96862932.793       -1544.837          43.000  
E18  21020892.195   110465543.849       -7190.671          29.000                                                                  
E03  23870458.279   125440119.195         441.587          39.000    23870493.070    96116583.571         338.296          39.000  
E36                                                                  28078954.624   113062315.857       -1428.770          27.000  
G15                                                                  23099619.450                        2177.812          22.000  
> 2025 04 04 10 16 13.9990000  0 24                     
G25  23049305.977   121124925.164       -1499.812          40.000    23049338.734    94383188.5911      -1167.044          30.000  
G13  21153927.399   111164646.066        1901.990          30.000                                                                  
G05  20507230.442   107766225.286        -833.502          46.000    20507249.361    83973762.820        -649.274          37.000  
G06  23187366.068   121850431.958       -2036.484          43.000    23187397.326    94948510.762       -1586.664          42.000  
G11  21697007.834   114018543.961       -1204.849          39.000    21697029.660    88845708.769        -939.676          43.000  
R21  20651952.802   110512783.089        1148.755          43.000    20651974.577    85954471.907         893.292          42.000  
R05  22367091.152   119564910.110       -4828.883          33.000    22367103.155    92994957.946       -3754.944          39.000  
R06  18870829.766   100698362.574       -1004.617          35.000                                                                  
R07  20483379.256   109649118.0812       2432.257          32.000    20483407.606    85282806.685        1892.596          44.000  
G12  22418646.382   117810783.559       -2853.245          39.000    22418671.066    91800711.663       -2223.792          41.000  
G19  23122277.159   121508367.221       -4260.707          37.000                                                                  
G29  23784657.883   124989216.732        2550.081          42.000    23784679.209    97394283.823        1988.097          34.000  
G20  21006203.832   110388345.224       -2411.639          45.000                                                                  
R20  20891077.607   111713990.8982      -1206.968          31.000    20891107.892    86888780.512        -939.237          47.000  
E27  25913893.314   136178434.556       -1145.562          43.000    25913933.352   104344673.638        -878.232          32.000  
E30  25606268.510   134561832.986       -2972.311          43.000    25606302.661   103105971.004       -2277.185          37.000  
E02  27529469.841                       -3362.592          29.000    27529501.614   110849908.449       -2575.409          30.000  
E34  24886749.356   130780748.140       -1139.997          41.000    24886785.676   100208777.873        -873.524          42.000  
G15  23099045.112                        2800.306          27.000    23099086.333                        2181.840          24.000  
E15  24854069.511   130609016.191        -142.347          40.000    24854104.907   100077190.635        -109.484          41.000  
E05  24056191.135   126416130.311       -2016.296          40.000    24056231.272    96864477.450       -1544.424          43.000  
E18  21022258.545   110472735.574       -7190.237          29.000                                                                  
E03  23870374.138   125439677.538         441.508          41.000    23870409.102    96116245.126         338.104          41.000  
E36                                                                  28079310.314   113063745.065       -1428.451          28.000  
> 2025 04 04 10 16 14.9990000  0 24                     
G25  23049591.381   121126424.805       -1500.395          40.000    23049626.201    94384357.146       -1168.776          29.000  
G13  21153565.811   111162738.1373       1899.207          34.000                                                                  
G05  20507388.945   107767059.088        -834.363          46.000    20507408.125    83974412.561        -650.244          36.000  
G06  23187753.665   121852468.535       -2036.937          43.000    23187784.733    94950097.724       -1587.089          42.000  
G11  21697237.349   114019749.876       -1206.454          41.000    21697259.099    88846648.432        -939.855          44.000  
R21  20651738.149   110511634.586        1148.523          43.000    20651759.903    85953578.606         892.816          42.000  
R05  22367994.509   119569738.487       -4829.728          26.000    22368006.652    92998713.351       -3755.590          39.000  
R06  18871018.240   100699368.216       -1006.629          35.000                                                                  
R07  20482923.135   109646690.4933       2434.334          28.000    20482953.236    85280914.126        1892.120          43.000  
G12  22419189.360   117813637.581       -2854.652          39.000    22419214.127    91802935.544       -2223.885          40.000  
G19  23123087.954   121512628.160       -4261.524          37.000                                                                  
G29  23784172.744   124986666.996        2549.633          41.000    23784194.004    97392297.055        1986.213          34.000  
G20  21006662.712   110390756.741       -2411.960          46.000                                                                  
R20  20891299.697   111715167.2453      -1208.264          31.000    20891333.818    86889719.512        -939.533          47.000  
E27  25914111.170   136179580.404       -1146.399          43.000    25914151.317   104345551.622        -878.133          28.000  
E30  25606834.164   134564805.809       -2973.365          43.000    25606868.171   103108248.910       -2278.474          38.000  
E02  27530111.477                       -3360.841          27.000    27530141.242   110852483.552       -2575.024          30.000  
E34  24886966.650   130781888.558       -1140.995          41.000    24887002.833   100209651.689        -874.031          43.000  
G15  23098515.764                        2800.306          23.000    23098552.516                        2168.594          23.000  
E15  24854097.160   130609159.153        -143.279          40.000    24854132.231   100077300.195        -109.985          41.000  
E05  24056575.037   126418146.801       -2017.119          41.000    24056615.024    96866022.571       -1545.892          42.000  
E18  21023626.226   110479928.021       -7192.551          34.000                                                                  
E03  23870290.146   125439236.343         440.793          41.000    23870324.984    96115907.118         337.604          41.000  
E36                                                                  28079666.174   113065174.495       -1429.609          28.000  
> 2025 04 04 10 16 15.9990000  0 24                     
G25  23049877.076   121127925.832       -1501.770          40.000    23049913.100    94385526.801       -1170.329          29.000  
G13  21153204.105   111160837.0133       1898.029          35.000                                                                  
G05  20507547.937   107767894.212        -835.797          46.000    20507567.110    83975063.297        -651.434          37.000  
G06  23188141.474   121854506.161       -2038.274          43.000    23188172.498    94951685.476       -1588.150          42.000  
G11  21697466.979   114020956.764       -1207.540          41.000    21697488.753    88847588.874        -940.896          44.000  
R21  20651523.702   110510487.150        1146.960          44.000    20651545.660    85952686.165         891.986          43.000  
R05  22368898.251   119574568.006       -4830.235          31.000    22368910.221    93002469.695       -3757.136          39.000  
R06  18871207.046   100700375.648       -1008.385          35.000                                                                  
R07  20482470.739   109644258.8882       2430.872          33.000    20482498.965    85279022.709        1890.741          46.000  
G12  22419732.745   117816492.796       -2855.442          39.000    22419757.519    91805160.467       -2225.010          39.000  
G19  23123898.924   121516890.257       -4262.583          37.000                                                                  
G29  23783687.722   124984118.276        2548.760          41.000    23783709.002    97390311.061        1985.406          34.000  
G20  21007121.882   110393169.330       -2412.980          46.000                                                                  
R20  20891525.254   111716375.8802      -1209.657          31.000    20891559.912    86890659.543        -940.636          47.000  
E27  25914329.682   136180727.555       -1147.541          42.000    25914369.548   104346430.670        -879.999          29.000  
E30  25607400.062   134567779.675       -2974.265          43.000    25607434.125   103110527.663       -2279.297          35.000  
E02  27530754.429                       -3363.275          26.000    27530781.054   110855059.304       -2575.950          30.000  
E34  24887184.015   130783029.864       -1141.880          41.000    24887220.246   100210526.183        -874.581          43.000  
E15  24854124.571   130609302.948        -144.089          41.000    24854159.418   100077410.381        -110.461          41.000  
E05  24056959.442   126420164.651       -2018.331          41.000    24056999.106    96867568.672       -1546.244          42.000  
E18  21024994.455   110487121.744       -7194.311          35.000                                                                  
E03  23870206.268   125438796.474         439.346          39.000    23870241.255    96115570.069         336.586          39.000  
E36                                                                  28080020.635   113066604.574       -1430.388          27.000  
G15                                                                  23098019.465                        2181.943          23.000  
> 2025 04 04 10 16 16.9990000  0 24                     
G25  23050162.950   121129427.624       -1501.805          40.000    23050200.704    94386697.019       -1170.278          28.000  
G13  21152841.797   111158939.7562       1897.058          33.000                                                                  
G05  20507706.932   107768730.049        -835.645          46.000    20507726.100    83975714.596        -651.044          36.000  
G06  23188529.292   121856544.232       -2037.820          43.000    23188560.331    94953273.580       -1588.040          42.000  
G11  21697696.798   114022164.064       -1206.701          41.000    21697718.459    88848529.652        -940.348          44.000  
R21  20651309.400   110509340.167        1147.363          43.000    20651331.269    85951794.029         892.383          42.000  
R05  22369802.001   119579411.7023      -4829.884          33.000    22369813.861    93006226.514       -3756.593          38.000  
R06  18871395.974   100701384.297       -1008.172          35.000                                                                  
R07  20482012.617   109641828.152        2430.420          32.000    20482044.787    85277132.034        1891.083          47.000  
G12  22420276.121   117819348.736       -2855.668          41.000    22420300.894    91807385.861       -2225.376          40.000  
G19  23124710.203   121521153.054       -4263.057          34.000                                                                  
G29  23783202.831   124981570.029        2548.811          42.000    23783224.101    97388325.356        1986.588          34.000  
G20  21007580.971   110395582.397       -2412.732          46.000                                                                  
R20  20891754.048   111717585.165       -1209.094          32.000    20891786.104    86891600.118        -940.488          47.000  
E27  25914548.161   136181875.507       -1147.629          43.000    25914587.856   104347310.228        -879.419          28.000  
E30  25607965.857   134570754.084       -2974.068          42.000    25608000.150   103112806.662       -2279.069          36.000  
E02  27531393.256                       -3362.133          26.000    27531420.913   110857635.098       -2575.307          35.000  
E34  24887400.940   130784171.482       -1141.277          40.000    24887437.420   100211400.959        -874.475          43.000  
E15  24854151.754   130609447.091        -144.154          41.000    24854186.891   100077520.807        -109.926          41.000  
E05  24057343.869   126422183.235       -2018.214          41.000    24057383.347    96869115.437       -1546.727          42.000  
E18  21026362.842   110494316.296       -7194.491          33.000                                                                  
E03  23870122.540   125438357.333         439.626          41.000    23870157.691    96115233.585         336.705          40.000  
E36                                                                  28080375.523   113068034.933       -1429.203          27.000  
G15                                                                  23097486.282                        2180.774          24.000  
> 2025 04 04 10 16 17.9990000  0 25                     
G25  23050448.835   121130929.490       -1502.227          40.000    23050486.052    94387867.296       -1169.949          28.000  
G13  21152483.713   111157042.5982       1897.273          36.000                                                                  
G05  20507866.040   107769565.879        -836.047          47.000    20507885.152    83976365.878        -651.123          36.000  
G06  23188917.012   121858581.971       -2037.732          42.000    23188948.051    94954861.426       -1587.340          41.000  
G11  21697926.486   114023371.103       -1207.401          41.000    21697948.052    88849470.145        -940.588          45.000  
R21  20651095.089   110508192.797        1147.461          44.000    20651116.851    85950901.702         891.980          41.000  
R05  22370705.738                       -4830.292          20.000    22370717.536    93009983.231       -3756.748          37.000  
R06  18871585.155   100702393.416       -1009.143          35.000                                                                  
R07  20481558.574   109639397.334        2429.327          32.000    20481590.624    85275241.455        1890.729          48.000  
G12  22420819.574   117822204.567       -2855.798          39.000    22420844.222    91809611.172       -2225.568          39.000  
G19  23125521.413   121525415.644       -4261.944          35.000                                                                  
G29  23782717.829   124979021.418        2548.971          42.000    23782739.129    97386339.546        1984.674          34.000  
G20  21008040.031   110397995.146       -2412.432          46.000                                                                  
R20  20891980.063   111718794.414       -1209.938          31.000    20892012.342    86892540.634        -940.200          43.000  
E27  25914766.704   136183023.373       -1147.403          43.000    25914806.455   104348189.857        -881.032          33.000  
E30  25608531.748   134573728.213       -2974.336          42.000    25608566.163   103115085.565       -2279.245          38.000  
E02  27532022.336   144681753.1001      -3361.579          27.000    27532060.467   110860210.521       -2575.071          30.000  
E34  24887618.225   130785312.629       -1140.753          40.000    24887654.421   100212275.357        -874.815          43.000  
E08  26097957.022   137145689.0291       1978.031          29.000                                                                  
E15  24854179.178   130609590.661        -143.323          42.000    24854214.353   100077630.815        -110.070          41.000  
E05  24057728.001   126424201.879       -2019.213          42.000    24057767.380    96870662.127       -1546.244          42.000  
E18  21027732.751   110501510.785       -7194.548          35.000                                                                  
E03  23870039.050   125437918.177         438.958          40.000    23870074.051    96114897.069         336.344          40.000  
E36                                                                  28080730.888   113069465.347       -1430.696          27.000  
G15                                                                  23096952.947                        2179.082          24.000  
> 2025 04 04 10 16 18.9990000  0 25                     
G25  23050734.662   121132431.707       -1502.889          40.000    23050774.864    94389037.872       -1170.529          29.000  
G13  21152121.484   111155145.687        1897.461          34.000                                                                  
G05  20508025.195   107770402.033        -836.749          46.000    20508044.366    83977017.471        -651.880          36.000  
G06  23189304.784   121860619.780       -2037.779          42.000    23189335.894    94956449.292       -1587.849          42.000  
G11  21698156.222   114024578.121       -1206.981          42.000    21698177.728    88850410.704        -941.027          43.000  
R21  20650880.570   110507045.468        1146.625          43.000    20650902.493    85950009.354         891.547          41.000  
R05  22371610.035   119589075.9853      -4829.709          30.000    22371621.205    93013740.160       -3757.552          37.000  
R06  18871774.559   100703403.358       -1010.538          35.000                                                                  
R07  20481104.338   109636954.9413       2429.877          38.000    20481136.630    85273351.211        1890.289          48.000  
G12  22421362.957   117825060.614       -2856.432          39.000    22421387.692    91811836.651       -2225.581          38.000  
G19  23126332.587   121529678.585       -4263.541          36.000                                                                  
G29  23782232.880   124976472.946        2548.825          42.000    23782254.194    97384353.586        1985.616          33.000  
G20  21008499.258   110400407.949       -2413.098          46.000                                                                  
R20  20892205.841   111720003.918       -1208.555          31.000    20892238.526    86893481.372        -941.012          44.000  
E27  25914985.258   136184171.652       -1148.866          43.000    25915025.098   104349069.573        -880.479          27.000  
E30  25609097.696   134576702.373       -2973.752          42.000    25609132.174   103117364.569       -2279.615          34.000  
E02  27532666.458   144685114.098       -3362.555          26.000    27532700.207   110862785.832       -2575.963          30.000  
E34  24887835.196   130786453.797       -1141.333          39.000    24887871.636   100213149.721        -874.695          41.000  
E08  26097592.744   137143711.333        1977.663          29.000                                                                  
E15  24854206.733   130609734.125        -143.485          40.000    24854241.707   100077740.785        -110.375          41.000  
E05  24058111.865   126426220.846       -2019.440          37.000    24058151.482    96872209.244       -1548.015          40.000  
E18  21029102.867   110508705.864       -7195.369          35.000                                                                  
E03  23869955.451   125437479.388         438.312          41.000    23869990.757    96114560.866         335.659          40.000  
E36                                                                  28081085.646   113070895.343       -1430.257          27.000  
G15                                                                  23096420.163                        2185.412          24.000  
> 2025 04 04 10 16 19.9990000  0 25                     
G25  23051020.771   121133935.018       -1504.069          42.000    23051060.436    94390209.245       -1172.816          28.000  
G13  21151760.013   111153249.530        1896.517          37.000                                                                  
G05  20508184.586   107771239.160        -838.153          47.000    20508203.670    83977669.823        -653.516          36.000  
G06  23189692.767   121862658.339       -2037.535          33.000    23189723.877    94958037.856       -1588.173          34.000  
G11  21698386.027   114025785.886       -1208.302          41.000    21698407.484    88851351.757        -941.586          45.000  
R21  20650666.382   110505898.873        1146.295          43.000    20650688.246    85949117.500         890.991          40.000  
R05  22372514.294   119593909.7052      -4832.191          33.000    22372524.997    93017497.685       -3758.023          37.000  
R06  18871964.320   100704414.733       -1012.680          33.000                                                                  
R07  20480654.329   109634526.0612       2428.680          31.000    20480682.781    85271461.937        1888.611          47.000  
G12  22421906.715   117827917.575       -2857.396          36.000    22421931.446    91814062.810       -2226.763          40.000  
G19  23127144.022   121533942.168       -4264.583          36.000                                                                  
G29  23781748.081   124973925.086        2547.228          42.000    23781769.392    97382368.289        1985.347          32.000  
G20  21008958.508   110402821.484       -2414.065          45.000                                                                  
R20  20892431.374   111721214.300       -1210.585          31.000    20892464.929    86894422.961        -942.723          38.000  
E27  25915203.309   136185320.894       -1150.015          42.000    25915244.161   104349950.224        -880.588          29.000  
E30  25609664.034   134579677.357       -2975.777          42.000    25609698.415   103119644.056       -2280.035          35.000  
E02  27533309.443   144688475.304       -3362.793          26.000    27533339.795   110865361.166       -2574.487          30.000  
E34  24888052.827   130787595.482       -1142.514          43.000    24888088.917   100214024.494        -874.791          44.000  
E08  26097213.327   137141734.114        1976.648          29.000                                                                  
E15  24854234.113   130609878.086        -144.459          40.000    24854269.148   100077851.078        -110.392          42.000  
E05  24058496.802   126428240.722       -2020.352          33.000    24058536.093    96873756.881       -1547.819          38.000  
E18  21030473.036   110515901.744       -7197.727          35.000                                                                  
E03  23869872.411   125437041.434         438.246          37.000    23869907.550    96114225.414         334.364          33.000  
E36                                                                  28081441.086   113072326.103       -1431.897          27.000  
G15                                                                  23095887.082                        2182.685          25.000  
> 2025 04 04 10 16 20.9990000  0 25                     
G25  23051307.049   121135439.123       -1504.012          40.000    23051347.847    94391381.211       -1172.187          27.000  
G13  21151401.356                        1895.840          25.000                                                                  
G05  20508343.926   107772077.058        -838.055          46.000    20508363.209    83978322.703        -652.759          37.000  
G06  23190080.831   121864697.242       -2038.523          40.000    23190111.993    94959626.508       -1588.909          39.000  
G11  21698615.858   114026993.992       -1208.723          41.000    21698637.309    88852293.205        -941.427          44.000  
R21  20650452.138   110504752.660        1146.497          43.000    20650473.974    85948225.990         891.736          40.000  
R05  22373414.958   119598724.4632      -4832.917          36.000    22373429.192    93021255.788       -3758.411          39.000  
R06  18872154.168   100705427.429       -1013.390          36.000                                                                  
R07  20480195.482   109632097.769        2428.668          32.000    20480229.066    85269573.358        1888.538          50.000  
G12  22422450.417   117830775.062       -2857.058          38.000    22422475.325    91816289.546       -2226.898          40.000  
G19  23127955.510   121538206.595       -4265.056          32.000                                                                  
G29  23781263.312   124971377.711        2546.941          42.000    23781284.557    97380383.303        1983.533          35.000  
G20  21009417.825   110405235.454       -2414.352          46.000                                                                  
R20  20892657.951   111722430.5483      -1212.085          30.000    20892691.360    86895364.805        -942.394          38.000  
E27  25915422.111   136186470.916       -1150.550          41.000    25915461.880                        -880.173          23.000  
E30  25610230.218   134582652.854       -2975.714          42.000    25610264.569   103121923.892       -2280.199          37.000  
E02  27533948.079                       -3360.756          26.000    27533979.302   110867936.946       -2576.045          34.000  
E34  24888270.291   130788737.494       -1141.915          41.000    24888306.116   100214899.605        -874.913          44.000  
E08  26096835.510   137139757.514        1976.664          30.000                                                                  
E15  24854261.624   130610022.314        -143.909          40.000    24854296.637   100077961.594        -110.526          41.000  
E05  24058881.243   126430261.525       -2021.423          42.000    24058920.432    96875305.214       -1548.351          42.000  
E18  21031841.386   110523098.445       -7198.797          28.000                                                                  
E03  23869789.774   125436604.417         436.962          38.000    23869824.588    96113890.394         334.857          36.000  
E36                                                                  28081798.960                       -1431.600          25.000  
G15                                                                  23095354.784                        2180.184          26.000  
> 2025 04 04 10 16 21.9990000  0 25                     
G25  23051593.347   121136943.692       -1505.048          40.000    23051633.232    94392553.608       -1171.686          29.000  
G13  21151037.535   111149452.0543       1893.306          31.000                                                                  
G05  20508503.469   107772915.305        -838.757          45.000    20508522.818    83978975.879        -653.931          37.000  
G06  23190468.800   121866736.270       -2039.141          43.000    23190500.071    94961215.414       -1588.994          39.000  
G11  21698845.775   114028202.204       -1208.718          42.000    21698867.290    88853234.699        -941.836          44.000  
R21  20650238.132   110503606.631        1145.605          44.000    20650259.895    85947334.634         890.759          41.000  
R05  22374318.283   119603556.6022      -4833.873          32.000    22374333.226    93025014.093       -3758.213          39.000  
R06  18872344.199   100706440.954       -1014.428          36.000                                                                  
R07  20479742.203   109629670.177        2427.541          28.000    20479775.380    85267685.212        1887.793          50.000  
G12  22422994.160   117833632.978       -2857.933          40.000    22423019.264    91818516.472       -2227.368          40.000  
G19  23128767.072   121542471.169       -4264.477          32.000                                                                  
G29  23780778.619   124968830.402        2546.947          42.000    23780799.787    97378398.348        1985.143          34.000  
G20  21009877.273   110407649.571       -2414.298          46.000                                                                  
R20  20892884.676   111723642.0362      -1212.319          33.000    20892917.960    86896307.169        -942.417          41.000  
E27  25915641.124   136187621.302       -1151.125          42.000    25915684.983   104351723.7661       -880.101          30.000  
E30  25610796.378   134585628.446       -2975.962          42.000    25610830.644   103124203.890       -2280.697          37.000  
E02  27534583.628   144695212.9191      -3362.390          27.000    27534619.022   110870512.439       -2576.147          29.000  
E34  24888487.485   130789879.523       -1141.821          41.000    24888523.381   100215774.656        -875.153          43.000  
E08  26096458.495   137137780.894        1975.776          29.000                                                                  
E15  24854289.089   130610166.494        -144.072          41.000    24854323.821   100078072.060        -110.808          41.000  
E05  24059266.051   126432282.668       -2021.948          41.000    24059304.754    96876853.932       -1549.255          43.000  
E18  21033210.187   110530295.594       -7197.613          29.000                                                                  
E03  23869706.766   125436167.635         436.257          38.000    23869741.742    96113555.740         334.171          37.000  
E36                                                                  28082154.711                       -1430.537          25.000  
G15                                                                  23094822.120    94569435.1801       2179.624          26.000  
> 2025 04 04 10 16 22.9990000  0 24                     
G25  23051879.992   121138449.292       -1505.837          40.000    23051919.852    94393726.814       -1173.506          30.000  
G13  21150675.177   111147548.0282       1892.773          32.000                                                                  
G05  20508663.140   107773754.572        -839.966          46.000    20508682.560    83979629.834        -654.291          36.000  
G06  23190856.905   121868776.017       -2039.939          42.000    23190888.181    94962804.802       -1590.101          39.000  
G11  21699075.870   114029411.158       -1209.178          42.000    21699097.398    88854176.739        -942.355          45.000  
R21  20650024.042   110502461.235        1145.050          44.000    20650045.794    85946443.762         891.040          41.000  
R05  22375220.192   119608374.4883      -4832.748          30.000    22375237.423    93028773.134       -3759.854          39.000  
R06  18872534.464   100707455.994       -1015.916          36.000                                                                  
R07  20479291.119   109627248.6673       2425.922          33.000    20479321.998    85265798.013        1886.658          48.000  
G12  22423538.124   117836491.840       -2859.659          40.000    22423563.341    91820744.141       -2228.153          40.000  
G19  23129578.944   121546736.711       -4265.799          32.000                                                                  
G29  23780294.113   124966283.836        2545.872          42.000    23780315.196    97376414.018        1984.565          34.000  
G20  21010336.798   110410064.407       -2415.304          46.000                                                                  
R20  20893111.591   111724854.548       -1212.325          32.000    20893144.727    86897250.203        -943.715          42.000  
E27  25915860.169   136188772.697       -1152.489          41.000    25915901.063   104352606.073        -883.643          29.000  
E30  25611362.618   134588604.805       -2976.892          43.000    25611397.096   103126484.505       -2280.909          37.000  
E02  27535225.227                       -3346.955          23.000    27535263.144                       -2583.647          20.000  
E34  24888704.840   130791022.128       -1142.794          41.000    24888740.855   100216650.163        -875.747          43.000  
E08  26096085.442   137135804.867        1975.375          28.000                                                                  
E15  24854316.624   130610311.213        -145.405          41.000    24854351.299   100078182.932        -111.037          41.000  
E05  24059650.897   126434304.809       -2022.775          41.000    24059689.462    96878403.390       -1549.801          43.000  
E03  23869623.970   125435731.888         435.141          39.000    23869658.894    96113221.858         333.428          37.000  
E36                                                                  28082508.962   113076626.2111      -1432.077          27.000  
G15                                                                  23094289.358                        2175.698          26.000  
> 2025 04 04 10 16 23.9990000  0 24                     
G25  23052166.836   121139956.409       -1507.631          41.000    23052206.567    94394901.262       -1174.586          29.000  
G13  21150314.665   111145653.3302       1891.832          33.000                                                                  
G05  20508823.127   107774595.213        -840.973          47.000    20508842.595    83980284.904        -655.682          35.000  
G06  23191245.256   121870816.940       -2041.287          41.000    23191276.601    94964395.132       -1590.313          39.000  
G11  21699306.163   114030621.236       -1210.539          42.000    21699327.685    88855119.631        -942.865          45.000  
R21  20649810.211   110501316.994        1143.921          42.000    20649831.915    85945553.828         890.216          41.000  
R05  22376123.050   119613208.9042      -4834.747          29.000    22376141.943    93032533.130       -3760.360          39.000  
R06  18872724.946   100708472.948       -1017.778          36.000                                                                  
R07  20478842.347   109624823.8182       2424.963          39.000    20478868.990    85263912.025        1885.858          47.000  
G12  22424082.418   117839352.034       -2860.291          40.000    22424107.506    91822972.823       -2228.889          38.000  
G19  23130391.056   121551003.413       -4267.140          33.000                                                                  
G29  23779809.603   124963738.339        2545.227          42.000    23779830.898    97374430.556        1982.698          33.000  
G20  21010796.593   110412480.385       -2416.149          46.000                                                                  
R20  20893338.429   111726068.406       -1214.437          32.000    20893371.721    86898194.385        -944.380          44.000  
E27  25916079.458   136189925.495       -1153.098          42.000    25916120.458   104353489.446        -884.004          29.000  
E30  25611929.426   134591582.363       -2977.854          43.000    25611963.766   103128765.991       -2281.743          36.000  
E02  27535862.300                       -3368.913          24.000    27535900.838   110875661.6741      -2576.588          30.000  
E34  24888922.532   130792165.751       -1143.864          41.000    24888958.392   100217526.427        -876.208          43.000  
E08  26095713.431   137133829.870        1975.090          26.000                                                                  
E15  24854344.433   130610456.839        -145.403          41.000    24854379.110   100078294.528        -111.573          41.000  
E05  24060036.084   126436328.402       -2024.169          41.000    24060074.629    96879953.914       -1550.977          42.000  
E03  23869541.242   125435297.550         434.141          39.000    23869576.293    96112888.973         332.882          37.000  
E36                                                                  28082865.286   113078058.458       -1432.043          29.000  
G15                                                                  23093757.109                        2180.887          24.000  
> 2025 04 04 10 16 24.9990000  0 24                     
G25  23052453.777   121141464.261       -1508.152          40.000    23052493.432    94396076.225       -1175.160          30.000  
G13  21149958.431   111143781.3052       1891.763          32.000                                                                  
G05  20508983.215   107775436.537        -841.595          46.000    20509002.697    83980940.536        -655.481          36.000  
G06  23191633.684   121872858.220       -2041.541          41.000    23191665.106    94965985.711       -1589.932          41.000  
G11  21699536.559   114031831.682       -1210.639          41.000    21699558.133    88856062.815        -943.025          45.000  
R21  20649596.509   110500173.181        1143.622          44.000    20649618.029    85944664.167         889.337          40.000  
R05  22377027.050   119618043.7082      -4834.964          30.000    22377046.568    93036293.581       -3760.630          39.000  
R06  18872915.755   100709491.086       -1018.707          36.000                                                                  
R07  20478390.963   109622399.894        2423.444          40.000    20478416.092    85262026.718        1885.065          47.000  
G12  22424626.777   117842212.766       -2860.899          40.000    22424652.049    91825201.951       -2228.995          39.000  
G19  23131203.261   121555270.820       -4267.419          34.000                                                                  
G29  23779325.182   124961193.227        2545.362          41.000    23779346.566    97372447.363        1982.675          34.000  
G20  21011256.426   110414896.769       -2416.296          46.000                                                                  
R20  20893565.568   111727282.991       -1215.677          32.000    20893598.921    86899139.019        -944.594          45.000  
E27  25916298.779   136191079.026       -1153.672          42.000    25916340.008   104354373.161        -882.584          28.000  
E30  25612496.137   134594560.351       -2977.996          43.000    25612530.771   103131047.794       -2281.633          35.000  
E02  27536499.603                       -3364.065          23.000    27536540.604   110878238.106       -2575.927          28.000  
E34  24889140.254   130793309.666       -1144.103          40.000    24889175.944   100218402.889        -876.094          43.000  
E08  26095338.133   137131855.152        1975.206          26.000                                                                  
E15  24854372.354   130610602.662        -145.502          41.000    24854406.957   100078406.307        -112.203          41.000  
E05  24060421.348   126438352.655       -2024.056          42.000    24060459.996    96881505.002       -1551.115          42.000  
E03  23869458.847   125434863.906         433.327          39.000    23869493.826    96112556.737         331.776          34.000  
E36                                                                  28083220.086   113079490.986       -1432.500          29.000  
G15                                                                  23093225.603                        2173.394          22.000  
> 2025 04 04 10 16 25.9990000  0 24                     
G25  23052740.910   121142972.548       -1508.613          40.000    23052780.478    94397251.365       -1174.875          29.000  
G13  21149600.228   111141889.4352       1890.488          38.000                                                                  
G05  20509143.492   107776278.183        -841.559          46.000    20509162.863    83981596.364        -656.934          35.000  
G06  23192022.086   121874899.514       -2041.821          41.000    23192053.635    94967576.306       -1591.374          38.000  
G11  21699766.943   114033042.118       -1210.725          42.000    21699788.502    88857006.082        -944.106          44.000  
R21  20649382.817   110499029.376        1143.481          44.000    20649404.318    85943774.615         889.624          40.000  
R05  22377932.241   119622878.7332      -4835.689          31.000    22377951.163    93040054.238       -3761.166          40.000  
R06  18873106.652   100710510.078       -1020.282          32.000                                                                  
R07  20477938.537   109619976.453        2422.711          37.000    20477963.219    85260141.811        1884.522          46.000  
G12  22425171.104   117845073.755       -2861.279          40.000    22425196.430    91827431.359       -2230.340          38.000  
G19  23132015.749   121559538.151       -4266.908          34.000                                                                  
G29  23778840.916   124958648.221        2544.967          42.000    23778862.174    97370464.210        1983.322          34.000  
G20  21011716.246   110417313.281       -2416.669          46.000                                                                  
R20  20893792.918   111728497.808       -1213.514          31.000    20893826.084    86900083.823        -945.420          43.000  
E27  25916518.217   136192232.881       -1153.993          43.000    25916559.256   104355257.440        -883.851          30.000  
E30  25613062.630   134597538.409       -2977.989          41.000    25613097.573   103133329.720       -2282.334          36.000  
E02  27537141.735                       -3362.932          30.000    27537180.336   110880814.742       -2576.574          32.000  
E34  24889357.958   130794453.448       -1143.843          41.000    24889393.601   100219279.326        -876.313          43.000  
E08  26094962.422   137129880.778        1973.629          27.000                                                                  
E15  24854400.049   130610748.372        -144.853          41.000    24854434.677   100078517.961        -111.931          41.000  
E05  24060806.741   126440377.330       -2025.021          40.000    24060845.409    96883056.395       -1551.645          42.000  
E03  23869376.755   125434430.467         433.083          30.000    23869411.318    96112224.748         332.779          33.000  
E36                                                                  28083576.580   113080923.516       -1433.862          30.000  
G15                                                                  23092692.493                        2177.643          22.000  
> 2025 04 04 10 16 26.9990000  0 24                     
G25  23053028.063   121144481.270       -1509.044          39.000    23053067.377    94398457.1681      -1176.232          28.000  
G13  21149237.270   111139998.0432       1892.029          36.000                                                                  
G05  20509303.826   107777120.305        -842.377          46.000    20509323.040    83982252.519        -656.506          38.000  
G06  23192410.339   121876940.915       -2040.973          41.000    23192442.894    94969176.0931      -1590.960          41.000  
G11  21699997.277   114034252.701       -1209.055          31.000    21700018.804    88857949.435        -943.457          39.000  
R21  20649169.113   110497885.704        1142.792          38.000    20649190.527    85942885.015         889.160          36.000  
R05  22378836.784                       -4833.332          24.000    22378855.883    93043815.013       -3761.118          34.000  
R06  18873297.765   100711529.946       -1020.604          35.000                                                                  
R07  20477485.911   109617553.506        2422.504          37.000    20477510.598    85258257.344        1884.009          46.000  
G12  22425715.615   117847935.091       -2861.091          41.000    22425740.869    91829660.921       -2229.860          38.000  
G19  23132829.558   121563839.1943      -4268.341          36.000                                                                  
G29  23778356.789   124956103.340        2544.391          41.000    23778377.109    97368479.2611       1982.727          33.000  
G20  21012176.197   110419729.828       -2417.117          37.000                                                                  
R20  20894020.252   111729712.946       -1215.138          32.000    20894053.314    86901028.979        -944.838          45.000  
E27  25916738.374   136193387.177       -1154.569          43.000    25916778.171   104356141.915        -885.091          30.000  
E30  25613629.253   134600516.683       -2978.461          42.000    25613664.488   103135611.779       -2282.308          38.000  
E02  27537783.228                       -3363.613          25.000    27537819.019   110883390.859       -2575.651          31.000  
E34  24889575.679   130795597.207       -1142.629          27.000    24889611.357   100220155.833        -876.343          37.000  
G15  23092129.713                        2783.968          25.000    23092159.614                        2172.562          24.000  
E08  26094586.438   137127906.346        1973.229          27.000                                                                  
E15  24854427.957   130610894.096        -145.924          43.000    24854462.348   100078629.553        -111.463          42.000  
E05  24061192.848   126442402.446       -2025.306          37.000    24061231.162    96884608.032       -1551.663          38.000  
E03  23869294.122   125433997.596         433.294          41.000    23869328.641    96111893.003         331.911          40.000  
E36                                                                  28083933.001   113082356.058       -1432.661          29.000  
> 2025 04 04 10 16 27.9990000  0 24                     
G25  23053315.385   121145990.735       -1510.043          41.000    23053354.539    94399633.284       -1175.832          30.000  
G13  21148878.024   111138107.3632       1890.183          33.000                                                                  
G05  20509464.215   107777963.025        -843.018          45.000    20509483.399    83982909.214        -657.709          35.000  
G06  23192798.961   121878982.820       -2042.418          43.000    23192830.409    94970767.136       -1592.161          40.000  
G11  21700227.728   114035463.712       -1210.693          42.000    21700249.188    88858893.016        -944.056          45.000  
R21  20648955.550   110496742.136        1144.446          35.000    20648975.428    85941984.5723        889.044          31.000  
R05  22379742.955   119632551.1693      -4835.742          34.000    22379760.700    93047576.411       -3761.822          39.000  
R06  18873489.254   100712550.974       -1021.619          35.000                                                                  
R07  20477033.488   109615131.481        2421.985          37.000    20477058.219    85256373.542        1882.996          46.000  
G12  22426260.207   117850797.009       -2862.081          41.000    22426285.531    91831891.029       -2230.383          38.000  
G19  23133644.294   121568120.4943      -4267.969          31.000                                                                  
G29  23777872.509   124953558.845        2543.307          42.000    23777890.945    97366496.442        1982.688          33.000  
G20  21012635.972   110422146.921       -2416.881          42.000                                                                  
R20  20894247.782   111730928.898       -1215.855          32.000    20894280.791    86901974.727        -946.139          44.000  
E27  25916958.085   136194542.148       -1155.310          43.000    25916998.774   104357026.956        -886.985          28.000  
E30  25614195.650   134603495.419       -2979.112          42.000    25614231.171   103137894.150       -2282.232          36.000  
E02  27538416.610   144715355.5751      -3361.809          31.000    27538457.836   110885967.284       -2576.568          32.000  
E34  24889793.491   130796741.362       -1142.866          39.000    24889829.051   100221032.473        -876.985          44.000  
E08  26094210.362   137125932.074        1973.675          27.000                                                                  
E15  24854455.586   130611039.817        -145.717          38.000    24854490.067   100078741.369        -112.417          36.000  
E05  24061578.102   126444428.314       -2027.078          43.000    24061616.505    96886160.325       -1552.699          42.000  
E03  23869211.505   125433565.426         431.503          42.000    23869246.006    96111561.817         331.196          42.000  
E36                                                                  28084286.573   113083788.837       -1433.302          29.000  
G15                                                                  23091626.804                        2178.128          25.000  
> 2025 04 04 10 16 28.9990000  0 24                     
G25  23053602.782   121147501.274       -1511.327          40.000    23053641.749    94400810.412       -1178.621          30.000  
G13  21148518.004   111136217.5622       1891.143          29.000                                                                  
G05  20509624.693   107778806.733        -844.641          46.000    20509643.916    83983566.618        -658.069          36.000  
G06  23193187.723   121881025.366       -2042.537          37.000    23193219.989    94972358.742       -1591.103          37.000  
G11  21700458.361   114036675.367       -1212.604          43.000    21700479.784    88859837.129        -944.473          44.000  
R21  20648741.882   110495588.3883       1142.029          45.000    20648761.741    85941095.7062        887.988          41.000  
R05  22380647.299   119637386.0792      -4838.350          29.000    22380665.577    93051338.440       -3763.520          37.000  
R06  18873680.994   100713573.491       -1024.021          36.000                                                                  
R07  20476581.206   109612710.560        2420.074          31.000    20476605.913    85254490.664        1882.318          45.000  
G12  22426805.057   117853659.866       -2863.571          40.000    22426830.310    91834121.799       -2231.044          39.000  
G19  23134456.769                       -4269.919          32.000                                                                  
G29  23777388.335   124951014.977        2543.322          39.000    23777406.768    97364514.184        1981.583          31.000  
G20  21013096.040   110424564.639       -2418.293          47.000                                                                  
R20  20894475.301   111732145.706       -1218.060          31.000    20894508.359    86902921.119        -946.877          42.000  
E27  25917177.826   136195698.096       -1156.756          41.000    25917219.248   104357912.623        -886.216          29.000  
E30  25614762.888   134606474.822       -2979.979          42.000    25614798.263   103140177.080       -2283.837          37.000  
E02  27539058.894   144718718.351       -3363.521          33.000    27539096.678   110888543.858       -2576.727          33.000  
E34  24890011.404   130797886.094       -1145.390          41.000    24890046.920   100221909.507        -877.544          43.000  
E08  26093834.717   137123958.458        1974.171          29.000                                                                  
E15  24854484.902   130611199.4221       -147.011          40.000    24854518.238   100078853.562        -112.518          37.000  
E05  24061963.574   126446455.106       -2027.971          39.000    24062002.267    96887713.401       -1553.954          39.000  
E03  23869129.166   125433134.108         430.105          40.000    23869163.673    96111231.350         330.014          38.000  
E36                                                                  28084643.103   113085222.129       -1432.935          27.000  
G15                                                                  23091095.085                        2179.406          25.000  
> 2025 04 04 10 16 29.9990000  0 24                     
G25  23053890.539   121149013.074       -1512.828          40.000    23053929.309    94401988.340       -1178.318          29.000  
G13  21148158.734   111134329.2962       1887.950          34.000                                                                  
G05  20509785.353   107779651.645        -845.654          46.000    20509804.631    83984224.993        -658.759          35.000  
G06  23193576.565   121883068.799       -2043.571          42.000    23193607.523    94973950.956       -1592.597          41.000  
G11  21700689.202   114037887.931       -1213.290          43.000    21700710.455    88860781.968        -945.230          44.000  
R21  20648528.496   110494446.7262       1141.138          43.000    20648551.534    85940207.7892        887.640          42.000  
R05  22381550.138   119642223.8342      -4838.302          33.000    22381570.788    93055101.354       -3763.939          35.000  
R06  18873872.976   100714597.642       -1024.626          35.000    18873532.617                        -939.422          15.000  
R07  20476128.909   109610291.198        2418.677          34.000    20476153.846    85252608.865        1881.342          47.000  
G12  22427350.040   117856523.847       -2864.821          38.000    22427375.283    91836353.445       -2232.070          38.000  
G19  23135264.898   121576636.9253      -4271.056          34.000                                                                  
G29  23776904.431   124948472.116        2542.307          39.000    23776918.021    97362532.807        1980.597          30.000  
G20  21013556.385   110426983.321       -2419.091          46.000                                                                  
R20  20894703.191   111733363.679       -1219.123          32.000    20894736.189    86903868.418        -948.202          44.000  
E27  25917398.116   136196855.317       -1157.996          42.000    25917438.962   104358799.237        -887.116          30.000  
E30  25615330.345   134609455.231       -2980.800          43.000    25615365.120   103142460.751       -2283.783          36.000  
E02  27539699.894   144722081.792       -3364.100          27.000    27539737.839   110891121.097       -2577.490          31.000  
E34  24890229.594   130799031.549       -1145.945          41.000    24890264.854   100222787.221        -878.028          42.000  
E08  26093459.565   137121985.905        1972.094          28.000                                                                  
E15  24854511.122   130611346.514        -147.660          40.000    24854546.219   100078966.278        -112.819          38.000  
E05  24062349.694   126448483.095       -2029.182          43.000    24062388.056    96889267.302       -1554.406          41.000  
E03  23869047.241   125432704.024         429.457          41.000    23869081.908    96110901.859         329.002          40.000  
E36                                                                  28084999.006   113086656.095       -1434.503          27.000  
G15                                                                  23090563.091                        2180.356          24.000  
> 2025 04 04 10 16 30.9990000  0 24                     
G25  23054178.430   121150526.124       -1513.932          40.000    23054217.033    94403167.410       -1179.191          29.000  
G13  21147799.697   111132441.2931       1886.616          37.000                                                                  
G05  20509946.453   107780497.754        -846.954          46.000    20509965.629    83984884.288        -659.607          35.000  
G06  23193965.597   121885113.139       -2044.591          41.000    23193999.105    94975543.963       -1593.033          41.000  
G11  21700920.280   114039101.396       -1214.226          42.000    21700941.401    88861727.533        -945.844          44.000  
R21  20648315.303   110493305.4731       1140.375          42.000    20648336.875    85939320.0291        887.030          40.000  
R05  22382452.733   119647063.110       -4839.628          27.000    22382476.043    93058865.077       -3763.735          37.000  
R06  18874065.276   100715623.569       -1026.512          35.000                                                                  
R07  20475676.912   109607873.281        2416.351          33.000    20475701.987    85250728.199        1880.115          48.000  
G12  22427895.068   117859388.884       -2865.365          39.000    22427920.426    91838585.949       -2232.762          39.000  
G19  23136075.812   121580908.283       -4272.092          35.000                                                                  
G29  23776420.720   124945930.120        2541.964          41.000    23776437.703    97360551.982        1980.603          30.000  
G20  21014016.805   110429402.950       -2420.232          46.000                                                                  
R20  20894931.229   111734586.8303      -1220.898          31.000    20894964.238    86904816.644        -948.570          44.000  
E27  25917618.701   136198013.677       -1159.151          43.000    25917659.959   104359686.827        -889.282          30.000  
E30  25615897.246   134612436.595       -2981.762          43.000    25615932.438   103144745.139       -2284.759          37.000  
E02  27540335.459                       -3368.386          24.000    27540378.941   110893698.845       -2577.890          25.000  
E34  24890447.528   130800177.824       -1146.684          41.000    24890483.007   100223665.550        -878.525          43.000  
E08  26093084.180   137120014.127        1971.405          30.000                                                                  
E15  24854537.892   130611494.278        -148.184          37.000    24854574.338   100079079.513        -113.254          38.000  
E05  24062735.896   126450512.401       -2029.905          43.000    24062773.967    96890822.225       -1555.481          43.000  
E03  23868965.359   125432275.163         428.221          40.000    23869000.248    96110573.215         328.191          40.000  
E36                                                                  28085354.546   113088090.719       -1434.944          28.000  
G15                                                                  23090032.278                        2171.914          23.000  
> 2025 04 04 10 16 31.9990000  0 24                     
G25  23054466.592   121152040.507       -1515.286          40.000    23054504.998    94404347.421       -1181.257          29.000  
G13  21147441.125   111130555.170        1885.254          37.000                                                                  
G05  20510107.668   107781345.105        -848.279          46.000    20510126.843    83985544.544        -660.492          35.000  
G06  23194354.812   121887158.473       -2046.215          41.000    23194386.915    94977137.769       -1594.782          39.000  
G11  21701151.331   114040315.813       -1214.900          42.000    21701172.572    88862673.830        -946.734          44.000  
R21  20648102.268   110492165.766        1139.020          43.000    20648123.795    85938433.559         885.956          42.000  
R05  22383356.557   119651867.7743      -4841.674          32.000    22383381.567    93062629.731       -3765.355          38.000  
R06  18874257.858   100716651.272       -1028.934          36.000                                                                  
R07  20475225.276   109605456.669        2415.680          33.000    20475250.383    85248848.642        1878.778          47.000  
G12  22428440.403   117862255.127       -2867.263          39.000    22428465.851    91840819.404       -2234.378          40.000  
G19  23136888.668   121585180.771       -4272.814          34.000                                                                  
G29  23775937.225   124943389.072        2540.446          39.000    23775955.089    97358571.979        1978.964          31.000  
G20  21014477.493   110431823.555       -2421.387          46.000                                                                  
R20  20895159.355   111735807.1382      -1220.549          31.000    20895192.479    86905765.823        -949.579          44.000  
E27  25917839.641   136199173.336       -1160.353          43.000    25917880.715   104360575.350        -888.434          28.000  
E30  25616464.904   134615418.948       -2983.261          42.000    25616499.883   103147030.405       -2285.948          38.000  
E02  27540978.408                       -3373.975          23.000    27541019.145   110896276.912       -2578.365          28.000  
E34  24890665.537   130801324.921       -1147.706          41.000    24890701.205   100224544.510        -879.567          43.000  
E08  26092708.428   137118043.284        1969.384          30.000                                                                  
E15  24854568.232   130611642.920        -149.118          41.000    24854602.576   100079193.408        -114.318          40.000  
E05  24063121.928   126452542.938       -2031.100          42.000    24063160.508    96892378.074       -1556.305          43.000  
E03  23868884.087   125431847.488         426.933          41.000    23868918.819    96110245.513         327.364          39.000  
E36                                                                  28085710.985   113089526.028       -1436.053          28.000  
G15                                                                  23089499.268                        2177.295          22.000  
> 2025 04 04 10 16 32.9990000  0 24                     
G25  23054755.081   121153556.568       -1516.603          40.000    23054793.314    94405528.715       -1181.775          30.000  
G13  21147083.868   111128675.2393       1884.352          31.000                                                                  
G05  20510269.325   107782194.059        -849.487          46.000    20510288.419    83986206.120        -662.158          35.000  
G06  23194744.203   121889205.087       -2046.850          42.000    23194775.710    94978732.531       -1595.796          41.000  
G11  21701382.697   114041531.538       -1216.185          42.000    21701403.835    88863621.148        -948.060          42.000  
R21  20647889.406   110491027.363        1137.915          44.000    20647910.496    85937548.161         884.839          41.000  
R05  22384264.600   119656722.5742      -4843.391          26.000    22384287.359    93066395.573       -3766.068          38.000  
R06  18874450.905   100717681.102       -1031.172          36.000                                                                  
R07  20474774.149   109603041.711        2414.539          31.000    20474799.250    85246970.428        1877.820          46.000  
G12  22428986.073   117865122.914       -2868.381          40.000    22429011.622    91843054.012       -2235.360          39.000  
G19  23137701.803   121589455.031       -4275.522          30.000                                                                  
G29  23775453.895   124940849.338        2539.508          39.000    23775470.902    97356592.933        1978.267          31.000  
G20  21014938.274   110434245.484       -2422.408          46.000                                                                  
R20  20895387.928   111737029.142       -1222.528          32.000    20895421.121    86906716.232        -951.052          43.000  
E27  25918060.740   136200334.600       -1161.964          41.000    25918101.521   104361465.223        -890.894          26.000  
E30  25617032.683   134618402.674       -2983.979          42.000    25617067.752   103149316.621       -2286.996          37.000  
E02  27541619.082   144732184.3561      -3365.520          31.000    27541659.429   110898855.913       -2578.760          36.000  
E34  24890884.160   130802473.264       -1149.029          41.000    24890919.688   100225424.381        -880.544          43.000  
E08  26092334.010   137116073.548        1969.870          31.000                                                                  
E15  24854596.489   130611792.708        -150.316          42.000    24854631.062   100079308.179        -115.146          41.000  
E05  24063508.574   126454575.114       -2032.626          43.000    24063547.414    96893935.217       -1557.360          42.000  
E03  23868803.215   125431421.570         424.989          39.000    23868838.065    96109919.179         325.896          36.000  
E36                                                                  28086067.392   113090962.272       -1436.998          28.000  
G15                                                                  23088967.542                        2178.898          22.000  
> 2025 04 04 10 16 33.9990000  0 24                     
G25  23055043.748   121155073.653       -1517.581          39.000    23055081.875    94406710.787       -1182.076          30.000  
G13  21146723.490   111126781.7392       1882.919          38.000                                                                  
G05  20510431.074   107783043.989        -850.397          46.000    20510450.073    83986868.344        -662.292          36.000  
G06  23195133.685   121891252.407       -2047.626          41.000    23195165.251    94980327.788       -1595.516          43.000  
G11  21701614.195   114042747.889       -1216.635          41.000    21701635.296    88864568.970        -947.926          43.000  
R21  20647676.829   110489889.612        1137.854          44.000    20647696.838    85936663.230         884.772          41.000  
R05  22385171.231   119661565.1572      -4841.586          26.000    22385193.299    93070162.066       -3766.427          40.000  
R06  18874644.238   100718712.351       -1031.714          36.000                                                                  
R07  20474322.396   109600650.5843       2412.933          32.000    20474348.352    85245093.110        1876.984          46.000  
G12  22429532.014   117867991.467       -2868.791          38.000    22429557.517    91845289.298       -2235.808          39.000  
G19  23138514.668   121593729.731       -4275.191          36.000                                                                  
G29  23774970.812   124938310.220        2538.317          40.000    23774987.996    97354614.436        1977.595          30.000  
G20  21015399.358   110436668.101       -2422.882          45.000                                                                  
R20  20895616.810   111738252.037       -1223.709          32.000    20895649.820    86907667.312        -951.173          46.000  
E27  25918281.452   136201496.856       -1162.368          42.000    25918322.436   104362355.749        -890.449          31.000  
E30  25617600.642   134621387.167       -2984.814          42.000    25617635.569   103151603.384       -2286.781          38.000  
E02  27542260.676   144735550.503       -3366.865          32.000    27542299.768   110901435.176       -2579.801          36.000  
E34  24891102.743   130803622.139       -1149.328          41.000    24891138.335   100226304.701        -880.332          42.000  
E08  26091959.720   137114104.598        1967.651          33.000                                                                  
E15  24854624.437   130611942.986        -150.418          42.000    24854659.580   100079423.353        -115.506          41.000  
E05  24063895.521   126456608.281       -2033.751          41.000    24063934.203    96895493.098       -1558.148          43.000  
E03  23868722.202   125430996.353         425.812          35.000    23868757.295    96109593.459         325.786          36.000  
E36                                                                  28086424.700   113092398.955       -1436.789          28.000  
G15                                                                  23088435.684                        2173.942          20.000  
> 2025 04 04 10 16 34.9990000  0 24                     
G25  23055332.589   121156591.774       -1518.564          41.000    23055370.586    94407893.925       -1183.714          29.000  
G13  21146366.544   111124898.9452       1881.711          38.000                                                                  
G05  20510593.003   107783894.881        -851.740          46.000    20510611.953    83987531.400        -663.721          36.000  
G06  23195523.419   121893300.471       -2048.682          33.000    23195555.069    94981923.747       -1596.214          34.000  
G11  21701845.738   114043964.936       -1217.237          43.000    21701866.893    88865517.357        -949.008          43.000  
R21  20647464.341   110488752.628        1136.261          44.000    20647484.221    85935778.888         884.082          38.000  
R05  22386076.512   119666407.8343      -4844.061          27.000    22386099.447    93073929.291       -3767.555          39.000  
R06  18874837.840   100719745.155       -1033.706          36.000                                                                  
R07  20473870.358                        2414.133          26.000    20473897.770    85243216.679        1875.916          47.000  
G12  22430078.014   117870861.110       -2870.603          40.000    22430103.578    91847525.332       -2236.510          39.000  
G19  23139328.685   121598005.545       -4275.677          34.000                                                                  
G29  23774487.818   124935771.894        2537.942          42.000    23774505.061    97352636.489        1977.497          32.000  
G20  21015860.637   110439091.493       -2424.174          46.000                                                                  
R20  20895845.781   111739475.948       -1223.742          27.000    20895878.794    86908619.459        -952.659          37.000  
E27  25918502.920   136202660.094       -1163.925          42.000    25918543.902   104363247.028        -892.463          33.000  
E30  25618168.578   134624372.390       -2985.855          42.000    25618203.519   103153890.816       -2288.165          37.000  
E02  27542904.762   144738917.099       -3367.181          32.000    27542939.953   110904014.757       -2579.665          33.000  
E34  24891321.400   130804771.566       -1149.624          41.000    24891357.197   100227185.437        -881.322          42.000  
E08  26091584.940   137112136.204        1968.121          34.000                                                                  
E15  24854655.163   130612093.827        -151.287          41.000    24854688.057   100079538.927        -116.054          42.000  
E05  24064282.521   126458642.478       -2035.072          42.000    24064320.992    96897051.747       -1559.737          39.000  
E03  23868641.077   125430572.271         423.148          39.000    23868676.722    96109268.473         324.284          36.000  
E36                                                                  28086781.648                       -1436.595          26.000  
G15                                                                  23087905.778                        2175.549          19.000  
> 2025 04 04 10 16 35.9990000  0 24                     
G25  23055621.562   121158110.728       -1518.834          41.000    23055659.327    94409077.430       -1183.804          30.000  
G13  21146007.843   111123016.8602       1882.513          35.000                                                                  
G05  20510755.120   107784746.539        -851.874          47.000    20510774.049    83988195.018        -663.861          37.000  
G06  23195913.186   121895349.064       -2048.208          31.000    23195944.846    94983519.991       -1595.954          35.000  
G11  21702077.327   114045182.545       -1216.824          32.000    21702098.693    88866466.087        -948.687          40.000  
R21  20647251.897   110487616.056        1136.798          46.000    20647271.801    85934894.920         883.887          41.000  
R05  22386979.851   119671251.7882      -4843.579          27.000    22387005.693    93077696.961       -3767.582          39.000  
R06  18875031.645   100720779.180       -1034.493          36.000                                                                  
R07  20473416.709   109595802.3173       2411.768          26.000    20473447.189    85241340.969        1875.568          47.000  
G12  22430624.156   117873731.284       -2870.048          36.000    22430649.711    91849761.882       -2236.356          39.000  
G19  23140141.256   121602281.800       -4276.724          36.000                                                                  
G29  23774004.823   124933233.984        2537.909          41.000    23774022.063    97350658.928        1977.632          31.000  
G20  21016321.879   110441515.273       -2423.831          46.000                                                                  
R20  20896074.846   111740700.490       -1225.454          25.000    20896107.808    86909571.902        -952.758          35.000  
E27  25918723.856   136203824.107       -1164.215          42.000    25918765.697   104364138.924        -892.140          34.000  
E30  25618736.551   134627358.117       -2985.845          42.000    25618771.861   103156178.533       -2288.063          38.000  
E02  27543540.422   144742283.873       -3366.475          32.000    27543580.470   110906594.506       -2579.522          34.000  
E34  24891540.089   130805921.416       -1150.613          33.000    24891576.113   100228066.472        -881.111          37.000  
E08  26091210.589   137110168.275        1968.186          33.000                                                                  
E15  24854683.168   130612244.865        -151.025          43.000    24854716.813   100079654.655        -115.613          42.000  
E05  24064670.412   126460677.509       -2034.655          36.000    24064708.806    96898611.078       -1559.767          36.000  
E03  23868560.372   125430148.928         423.482          40.000    23868596.154    96108944.111         324.162          40.000  
E36                                                                  28087140.095                       -1436.415          26.000  
G15                                                                  23087374.542                        2166.778          19.000  
> 2025 04 04 10 16 36.9990000  0 24                     
G25  23055910.620   121159629.632       -1518.799          42.000    23055948.388    94410261.003       -1183.886          31.000  
G13  21145649.528   111121134.617        1883.180          34.000                                                                  
G05  20510917.162   107785598.036        -851.691          47.000    20510936.067    83988858.538        -663.947          37.000  
G06  23196302.789   121897397.063       -2048.459          31.000    23196334.490    94985115.863       -1595.499          35.000  
G11  21702308.875   114046399.677       -1216.779          36.000    21702330.288    88867414.506        -948.734          41.000  
R21  20647039.344   110486479.127        1137.152          44.000    20647059.329    85934010.633         884.344          41.000  
R05  22387887.653   119676089.7093      -4843.635          26.000    22387911.884    93081464.492       -3767.745          39.000  
R06  18875225.563   100721813.542       -1034.561          35.000                                                                  
R07  20472962.345                        2412.228          31.000    20472996.615    85239465.296        1875.543          47.000  
G12  22431170.271   117876601.250       -2869.458          38.000    22431195.792    91851998.251       -2236.378          38.000  
G19  23140955.411   121606557.971       -4276.222          36.000                                                                  
G29  23773521.878   124930695.751        2538.265          41.000    23773539.182    97348681.032        1977.348          31.000  
G20  21016783.100   110443938.741       -2423.469          47.000                                                                  
R20  20896304.538                       -1229.600          22.000    20896336.648    86910524.159        -952.227          36.000  
E27  25918944.969   136204988.009       -1164.133          42.000    25918987.377   104365030.733        -891.786          34.000  
E30  25619305.046   134630343.489       -2985.308          41.000    25619340.037   103158466.017       -2287.424          37.000  
E02  27544180.230   144745649.888       -3365.705          34.000    27544220.897   110909173.708       -2579.408          35.000  
E34  24891758.655   130807070.712       -1149.253          32.000    24891794.955   100228947.090        -880.571          38.000  
E08  26090836.271   137108199.866        1968.083          34.000                                                                  
E15  24854711.522   130612395.325        -150.072          43.000    24854745.478   100079769.936        -115.099          42.000  
E05  24065057.961   126462712.340       -2034.875          39.000    24065096.336    96900170.279       -1559.479          36.000  
E03  23868479.778   125429725.482         422.822          43.000    23868515.278    96108619.630         324.445          40.000  
E36                                                                  28087498.636                       -1437.525          26.000  
G15                                                                  23086843.857                        2177.959          20.000  
> 2025 04 04 10 16 37.9990000  0 24                     
G25  23056199.629   121161148.339       -1518.359          40.000    23056237.037    94411444.470       -1183.815          30.000  
G13  21145293.102   111119252.265        1882.217          33.000                                                                  
G05  20511079.242   107786449.312        -851.623          47.000    20511098.082    83989521.869        -663.269          36.000  
G06  23196692.252   121899444.622       -2047.546          27.000    23196724.162    94986711.360       -1595.622          30.000  
G11  21702540.460   114047616.014       -1212.194          30.000    21702561.869    88868362.473        -947.484          38.000  
R21  20646826.723   110485341.627        1138.019          44.000    20646846.887    85933125.906         884.528          42.000  
R05  22388791.197   119680933.1982      -4841.754          27.000    22388817.975    93085231.702       -3766.949          39.000  
R06  18875419.513   100722848.148       -1034.709          35.000                                                                  
R07  20472513.939   109590969.7023       2410.022          33.000    20472546.093    85237589.591        1875.543          47.000  
G12  22431716.235   117879470.956       -2869.140          38.000    22431741.898    91854234.378       -2236.259          39.000  
G19  23141769.273   121610833.697       -4275.974          36.000                                                                  
G29  23773038.710   124928156.912        2538.745          42.000    23773056.273    97346702.793        1977.644          31.000  
G20  21017244.193   110446361.661       -2422.808          45.000                                                                  
R20  20896533.008                       -1221.544          22.000    20896565.586    86911476.282        -952.024          38.000  
E27  25919166.426   136206151.633       -1163.502          42.000    25919208.974   104365922.361        -891.338          33.000  
E30  25619873.339   134633328.415       -2984.886          41.000    25619907.969   103160753.183       -2287.100          37.000  
E02  27544820.885   144749015.248       -3364.579          33.000    27544861.077   110911752.251       -2578.047          35.000  
E34  24891977.126   130808219.228       -1147.968          35.000    24892013.382   100229827.170        -879.287          36.000  
E08  26090461.440   137106230.888        1969.197          33.000                                                                  
E15  24854739.883   130612545.117        -149.216          42.000    24854773.964   100079884.720        -114.361          41.000  
E05  24065445.351   126464746.989       -2034.875          37.000    24065483.925    96901729.206       -1558.744          37.000  
E03  23868399.611   125429301.819         423.540          42.000    23868434.252    96108294.975         324.661          41.000  
E36                                                                  28087853.142                       -1436.970          26.000  
G15                                                                  23086313.415                        2170.680          22.000  
> 2025 04 04 10 16 38.9990000  0 24                     
G25  23056488.511   121162666.592       -1518.239          40.000    23056525.755    94412627.444       -1183.060          30.000  
G13  21144934.396   111117369.103        1884.149          36.000                                                                  
G05  20511241.045   107787299.979        -850.299          46.000    20511259.869    83990184.734        -662.762          36.000  
G06  23197081.404   121901491.250       -2046.374          39.000    23197113.677    94988306.093       -1595.057          40.000  
G11  21702772.019   114048831.941       -1215.406          43.000    21702793.172    88869309.736        -947.250          45.000  
R21  20646614.009   110484203.208        1139.209          44.000    20646634.240    85932240.458         885.730          40.000  
R05  22389695.783   119685776.3342      -4843.995          28.000    22389723.930    93088998.422       -3766.678          39.000  
R06  18875613.293   100723882.634       -1034.387          35.000                                                                  
R07  20472061.859   109588549.6673       2412.183          33.000    20472095.387    85235713.530        1876.270          47.000  
G12  22432262.183   117882339.982       -2868.458          41.000    22432287.806    91856469.953       -2235.437          39.000  
G19  23142582.977   121615108.916       -4276.014          32.000                                                                  
G29  23772555.303   124925617.248        2539.990          42.000    23772573.181    97344723.786        1979.139          32.000  
G20  21017705.155   110448783.749       -2421.381          45.000                                                                  
R20  20896763.386                       -1225.705          29.000    20896794.324    86912427.613        -951.607          43.000  
E27  25919387.752   136207314.747       -1163.249          42.000    25919430.540   104366813.536        -891.024          33.000  
E30  25620440.967   134636312.457       -2983.446          40.000    25620475.724   103163039.676       -2286.076          35.000  
E02  27545463.235   144752379.427       -3364.340          33.000    27545501.174   110914329.982       -2576.992          35.000  
E34  24892195.715   130809367.014       -1147.177          42.000    24892231.629   100230706.588        -878.888          45.000  
E08  26090086.597   137104261.024        1970.094          33.000                                                                  
E15  24854767.985   130612693.881        -148.508          41.000    24854802.238   100079998.717        -113.457          42.000  
E05  24065831.746   126466781.001       -2033.688          45.000    24065870.867    96903287.754       -1558.262          44.000  
E03  23868318.932   125428877.510         423.473          36.000    23868353.566    96107969.936         325.123          32.000  
E36                                                                  28088211.949   113099589.6831      -1435.574          27.000  
G15                                                                  23085782.849                        2170.457          23.000  
> 2025 04 04 10 16 39.9990000  0 24                     
G25  23056777.354   121164184.564       -1518.011          40.000    23056814.358    94413810.276       -1181.860          31.000  
G13  21144575.770   111115485.697        1884.302          33.000                                                                  
G05  20511402.843   107788150.347        -850.348          46.000    20511421.714    83990847.387        -662.622          37.000  
G06  23197470.803   121903537.338       -2045.885          40.000    23197503.088    94989900.495       -1594.214          40.000  
G11  21703003.154   114050047.001       -1214.924          42.000    21703024.257    88870256.557        -946.845          44.000  
R21  20646401.107   110483064.164        1139.166          43.000    20646421.526    85931354.565         886.017          41.000  
R05  22390604.320   119690611.2693      -4842.708          28.000    22390629.902    93092764.767       -3766.524          38.000  
R06  18875807.265   100724917.328       -1035.043          35.000                                                                  
R07  20471613.690   109586137.4202       2411.603          36.000    20471644.781    85233837.433        1876.123          47.000  
G12  22432808.150   117885208.585       -2868.487          40.000    22432833.622    91858705.275       -2235.482          38.000  
G19  23143396.590   121619383.584       -4273.846          32.000                                                                  
G29  23772071.938   124923076.953        2540.499          41.000    23772090.034    97342744.354        1979.123          33.000  
G20  21018165.921   110451205.297       -2421.549          46.000                                                                  
R20  20896990.838   111745601.0013      -1222.920          32.000    20897023.145    86913379.024        -951.120          46.000  
E27  25919609.352   136208477.541       -1162.721          42.000    25919651.775   104367704.542        -890.917          33.000  
E30  25621008.933   134639296.020       -2983.505          40.000    25621043.721   103165325.762       -2285.797          35.000  
E02  27546101.820   144755742.551       -3363.553          34.000    27546141.006   110916906.993       -2576.377          36.000  
E34  24892413.886   130810513.927       -1146.667          42.000    24892449.627   100231585.421        -878.749          43.000  
E08  26089711.728   137102290.407        1970.269          33.000                                                                  
E15  24854796.163   130612841.856        -148.177          41.000    24854830.454   100080112.096        -113.374          43.000  
E05  24066218.564   126468814.828       -2033.846          43.000    24066257.443    96904846.133       -1558.362          42.000  
E03  23868238.506   125428452.943         424.469          33.000    23868272.684    96107644.610         325.792          31.000  
E36                                                                  28088566.907   113101025.217       -1435.353          28.000  
G15                                                                  23085251.800                        2174.911          24.000  
> 2025 04 04 10 16 40.9990000  0 24                     
G25  23057066.112   121165702.465       -1517.910          41.000    23057103.059    94414992.976       -1182.525          30.000  
G13  21144217.358   111113602.266        1882.986          33.000                                                                  
G05  20511564.648   107789000.556        -850.061          46.000    20511583.388    83991509.822        -661.914          36.000  
G06  23197859.989   121905582.965       -2045.336          40.000    23197892.381    94991494.541       -1593.840          38.000  
G11  21703234.239   114051261.652       -1215.060          42.000    21703255.459    88871202.998        -946.162          44.000  
R21  20646188.192   110481924.686        1139.575          43.000    20646208.721    85930468.310         886.060          41.000  
R05  22391513.235   119695470.3772      -4841.852          28.000    22391535.795    93096530.849       -3766.102          38.000  
R06  18876001.273   100725952.306       -1035.390          37.000                                                                  
R07  20471161.777   109583725.303        2413.208          32.000    20471193.944    85231961.287        1876.154          48.000  
G12  22433353.989   117888076.958       -2868.136          40.000    22433379.424    91860940.358       -2234.780          38.000  
G19  23144209.950   121623657.892       -4273.876          31.000                                                                  
G29  23771588.495   124920536.226        2541.085          41.000    23771606.704    97340764.564        1979.700          32.000  
G20  21018626.596   110453626.398       -2420.988          46.000                                                                  
R20  20897221.510   111746833.9692      -1223.742          33.000    20897251.793    86914330.129        -951.037          45.000  
E27  25919830.597   136209640.184       -1162.448          42.000    25919872.946   104368595.375        -891.239          33.000  
E30  25621576.849   134642279.147       -2983.269          40.000    25621611.317   103167611.586       -2285.674          35.000  
E02  27546741.951   144759105.068       -3362.460          33.000    27546780.744   110919483.502       -2576.247          35.000  
E34  24892632.118   130811660.319       -1146.416          42.000    24892667.931   100232463.807        -877.994          43.000  
E08  26089337.504   137100319.412        1970.951          32.000    26089361.239   105051046.7511       1510.660          24.000  
E15  24854824.257   130612989.167        -146.868          41.000    24854858.601   100080224.970        -112.632          42.000  
E05  24066605.468   126470848.494       -2033.705          43.000    24066644.282    96906404.426       -1558.433          42.000  
E03  23868157.708   125428028.227         423.992          30.000    23868191.807    96107319.198         325.630          31.000  
E36                                                                  28088924.026   113102460.362       -1434.818          29.000  
G15                                                                  23084720.077                        2175.074          25.000  
> 2025 04 04 10 16 41.9990000  0 24                     
G25  23057354.929   121167220.065       -1517.863          41.000    23057391.668    94416175.624       -1182.577          29.000  
G13  21143859.237   111111718.200        1884.684          35.000                                                                  
G05  20511726.379   107789850.404        -849.884          47.000    20511745.189    83992172.087        -662.286          36.000  
G06  23198249.065   121907628.005       -2044.853          40.000    23198281.406    94993088.030       -1593.465          38.000  
G11  21703465.358   114052475.630       -1213.948          42.000    21703486.389    88872148.968        -946.051          43.000  
R21  20645975.042   110480784.617        1140.100          43.000    20645995.713    85929581.552         886.768          40.000  
R05  22392420.854   119700312.1912      -4842.204          28.000    22392441.597    93100296.603       -3765.742          38.000  
R06  18876195.300   100726987.410       -1035.242          34.000                                                                  
R07  20470710.096   109581313.055        2411.903          30.000    20470743.253    85230085.011        1876.105          48.000  
G12  22433899.745   117890944.951       -2868.169          40.000    22433925.231    91863175.134       -2234.888          38.000  
G19  23145023.428   121627931.806       -4273.945          29.000                                                                  
G29  23771104.920   124917994.891        2541.039          43.000    23771123.209    97338784.288        1980.632          33.000  
G20  21019087.259   110456046.867       -2420.643          45.000                                                                  
R20  20897452.276   111748056.4212      -1222.690          33.000    20897480.348    86915280.978        -950.770          44.000  
E27  25920052.118   136210802.492       -1162.507          43.000    25920094.120   104369485.946        -890.585          32.000  
E30  25622144.321   134645261.695       -2982.603          38.000    25622178.908   103169896.911       -2285.194          36.000  
E02  27547381.849   144762466.720       -3361.360          32.000    27547420.575   110922059.277       -2575.883          33.000  
E34  24892850.117   130812805.976       -1145.395          40.000    24892885.864   100233341.630        -877.871          43.000  
E08  26088962.926   137098347.683        1972.246          32.000    26088983.076                        1511.085          23.000  
E15  24854852.031   130613135.717        -146.338          40.000    24854886.187   100080337.273        -112.153          41.000  
E05  24066992.284   126472881.864       -2033.241          44.000    24067031.192    96907962.451       -1558.246          42.000  
E03  23868075.909   125427602.997         425.492          33.000    23868110.833    96106993.382         325.653          30.000  
E36                                                                  28089278.669   113103894.969       -1434.374          29.000  
G15                                                                  23084186.822    94525885.3771       2176.118          27.000  
> 2025 04 04 10 16 42.9990000  0 24                     
G25  23057643.665   121168737.862       -1518.022          41.000    23057680.253    94417358.230       -1182.253          29.000  
G13  21143500.892   111109834.293        1884.028          34.000                                                                  
G05  20511888.186   107790700.339        -850.317          46.000    20511906.947    83992834.371        -662.152          36.000  
G06  23198638.149   121909672.808       -2044.905          39.000    23198670.507    94994681.418       -1593.242          39.000  
G11  21703696.268   114053689.377       -1213.656          43.000    21703717.343    88873094.811        -945.997          42.000  
R21  20645761.929   110479644.259        1140.295          45.000    20645782.759    85928694.690         886.884          41.000  
R05  22393322.452   119705153.709       -4842.400          28.000    22393347.370    93104062.348       -3766.348          38.000  
R06  18876389.322   100728023.148       -1037.065          35.000                                                                  
R07  20470258.054   109578900.937        2412.640          32.000    20470292.434    85228208.952        1875.757          48.000  
G12  22434445.535   117893812.941       -2868.281          40.000    22434471.005    91865409.916       -2234.879          39.000  
G19  23145836.490   121632205.732       -4276.008          29.000                                                                  
G29  23770621.265   124915453.333        2541.574          41.000    23770639.678    97336803.884        1980.244          32.000  
G20  21019547.760   110458467.185       -2420.580          45.000                                                                  
R20  20897680.610   111749278.4171      -1222.961          33.000    20897709.095    86916231.833        -950.935          47.000  
E27  25920273.378   136211964.921       -1162.656          42.000    25920315.359   104370376.721        -890.657          32.000  
E30  25622712.004   134648244.085       -2982.555          39.000    25622746.431   103172182.118       -2285.130          36.000  
E02  27548021.449   144765827.809       -3361.870          32.000    27548060.281   110924634.664       -2575.262          33.000  
E34  24893068.036   130813951.289       -1145.318          41.000    24893103.807   100234219.226        -877.778          43.000  
E08  26088588.458   137096375.742        1971.040          31.000    26088608.108                        1510.470          23.000  
E15  24854879.819   130613281.829        -145.848          42.000    24854913.908   100080449.240        -111.734          41.000  
E05  24067379.024   126474915.332       -2033.721          44.000    24067418.066    96909520.564       -1558.331          42.000  
E03  23867994.872   125427177.941         426.310          30.000    23868029.946    96106668.018         324.587          28.000  
E36                                                                  28089635.575   113105329.387       -1434.701          29.000  
G15                                                                  23083654.677    94523709.528        2175.224          27.000  
> 2025 04 04 10 16 43.9990000  0 24                     
G25  23057932.541   121170256.083       -1518.486          39.000    23057969.088    94418541.330       -1183.348          29.000  
G13  21143142.423   111107950.478        1883.442          35.000                                                                  
G05  20512049.969   107791550.678        -850.317          47.000    20512068.711    83993496.969        -662.170          36.000  
G06  23199027.309   121911717.796       -2044.799          40.000    23199059.614    94996274.872       -1593.281          38.000  
G11  21703927.238   114054903.341       -1213.895          41.000    21703948.319    88874040.736        -945.981          45.000  
R21  20645548.900   110478504.097        1139.905          44.000    20645569.842    85927807.858         886.334          42.000  
R05  22394225.765   119709995.677       -4842.374          28.000    22394253.157    93107828.356       -3765.979          38.000  
R06  18876583.671   100729059.815       -1037.332          35.000                                                                  
R07  20469808.476   109576489.456        2411.237          33.000    20469841.825    85226333.359        1875.446          47.000  
G12  22434991.435   117896681.252       -2868.275          40.000    22435016.963    91867644.972       -2235.082          37.000  
G19  23146650.120   121636479.941       -4274.231          33.000                                                                  
G29  23770137.697   124912911.944        2541.454          39.000    23770156.153    97334823.534        1979.686          31.000  
G20  21020008.353   110460887.636       -2420.206          46.000                                                                  
R20  20897910.649   111750501.381       -1222.414          32.000    20897937.902    86917182.998        -951.216          45.000  
E27  25920494.569   136213127.809       -1163.010          43.000    25920536.571   104371267.775        -891.085          31.000  
E30  25623279.618   134651226.720       -2982.813          39.000    25623314.169   103174467.473       -2285.546          37.000  
E02  27548661.226   144769188.825       -3361.123          34.000    27548699.804   110927209.994       -2575.005          35.000  
E34  24893286.090   130815096.633       -1145.552          40.000    24893321.795   100235096.873        -877.634          44.000  
E08  26088213.539   137094403.807        1972.253          32.000    26088236.109   105046516.1281       1511.213          25.000  
E15  24854907.968   130613427.946        -146.009          42.000    24854941.956   100080561.220        -111.964          41.000  
E05  24067765.993   126476949.258       -2033.951          43.000    24067804.905    96911079.046       -1558.684          42.000  
E03  23867914.214   125426753.508         424.798          35.000    23867949.018    96106342.455         325.617          32.000  
E36                                                                  28089991.296   113106763.889       -1434.587          29.000  
G15                                                                  23083121.896                        2182.596          25.000  
> 2025 04 04 10 16 44.9990000  0 24                     
G25  23058221.413   121171774.557       -1519.272          39.000    23058257.847    94419724.531       -1183.392          30.000  
G13  21142784.038   111106067.347        1882.196          31.000                                                                  
G05  20512211.840   107792401.161        -851.343          47.000    20512230.503    83994159.711        -663.171          35.000  
G06  23199416.499   121913762.663       -2045.415          41.000    23199448.758    94997868.224       -1593.667          40.000  
G11  21704158.225   114056117.126       -1214.493          41.000    21704179.374    88874986.550        -946.367          43.000  
R21  20645335.762   110477363.747        1139.526          44.000    20645356.864    85926920.919         886.505          43.000  
R05  22395131.506                       -4843.195          26.000    22395158.872    93111594.345       -3766.149          38.000  
R06  18876778.149   100730097.099       -1038.741          36.000                                                                  
R07  20469358.702   109574078.272        2410.004          33.000    20469391.246    85224457.959        1874.799          48.000  
G12  22435537.262   117899549.580       -2868.668          40.000    22435562.846    91869880.117       -2235.874          39.000  
G19  23147463.566   121640754.058       -4274.105          32.000                                                                  
G29  23769654.064   124910370.423        2541.151          38.000    23769672.546    97332843.175        1979.527          30.000  
G20  21020468.883   110463308.013       -2420.929          44.000                                                                  
R20  20898139.617   111751724.414       -1223.019          33.000    20898166.693    86918134.207        -951.842          46.000  
E27  25920715.888   136214290.847       -1163.931          43.000    25920757.869   104372158.949        -892.371          32.000  
E30  25623847.321   134654209.207       -2983.057          40.000    25623881.586   103176752.735       -2286.098          35.000  
E02  27549301.219   144772549.371       -3359.900          26.000    27549339.237   110929785.025       -2575.649          32.000  
E34  24893504.298   130816241.753       -1145.821          42.000    24893539.593   100235974.270        -877.780          42.000  
E08  26087838.878   137092431.770        1971.812          31.000    26087856.469   105045004.861        1511.277          25.000  
E15  24854935.745   130613573.734        -146.308          42.000    24854969.711   100080672.912        -111.972          41.000  
E05  24068153.120   126478983.374       -2034.881          44.000    24068192.001    96912637.675       -1559.035          42.000  
E03  23867834.016   125426328.916         423.942          38.000    23867868.379    96106017.108         324.494          32.000  
E36                                                                  28090348.438   113108198.207       -1434.608          28.000  
G15                                                                  23082589.639                        2174.149          24.000  
> 2025 04 04 10 16 45.9990000  0 24                     
G25  23058510.460   121173293.628       -1519.394          39.000    23058546.854    94420908.229       -1183.589          30.000  
G13  21142425.685   111104184.449        1883.151          26.000                                                                  
G05  20512373.816   107793252.177        -851.404          47.000    20512392.419    83994822.826        -663.324          35.000  
G06  23199805.575   121915807.715       -2045.177          40.000    23199837.846    94999461.799       -1593.609          40.000  
G11  21704389.222   114057331.158       -1214.089          43.000    21704410.255    88875932.514        -945.609          43.000  
R21  20645122.742   110476223.632        1140.063          44.000    20645143.862    85926034.175         886.493          41.000  
R05  22396041.644                       -4843.914          26.000    22396064.901    93115360.767       -3766.687          38.000  
R06  18876972.750   100731135.386       -1038.890          36.000                                                                  
R07  20468908.948   109571667.744        2409.705          39.000    20468940.765    85222583.113        1874.445          48.000  
G12  22436083.300   117902418.401       -2868.771          41.000    22436108.711    91872115.558       -2235.549          39.000  
G19  23148276.922   121645028.679       -4274.854          36.000                                                                  
G29  23769170.532   124907829.161        2541.091          38.000    23769189.135    97330862.932        1979.366          31.000  
G20  21020929.436   110465728.621       -2420.797          45.000                                                                  
R20  20898368.552   111752947.929       -1223.750          33.000    20898395.533    86919085.876        -951.930          45.000  
E27  25920937.268   136215454.387       -1163.923          43.000    25920979.223   104373050.452        -891.980          31.000  
E30  25624414.609   134657191.983       -2983.152          41.000    25624449.118   103179038.274       -2285.688          35.000  
E02  27549943.148                       -3360.947          25.000    27549978.817   110932359.961       -2575.235          31.000  
E34  24893722.271   130817386.975       -1145.423          42.000    24893757.645   100236851.789        -877.604          43.000  
E08  26087464.235   137090459.930        1971.185          32.000                                                                  
E15  24854963.475   130613719.583        -145.962          42.000    24854997.390   100080784.680        -112.050          41.000  
E05  24068540.462   126481018.052       -2035.313          43.000    24068579.221    96914196.702       -1559.289          43.000  
E03  23867753.637   125425905.044         423.668          42.000    23867787.833    96105692.306         324.783          39.000  
E36                                                                  28090702.243   113109632.721       -1434.798          28.000  
G15                                                                  23082058.966    94517172.1621       2175.373          26.000  
> 2025 04 04 10 16 46.9990000  0 24                     
G25  23058799.555   121174813.067       -1519.439          39.000    23058835.919    94422092.244       -1184.356          31.000  
G13  21142067.627   111102301.714        1882.900          32.000                                                                  
G05  20512535.920   107794103.441        -851.092          46.000    20512554.327    83995486.178        -662.781          35.000  
G06  23200194.644   121917852.762       -2044.432          40.000    23200226.981    95001055.354       -1593.465          40.000  
G11  21704620.293   114058545.129       -1213.594          41.000    21704641.269    88876878.481        -945.517          43.000  
R21  20644909.610   110475083.540        1140.454          42.000    20644930.906    85925147.421         887.006          42.000  
R05  22396952.843                       -4842.534          26.000    22396970.826    93119127.274       -3766.365          38.000  
R06  18877167.492   100732174.454       -1038.618          35.000                                                                  
R07  20468459.307   109569257.784        2409.747          39.000    20468490.484    85220708.647        1874.719          48.000  
G12  22436629.320   117905287.451       -2868.220          41.000    22436654.735    91874351.172       -2235.460          39.000  
G19  23149090.401   121649303.475       -4274.294          35.000                                                                  
G29  23768686.904   124905287.823        2542.007          39.000    23768705.527    97328882.675        1981.109          30.000  
G20  21021390.064   110468149.201       -2420.298          46.000                                                                  
R20  20898597.717   111754171.695       -1223.202          32.000    20898624.587    86920037.696        -951.594          46.000  
E27  25921158.343   136216618.236       -1163.401          42.000    25921200.600   104373942.318        -891.607          30.000  
E30  25624981.975   134660174.811       -2982.189          40.000    25625016.584   103181323.819       -2285.497          36.000  
E02  27550583.550   144779293.2901      -3359.106          27.000    27550618.208   110934934.686       -2573.709          32.000  
E34  24893940.252   130818532.077       -1144.617          41.000    24893975.628   100237729.176        -877.079          43.000  
E08  26087088.952   137088487.962        1972.509          32.000                                                                  
E15  24854991.132   130613865.263        -145.142          42.000    24855025.143   100080896.311        -111.168          41.000  
E05  24068927.547   126483052.992       -2034.637          43.000    24068966.396    96915755.945       -1559.063          43.000  
E03  23867673.061   125425481.377         423.813          42.000    23867707.212    96105367.672         325.004          39.000  
E36                                                                  28091058.445   113111067.084       -1434.093          27.000  
G15                                                                  23081527.983    94514996.445        2176.139          28.000  
> 2025 04 04 10 16 47.9990000  0 24                     
G25  23059088.589   121176332.010       -1518.969          40.000    23059124.874    94423275.823       -1183.573          32.000  
G13  21141709.711   111100418.472        1883.073          32.000                                                                  
G05  20512697.775   107794954.139        -850.507          46.000    20512716.220    83996149.062        -662.659          35.000  
G06  23200583.525   121919896.997       -2043.730          41.000    23200615.983    95002648.254       -1592.718          40.000  
G11  21704851.155   114059758.298       -1212.717          42.000    21704872.118    88877823.803        -945.119          43.000  
R21  20644696.386   110473942.595        1141.504          44.000    20644717.811    85924259.998         887.671          42.000  
R05  22397858.612   119729389.7723      -4841.112          27.000    22397876.608    93122893.274       -3765.842          39.000  
R06  18877362.058   100733213.472       -1038.987          36.000                                                                  
R07  20468009.384   109566847.302        2410.443          39.000    20468040.135    85218833.905        1874.847          48.000  
G12  22437175.279   117908155.882       -2867.808          41.000    22437200.631    91876586.293       -2235.266          39.000  
G19  23149903.653   121653577.568       -4273.155          35.000                                                                  
G29  23768203.152   124902745.721        2542.347          43.000    23768221.891    97326901.814        1981.010          35.000  
G20  21021850.502   110470569.026       -2419.625          45.000                                                                  
R20  20898826.469   111755394.873       -1223.001          33.000    20898853.403    86920989.025        -951.074          44.000  
E27  25921379.738   136217781.495       -1163.170          42.000    25921421.842   104374833.522        -891.403          34.000  
E30  25625549.622   134663156.859       -2982.268          40.000    25625584.098   103183608.776       -2285.222          35.000  
E02  27551224.611   144782652.454       -3358.979          27.000    27551257.513   110937508.560       -2573.396          32.000  
E34  24894157.822   130819676.222       -1143.700          41.000    24894193.441   100238605.870        -876.414          43.000  
E08  26086713.279   137086515.153        1972.953          32.000                                                                  
E15  24855018.509   130614009.966        -144.324          41.000    24855052.566   100081007.174        -110.607          41.000  
E05  24069314.690   126485087.440       -2034.467          44.000    24069353.534    96917314.819       -1558.572          43.000  
E03  23867592.400   125425057.184         424.450          43.000    23867626.468    96105042.673         325.120          39.000  
E36                                                                  28091413.568   113112500.859       -1433.638          27.000  
G15                                                                  23080995.767    94512820.145        2176.578          29.000  
> 2025 04 04 10 16 48.9990000  0 24                     
G25  23059377.720   121177851.187       -1518.857          36.000    23059413.963    94424459.530       -1183.656          31.000  
G13  21141351.568   111098535.384        1881.510          32.000                                                                  
G05  20512859.639   107795805.034        -851.147          47.000    20512878.136    83996812.088        -663.049          35.000  
G06  23200972.488   121921941.097       -2043.841          41.000    23201005.012    95004241.035       -1592.794          40.000  
G11  21705082.021   114060971.292       -1213.160          41.000    21705102.905    88878768.987        -945.332          43.000  
R21  20644483.147   110472801.452        1141.138          44.000    20644504.602    85923372.478         887.872          42.000  
R05  22398763.711   119734231.786       -4841.304          28.000    22398782.472    93126659.245       -3766.115          39.000  
R06  18877556.882   100734253.120       -1039.312          36.000                                                                  
R07  20467559.664   109564437.174        2409.619          41.000    20467589.829    85216959.382        1874.597          49.000  
G12  22437721.114   117911024.329       -2868.562          41.000    22437746.496    91878821.411       -2234.240          38.000  
G19  23150716.975   121657851.746       -4273.923          35.000                                                                  
G29  23767719.446   124900203.409        2542.715          42.000    23767738.266    97324920.743        1981.215          34.000  
G20  21022310.985   110472988.712       -2419.650          46.000                                                                  
R20  20899055.171   111756618.091       -1222.617          33.000    20899082.139    86921940.425        -951.255          46.000  
E27  25921601.139   136218945.055       -1162.911          36.000    25921643.258   104375725.147        -891.512          29.000  
E30  25626116.834   134666138.789       -2981.948          40.000    25626151.386   103185893.590       -2285.271          35.000  
E02  27551864.979   144786011.168       -3358.304          28.000    27551896.634   110940082.135       -2573.140          32.000  
E34  24894375.573   130820820.092       -1143.446          41.000    24894411.048   100239482.366        -876.376          42.000  
E08  26086337.299   137084542.134        1973.402          33.000                                                                  
E15  24855045.825   130614154.268        -143.865          41.000    24855080.068   100081117.779        -110.490          41.000  
E05  24069701.876   126487122.049       -2034.667          44.000    24069740.637    96918873.821       -1558.981          43.000  
E03  23867511.712   125424633.138         424.128          42.000    23867545.894    96104717.769         325.131          39.000  
E36                                                                  28091769.154   113113934.387       -1432.988          28.000  
G15                                                                  23080464.280    94510643.673        2176.841          28.000  
> 2025 04 04 10 16 49.9990000  0 24                     
G25  23059666.892   121179370.424       -1519.609          39.000    23059703.113    94425643.376       -1184.171          30.000  
G13  21140993.208   111096652.110        1883.776          30.000                                                                  
G05  20513021.584   107796655.965        -851.031          46.000    20513040.124    83997475.136        -663.135          36.000  
G06  23201361.428   121923984.959       -2043.750          41.000    23201393.964    95005833.647       -1592.486          40.000  
G11  21705312.796   114062184.047       -1212.771          43.000    21705333.643    88879714.028        -945.023          43.000  
R21  20644269.891   110471660.140        1141.357          44.000    20644291.435    85922484.791         887.939          41.000  
R05  22399665.677                       -4842.160          26.000    22399688.249    93130425.224       -3766.116          39.000  
R06  18877751.919   100735293.333       -1040.881          36.000                                                                  
R07  20467110.073   109562027.238        2409.558          40.000    20467139.567    85215085.006        1874.292          48.000  
G12  22438267.011   117913892.722       -2868.728          38.000    22438292.322    91881056.559       -2235.201          34.000  
G19  23151530.097   121662125.851       -4273.817          34.000                                                                  
G29  23767235.582   124897660.914        2542.595          41.000    23767254.596    97322939.617        1981.273          33.000  
G20  21022771.318   110475408.194       -2419.352          45.000                                                                  
R20  20899284.063   111757841.391       -1223.437          33.000    20899310.908    86922891.881        -951.531          44.000  
E27  25921822.408   136220108.547       -1163.746          40.000    25921864.737   104376616.630        -892.335          30.000  
E30  25626684.122   134669120.537       -2982.179          41.000    25626718.861   103188178.308       -2284.709          34.000  
E02  27552504.673   144789369.305       -3357.666          28.000    27552535.660   110942655.297       -2573.232          32.000  
E34  24894592.939   130821963.641       -1143.466          41.000    24894628.772   100240358.600        -876.339          43.000  
E08  26085961.894   137082568.848        1973.389          33.000                                                                  
E15  24855073.516   130614298.214        -144.120          41.000    24855107.326   100081228.048        -110.365          41.000  
E05  24070089.227   126489156.747       -2034.896          44.000    24070127.812    96920432.875       -1559.269          43.000  
E03  23867430.977   125424209.140         423.931          42.000    23867465.035    96104392.883         324.842          39.000  
E36                                                                  28092125.104   113115367.810       -1433.182          29.000  
G15                                                                  23079931.551    94508467.074        2177.202          27.000  
> 2025 04 04 10 16 50.9990000  0 24                     
G25  23059956.069   121180890.355       -1520.870          37.000    23059992.430    94426827.684       -1183.978          30.000  
G13  21140634.991   111094769.658        1881.872          34.000                                                                  
G05  20513183.601   107797507.511        -852.167          46.000    20513202.223    83998138.658        -663.660          32.000  
G06  23201750.348   121926029.146       -2044.620          41.000    23201782.990    95007426.570       -1593.295          40.000  
G11  21705543.631   114063397.124       -1213.755          43.000    21705564.367    88880659.267        -945.566          42.000  
R21  20644056.718   110470519.153        1140.491          45.000    20644078.347    85921597.367         887.170          41.000  
R05  22400567.681                       -4842.878          25.000    22400594.170    93134191.537       -3767.152          37.000  
R06  18877947.095   100736334.640       -1042.159          36.000                                                                  
R07  20466660.493   109559618.321        2407.312          34.000    20466689.501    85213211.248        1873.102          46.000  
G12  22438813.011   117916761.660       -2869.762          41.000    22438838.277    91883292.063       -2236.561          35.000  
G19  23152343.493   121666400.462       -4275.142          35.000                                                                  
G29  23766751.853   124895118.732        2541.417          42.000    23766771.016    97320958.670        1980.786          34.000  
G20  21023231.757   110477827.987       -2420.098          46.000                                                                  
R20  20899512.873   111759065.219       -1223.639          32.000    20899539.786    86923843.750        -952.126          46.000  
E27  25922044.025   136221272.741       -1164.737          40.000    25922086.284   104377508.636        -892.560          29.000  
E30  25627251.421   134672102.704       -2982.174          42.000    25627286.420   103190463.364       -2285.773          38.000  
E02  27553140.799   144792727.580       -3358.328          29.000    27553174.702   110945228.492       -2573.322          32.000  
E34  24894810.542   130823107.414       -1144.184          40.000    24894846.401   100241234.951        -876.558          43.000  
G15  23079387.173                        2793.750          28.000    23079399.597    94506290.704        2175.937          28.000  
E08  26085586.602   137080595.893        1971.711          32.000                                                                  
E15  24855100.990   130614442.271        -144.392          41.000    24855134.652   100081338.450        -110.749          40.000  
E05  24070476.404   126491192.076       -2035.726          43.000    24070514.992    96921992.388       -1559.805          42.000  
E03  23867350.466   125423785.730         422.676          42.000    23867384.527    96104068.463         323.855          37.000  
E36                                                                  28092481.079   113116801.394       -1434.006          29.000  
> 2025 04 04 10 16 51.9990000  0 24                     
G25  23060245.446   121182411.235       -1521.260          37.000    23060282.073    94428012.816       -1185.750          30.000  
G13  21140277.069   111092887.814        1881.927          35.000                                                                  
G05  20513345.689   107798359.862        -852.344          47.000    20513364.358    83998802.817        -664.276          37.000  
G06  23202139.417   121928073.902       -2044.890          41.000    23202172.068    95009019.803       -1592.953          40.000  
G11  21705774.696   114064610.723       -1213.445          42.000    21705795.237    88881604.900        -945.400          43.000  
R21  20643843.552   110469378.706        1140.399          44.000    20643865.339    85920710.323         886.658          42.000  
R05  22401477.431                       -4843.120          25.000    22401500.173    93137958.452       -3766.695          39.000  
R06  18878142.504   100737377.276       -1043.215          36.000                                                                  
R07  20466211.160   109557210.092        2408.386          39.000    20466239.621    85211338.353        1872.565          48.000  
G12  22439359.110   117919631.412       -2869.749          43.000    22439384.239    91885528.227       -2236.130          41.000  
G19  23153156.911   121670675.735       -4275.805          30.000                                                                  
G29  23766268.234   124892577.115        2541.712          42.000    23766287.556    97318978.225        1980.479          34.000  
G20  21023692.316   110480248.394       -2420.917          46.000                                                                  
R20  20899741.782   111760289.901       -1225.051          32.000    20899768.878    86924796.287        -952.590          46.000  
E27  25922265.687   136222437.682       -1165.187          40.000    25922307.996   104378401.130        -892.871          29.000  
E30  25627819.003   134675085.414       -2982.835          40.000    25627853.800   103192748.942       -2285.489          34.000  
E02  27553789.699   144796142.0121      -3357.881          28.000    27553813.932   110947801.913       -2573.927          32.000  
E34  24895028.193   130824251.560       -1143.864          40.000    24895064.152   100242111.663        -876.814          43.000  
G15  23078856.491   121280208.5023       2791.814          29.000    23078868.019    94504114.804        2175.320          28.000  
E08  26085211.432   137078623.292        1973.325          32.000    26085226.204                        1511.895          22.000  
E15  24855128.571   130614586.725        -144.825          41.000    24855162.148   100081449.126        -110.659          41.000  
E05  24070864.064   126493228.267       -2036.322          44.000    24070902.541    96923552.610       -1560.382          43.000  
E03  23867270.223   125423363.197         422.170          42.000    23867304.217    96103744.676         323.611          38.000  
E36                                                                  28092837.889   113118235.257       -1433.689          29.000  
> 2025 04 04 10 16 52.9990000  0 24                     
G25  23060534.999   121183932.874       -1521.318          36.000    23060571.737    94429198.458       -1186.509          30.000  
G13  21139919.244   111091006.706        1881.188          34.000                                                                  
G05  20513508.021   107799212.876        -853.406          46.000    20513526.653    83999467.554        -665.350          37.000  
G06  23202528.578   121930118.977       -2045.331          41.000    23202561.164    95010613.414       -1593.805          40.000  
G11  21706005.853   114065824.723       -1214.811          43.000    21706026.191    88882550.851        -946.346          43.000  
R21  20643630.557   110468238.604        1139.441          44.000    20643652.290    85919823.602         886.249          42.000  
R05  22402393.463   119753631.6963      -4845.284          25.000    22402406.272    93141725.835       -3768.262          39.000  
R06  18878338.220   100738421.028       -1043.880          36.000                                                                  
R07  20465761.903   109554802.943        2406.110          37.000    20465789.873    85209466.079        1871.900          46.000  
G12  22439905.365   117922501.676       -2870.260          39.000    22439930.451    91887764.844       -2237.442          39.000  
G19  23153970.023   121674951.593       -4275.769          32.000                                                                  
G29  23765784.625   124890035.820        2541.006          42.000    23765804.144    97316998.026        1979.256          34.000  
G20  21024152.936   110482669.129       -2420.854          46.000                                                                  
R20  20899970.890   111761515.194       -1224.848          33.000    20899998.133    86925749.242        -952.520          46.000  
E27  25922487.738   136223603.446       -1166.261          35.000    25922530.623                        -898.580          21.000  
E30  25628386.642   134678068.603       -2983.520          40.000    25628421.469   103195034.574       -2286.399          35.000  
E02  27554427.691   144799500.654       -3359.070          28.000    27554452.972   110950375.348       -2573.634          32.000  
E34  24895245.969   130825396.031       -1145.377          41.000    24895281.894   100242988.567        -876.982          43.000  
G15  23078320.218   121277416.5302       2790.981          28.000    23078338.129    94501939.196        2175.419          26.000  
E08  26084836.905   137076651.130        1971.811          32.000    26084853.098   105032894.2501       1511.483          26.000  
E15  24855156.036   130614731.346        -145.217          40.000    24855189.741   100081559.947        -111.221          41.000  
E05  24071252.020   126495265.140       -2037.024          44.000    24071290.116    96925113.302       -1560.410          42.000  
E03  23867190.114   125422941.317         422.143          42.000    23867223.763    96103421.466         323.003          41.000  
E36                                                                  28093194.078   113119669.515       -1434.612          29.000  
> 2025 04 04 10 16 53.9990000  0 24                     
G25  23060824.652   121185455.257       -1522.927          40.000    23060861.526    94430384.834       -1186.836          34.000  
G13  21139561.590   111089126.324        1879.370          35.000                                                                  
G05  20513670.482   107800066.709        -854.480          46.000    20513689.137    84000132.851        -665.295          36.000  
G06  23202917.818   121932164.632       -2045.951          41.000    23202950.343    95012207.409       -1594.332          40.000  
G11  21706236.943   114067039.188       -1214.867          42.000    21706257.323    88883497.206        -946.553          43.000  
R21  20643417.689   110467099.041        1139.392          43.000    20643439.359    85918937.280         886.127          41.000  
R05  22403296.465   119758476.1702      -4845.250          25.000    22403312.539    93145493.770       -3768.297          39.000  
R06  18878533.993   100739466.125       -1045.973          36.000                                                                  
R07  20465312.721   109552396.672        2405.981          36.000    20465340.263    85207594.626        1870.923          45.000  
G12  22440451.756   117925372.701       -2871.237          41.000    22440476.760    91890001.984       -2237.430          38.000  
G19  23154783.848   121679228.196       -4276.729          37.000                                                                  
G29  23765301.128   124887495.092        2540.343          42.000    23765320.830    97315018.216        1979.105          35.000  
G20  21024613.602   110485090.458       -2421.781          45.000                                                                  
R20  20900200.187   111762741.216       -1226.314          32.000    20900227.539    86926702.868        -953.958          46.000  
E27  25922709.728   136224769.839       -1166.782          38.000    25922754.086   104380188.2221       -893.848          29.000  
E30  25628954.364   134681052.297       -2983.933          40.000    25628989.215   103197320.828       -2286.468          36.000  
E02  27555058.772   144802859.375       -3358.291          27.000    27555092.040   110952949.001       -2573.031          32.000  
E34  24895463.929   130826540.850       -1144.865          41.000    24895499.648   100243865.782        -877.343          43.000  
G15  23077790.544   121274624.8722       2791.332          27.000    23077806.363    94499763.987        2175.833          26.000  
E08  26084462.184   137074679.332        1971.657          30.000    26084476.934   105031383.484        1510.761          27.000  
E15  24855183.374   130614876.299        -145.165          41.000    24855217.283   100081671.019        -111.019          41.000  
E05  24071639.889   126497302.842       -2038.175          44.000    24071677.927    96926674.684       -1561.573          42.000  
E03  23867110.168   125422520.228         420.710          42.000    23867143.533    96103098.782         322.643          38.000  
E36                                                                  28093550.421   113121104.042       -1434.886          29.000  
> 2025 04 04 10 16 54.9990000  0 24                     
G25  23061114.435   121186978.343       -1523.764          41.000    23061151.374    94431571.636       -1187.515          32.000  
G13  21139203.891   111087246.470        1879.353          35.000                                                                  
G05  20513833.039   107800921.047        -854.510          46.000    20513851.821    84000798.604        -666.003          35.000  
G06  23203307.033   121934210.510       -2045.714          41.000    23203339.742    95013801.599       -1594.006          40.000  
G11  21706468.072   114068253.895       -1214.898          42.000    21706488.457    88884443.759        -946.847          43.000  
R21  20643204.877   110465959.721        1139.160          43.000    20643226.571    85918051.155         886.230          41.000  
R05  22404203.882                       -4845.401          25.000    22404218.936    93149261.952       -3767.988          40.000  
R06  18878730.079   100740512.238       -1046.644          36.000                                                                  
R07  20464863.613   109549991.175        2404.755          39.000    20464890.870    85205723.701        1870.667          46.000  
G12  22440998.232   117928244.141       -2871.735          41.000    22441023.100    91892239.480       -2237.745          38.000  
G19  23155597.631   121683505.105       -4277.199          37.000                                                                  
G29  23764817.692   124884954.606        2540.583          43.000    23764837.475    97313038.590        1979.688          35.000  
G20  21025074.407   110487512.025       -2421.952          45.000                                                                  
R20  20900429.369   111763967.793       -1226.838          32.000    20900456.957    86927656.865        -954.542          46.000  
E27  25922932.316   136225936.911       -1167.636          38.000    25922976.268   104381082.364        -894.183          28.000  
E30  25629522.287   134684036.304       -2983.961          40.000    25629557.164   103199607.326       -2286.750          36.000  
E02  27555704.699   144806218.238       -3359.448          28.000    27555731.116   110955522.652       -2573.722          32.000  
E34  24895681.840   130827685.851       -1145.136          41.000    24895717.696   100244743.118        -877.479          43.000  
G15  23077258.437   121271833.7302       2790.534          28.000    23077274.674    94497588.919        2175.293          25.000  
E08  26084086.858   137072707.800        1971.737          29.000    26084102.918   105029872.830        1511.138          29.000  
E15  24855211.024   130615021.324        -144.954          40.000    24855244.933   100081782.169        -111.352          41.000  
E05  24072027.433   126499341.122       -2038.368          44.000    24072065.730    96928236.507       -1562.234          43.000  
E03  23867030.064   125422099.673         420.322          42.000    23867063.583    96102776.571         322.099          38.000  
E36                                                                  28093906.665   113122538.712       -1434.872          29.000  
> 2025 04 04 10 16 55.9990000  0 24                     
G25  23061404.192   121188501.350       -1522.984          41.000    23061441.244    94432758.429       -1187.103          32.000  
G13  21138845.964   111085366.659        1880.580          33.000                                                                  
G05  20513995.524   107801775.311        -854.639          46.000    20514014.421    84001464.250        -665.802          36.000  
G06  23203696.384   121936256.019       -2045.053          41.000    23203729.016    95015395.497       -1593.492          40.000  
G11  21706699.108   114069468.221       -1214.056          42.000    21706719.540    88885389.950        -945.947          43.000  
R21  20642991.856   110464820.035        1140.253          43.000    20643013.612    85917164.739         886.603          41.000  
R05  22405112.088   119768164.1353      -4843.680          26.000    22405125.249    93153030.020       -3767.817          39.000  
R06  18878926.248   100741558.742       -1046.873          36.000                                                                  
R07  20464414.578   109547585.669        2405.438          33.000    20464441.492    85203852.758        1870.892          45.000  
G12  22441544.643   117931115.418       -2871.494          41.000    22441569.448    91894476.825       -2237.928          36.000  
G19  23156411.327   121687781.811       -4276.803          35.000                                                                  
G29  23764334.251   124882413.740        2540.864          43.000    23764354.087    97311058.694        1979.814          35.000  
G20  21025535.131   110489933.218       -2420.787          45.000                                                                  
R20  20900658.713   111765194.198       -1226.836          32.000    20900686.362    86928610.720        -953.718          46.000  
E27  25923154.400   136227103.860       -1167.121          41.000    25923198.607   104381976.578        -894.958          30.000  
E30  25630090.203   134687019.961       -2983.215          40.000    25630124.979   103201893.470       -2286.054          36.000  
E02  27556345.094   144809576.541       -3357.630          27.000    27556370.174   110958095.746       -2572.633          31.000  
E34  24895899.728   130828830.311       -1144.049          41.000    24895935.416   100245620.031        -876.587          43.000  
G15  23076725.188   121269041.904        2791.915          27.000    23076743.521                        2175.548          24.000  
E08  26083712.620   137070735.823        1972.601          29.000    26083725.440   105028361.843        1510.899          29.000  
E15  24855238.665   130615165.840        -144.846          40.000    24855272.365   100081892.845        -109.886          41.000  
E05  24072415.443   126501379.332       -2038.332          44.000    24072453.606    96929798.215       -1561.653          43.000  
E03  23866949.872   125421679.013         420.681          42.000    23866983.362    96102454.234         322.527          38.000  
E36                                                                  28094263.136   113123972.990       -1433.386          29.000  
> 2025 04 04 10 16 56.9990000  0 24                     
G25  23061694.176   121190025.857       -1521.698          42.000    23061731.419    94433946.324       -1185.933          33.000  
G13  21138489.619                        1864.866          33.000                                                                  
G05  20514158.240   107802630.941        -852.185          48.000    20514177.223    84002130.963        -664.514          36.000  
G06  23204085.812   121938302.639       -2043.248          41.000    23204118.485    95016990.255       -1592.238          41.000  
G11  21706930.395   114070683.683       -1211.917          42.000    21706950.861    88886337.074        -944.753          43.000  
R21  20642779.112   110463681.502        1142.218          43.000    20642800.785    85916279.223         887.958          39.000  
R05  22406015.905                       -4862.198          29.000    22406031.751    93156799.097       -3766.387          39.000  
R06  18879122.875   100742607.185       -1045.513          36.000                                                                  
R07  20463965.950   109545181.991        2406.854          33.000    20463992.453    85201983.044        1871.741          36.000  
G12  22442091.358   117933988.002       -2869.261          42.000    22442116.108    91896715.192       -2235.847          34.000  
G19  23157225.565   121692059.819       -4275.090          35.000                                                                  
G29  23763851.061   124879874.006        2542.967          43.000    23763870.927    97309079.672        1981.131          36.000  
G20  21025996.159   110492355.574       -2419.059          45.000                                                                  
R20  20900888.267                       -1221.997          31.000    20900916.179    86929565.690        -952.308          46.000  
E27  25923376.844   136228272.254       -1164.779          40.000    25923419.581   104382871.779        -891.775          31.000  
E30  25630657.839   134690004.830       -2981.347          40.000    25630693.133   103204180.540       -2284.068          36.000  
E02  27556979.329                       -3354.126          28.000    27557010.383                       -2569.820          27.000  
E34  24896117.338   130829975.766       -1141.782          41.000    24896153.712   100246497.738        -874.739          43.000  
G15  23076192.801                        2795.734          26.000    23076213.293                        2177.576          25.000  
E08  26083337.962   137068764.931        1974.164          32.000                                                                  
E15  24855266.039   130615311.221        -141.394          40.000    24855300.101   100082004.296        -108.302          41.000  
E05  24072803.799   126503418.942       -2036.118          44.000    24072841.944    96931361.049       -1560.028          43.000  
E03  23866870.104   125421259.769         422.592          42.000    23866903.652    96102132.977         323.956          39.000  
E36                                                                  28094620.663                       -1431.868          28.000  
> 2025 04 04 10 16 57.9990000  0 24                     
G25  23061983.911   121191548.178       -1521.731          42.000    23062021.128    94435132.536       -1186.162          33.000  
G13  21138135.720   111081652.5603       1881.183          34.000                                                                  
G05  20514320.659   107803484.381        -852.887          47.000    20514339.593    84002796.008        -664.594          36.000  
G06  23204474.684   121940346.748       -2043.627          41.000    23204507.512    95018583.055       -1591.952          41.000  
G11  21707161.185   114071896.605       -1212.232          43.000    21707181.633    88887282.216        -944.796          42.000  
R21  20642565.960   110462540.356        1141.663          44.000    20642587.571    85915391.646         888.190          40.000  
R05  22406921.286   119777835.0693      -4842.956          29.000    22406937.874    93160566.332       -3766.726          39.000  
R06  18879319.018   100743653.896       -1046.520          36.000                                                                  
R07  20463517.055   109542775.826        2406.055          34.000    20463542.805    85200111.723        1872.192          38.000  
G12  22442637.691   117936858.315       -2870.687          42.000    22442662.312    91898951.810       -2235.838          37.000  
G19  23158039.104   121696335.412       -4274.540          36.000                                                                  
G29  23763367.323   124877331.739        2542.820          44.000    23763387.174    97307098.682        1981.617          35.000  
G20  21026456.489   110494775.411       -2419.049          45.000                                                                  
R20  20901114.553   111767667.0443      -1225.821          30.000    20901145.413    86930518.832        -952.682          46.000  
E27  25923598.652   136229438.443       -1165.790          42.000    25923643.255   104383765.401        -894.036          31.000  
E30  25631225.518   134692987.266       -2982.104          41.000    25631260.802   103206465.767       -2285.098          37.000  
E02  27557616.663   144816259.6171      -3355.906          29.000    27557648.760   110963232.0801      -2570.927          31.000  
E34  24896334.617   130831118.649       -1142.073          39.000    24896370.996   100247373.468        -875.446          42.000  
G15  23075660.115   121263418.4133       2792.468          25.000    23075682.728    94491062.7841       2176.386          26.000  
E08  26082963.374   137066791.509        1973.877          31.000                                                                  
E15  24855293.091   130615453.984        -141.811          40.000    24855327.362   100082113.671        -108.799          42.000  
E05  24073191.512   126505456.415       -2037.041          43.000    24073229.728    96932922.225       -1560.696          43.000  
E03  23866789.801   125420838.289         421.928          42.000    23866823.398    96101810.085         322.903          39.000  
E36                                                                  28094980.342   113126843.3481      -1432.763          29.000  
> 2025 04 04 10 16 58.9990000  0 24                     
G25  23062273.400   121193069.924       -1521.463          42.000    23062310.664    94436318.301       -1185.018          33.000  
G13  21137782.970   111079771.0502       1882.589          34.000                                                                  
G05  20514482.983   107804337.122        -852.332          47.000    20514501.893    84003460.505        -664.233          35.000  
G06  23204863.338   121942389.929       -2042.693          42.000    23204896.304    95020175.113       -1591.653          41.000  
G11  21707391.903   114073108.565       -1211.291          43.000    21707412.180    88888226.633        -944.499          42.000  
R21  20642352.426   110461398.284        1142.688          44.000    20642374.173    85914503.397         888.977          40.000  
R05  22407824.893   119782665.9572      -4841.742          27.000    22407843.803    93164332.978       -3765.954          38.000  
R06  18879515.240   100744700.354       -1046.230          36.000                                                                  
R07  20463067.911   109540369.310        2406.763          40.000    20463093.097    85198240.104        1871.869          46.000  
G12  22443183.921   117939727.878       -2869.125          42.000    22443208.362    91901187.810       -2235.902          37.000  
G19  23158852.515   121700610.646       -4277.230          28.000                                                                  
G29  23762883.388   124874788.552        2543.625          44.000    23762903.270    97305116.974        1981.698          35.000  
G20  21026916.704   110497194.379       -2418.658          45.000                                                                  
R20  20901345.059   111768891.1941      -1223.449          31.000    20901374.508    86931471.455        -952.435          46.000  
E27  25923820.433   136230603.936       -1165.047          42.000    25923863.252   104384658.398        -891.810          31.000  
E30  25631792.836   134695968.738       -2981.226          39.000    25631828.088   103208750.294       -2285.033          37.000  
E02  27558255.393   144819609.5151      -3354.892          28.000    27558286.912   110965802.796       -2569.656          34.000  
E34  24896552.142   130832260.428       -1141.283          41.000    24896588.300   100248248.345        -874.325          43.000  
G15  23075130.476   121260624.4742       2794.639          26.000    23075153.127                        2177.178          26.000  
E08  26082587.393   137064817.047        1975.024          31.000                                                                  
E15  24855320.360   130615595.582        -141.459          41.000    24855354.140   100082222.182        -108.474          42.000  
E05  24073579.183   126507493.217       -2036.698          43.000    24073617.281    96934482.906       -1560.619          43.000  
E03  23866709.662   125420416.172         422.258          39.000    23866742.975    96101486.576         323.817          35.000  
E36                                                                  28095336.616   113128275.849       -1432.431          29.000  
> 2025 04 04 10 16 59.9990000  0 24                     
G25  23062562.791   121194591.165       -1521.445          39.000    23062600.185    94437503.723       -1186.316          32.000  
G13  21137418.081   111077888.9152       1882.299          40.000                                                                  
G05  20514645.165   107805189.292        -852.075          45.000    20514664.014    84004124.535        -663.855          36.000  
G06  23205251.907   121944432.240       -2042.114          41.000    23205284.935    95021766.578       -1590.971          40.000  
G11  21707622.427   114074319.677       -1210.904          43.000    21707642.563    88889170.341        -943.587          42.000  
R21  20642138.719   110460255.320        1142.883          44.000    20642160.592    85913614.440         889.001          42.000  
R05  22408733.718   119787508.1252      -4841.688          27.000    22408749.513    93168099.028       -3765.839          40.000  
R06  18879711.310   100745746.786       -1046.891          37.000                                                                  
R07  20462618.678   109537962.492        2406.915          36.000    20462643.418    85196368.087        1871.991          46.000  
G12  22443729.962   117942596.777       -2868.533          41.000    22443754.251    91903423.322       -2235.120          38.000  
G19  23159663.508   121704852.7113      -4273.992          27.000                                                                  
G29  23762399.318   124872244.504        2544.296          42.000    23762419.260    97303134.647        1982.354          36.000  
G20  21027376.801   110499612.464       -2417.922          45.000                                                                  
R20  20901573.639   111770115.403       -1223.720          31.000    20901603.501    86932423.568        -952.220          46.000  
E27  25924042.237   136231768.947       -1165.019          35.000    25924088.778                        -895.000          24.000  
E30  25632360.136   134698949.381       -2980.323          39.000    25632395.149   103211034.199       -2283.842          37.000  
E02  27558893.031   144822963.363       -3353.270          34.000    27558925.668   110968372.611       -2569.281          34.000  
E34  24896769.325   130833401.267       -1140.217          40.000    24896805.223   100249122.480        -873.977          43.000  
G15  23074595.794   121257829.7262       2794.602          26.000    23074622.124    94486719.9751       2178.301          26.000  
E08  26082210.639   137062841.709        1975.728          32.000                                                                  
E15  24855347.204   130615736.099        -139.964          41.000    24855380.891   100082329.866        -107.635          40.000  
E05  24073966.642   126509529.464       -2035.995          44.000    24074004.622    96936043.131       -1560.075          43.000  
E03  23866629.408   125419993.554         422.784          38.000    23866662.453    96101162.872         323.687          35.000  
E36                                                                  28095688.342   113129707.502       -1430.391          30.000  
> 2025 04 04 10 17 00.9990000  0 24                     
G25  23062852.186   121196111.980       -1520.488          37.000    23062889.602    94438688.720       -1184.780          31.000  
G13  21137060.270   111076005.7351       1882.981          38.000                                                                  
G05  20514807.194   107806040.986        -851.337          46.000    20514826.005    84004788.225        -663.440          33.000  
G06  23205640.463   121946473.734       -2040.947          41.000    23205673.397    95023357.366       -1590.240          40.000  
G11  21707852.771   114075529.990       -1209.992          42.000    21707872.747    88890113.402        -942.643          42.000  
R21  20641924.895   110459111.566        1144.421          43.000    20641946.799    85912724.848         890.442          40.000  
R05  22409636.705   119792348.9571      -4840.212          28.000    22409655.292    93171864.629       -3765.009          38.000  
R06  18879907.498   100746793.099       -1046.102          36.000                                                                  
R07  20462169.187   109535555.289        2407.324          36.000    20462193.791    85194495.827        1872.461          45.000  
G12  22444275.818   117945465.054       -2867.370          41.000    22444300.059    91905658.290       -2234.210          37.000  
G19  23160474.676   121709126.165       -4272.763          29.000                                                                  
G29  23761915.047   124869699.651        2545.538          42.000    23761935.136    97301151.634        1983.367          35.000  
G20  21027836.791   110502029.790       -2416.805          45.000                                                                  
R20  20901801.607   111771339.074       -1224.423          31.000    20901832.448    86933375.256        -951.431          46.000  
E27  25924263.629   136232933.329       -1164.070          40.000    25924306.019                        -887.677          25.000  
E30  25632927.426   134701929.300       -2979.044          41.000    25632962.399   103213317.476       -2283.188          37.000  
E02  27559531.026   144826316.090       -3351.185          33.000    27559562.210   110970941.598       -2568.035          34.000  
E34  24896986.135   130834541.185       -1139.234          41.000    24897022.137   100249995.896        -873.056          42.000  
G15  23074063.426   121255034.1062       2796.187          26.000    23074091.206    94484541.574        2179.040          25.000  
E08  26081833.504   137060865.541        1976.299          32.000                                                                  
E15  24855373.828   130615875.670        -137.850          40.000    24855407.415   100082436.829        -106.251          41.000  
E05  24074353.827   126511565.239       -2035.052          44.000    24074391.914    96937603.019       -1559.133          43.000  
E03  23866548.572   125419570.230         423.428          41.000    23866582.013    96100838.424         324.125          36.000  
E36                                                                  28096043.812   113131138.600       -1430.657          31.000  
