     3.04           OBSERVATION DATA    M: Mixed            RINEX VERSION / TYPE
RTKCONV demo5 b34i                      20250404 083105 UTC PGM / RUN BY / DATE 
format: u-blox UBX                                          COMMENT             
log: D:\20242\demo5_b34i\data\svd1.ubx                      COMMENT             
                                                            MARKER NAME         
                                                            MARKER NUMBER       
                                                            MARKER TYPE         
                                                            OBSERVER / AGENCY   
                                                            REC # / TYPE / VERS 
                                                            ANT # / TYPE        
 -1626736.6947  5730523.9778  2271689.9375                  APPROX POSITION XYZ 
        0.0000        0.0000        0.0000                  ANTENNA: DELTA H/E/N
G    8 C1C L1C D1C S1C C2X L2X D2X S2X                      SYS / # / OBS TYPES 
  2025    04    04    08    14   41.9940000     GPS         TIME OF FIRST OBS   
  2025    04    04    08    30   21.9950000     GPS         TIME OF LAST OBS    
G L1C                                                       SYS / PHASE SHIFT   
G L2X  0.00000                                              SYS / PHASE SHIFT   
  0                                                         GLONASS SLOT / FRQ #
 C1C    0.000 C1P    0.000 C2C    0.000 C2P    0.000        GLONASS COD/PHS/BIS 
                                                            END OF HEADER       
> 2025 04 04 08 14 41.9940000  0 10                     
G09  21625052.538   113640413.5391      -1875.415          32.000    21625064.494    88551028.2361      -1460.806          33.000  
G20  18771556.333    98645201.8311       -716.386          44.000                                                                  
G05  21263617.452   111741072.2411       1389.696          43.000    21263623.078    87070990.0251       1082.944          38.000  
G11  19900685.601   104578811.2371      -1801.327          44.000    19900685.114    81490108.3211      -1404.149          36.000  
G06  20137941.980   105825601.2791      -2938.354          42.000    20137945.436    82461716.1951      -2289.481          36.000  
G17  20684386.577   108697200.0921      -3099.323          41.000    20684392.055    84699137.4781      -2415.213          31.000  
G14  22316654.863   117274804.1991      -5431.712          36.000    22316659.794    91382989.9041      -4232.264          35.000  
G12  20673749.513   108641288.2301        218.829          39.000    20673752.506    84655435.7651        170.215          38.000  
G19  18870494.312    99165116.2991      -2151.906          44.000                                                                  
G22  20728953.503   108931368.8521      -4785.801          43.000                                                                  
> 2025 04 04 08 14 42.9940000  0 10                     
G09  21625409.340   113642288.363       -1875.082          32.000    21625421.336    88552489.174       -1461.652          33.000  
G20  18771692.757    98645918.175        -716.628          44.000                                                                  
G05  21263353.019   111739682.455        1389.811          43.000    21263358.628    87069907.064        1083.141          38.000  
G11  19901028.378   104580612.363       -1801.012          44.000    19901027.829    81491511.770       -1403.137          36.000  
G06  20138501.173   105828539.667       -2938.284          42.000    20138504.551    82464005.852       -2289.733          36.000  
G17  20684976.369   108700299.469       -3099.363          41.000    20684981.815    84701552.575       -2415.759          31.000  
G14  22317688.326   117280235.309       -5430.854          36.000    22317693.581    91387221.931       -4231.793          35.000  
G12  20673707.820   108641069.766         218.021          39.000    20673710.945    84655265.509         169.883          38.000  
G19  18870903.803    99167268.264       -2152.224          43.000                                                                  
G22  20729864.218   108936154.701       -4785.936          43.000                                                                  
> 2025 04 04 08 14 43.9940000  0 10                     
G09  21625766.308   113644163.734       -1875.892          32.000    21625778.101    88553950.501       -1461.719          33.000  
G20  18771829.292    98646635.021        -717.175          44.000                                                                  
G05  21263088.609   111738292.976        1388.986          43.000    21263094.198    87068824.359        1082.553          38.000  
G11  19901371.066   104582413.603       -1801.587          44.000    19901370.753    81492915.355       -1404.419          36.000  
G06  20139060.409   105831478.016       -2938.673          42.000    20139063.721    82466295.467       -2289.848          36.000  
G17  20685566.211   108703399.154       -3099.970          41.000    20685571.827    84703967.900       -2415.393          32.000  
G14  22318721.898   117285666.408       -5431.848          35.000    22318727.281    91391453.950       -4231.851          35.000  
G12  20673666.288   108640851.785         217.662          39.000    20673669.386    84655095.667         169.260          38.000  
G19  18871313.383    99169420.602       -2152.797          43.000                                                                  
G22  20730774.895   108940940.777       -4786.483          43.000                                                                  
> 2025 04 04 08 14 44.9940000  0 10                     
G09  21626123.654   113646040.150       -1877.180          33.000    21626135.145    88555412.629       -1462.389          33.000  
G20  18771965.874    98647352.927        -718.734          44.000                                                                  
G05  21262824.367   111736904.323        1388.114          43.000    21262829.904    87067742.290        1081.825          38.000  
G11  19901713.940   104584215.466       -1802.317          44.000    19901713.745    81494319.376       -1404.188          36.000  
G06  20139619.716   105834416.887       -2939.056          42.000    20139623.026    82468585.496       -2290.438          36.000  
G17  20686156.181   108706499.703       -3100.885          41.000    20686161.954    84706383.941       -2416.467          33.000  
G14  22319755.539   117291098.016       -5432.082          34.000    22319760.892    91395686.361       -4232.596          36.000  
G12  20673625.102   108640634.898         216.309          38.000    20673628.075    84654926.660         168.398          38.000  
G19  18871723.049    99171573.865       -2153.754          43.000                                                                  
G22  20731685.800   108945727.590       -4787.043          42.000                                                                  
> 2025 04 04 08 14 45.9940000  0 10                     
G09  21626481.140   113647917.611       -1878.262          34.000    21626492.336    88556875.549       -1463.129          33.000  
G20  18772102.733    98648071.892        -719.679          44.000                                                                  
G05  21262560.290   111735516.529        1387.242          43.000    21262565.804    87066660.907        1081.024          39.000  
G11  19902057.025   104586017.972       -1802.970          44.000    19902056.748    81495723.930       -1404.891          37.000  
G06  20140179.064   105837356.324       -2939.999          42.000    20140182.312    82470875.955       -2291.053          36.000  
G17  20686746.281   108709601.114       -3101.978          40.000    20686752.253    84708800.605       -2416.676          32.000  
G14  22320789.435   117296530.116       -5432.737          34.000    22320794.621    91399919.214       -4233.367          36.000  
G12  20673584.042   108640419.134         215.030          38.000    20673587.037    84654758.519         167.583          38.000  
G19  18872132.959    99173728.073       -2154.889          43.000                                                                  
G22  20732596.863   108950515.237       -4788.227          42.000                                                                  
> 2025 04 04 08 14 46.9940000  0 10                     
G09  21626838.532   113649796.516       -1878.953          34.000    21626849.700    88558339.681       -1464.533          33.000  
G20  18772239.900    98648792.349        -721.229          44.000                                                                  
G05  21262296.522   111734130.009        1385.778          43.000    21262301.895    87065580.507        1079.723          39.000  
G11  19902400.210   104587821.552       -1804.200          44.000    19902399.999    81497129.331       -1406.032          37.000  
G06  20140738.633   105840296.705       -2941.001          42.000    20140741.773    82473167.143       -2291.951          35.000  
G17  20687336.633   108712703.823       -3103.205          40.000    20687342.555    84711218.276       -2417.810          33.000  
G14  22321823.473   117301963.204       -5433.707          33.000    22321828.440    91404152.791       -4234.313          36.000  
G12  20673543.173   108640204.849         213.319          38.000    20673546.204    84654591.549         166.077          38.000  
G19  18872543.250    99175883.627       -2156.338          43.000                                                                  
G22  20733508.115   108955304.074       -4789.556          43.000                                                                  
> 2025 04 04 08 14 47.9940000  0 10                     
G09  21627196.251   113651676.990       -1881.357          33.000    21627207.472    88559805.032       -1466.315          33.000  
G20  18772377.362    98649514.356        -722.873          44.000                                                                  
G05  21262032.941   111732744.814        1384.662          43.000    21262038.334    87064501.136        1078.858          39.000  
G11  19902743.591   104589626.263       -1805.063          44.000    19902743.479    81498535.606       -1406.941          37.000  
G06  20141298.344   105843238.099       -2941.843          42.000    20141301.463    82475459.151       -2292.366          36.000  
G17  20687927.227   108715807.876       -3104.531          40.000    20687933.122    84713637.045       -2419.169          33.000  
G14  22322857.576   117307397.277       -5434.880          33.000    22322862.554    91408387.108       -4234.687          36.000  
G12  20673502.703   108639992.142         211.925          38.000    20673505.694    84654425.802         164.996          38.000  
G19  18872953.748    99178040.602       -2157.680          43.000                                                                  
G22  20734419.631   108960094.164       -4790.750          43.000                                                                  
> 2025 04 04 08 14 48.9940000  0 10                     
G09  21627554.305   113653558.962       -1882.853          33.000    21627565.620    88561271.461       -1467.062          33.000  
G20  18772514.959    98650237.825        -724.135          44.000                                                                  
G05  21261769.567   111731360.883        1383.142          43.000    21261775.062    87063422.766        1077.980          39.000  
G11  19903087.275   104591432.043       -1806.449          44.000    19903087.092    81499942.686       -1407.607          37.000  
G06  20141858.413   105846180.459       -2942.812          42.000    20141861.370    82477751.894       -2293.588          35.000  
G17  20688518.132   108718913.223       -3105.934          41.000    20688524.039    84716056.743       -2419.427          32.000  
G14  22323891.966   117312832.321       -5435.578          33.000    22323896.788    91412622.192       -4235.208          36.000  
G12  20673462.452   108639780.934         210.430          38.000    20673465.503    84654261.222         163.865          38.000  
G19  18873364.511    99180198.918       -2159.055          43.000                                                                  
G22  20735331.379   108964885.449       -4791.906          43.000                                                                  
> 2025 04 04 08 14 49.9940000  0 10                     
G09  21627912.718   113655442.318       -1883.843          34.000    21627924.073    88562739.064       -1468.466          33.000  
G20  18772653.010    98650962.759        -725.760          44.000                                                                  
G05  21261506.442   111729978.209        1382.127          43.000    21261512.040    87062345.363        1076.762          39.000  
G11  19903431.098   104593238.856       -1807.417          44.000    19903430.957    81501350.577       -1408.158          37.000  
G06  20142418.565   105849123.733       -2943.694          42.000    20142421.447    82480045.339       -2293.840          35.000  
G17  20689109.310   108722019.830       -3107.304          41.000    20689115.249    84718477.523       -2421.402          32.000  
G14  22324926.546   117318268.275       -5436.920          32.000    22324931.172    91416858.028       -4236.544          36.000  
G12  20673422.507   108639571.237         208.519          37.000    20673425.606    84654097.811         162.869          38.000  
G19  18873775.417    99182358.578       -2160.533          43.000                                                                  
G22  20736243.366   108969677.901       -4793.024          43.000                                                                  
> 2025 04 04 08 14 50.9940000  0 10                     
G09  21628271.229   113657327.180       -1885.147          33.000    21628282.721    88564207.758       -1468.684          33.000  
G20  18772791.315    98651689.176        -727.225          44.000                                                                  
G05  21261243.704   111728596.799        1380.826          43.000    21261249.149    87061268.925        1076.074          39.000  
G11  19903775.259   104595046.723       -1808.309          44.000    19903775.003    81502759.326       -1409.281          37.000  
G06  20142978.870   105852067.983       -2944.559          42.000    20142981.699    82482339.555       -2294.552          35.000  
G17  20689700.680   108725127.709       -3108.321          41.000    20689706.453    84720899.224       -2422.018          32.000  
G14  22325961.208   117323705.129       -5437.380          31.000    22325965.676    91421094.551       -4236.674          36.000  
G12  20673382.859   108639363.005         207.744          38.000    20673385.992    84653935.563         161.833          38.000  
G19  18874186.663    99184519.574       -2161.752          43.000                                                                  
G22  20737155.545   108974471.561       -4794.260          43.000                                                                  
> 2025 04 04 08 14 51.9940000  0 10                     
G09  21628630.148   113659212.926       -1886.307          34.000    21628641.563    88565677.164       -1469.933          33.000  
G20  18772929.817    98652416.468        -727.732          44.000                                                                  
G05  21260980.943   111727216.039        1380.352          43.000    21260986.466    87060193.028        1075.260          39.000  
G11  19904119.384   104596855.069       -1808.438          44.000    19904119.175    81504168.409       -1409.033          36.000  
G06  20143539.198   105855012.573       -2944.528          42.000    20143541.976    82484634.041       -2294.989          35.000  
G17  20690292.271   108728236.301       -3108.898          41.000    20690298.016    84723321.464       -2422.319          32.000  
G14  22326995.998   117329142.405       -5437.674          31.000    22327000.363    91425331.344       -4237.037          36.000  
G12  20673343.438   108639155.788         206.580          38.000    20673346.640    84653774.045         161.442          38.000  
G19  18874598.013    99186681.326       -2161.951          44.000                                                                  
G22  20738067.838   108979265.802       -4794.316          43.000                                                                  
> 2025 04 04 08 14 52.9940000  0 10                     
G09  21628988.912   113661098.835       -1885.661          34.000    21629000.576    88567146.679       -1469.137          33.000  
G20  18773068.400    98653143.947        -727.435          44.000                                                                  
G05  21260718.185   111725835.210        1381.270          43.000    21260723.639    87059117.069        1076.064          38.000  
G11  19904463.450   104598663.166       -1807.882          44.000    19904463.244    81505577.319       -1408.758          37.000  
G06  20144099.506   105857956.807       -2943.702          42.000    20144102.100    82486928.262       -2293.665          35.000  
G17  20690883.752   108731344.851       -3108.417          41.000    20690889.543    84725743.698       -2421.729          31.000  
G14  22328030.601   117334579.253       -5436.394          31.000    22328034.993    91429567.867       -4236.062          37.000  
G12  20673304.070   108638948.657         206.913          38.000    20673307.192    84653612.683         161.214          38.000  
G19  18875009.522    99188843.122       -2161.528          44.000                                                                  
G22  20738980.108   108984059.934       -4793.773          43.000                                                                  
> 2025 04 04 08 14 53.9940000  0 10                     
G09  21629347.698   113662984.454       -1885.221          34.000    21629359.533    88568615.990       -1468.921          34.000  
G20  18773206.830    98653871.140        -726.892          44.000                                                                  
G05  21260455.346   111724453.929        1381.722          43.000    21260460.842    87058040.738        1076.113          39.000  
G11  19904807.391   104600470.565       -1806.959          44.000    19904807.246    81506985.670       -1407.470          37.000  
G06  20144659.759   105860900.249       -2942.816          42.000    20144662.221    82489221.827       -2292.548          35.000  
G17  20691475.166   108734452.963       -3107.900          40.000    20691481.051    84728165.633       -2421.776          30.000  
G14  22329064.915   117340015.293       -5435.142          30.000    22329069.455    91433803.794       -4235.453          37.000  
G12  20673264.667   108638741.262         207.730          38.000    20673267.720    84653451.076         161.998          38.000  
G19  18875420.890    99191004.522       -2160.905          43.000                                                                  
G22  20739892.280   108988853.536       -4793.056          43.000                                                                  
> 2025 04 04 08 14 54.9940000  0 10                     
G09  21629706.296   113664869.717       -1884.571          33.000    21629718.412    88570085.011       -1469.415          33.000  
G20  18773345.049    98654597.893        -726.625          44.000                                                                  
G05  21260192.340   111723071.970        1382.231          43.000    21260197.860    87056963.863        1076.909          39.000  
G11  19905151.170   104602277.099       -1805.992          44.000    19905151.064    81508393.387       -1407.412          38.000  
G06  20145219.718   105863842.772       -2942.063          42.000    20145222.065    82491514.675       -2292.160          35.000  
G17  20692066.545   108737560.520       -3107.223          40.000    20692072.355    84730587.135       -2421.602          30.000  
G14  22330098.962   117345450.503       -5434.730          28.000    22330103.813    91438038.930       -4234.870          37.000  
G12  20673225.012   108638533.485         207.875          39.000    20673228.127    84653289.134         162.180          38.000  
G19  18875832.253    99193165.410       -2160.547          44.000                                                                  
G22  20740804.327   108993646.410       -4792.382          42.000                                                                  
> 2025 04 04 08 14 55.9940000  0 10                     
G09  21630064.950   113666754.791       -1885.412          33.000    21630077.317    88571553.827       -1469.073          34.000  
G20  18773483.341    98655324.597        -727.121          45.000                                                                  
G05  21259929.311   111721689.733        1382.135          44.000    21259934.876    87055886.809        1076.868          37.000  
G11  19905494.926   104604083.165       -1806.268          44.000    19905494.712    81509800.703       -1407.044          38.000  
G06  20145779.518   105866784.659       -2941.804          40.000    20145781.819    82493807.077       -2292.425          38.000  
G17  20692657.881   108740667.729       -3107.406          40.000    20692663.467    84733008.312       -2421.903          32.000  
G14  22331132.965                       -5440.111          25.000    22331138.108    91442273.559       -4234.708          38.000  
G12  20673185.427   108638325.664         207.488          39.000    20673188.603    84653127.267         161.177          38.000  
G19  18876243.511    99195326.053       -2160.828          44.000                                                                  
G22  20741716.257   108998438.938       -4792.578          42.000                                                                  
> 2025 04 04 08 14 56.9940000  0 10                     
G09  21630423.593   113668640.157       -1885.981          35.000    21630436.308    88573022.948       -1469.180          34.000  
G20  18773621.688    98656051.585        -727.169          45.000                                                                  
G05  21259666.271   111720307.582        1382.216          44.000    21259671.939    87054809.845        1076.984          37.000  
G11  19905838.656   104605889.109       -1805.894          44.000    19905838.439    81511207.950       -1407.412          38.000  
G06  20146339.337   105869726.326       -2941.328          41.000    20146341.467    82496099.264       -2291.967          37.000  
G17  20693249.235   108743775.062       -3107.679          40.000    20693254.697    84735429.575       -2421.181          33.000  
G14  22332167.794                       -5431.595          24.000    22332172.178    91446508.004       -4234.025          37.000  
G12  20673145.952   108638118.190         207.362          40.000    20673149.077    84652965.579         161.433          38.000  
G19  18876654.799    99197486.859       -2160.762          43.000                                                                  
G22  20742628.184   109003231.464       -4792.535          42.000                                                                  
> 2025 04 04 08 14 57.9940000  0 10                     
G09  21630782.472   113670525.483       -1885.670          35.000    21630795.220    88574492.061       -1469.623          35.000  
G20  18773759.853    98656778.514        -726.836          45.000                                                                  
G05  21259403.201   111718925.181        1382.094          43.000    21259408.824    87053732.671        1076.824          37.000  
G11  19906182.199   104607694.596       -1805.540          44.000    19906181.991    81512614.808       -1406.838          35.000  
G06  20146899.112   105872667.426       -2941.096          41.000    20146901.052    82498391.023       -2291.672          36.000  
G17  20693840.536   108746882.118       -3107.324          40.000    20693846.018    84737850.669       -2421.289          35.000  
G14  22333203.468                       -5446.896          23.000    22333206.207    91450742.060       -4234.051          38.000  
G12  20673106.507   108637910.700         207.606          40.000    20673109.621    84652803.919         161.159          38.000  
G19  18877065.932    99199647.492       -2160.693          43.000                                                                  
G22  20743540.051   109008023.675       -4792.271          42.000                                                                  
> 2025 04 04 08 14 58.9940000  0 11                     
G09  21631141.094   113672410.747       -1885.077          35.000    21631154.031    88575961.066       -1468.576          36.000  
G20  18773898.316    98657505.372        -726.720          45.000                                                                  
G05  21259140.033   111717542.451        1382.955          43.000    21259145.789    87052655.242        1077.103          38.000  
G11  19906525.712   104609499.567       -1804.469          43.000    19906525.454    81514021.310       -1406.307          38.000  
G06  20147458.709   105875607.863       -2939.601          41.000    20147460.581    82500682.340       -2291.469          37.000  
G17  20694431.773   108749988.905       -3106.503          39.000    20694437.438    84740271.544       -2420.715          34.000  
G12  20673066.986   108637703.171         207.471          40.000    20673070.169    84652642.179         161.678          39.000  
G13  23792408.467                         546.547          12.000                                                                  
G19  18877477.137    99201807.917       -2160.376          42.000                                                                  
G22  20744451.754   109012815.511       -4791.639          41.000                                                                  
G14                                                                  22334240.121    91454975.600       -4233.684          38.000  
> 2025 04 04 08 14 59.9940000  0 11                     
G09  21631499.709   113674295.994       -1885.688          36.000    21631512.708    88577430.090       -1470.100          37.000  
G20  18774036.708    98658232.382        -727.616          45.000                                                                  
G05  21258876.909   111716159.686        1382.320          43.000    21258882.638    87051577.755        1076.834          38.000  
G11  19906869.136   104611304.294       -1805.255          44.000    19906868.935    81515427.571       -1406.906          37.000  
G06  20148018.154   105878547.973       -2940.539          41.000    20148020.089    82502973.303       -2291.430          36.000  
G17  20695022.923   108753095.665       -3107.067          38.000    20695028.587    84742692.358       -2420.895          34.000  
G12  20673027.542   108637495.843         206.694          41.000    20673030.712    84652480.608         161.280          38.000  
G13  23792304.421                         546.547          13.000                                                                  
G19  18877888.327    99203968.386       -2160.903          43.000                                                                  
G22  20745363.552   109017607.212       -4792.127          41.000                                                                  
G14                                                                  22335273.915    91459208.804       -4232.912          40.000  
> 2025 04 04 08 15 00.9940000  0 11                     
G09  21631858.366   113676181.911       -1886.573          38.000    21631871.425    88578899.629       -1469.813          38.000  
G20  18774175.097    98658959.914        -728.128          45.000                                                                  
G05  21258613.748   111714777.213        1382.132          43.000    21258619.437    87050500.486        1077.640          38.000  
G11  19907212.631   104613109.090       -1805.142          44.000    19907212.457    81516833.926       -1407.235          37.000  
G06  20148577.703   105881488.068       -2940.478          41.000    20148579.565    82505264.265       -2291.080          36.000  
G17  20695614.230   108756202.742       -3107.286          41.000    20695619.938    84745113.414       -2421.611          37.000  
G14  22336339.815                       -5429.350          24.000    22336307.726    91463442.004       -4233.740          40.000  
G12  20672988.183   108637289.016         205.967          40.000    20672991.336    84652319.471         160.549          38.000  
G13  23792198.471                         546.547          11.000                                                                  
G19  18878299.522    99206129.212       -2161.337          43.000                                                                  
G22  20746275.501   109022399.156       -4792.383          41.000                                                                  
> 2025 04 04 08 15 01.9940000  0 11                     
G09  21632217.247   113678067.911       -1885.743          38.000    21632230.288    88580369.221       -1469.609          37.000  
G20  18774313.411    98659687.545        -727.465          45.000                                                                  
G05  21258350.686   111713394.654        1382.521          43.000    21258356.402    87049423.172        1077.423          39.000  
G11  19907555.975   104614913.593       -1804.404          43.000    19907555.900    81518240.009       -1406.077          38.000  
G06  20149137.120   105884427.724       -2939.355          41.000    20149138.912    82507554.909       -2290.366          36.000  
G17  20696205.586   108759309.691       -3106.876          39.000    20696211.208    84747534.479       -2420.842          37.000  
G14  22337355.829                       -5429.350          23.000    22337341.575    91467674.867       -4232.543          40.000  
G12  20672948.886   108637082.318         206.346          40.000    20672951.911    84652158.413         161.149          38.000  
G13  23792096.765                         546.547          12.000                                                                  
G19  18878710.709    99208290.034       -2160.810          43.000                                                                  
G22  20747187.369   109027190.906       -4791.577          40.000                                                                  
> 2025 04 04 08 15 02.9940000  0 11                     
G09  21632576.031   113679954.089       -1886.697          38.000    21632589.209    88581838.974       -1470.459          37.000  
G20  18774451.919    98660415.387        -728.106          45.000                                                                  
G05  21258087.575   111712012.061        1382.150          43.000    21258093.250    87048345.840        1077.019          38.000  
G11  19907899.324   104616717.886       -1804.609          44.000    19907899.159    81519645.903       -1405.695          37.000  
G06  20149696.439   105887367.071       -2939.520          41.000    20149698.251    82509845.326       -2290.582          36.000  
G17  20696796.934   108762416.688       -3107.081          39.000    20696802.517    84749955.517       -2421.658          37.000  
G14  22338378.160                       -5432.617          31.000    22338375.204    91471907.449       -4232.102          37.000  
G12  20672909.610   108636875.864         206.235          41.000    20672912.606    84651997.516         160.799          38.000  
G13  23791994.517                         546.547          13.000                                                                  
G19  18879121.952    99210450.923       -2161.012          43.000                                                                  
G22  20748099.215   109031982.595       -4791.946          42.000                                                                  
> 2025 04 04 08 15 03.9940000  0 11                     
G09  21632934.906   113681841.432       -1888.283          38.000    21632948.270    88583309.600       -1471.269          37.000  
G20  18774590.574    98661144.431        -730.304          45.000                                                                  
G05  21257824.604   111710630.466        1380.679          42.000    21257830.321    87047269.295        1075.710          38.000  
G11  19908242.957   104618522.934       -1805.786          44.000    19908242.731    81521052.470       -1406.843          37.000  
G06  20150255.933   105890307.089       -2940.770          41.000    20150257.683    82512136.241       -2291.379          36.000  
G17  20697388.502   108765524.705       -3109.266          39.000    20697393.984    84752377.330       -2423.004          37.000  
G14  22339408.280   117394382.8593      -5431.343          25.000    22339409.106    91476140.670       -4234.026          37.000  
G12  20672870.596   108636670.651         204.005          40.000    20672873.585    84651837.591         159.590          38.000  
G13  23791888.602                         546.547          12.000                                                                  
G19  18879533.410    99212612.908       -2162.863          43.000                                                                  
G22  20749011.199   109036775.210       -4793.631          41.000                                                                  
> 2025 04 04 08 15 04.9940000  0 10                     
G09  21633294.290   113683730.620       -1890.531          38.000    21633307.680    88584781.707       -1473.444          37.000  
G20  18774729.745    98661875.264        -732.010          45.000                                                                  
G05  21257561.989   111709250.483        1378.514          42.000    21257567.683    87046193.940        1074.626          38.000  
G11  19908586.706   104620329.401       -1807.495          44.000    19908586.435    81522460.107       -1408.399          38.000  
G06  20150815.592   105893248.382       -2942.203          40.000    20150817.315    82514428.150       -2292.260          36.000  
G17  20697980.285   108768634.291       -3110.781          39.000    20697985.814    84754800.390       -2423.896          37.000  
G14  22340446.279   117399816.8912      -5434.941          27.000    22340443.098    91480374.764       -4234.807          38.000  
G12  20672832.004   108636467.244         202.371          40.000    20672834.897    84651679.123         157.463          38.000  
G19  18879945.280    99214776.560       -2164.804          43.000                                                                  
G22  20749923.580   109041569.297       -4795.066          41.000                                                                  
> 2025 04 04 08 15 05.9940000  0 10                     
G09  21633654.115   113685622.368       -1893.464          38.000    21633667.598    88586255.802       -1475.024          37.000  
G20  18774869.248    98662608.737        -734.903          45.000                                                                  
G05  21257299.799   111707872.862        1376.356          42.000    21257305.575    87045120.508        1072.434          38.000  
G11  19908930.922   104622138.046       -1809.867          44.000    19908930.675    81523869.440       -1410.306          37.000  
G06  20151375.745   105896191.774       -2944.462          40.000    20151377.393    82516721.725       -2294.730          36.000  
G17  20698572.552   108771746.326       -3113.512          38.000    20698578.019    84757225.347       -2425.806          37.000  
G14  22341480.907   117405252.7552      -5436.568          31.000    22341477.579    91484610.495       -4236.224          40.000  
G12  20672793.793   108636266.509         199.421          39.000    20672796.660    84651522.715         155.149          38.000  
G19  18880357.457    99216942.704       -2167.682          43.000                                                                  
G22  20750836.322   109046365.744       -4797.694          41.000                                                                  
> 2025 04 04 08 15 06.9940000  0 10                     
G09  21634014.512   113687516.960       -1896.269          38.000    21634028.019    88587732.095       -1477.146          37.000  
G20  18775009.362    98663345.036        -738.136          45.000                                                                  
G05  21257038.036   111706497.886        1373.542          42.000    21257043.885    87044049.097        1070.111          38.000  
G11  19909275.631   104623949.119       -1812.395          44.000    19909275.370    81525280.669       -1412.336          37.000  
G06  20151936.324   105899137.496       -2947.165          40.000    20151937.934    82519017.081       -2296.754          36.000  
G17  20699165.269   108774861.010       -3116.101          39.000    20699170.695    84759652.385       -2428.641          36.000  
G14  22342513.891   117410690.8942      -5439.452          31.000    22342512.465    91488848.040       -4238.611          40.000  
G12  20672756.171   108636068.618         196.410          40.000    20672758.987    84651368.525         152.707          38.000  
G19  18880770.255    99219111.557       -2170.458          43.000                                                                  
G22  20751749.569   109051164.743       -4800.303          41.000                                                                  
> 2025 04 04 08 15 07.9940000  0 10                     
G09  21634375.392   113689414.379       -1898.548          38.000    21634389.040    88589210.603       -1479.223          37.000  
G20  18775150.047    98664084.174        -740.199          45.000                                                                  
G05  21256776.820   111705125.541        1371.307          42.000    21256782.760    87042979.732        1068.453          38.000  
G11  19909620.775   104625762.625       -1814.507          44.000    19909620.496    81526693.782       -1413.819          38.000  
G06  20152497.279   105902085.489       -2948.868          40.000    20152498.776    82521314.222       -2297.966          36.000  
G17  20699758.518   108777978.330       -3118.707          39.000    20699763.870    84762081.449       -2430.233          36.000  
G14  22343548.213   117416131.357       -5440.637          33.000    22343547.778    91493087.370       -4239.947          39.000  
G12  20672719.091   108635873.615         193.811          40.000    20672721.882    84651216.541         151.134          38.000  
G19  18881183.591    99221283.120       -2172.745          43.000                                                                  
G22  20752663.251   109055966.304       -4802.784          41.000                                                                  
> 2025 04 04 08 15 08.9940000  0 10                     
G09  21634736.807   113691314.182       -1900.377          38.000    21634750.580    88590690.992       -1481.457          37.000  
G20  18775291.192    98664825.721        -742.222          45.000                                                                  
G05  21256516.129   111703755.374        1369.195          43.000    21256522.034    87041912.073        1067.173          38.000  
G11  19909966.158   104627578.109       -1816.491          44.000    19909966.106    81528108.448       -1415.401          38.000  
G06  20153058.636   105905035.352       -2950.455          40.000    20153060.152    82523612.799       -2299.301          36.000  
G17  20700352.197   108781097.836       -3120.350          39.000    20700357.507    84764512.246       -2431.208          36.000  
G14  22344582.072   117421573.740       -5443.240          33.000    22344583.455    91497328.149       -4241.547          39.000  
G12  20672682.403   108635681.030         191.762          40.000    20672685.198    84651066.490         149.335          38.000  
G19  18881597.215    99223456.955       -2174.776          43.000                                                                  
G22  20753577.316   109060769.967       -4804.306          41.000                                                                  
> 2025 04 04 08 15 09.9940000  0 10                     
G09  21635098.667   113693215.887       -1902.325          38.000    21635112.421    88592172.818       -1482.161          37.000  
G20  18775432.645    98665569.130        -744.130          45.000                                                                  
G05  21256255.639   111702386.842        1367.825          43.000    21256261.560    87040845.701        1065.725          38.000  
G11  19910311.965   104629395.029       -1817.521          44.000    19910311.879    81529524.263       -1416.450          37.000  
G06  20153620.242   105907986.591       -2951.674          40.000    20153621.690    82525912.482       -2300.746          36.000  
G17  20700946.141   108784219.027       -3121.518          38.000    20700951.392    84766944.355       -2433.098          36.000  
G14  22345618.507   117427017.376       -5444.310          33.000    22345619.370    91501569.944       -4241.892          39.000  
G12  20672646.045   108635490.335         190.019          40.000    20672648.960    84650917.899         147.932          38.000  
G19  18882011.240    99225632.525       -2176.252          43.000                                                                  
G22  20754491.818   109065575.227       -4806.140          41.000                                                                  
> 2025 04 04 08 15 10.9940000  0 10                     
G09  21635460.688   113695119.041       -1903.806          38.000    21635474.655    88593655.808       -1483.745          36.000  
G20  18775574.286    98666314.050        -745.523          45.000                                                                  
G05  21255995.523   111701019.620        1366.770          43.000    21256001.393    87039780.346        1064.708          38.000  
G11  19910657.792   104631213.032       -1818.171          44.000    19910657.819    81530940.872       -1416.583          37.000  
G06  20154182.038   105910938.804       -2952.507          40.000    20154183.474    82528212.875       -2300.835          37.000  
G17  20701540.409   108787341.564       -3122.778          39.000    20701545.556    84769377.456       -2433.003          36.000  
G14  22346654.578   117432461.940       -5444.317          36.000    22346655.444    91505812.481       -4242.776          39.000  
G12  20672610.100   108635301.190         188.806          40.000    20672612.902    84650770.504         147.084          38.000  
G19  18882425.494    99227809.481       -2177.282          43.000                                                                  
G22  20755406.523   109070381.693       -4806.947          41.000                                                                  
> 2025 04 04 08 15 11.9940000  0 10                     
G09  21635823.046   113697023.569       -1905.217          38.000    21635836.922    88595139.863       -1485.147          36.000  
G20  18775716.360    98667060.343        -746.945          45.000                                                                  
G05  21255735.519   111699653.552        1365.429          43.000    21255741.406    87038715.851        1064.433          37.000  
G11  19911003.917   104633032.013       -1819.399          44.000    19911003.830    81532358.243       -1417.329          37.000  
G06  20154743.973   105913891.855       -2953.423          40.000    20154745.385    82530513.960       -2301.563          37.000  
G17  20702134.791   108790465.243       -3124.248          39.000    20702139.988    84771811.516       -2434.461          36.000  
G14  22347690.491   117437907.474       -5445.865          33.000    22347691.734    91510055.750       -4243.772          38.000  
G12  20672574.406   108635113.462         187.297          40.000    20672577.193    84650624.202         146.107          38.000  
G19  18882839.925    99229987.691       -2178.927          43.000                                                                  
G22  20756321.452   109075189.248       -4807.835          41.000                                                                  
> 2025 04 04 08 15 12.9940000  0 10                     
G09  21636185.648   113698929.427       -1906.730          37.000    21636199.605    88596624.940       -1485.771          36.000  
G20  18775858.611    98667807.948        -748.319          45.000                                                                  
G05  21255475.812   111698288.586        1364.178          43.000    21255481.605    87037652.264        1062.750          37.000  
G11  19911350.340   104634851.888       -1820.606          44.000    19911350.245    81533776.332       -1418.588          38.000  
G06  20155306.092   105916845.674       -2954.372          41.000    20155307.617    82532815.657       -2302.569          37.000  
G17  20702729.450   108793590.045       -3125.516          38.000    20702734.593    84774246.422       -2435.231          37.000  
G14  22348726.695   117443353.617       -5446.428          36.000    22348728.156    91514299.516       -4244.438          37.000  
G12  20672538.835   108634927.071         185.687          40.000    20672541.680    84650478.953         144.710          38.000  
G19  18883254.599    99232167.074       -2180.118          43.000                                                                  
G22  20757236.573   109079997.854       -4809.245          42.000                                                                  
> 2025 04 04 08 15 13.9940000  0 10                     
G09  21636548.421   113700836.526       -1907.570          37.000    21636562.398    88598110.995       -1486.427          36.000  
G20  18776001.071    98668556.843        -749.242          45.000                                                                  
G05  21255216.251   111696924.685        1363.576          43.000    21255222.103    87036589.469        1062.448          37.000  
G11  19911696.747   104636672.604       -1821.058          44.000    19911696.717    81535195.076       -1418.891          37.000  
G06  20155868.342   105919800.270       -2954.746          41.000    20155869.799    82535117.918       -2302.429          37.000  
G17  20703324.294   108796715.965       -3126.409          38.000    20703329.399    84776682.184       -2435.908          36.000  
G14  22349762.860   117448800.741       -5447.651          38.000    22349764.655    91518543.934       -4244.760          40.000  
G12  20672503.432   108634741.960         184.526          40.000    20672506.400    84650334.714         143.775          38.000  
G19  18883669.543    99234347.626       -2181.167          43.000                                                                  
G22  20758151.785   109084807.441       -4810.361          41.000                                                                  
> 2025 04 04 08 15 14.9940000  0 10                     
G09  21636911.605   113702744.648       -1908.659          37.000    21636925.434    88599597.812       -1486.953          36.000  
G20  18776143.721    98669306.754        -750.449          45.000                                                                  
G05  21254956.854   111695561.556        1363.048          43.000    21254962.652    87035527.312        1061.853          38.000  
G11  19912043.333   104638493.907       -1821.292          43.000    19912043.459    81536614.285       -1419.140          37.000  
G06  20156430.722   105922755.348       -2955.168          41.000    20156432.174    82537420.546       -2302.477          37.000  
G17  20703919.363   108799842.642       -3126.667          38.000    20703924.406    84779118.610       -2436.774          37.000  
G14  22350799.190   117454248.106       -5447.589          36.000    22350801.164    91522788.672       -4245.054          39.000  
G12  20672468.364   108634557.908         183.587          40.000    20672471.353    84650191.310         142.879          38.000  
G19  18884084.638    99236529.042       -2181.809          43.000                                                                  
G22  20759067.122   109089617.752       -4810.764          41.000                                                                  
> 2025 04 04 08 15 15.9940000  0 10                     
G09  21637274.877   113704653.840       -1910.125          37.000    21637288.720    88601085.508       -1488.149          36.000  
G20  18776286.643    98670057.739        -751.645          45.000                                                                  
G05  21254697.674   111694199.340        1361.714          43.000    21254703.413    87034465.830        1061.156          38.000  
G11  19912390.047   104640315.906       -1822.195          43.000    19912390.153    81538034.013       -1419.980          37.000  
G06  20156993.206   105925710.981       -2956.242          41.000    20156994.653    82539723.656       -2303.074          37.000  
G17  20704514.531   108802970.267       -3128.211          38.000    20704519.688    84781555.705       -2437.528          37.000  
G14  22351835.709   117459696.107       -5448.249          37.000    22351837.878    91527033.860       -4245.448          39.000  
G12  20672433.529   108634374.963         182.257          41.000    20672436.481    84650048.777         141.794          38.000  
G19  18884499.981    99238711.437       -2183.066          43.000                                                                  
G22  20759982.682   109094428.857       -4811.650          41.000                                                                  
> 2025 04 04 08 15 16.9940000  0 10                     
G09  21637638.200   113706564.041       -1910.666          37.000    21637652.218    88602573.989       -1488.580          36.000  
G20  18776429.783    98670809.750        -752.240          45.000                                                                  
G05  21254438.678   111692837.942        1361.263          43.000    21254444.401    87033405.015        1060.780          38.000  
G11  19912736.878   104642138.512       -1822.621          43.000    19912736.885    81539454.217       -1420.027          37.000  
G06  20157555.753   105928667.116       -2956.013          41.000    20157557.197    82542027.133       -2303.447          37.000  
G17  20705109.908   108806098.707       -3128.281          38.000    20705115.019    84783993.442       -2438.157          36.000  
G14  22352872.323   117465144.650       -5449.789          33.000    22352874.787    91531279.476       -4245.935          38.000  
G12  20672398.904   108634193.092         181.447          40.000    20672401.860    84649907.055         141.335          38.000  
G19  18884915.373    99240894.714       -2183.336          43.000                                                                  
G22  20760898.424   109099240.705       -4811.777          41.000                                                                  
> 2025 04 04 08 15 17.9940000  0 10                     
G09  21638001.781   113708474.790       -1910.582          37.000    21638015.825    88604062.909       -1488.927          37.000  
G20  18776572.861    98671562.338        -752.704          45.000                                                                  
G05  21254179.665   111691476.895        1360.916          43.000    21254185.366    87032344.485        1060.245          38.000  
G11  19913083.651   104643961.257       -1822.681          43.000    19913083.712    81540874.550       -1420.388          37.000  
G06  20158118.165   105931623.293       -2956.041          41.000    20158119.723    82544330.631       -2302.942          37.000  
G17  20705705.340   108809227.544       -3128.861          38.000    20705710.399    84786431.475       -2438.336          36.000  
G14  22353908.827   117470593.134       -5448.423          38.000    22353911.580    91535525.045       -4245.690          40.000  
G12  20672364.360   108634011.804         181.204          40.000    20672367.354    84649765.778         141.125          38.000  
G19  18885330.888    99243078.446       -2183.826          43.000                                                                  
G22  20761814.065   109104052.834       -4811.993          41.000                                                                  
> 2025 04 04 08 15 18.9940000  0 10                     
G09  21638365.399   113710385.727       -1910.347          38.000    21638379.400    88605551.935       -1488.632          37.000  
G20  18776716.107    98672315.073        -752.478          45.000                                                                  
G05  21253920.593   111690115.804        1361.407          43.000    21253926.357    87031283.887        1061.099          37.000  
G11  19913430.423   104645783.731       -1821.845          43.000    19913430.453    81542294.644       -1419.409          37.000  
G06  20158680.558   105934579.116       -2955.507          41.000    20158682.246    82546633.881       -2302.860          37.000  
G17  20706300.672   108812356.314       -3128.362          37.000    20706305.786    84788869.490       -2437.972          36.000  
G14  22354945.329   117476041.217       -5447.082          35.000    22354948.287    91539770.340       -4244.941          38.000  
G12  20672329.891   108633830.693         181.300          40.000    20672332.921    84649624.655         141.335          38.000  
G19  18885746.392    99245262.187       -2183.361          43.000                                                                  
G22  20762729.736   109108864.846       -4811.721          40.000                                                                  
> 2025 04 04 08 15 19.9940000  0 10                     
G09  21638728.932   113712296.152       -1910.335          38.000    21638742.907    88607040.559       -1488.039          37.000  
G20  18776859.229    98673067.320        -752.273          45.000                                                                  
G05  21253661.447   111688754.024        1362.083          43.000    21253667.178    87030222.781        1061.251          37.000  
G11  19913777.123   104647605.290       -1821.155          43.000    19913777.074    81543714.038       -1418.697          37.000  
G06  20159242.935   105937533.892       -2954.455          41.000    20159244.434    82548936.290       -2302.274          37.000  
G17  20706895.852   108815484.392       -3127.552          37.000    20706901.012    84791306.956       -2437.546          36.000  
G14  22355981.658   117481488.296       -5446.706          35.000    22355984.764    91544014.808       -4243.849          39.000  
G12  20672295.305   108633649.148         181.482          40.000    20672298.319    84649483.152         141.754          38.000  
G19  18886161.739    99247445.335       -2183.226          43.000                                                                  
G22  20763645.345   109113676.083       -4811.005          40.000                                                                  
> 2025 04 04 08 15 20.9940000  0 10                     
G09  21639092.622   113714206.434       -1910.271          38.000    21639106.454    88608529.106       -1488.384          37.000  
G20  18777002.319    98673819.436        -752.148          45.000                                                                  
G05  21253402.123   111687391.906        1362.180          42.000    21253407.942    87029161.393        1061.217          37.000  
G11  19914123.564   104649426.319       -1820.880          43.000    19914123.655    81545133.015       -1418.482          37.000  
G06  20159805.128   105940488.008       -2953.801          41.000    20159806.578    82551238.209       -2301.407          37.000  
G17  20707491.033   108818612.176       -3127.685          38.000    20707496.238    84793744.173       -2437.281          37.000  
G14  22357017.988   117486934.762       -5446.121          36.000    22357021.209    91548258.777       -4243.696          39.000  
G12  20672260.823   108633467.478         181.395          40.000    20672263.791    84649341.590         141.822          38.000  
G19  18886577.190    99249628.209       -2182.730          43.000                                                                  
G22  20764560.785   109118486.871       -4810.544          40.000                                                                  
> 2025 04 04 08 15 21.9940000  0 10                     
G09  21639456.359   113716117.067       -1910.696          38.000    21639469.921    88610017.926       -1489.222          36.000  
G20  18777145.590    98674571.914        -752.845          45.000                                                                  
G05  21253142.933   111686029.921        1361.608          43.000    21253148.830    87028100.109        1061.089          38.000  
G11  19914469.975   104651247.303       -1821.335          43.000    19914470.179    81546551.995       -1419.410          37.000  
G06  20160367.295   105943441.992       -2954.344          41.000    20160368.804    82553540.014       -2302.402          37.000  
G17  20708086.228   108821740.092       -3128.234          38.000    20708091.400    84796181.525       -2437.755          37.000  
G14  22358054.060   117492381.013       -5446.496          36.000    22358057.617    91552502.591       -4243.943          40.000  
G12  20672226.378   108633286.198         180.774          40.000    20672229.334    84649200.359         140.771          38.000  
G19  18886992.530    99251811.322       -2183.523          44.000                                                                  
G22  20765476.200   109123297.762       -4811.142          40.000                                                                  
> 2025 04 04 08 15 22.9940000  0 10                     
G09  21639820.100   113718028.635       -1912.279          38.000    21639833.624    88611507.446       -1490.066          37.000  
G20  18777288.934    98675325.351        -754.214          45.000                                                                  
G05  21252883.819   111684668.688        1360.727          42.000    21252889.778    87027039.412        1060.375          38.000  
G11  19914816.426   104653068.799       -1822.170          43.000    19914816.860    81547971.338       -1420.118          37.000  
G06  20160929.557   105946396.367       -2954.779          41.000    20160931.021    82555842.106       -2302.560          37.000  
G17  20708681.477   108824868.805       -3129.320          38.000    20708686.803    84798619.434       -2438.075          37.000  
G14  22359090.330   117497827.615       -5447.375          37.000    22359094.075    91556746.736       -4244.588          39.000  
G12  20672192.014   108633105.902         179.597          40.000    20672194.974    84649059.859         140.028          38.000  
G19  18887408.203    99253995.272       -2184.583          43.000                                                                  
G22  20766391.761   109128109.297       -4811.949          40.000                                                                  
> 2025 04 04 08 15 23.9940000  0 10                     
G09  21640184.230   113719941.760       -1914.212          38.000    21640197.701    88612998.189       -1491.916          36.000  
G20  18777432.523    98676080.318        -755.670          45.000                                                                  
G05  21252624.911   111683308.769        1359.239          42.000    21252630.955    87025979.721        1059.393          38.000  
G11  19915163.118   104654891.407       -1823.310          43.000    19915163.792    81549391.560       -1420.811          37.000  
G06  20161492.019   105949351.771       -2956.121          41.000    20161493.507    82558145.041       -2303.513          37.000  
G17  20709276.982   108827998.825       -3130.890          38.000    20709282.435    84801058.446       -2439.486          37.000  
G14  22360126.704   117503275.293       -5448.636          38.000    22360130.770    91560991.623       -4245.252          38.000  
G12  20672158.017   108632927.177         177.819          40.000    20672161.096    84648920.585         138.415          39.000  
G19  18887823.871    99256180.618       -2186.200          44.000                                                                  
G22  20767307.638   109132922.128       -4813.701          40.000                                                                  
> 2025 04 04 08 15 24.9940000  0 10                     
G09  21640548.696   113721856.807       -1915.912          38.000    21640562.090    88614490.447       -1493.272          36.000  
G20  18777576.632    98676837.257        -758.041          44.000                                                                  
G05  21252366.353   111681950.594        1357.251          42.000    21252372.549    87024921.412        1057.991          37.000  
G11  19915510.327   104656715.575       -1825.231          44.000    19915510.852    81550812.976       -1422.146          37.000  
G06  20162054.765   105952308.603       -2957.653          41.000    20162056.217    82560449.040       -2304.301          37.000  
G17  20709872.980   108831130.663       -3132.983          38.000    20709878.344    84803498.832       -2441.379          37.000  
G14  22361163.472   117508724.397       -5450.405          38.000    22361167.776    91565237.699       -4246.759          39.000  
G12  20672124.408   108632750.466         175.492          41.000    20672127.447    84648782.900         136.630          39.000  
G19  18888240.126    99258367.805       -2188.385          44.000                                                                  
G22  20768223.736   109137736.609       -4815.521          40.000                                                                  
> 2025 04 04 08 15 25.9940000  0 10                     
G09  21640913.605   113723774.021       -1918.171          38.000    21640926.879    88615984.366       -1494.569          36.000  
G20  18777721.003    98677596.363        -760.163          45.000                                                                  
G05  21252108.220   111680594.382        1355.323          42.000    21252114.412    87023864.664        1055.645          38.000  
G11  19915857.802   104658541.505       -1826.974          43.000    19915858.320    81552235.772       -1423.547          37.000  
G06  20162617.747   105955267.090       -2959.421          41.000    20162619.293    82562754.380       -2306.139          37.000  
G17  20710469.190   108834264.452       -3134.475          38.000    20710474.648    84805940.729       -2443.018          37.000  
G14  22362200.568   117514175.068       -5451.419          38.000    22362204.984    91569484.994       -4247.987          40.000  
G12  20672091.204   108632575.899         173.503          40.000    20672094.275    84648646.888         135.038          38.000  
G19  18888656.702    99260557.054       -2190.356          43.000                                                                  
G22  20769140.274   109142552.968       -4817.097          40.000                                                                  
> 2025 04 04 08 15 26.9940000  0 10                     
G09  21641278.960   113725693.487       -1920.128          38.000    21641292.154    88617480.055       -1496.566          36.000  
G20  18777865.841    98678357.710        -762.141          45.000                                                                  
G05  21251850.531   111679240.200        1353.312          42.000    21251856.687    87022809.440        1054.661          38.000  
G11  19916205.651   104660369.243       -1828.436          43.000    19916206.164    81553659.986       -1424.748          37.000  
G06  20163181.064   105958227.286       -2961.067          41.000    20163182.691    82565061.017       -2307.042          37.000  
G17  20711065.907   108837400.294       -3136.787          38.000    20711071.454    84808384.253       -2444.389          36.000  
G14  22363238.031   117519627.494       -5453.018          38.000    22363242.562    91573733.624       -4249.063          39.000  
G12  20672058.490   108632403.646         171.656          40.000    20672061.472    84648512.656         133.455          38.000  
G19  18889073.718    99262748.408       -2192.352          43.000                                                                  
G22  20770057.291   109147371.307       -4819.542          40.000                                                                  
> 2025 04 04 08 15 27.9940000  0 10                     
G09  21641644.537   113727614.958       -1922.292          38.000    21641657.736    88618977.320       -1498.049          36.000  
G20  18778011.134    98679121.103        -764.394          45.000                                                                  
G05  21251593.287   111677887.853        1351.480          42.000    21251599.309    87021755.664        1053.127          38.000  
G11  19916553.817   104662198.606       -1830.083          43.000    19916554.264    81555085.495       -1426.453          37.000  
G06  20163744.692   105961188.998       -2962.626          41.000    20163746.247    82567368.815       -2307.787          37.000  
G17  20711662.953   108840537.979       -3138.323          38.000    20711668.512    84810829.183       -2445.401          36.000  
G14  22364275.795   117525081.419       -5454.618          38.000    22364280.470    91577983.408       -4250.345          39.000  
G12  20672026.106   108632233.477         168.996          41.000    20672029.095    84648380.043         131.765          39.000  
G19  18889490.999    99264941.680       -2194.397          43.000                                                                  
G22  20770974.495   109152191.383       -4820.835          40.000                                                                  
> 2025 04 04 08 15 28.9940000  0 10                     
G09  21642010.495   113729538.376       -1923.981          38.000    21642023.705    88620476.122       -1499.641          36.000  
G20  18778156.682    98679886.428        -766.200          45.000                                                                  
G05  21251336.292   111676537.229        1349.819          43.000    21251342.316    87020703.236        1051.875          38.000  
G11  19916902.253   104664029.489       -1831.656          43.000    19916902.687    81556512.122       -1427.202          37.000  
G06  20164308.563   105964152.105       -2963.678          40.000    20164310.223    82569677.749       -2309.336          37.000  
G17  20712260.428   108843677.413       -3140.417          38.000    20712265.961    84813275.492       -2446.718          36.000  
G14  22365313.844   117530536.690       -5456.016          39.000    22365318.643    91582234.318       -4251.813          39.000  
G12  20671994.127   108632065.259         167.161          40.000    20671997.050    84648248.947         130.451          38.000  
G19  18889908.680    99267136.763       -2196.008          43.000                                                                  
G22  20771892.035   109157013.122       -4822.713          40.000                                                                  
> 2025 04 04 08 15 29.9940000  0 10                     
G09  21642376.748   113731463.026       -1925.210          38.000    21642389.905    88621975.839       -1500.505          36.000  
G20  18778302.534    98680652.973        -767.000          45.000                                                                  
G05  21251079.431   111675187.591        1349.364          42.000    21251085.541    87019651.576        1051.210          37.000  
G11  19917250.778   104665861.164       -1831.832          43.000    19917251.165    81557939.399       -1427.251          36.000  
G06  20164872.493   105967115.927       -2963.804          40.000    20164874.299    82571987.218       -2309.782          38.000  
G17  20712857.975   108846817.871       -3140.854          38.000    20712863.570    84815722.593       -2447.449          36.000  
G14  22366352.019   117535992.698       -5456.315          39.000    22366356.880    91586485.699       -4251.240          39.000  
G12  20671962.370   108631898.279         166.408          40.000    20671965.343    84648118.854         129.381          38.000  
G19  18890326.579    99269332.940       -2196.667          43.000                                                                  
G22  20772809.717   109161835.773       -4822.686          40.000                                                                  
> 2025 04 04 08 15 30.9940000  0 10                     
G09  21642743.127   113733388.378       -1925.068          38.000    21642756.300    88623476.088       -1500.200          36.000  
G20  18778448.474    98681420.240        -767.279          44.000                                                                  
G05  21250822.735   111673838.486        1349.052          43.000    21250828.837    87018600.323        1051.131          37.000  
G11  19917599.434   104667693.165       -1831.785          43.000    19917599.804    81559366.905       -1426.980          36.000  
G06  20165436.635   105970079.936       -2963.798          41.000    20165438.262    82574296.838       -2309.290          37.000  
G17  20713455.713   108849958.852       -3140.965          38.000    20713461.319    84818170.091       -2447.035          36.000  
G14  22367390.217   117541448.875       -5456.201          39.000    22367395.182    91590737.293       -4251.696          39.000  
G12  20671930.740   108631732.046         166.179          40.000    20671933.719    84647989.320         129.409          38.000  
G19  18890744.524    99271529.716       -2196.759          43.000                                                                  
G22  20773727.529   109166658.888       -4822.888          40.000                                                                  
> 2025 04 04 08 15 31.9940000  0 10                     
G09  21643109.526   113735313.994       -1925.820          38.000    21643122.689    88624976.578       -1500.708          36.000  
G20  18778594.542    98682187.782        -767.516          44.000                                                                  
G05  21250566.106   111672489.435        1349.067          42.000    21250572.226    87017549.133        1051.205          38.000  
G11  19917947.952   104669525.004       -1831.777          44.000    19917948.362    81560794.359       -1427.387          36.000  
G06  20166000.735   105973043.707       -2963.806          41.000    20166002.373    82576606.257       -2309.269          37.000  
G17  20714053.404   108853099.901       -3140.613          38.000    20714058.961    84820617.673       -2447.240          37.000  
G14  22368428.232   117546904.775       -5455.898          39.000    22368433.381    91594988.620       -4251.284          39.000  
G12  20671899.161   108631566.127         165.841          40.000    20671902.115    84647860.003         129.628          38.000  
G19  18891162.526    99273726.641       -2196.960          43.000                                                                  
G22  20774645.411   109171481.975       -4823.107          40.000                                                                  
> 2025 04 04 08 15 32.9940000  0 10                     
G09  21643475.953   113737239.888       -1925.538          38.000    21643489.085    88626477.282       -1500.879          37.000  
G20  18778740.791    98682955.628        -767.648          45.000                                                                  
G05  21250309.377   111671140.457        1349.073          43.000    21250315.504    87016497.984        1051.177          37.000  
G11  19918296.493   104671356.720       -1831.715          44.000    19918296.863    81562221.642       -1426.986          36.000  
G06  20166564.713   105976007.228       -2963.280          40.000    20166566.388    82578915.505       -2309.355          38.000  
G17  20714651.163   108856241.052       -3140.855          38.000    20714656.604    84823065.336       -2447.657          37.000  
G14  22369466.503   117552360.406       -5455.601          39.000    22369471.604    91599239.771       -4250.817          39.000  
G12  20671867.685   108631400.520         165.749          40.000    20671870.621    84647730.997         128.850          38.000  
G19  18891580.656    99275923.725       -2197.156          43.000                                                                  
G22  20775563.284   109176305.069       -4822.842          40.000                                                                  
> 2025 04 04 08 15 33.9940000  0 10                     
G09  21643842.552   113739166.360       -1926.930          38.000    21643855.684    88627978.427       -1501.566          37.000  
G20  18778886.994    98683724.045        -768.670          45.000                                                                  
G05  21250052.735   111669791.862        1348.358          42.000    21250058.903    87015447.126        1050.763          37.000  
G11  19918645.137   104673188.585       -1831.966          44.000    19918645.446    81563649.072       -1427.329          36.000  
G06  20167128.574   105978970.802       -2963.840          41.000    20167130.379    82581224.798       -2309.539          37.000  
G17  20715248.998   108859382.655       -3141.864          38.000    20715254.440    84825513.314       -2448.062          36.000  
G14  22370504.722   117557816.093       -5455.879          39.000    22370509.736    91603490.958       -4251.116          39.000  
G12  20671836.317   108631235.553         164.558          40.000    20671839.221    84647602.439         127.842          38.000  
G19  18891998.848    99278121.280       -2197.955          43.000                                                                  
G22  20776481.073   109181128.449       -4823.425          40.000                                                                  
> 2025 04 04 08 15 34.9940000  0 10                     
G09  21644209.269   113741093.968       -1928.280          38.000    21644222.522    88629480.453       -1502.704          36.000  
G20  18779033.489    98684493.593        -769.971          45.000                                                                  
G05  21249796.247   111668444.191        1347.112          42.000    21249802.452    87014396.988        1049.909          37.000  
G11  19918993.804   104675021.167       -1832.799          44.000    19918994.073    81565077.093       -1428.504          36.000  
G06  20167692.693   105981934.977       -2964.781          41.000    20167694.447    82583534.528       -2310.112          37.000  
G17  20715846.955   108862525.117       -3143.057          38.000    20715852.469    84827962.011       -2449.100          37.000  
G14  22371542.943   117563272.367       -5456.321          39.000    22371548.037    91607742.599       -4251.597          39.000  
G12  20671805.132   108631071.711         163.423          40.000    20671808.016    84647474.769         127.348          38.000  
G19  18892417.191    99280319.823       -2198.975          43.000                                                                  
G22  20777399.003   109185952.681       -4824.203          40.000                                                                  
> 2025 04 04 08 15 35.9940000  0 10                     
G09  21644576.289   113743022.770       -1929.432          38.000    21644589.484    88630983.431       -1503.499          37.000  
G20  18779180.201    98685264.384        -771.437          45.000                                                                  
G05  21249539.964   111667097.532        1346.097          42.000    21249546.223    87013347.656        1049.204          37.000  
G11  19919342.617   104676854.588       -1834.010          44.000    19919343.004    81566505.678       -1428.443          36.000  
G06  20168256.917   105984899.841       -2965.165          40.000    20168258.786    82585844.831       -2310.642          38.000  
G17  20716445.031   108865668.656       -3144.346          38.000    20716450.699    84830411.476       -2449.534          36.000  
G14  22372581.365   117568729.348       -5457.404          39.000    22372586.530    91611994.771       -4252.193          39.000  
G12  20671774.149   108630909.157         162.037          41.000    20671777.174    84647348.078         126.519          38.000  
G19  18892835.782    99282519.473       -2200.183          43.000                                                                  
G22  20778317.168   109190777.868       -4825.946          40.000                                                                  
> 2025 04 04 08 15 36.9940000  0 10                     
G09  21644943.602   113744952.689       -1930.848          38.000    21644956.767    88632487.260       -1504.355          37.000  
G20  18779327.115    98686036.258        -772.185          45.000                                                                  
G05  21249283.821   111665751.772        1345.293          42.000    21249290.130    87012299.003        1048.721          37.000  
G11  19919691.464   104678688.672       -1834.643          44.000    19919691.906    81567934.851       -1429.667          36.000  
G06  20168821.205   105987865.334       -2966.130          41.000    20168823.175    82588155.576       -2310.853          38.000  
G17  20717043.334   108868813.095       -3144.970          38.000    20717048.983    84832861.694       -2450.279          37.000  
G14  22373619.809   117574186.866       -5457.644          40.000    22373625.112    91616247.421       -4253.242          39.000  
G12  20671743.454   108630747.724         161.232          41.000    20671746.369    84647222.325         125.091          38.000  
G19  18893254.548    99284720.115       -2201.239          43.000                                                                  
G22  20779235.547   109195603.883       -4826.977          41.000                                                                  
> 2025 04 04 08 15 37.9940000  0 10                     
G09  21645311.194   113746883.837       -1931.972          38.000    21645324.223    88633992.035       -1504.954          37.000  
G20  18779474.212    98686809.392        -773.837          45.000                                                                  
G05  21249027.958   111664407.032        1344.360          42.000    21249034.190    87011251.168        1047.473          37.000  
G11  19920040.675   104680523.560       -1835.321          44.000    19920041.131    81569364.653       -1430.156          37.000  
G06  20169385.628   105990831.490       -2966.368          41.000    20169387.667    82590466.876       -2311.853          38.000  
G17  20717641.919   108871958.570       -3146.211          38.000    20717647.459    84835312.718       -2451.456          37.000  
G14  22374658.390   117579645.088       -5458.333          40.000    22374663.795    91620500.575       -4253.649          39.000  
G12  20671712.977   108630587.602         159.443          41.000    20671715.856    84647097.531         124.119          38.000  
G19  18893673.501    99286921.855       -2202.277          43.000                                                                  
G22  20780154.213   109200430.804       -4827.705          41.000                                                                  
> 2025 04 04 08 15 38.9940000  0 10                     
G09  21645678.880   113748816.309       -1933.298          38.000    21645691.953    88635497.887       -1506.280          38.000  
G20  18779621.567    98687583.870        -775.141          45.000                                                                  
G05  21248772.238   111663063.440        1343.067          42.000    21248778.524    87010204.217        1046.401          37.000  
G11  19920389.962   104682359.415       -1836.677          44.000    19920390.418    81570795.168       -1431.081          37.000  
G06  20169950.231   105993798.470       -2967.230          41.000    20169952.326    82592778.809       -2312.245          38.000  
G17  20718240.653   108875105.215       -3147.540          38.000    20718246.243    84837764.640       -2452.602          37.000  
G14  22375697.045   117585104.149       -5459.645          39.000    22375702.585    91624754.376       -4254.464          39.000  
G12  20671682.783   108630428.824         157.953          41.000    20671685.644    84646973.818         123.207          38.000  
G19  18894092.723    99289124.840       -2203.717          43.000                                                                  
G22  20781072.988   109205258.807       -4828.739          41.000                                                                  
> 2025 04 04 08 15 39.9940000  0 10                     
G09  21646046.947   113750750.499       -1935.225          38.000    21646060.079    88637005.081       -1508.064          37.000  
G20  18779769.313    98688360.083        -777.476          45.000                                                                  
G05  21248516.951   111661721.364        1340.783          42.000    21248523.078    87009158.454        1044.317          37.000  
G11  19920739.491   104684196.556       -1838.190          44.000    19920739.979    81572226.721       -1432.748          37.000  
G06  20170515.018   105996766.689       -2969.423          41.000    20170517.064    82595091.706       -2313.905          38.000  
G17  20718839.720   108878253.404       -3149.442          38.000    20718845.434    84840217.769       -2453.872          37.000  
G14  22376735.953   117590564.406       -5461.617          39.000    22376741.706    91629009.092       -4255.335          39.000  
G12  20671652.918   108630271.825         155.519          41.000    20671655.760    84646851.485         120.989          38.000  
G19  18894512.333    99291329.434       -2205.933          43.000                                                                  
G22  20781992.000   109210088.267       -4830.643          41.000                                                                  
> 2025 04 04 08 15 40.9940000  0 11                     
G09  21646415.376   113752687.186       -1938.251          38.000    21646428.628    88638514.166       -1510.141          36.000  
G20  18779917.493    98689138.758        -780.138          45.000                                                                  
G05  21248262.062   111660381.514        1338.591          42.000    21248268.093    87008114.405        1043.227          37.000  
G11  19921089.474   104686035.749       -1840.351          43.000    19921089.995    81573659.849       -1434.178          36.000  
G06  20171080.191   105999736.801       -2971.332          41.000    20171082.270    82597406.064       -2315.319          38.000  
G17  20719439.274   108881403.850       -3152.033          38.000    20719444.937    84842672.648       -2455.633          37.000  
G14  22377775.410   117596026.541       -5463.411          39.000    22377781.137    91633265.309       -4257.012          38.000  
G12  20671623.576   108630117.300         153.135          41.000    20671626.367    84646731.069         119.240          38.000  
G13  23789408.211   125014183.7273        572.122          26.000                                                                  
G19  18894932.264    99293536.339       -2208.228          43.000                                                                  
G22  20782911.467   109214919.880       -4832.699          40.000                                                                  
> 2025 04 04 08 15 41.9940000  0 11                     
G09  21646784.292   113754626.463       -1940.875          38.000    21646797.622    88640025.284       -1512.426          37.000  
G20  18780066.202    98689920.031        -782.829          45.000                                                                  
G05  21248007.546   111659044.077        1336.052          42.000    21248013.655    87007072.240        1041.500          37.000  
G11  19921439.923   104687877.122       -1842.632          43.000    19921440.320    81575094.666       -1435.390          36.000  
G06  20171645.848   106002709.016       -2973.349          41.000    20171647.907    82599722.093       -2317.211          38.000  
G17  20720039.250   108884556.691       -3154.095          38.000    20720044.883    84845129.423       -2457.367          37.000  
G14  22378815.294   117601490.752       -5465.426          39.000    22378820.954    91637523.132       -4258.674          38.000  
G12  20671594.724   108629965.412         150.459          40.000    20671597.538    84646612.722         117.017          38.000  
G13  23789298.765   125013612.2572        570.825          27.000                                                                  
G19  18895352.795    99295745.730       -2210.779          43.000                                                                  
G22  20783831.348   109219753.834       -4835.511          40.000                                                                  
> 2025 04 04 08 15 42.9940000  0 11                     
G09  21647153.551   113756568.173       -1942.964          38.000    21647167.185    88641538.272       -1513.808          37.000  
G20  18780215.292    98690703.746        -784.988          45.000                                                                  
G05  21247753.441   111657708.894        1334.045          42.000    21247759.609    87006031.882        1039.659          37.000  
G11  19921790.697   104689720.539       -1844.490          44.000    19921791.105    81576531.108       -1436.978          37.000  
G06  20172211.905   106005683.160       -2975.285          41.000    20172213.884    82602039.590       -2318.588          38.000  
G17  20720639.706   108887711.821       -3156.409          38.000    20720645.254    84847587.962       -2459.193          37.000  
G14  22379855.461   117606956.863       -5466.835          40.000    22379861.230    91641782.453       -4260.053          38.000  
G12  20671566.265   108629816.041         147.982          40.000    20671569.076    84646496.292         115.786          38.000  
G13  23789189.333   125013042.3952        569.059          27.000                                                                  
G19  18895773.653    99297957.463       -2213.147          43.000                                                                  
G22  20784751.638   109224589.919       -4836.958          40.000                                                                  
> 2025 04 04 08 15 43.9940000  0 11                     
G09  21647523.529   113758512.063       -1945.040          38.000    21647537.135    88643053.025       -1515.085          37.000  
G20  18780364.906    98691489.675        -787.050          45.000                                                                  
G05  21247499.723   111656375.693        1332.143          42.000    21247505.871    87004993.017        1038.370          37.000  
G11  19922141.833   104691565.728       -1846.122          44.000    19922142.167    81577968.931       -1438.791          37.000  
G06  20172778.257   106008658.960       -2976.801          41.000    20172780.008    82604358.403       -2319.790          38.000  
G17  20721240.618   108890868.984       -3158.193          39.000    20721246.061    84850048.067       -2460.814          36.000  
G14  22380895.911   117612424.662       -5468.453          40.000    22380901.809    91646043.054       -4260.901          38.000  
G12  20671538.225   108629668.874         145.889          41.000    20671541.029    84646381.621         113.937          37.000  
G13  23789081.728   125012473.872         567.946          27.000                                                                  
G19  18896194.962    99300171.275       -2214.917          43.000                                                                  
G22  20785672.183   109229427.950       -4838.969          40.000                                                                  
> 2025 04 04 08 15 44.9940000  0 11                     
G09  21647893.780   113760457.898       -1947.083          38.000    21647907.490    88644569.256       -1517.007          36.000  
G20  18780514.895    98692277.531        -788.580          45.000                                                                  
G05  21247246.288   111655044.218        1330.591          42.000    21247252.420    87003955.522        1036.601          37.000  
G11  19922493.276   104693412.432       -1847.446          43.000    19922493.549    81579407.916       -1439.631          37.000  
G06  20173344.850   106011636.165       -2977.992          41.000    20173346.499    82606678.296       -2320.442          38.000  
G17  20721841.857   108894027.868       -3160.069          39.000    20721847.287    84852509.509       -2461.901          36.000  
G14  22381936.662   117617893.822       -5469.741          40.000    22381942.551    91650304.750       -4262.118          38.000  
G12  20671510.703   108629523.661         144.176          41.000    20671513.343    84646268.494         112.335          37.000  
G13  23788976.667   125011906.386         566.896          27.000                                                                  
G19  18896616.551    99302386.871       -2216.461          43.000                                                                  
G22  20786593.228   109234267.631       -4840.677          40.000                                                                  
> 2025 04 04 08 15 45.9940000  0 11                     
G09  21648264.421   113762405.484       -1948.705          38.000    21648278.167    88646086.864       -1518.293          36.000  
G20  18780665.173    98693067.174        -790.554          45.000                                                                  
G05  21246993.194   111653714.305        1329.089          42.000    21246999.366    87002919.232        1035.190          37.000  
G11  19922845.033   104695260.513       -1848.935          43.000    19922845.235    81580847.977       -1441.184          37.000  
G06  20173911.586   106014614.628       -2978.907          41.000    20173913.389    82608999.164       -2321.334          38.000  
G17  20722443.306   108897188.283       -3161.385          39.000    20722448.747    84854972.202       -2463.441          37.000  
G14  22382977.494   117623364.250       -5471.240          40.000    22382983.480    91654567.435       -4263.614          38.000  
G12  20671483.401   108629380.281         142.241          41.000    20671485.999    84646156.755         111.026          37.000  
G13  23788867.759   125011339.789         565.694          27.000                                                                  
G19  18897038.479    99304604.146       -2218.433          43.000                                                                  
G22  20787514.456   109239108.777       -4841.910          40.000                                                                  
> 2025 04 04 08 15 46.9940000  0 11                     
G09  21648635.199   113764354.447       -1949.232          38.000    21648648.991    88647605.563       -1519.463          36.000  
G20  18780815.834    98693858.186        -791.766          45.000                                                                  
G05  21246740.389   111652385.541        1328.161          42.000    21246746.437    87001883.818        1034.920          37.000  
G11  19923197.009   104697109.529       -1849.602          43.000    19923197.011    81582288.734       -1440.634          37.000  
G06  20174478.521   106017593.952       -2979.941          41.000    20174480.322    82611320.710       -2322.259          38.000  
G17  20723044.974   108900349.911       -3162.038          39.000    20723050.293    84857435.796       -2463.439          37.000  
G14  22384018.688   117628835.495       -5471.835          40.000    22384024.653    91658830.724       -4263.615          38.000  
G12  20671456.344   108629238.277         141.544          41.000    20671458.972    84646046.120         109.902          37.000  
G13  23788759.610   125010773.664         566.256          26.000                                                                  
G19  18897460.513    99306822.639       -2218.890          44.000                                                                  
G22  20788435.907   109243951.012       -4842.525          40.000                                                                  
> 2025 04 04 08 15 47.9940000  0 11                     
G09  21649006.308   113766303.908       -1949.298          38.000    21649019.911    88649124.617       -1518.981          36.000  
G20  18780966.513    98694649.693        -791.517          45.000                                                                  
G05  21246487.504   111651057.080        1328.449          42.000    21246493.597    87000848.657        1035.506          37.000  
G11  19923548.827   104698958.610       -1848.628          44.000    19923548.901    81583729.619       -1441.055          37.000  
G06  20175045.467   106020573.222       -2978.940          41.000    20175047.327    82613642.231       -2321.439          38.000  
G17  20723646.715   108903511.849       -3161.603          40.000    20723651.980    84859899.690       -2464.092          37.000  
G14  22385059.863   117634306.706       -5470.979          40.000    22385065.960    91663094.023       -4263.568          38.000  
G12  20671429.440   108629096.848         141.034          41.000    20671432.105    84645935.875         110.785          37.000  
G13  23788651.870   125010207.208         566.905          26.000                                                                  
G19  18897882.734    99309041.535       -2218.848          44.000                                                                  
G22  20789357.293   109248793.477       -4842.335          40.000                                                                  
> 2025 04 04 08 15 48.9940000  0 11                     
G09  21649377.111   113768253.443       -1949.473          37.000    21649390.947    88650643.737       -1518.945          37.000  
G20  18781117.298    98695441.283        -791.700          45.000                                                                  
G05  21246234.725   111649728.486        1328.519          42.000    21246240.772    86999813.394        1035.161          37.000  
G11  19923900.624   104700807.375       -1848.949          43.000    19923900.698    81585170.211       -1440.431          37.000  
G06  20175612.273   106023552.075       -2979.159          41.000    20175614.245    82615963.385       -2320.871          38.000  
G17  20724248.445   108906673.683       -3161.889          39.000    20724253.657    84862363.437       -2463.865          37.000  
G14  22386100.861   117639777.444       -5470.761          39.000    22386107.060    91667356.905       -4262.727          37.000  
G12  20671402.448   108628955.490         141.118          41.000    20671405.099    84645825.757         109.774          38.000  
G13  23788543.095   125009639.901         566.692          25.000                                                                  
G19  18898304.910    99311260.365       -2218.970          43.000                                                                  
G22  20790278.786   109253635.720       -4842.628          40.000                                                                  
> 2025 04 04 08 15 49.9940000  0 11                     
G09  21649748.111   113770203.125       -1949.016          35.000    21649761.946    88652162.969       -1519.177          37.000  
G20  18781267.969    98696233.015        -791.613          45.000                                                                  
G05  21245981.905   111648399.818        1328.802          42.000    21245987.858    86998778.059        1035.402          37.000  
G11  19924252.454   104702655.861       -1848.162          44.000    19924252.363    81586610.582       -1439.961          37.000  
G06  20176179.129   106026530.519       -2978.183          41.000    20176181.121    82618284.271       -2320.908          38.000  
G17  20724850.053   108909835.431       -3161.379          40.000    20724855.375    84864827.132       -2463.731          37.000  
G14  22387141.780   117645247.771       -5469.829          40.000    22387148.012    91671619.511       -4262.334          37.000  
G12  20671375.677   108628814.325         141.124          41.000    20671378.332    84645715.748         110.084          38.000  
G13  23788436.781   125009071.813         569.063          25.000                                                                  
G19  18898727.143    99313479.228       -2218.762          43.000                                                                  
G22  20791200.309   109258477.804       -4841.857          41.000                                                                  
> 2025 04 04 08 15 50.9940000  0 11                     
G09  21650119.008   113772152.641       -1949.778          35.000    21650132.934    88653682.055       -1519.228          37.000  
G20  18781418.533    98697024.610        -791.688          45.000                                                                  
G05  21245729.018   111647070.796        1329.020          42.000    21245734.965    86997742.459        1035.720          37.000  
G11  19924604.022   104704503.794       -1847.942          44.000    19924604.046    81588050.524       -1440.257          37.000  
G06  20176745.709   106029508.309       -2977.844          41.000    20176747.774    82620604.598       -2320.305          38.000  
G17  20725451.616   108912996.882       -3161.599          40.000    20725457.048    84867290.600       -2463.749          37.000  
G14  22388182.662   117650717.431       -5469.811          40.000    22388188.927    91675881.598       -4262.270          37.000  
G12  20671348.708   108628673.045         141.047          41.000    20671351.397    84645605.639         110.098          38.000  
G13  23788326.451   125008502.767         569.662          24.000                                                                  
G19  18899149.253    99315697.823       -2218.744          44.000                                                                  
G22  20792121.591   109263319.476       -4841.350          40.000                                                                  
> 2025 04 04 08 15 51.9940000  0 11                     
G09  21650489.854   113774102.053       -1949.599          35.000    21650503.990    88655201.090       -1519.172          36.000  
G20  18781569.102    98697816.112        -791.558          45.000                                                                  
G05  21245476.125   111645741.505        1329.141          42.000    21245482.010    86996706.634        1036.366          37.000  
G11  19924955.656   104706351.207       -1847.279          43.000    19924955.542    81589490.042       -1439.393          37.000  
G06  20177312.183   106032485.471       -2977.229          41.000    20177314.348    82622924.452       -2319.739          38.000  
G17  20726053.045   108916158.035       -3161.324          39.000    20726058.543    84869753.831       -2463.167          37.000  
G14  22389223.321   117656186.413       -5468.662          40.000    22389229.597    91680143.171       -4261.920          36.000  
G12  20671321.842   108628531.696         141.271          41.000    20671324.618    84645495.536         109.852          38.000  
G13  23788217.721   125007932.873         569.257          24.000                                                                  
G19  18899571.395    99317916.205       -2218.396          44.000                                                                  
G22  20793042.873   109268160.773       -4841.121          40.000                                                                  
> 2025 04 04 08 15 52.9940000  0 11                     
G09  21650860.965   113776051.776       -1949.553          35.000    21650875.135    88656720.350       -1519.079          36.000  
G20  18781719.760    98698607.941        -791.870          45.000                                                                  
G05  21245223.192   111644412.285        1329.321          42.000    21245229.146    86995670.953        1035.109          36.000  
G11  19925307.123   104708198.525       -1847.443          43.000    19925307.015    81590929.524       -1439.720          36.000  
G06  20177878.584   106035462.437       -2976.894          41.000    20177880.980    82625244.196       -2320.086          38.000  
G17  20726654.550   108919319.330       -3161.633          39.000    20726660.183    84872217.179       -2463.205          37.000  
G14  22390264.170   117661655.264       -5468.813          40.000    22390270.190    91684404.559       -4261.354          35.000  
G12  20671294.977   108628390.730         140.518          41.000    20671297.765    84645385.674         110.056          38.000  
G13  23788109.464   125007362.175         571.249          24.000                                                                  
G19  18899993.535    99320134.792       -2218.848          44.000                                                                  
G22  20793964.052   109273002.106       -4841.284          40.000                                                                  
> 2025 04 04 08 15 53.9940000  0 11                     
G09  21651232.028   113778001.818       -1949.733          35.000    21651246.281    88658239.839       -1519.509          37.000  
G20  18781870.529    98699400.042        -792.269          45.000                                                                  
G05  21244970.284   111643083.175        1328.962          42.000    21244976.117    86994635.244        1035.775          37.000  
G11  19925658.552   104710045.692       -1847.027          43.000    19925658.447    81592368.886       -1439.438          36.000  
G06  20178445.095   106038439.146       -2976.598          41.000    20178447.355    82627563.635       -2318.306          38.000  
G17  20727256.088   108922480.690       -3161.673          39.000    20727261.787    84874680.583       -2463.430          37.000  
G14  22391304.760   117667123.793       -5468.641          40.000    22391310.800    91688665.763       -4261.287          36.000  
G12  20671268.316   108628250.051         140.401          41.000    20671271.019    84645276.057         109.354          38.000  
G13  23788000.616   125006791.051         571.059          24.000                                                                  
G19  18900415.754    99322353.526       -2218.890          43.000                                                                  
G22  20794885.344   109277843.414       -4841.385          40.000                                                                  
> 2025 04 04 08 15 54.9940000  0 11                     
G09  21651603.163   113779951.904       -1949.433          35.000    21651617.275    88659759.450       -1519.536          34.000  
G20  18782021.287    98700192.238        -791.922          46.000                                                                  
G05  21244717.258   111641753.904        1329.688          42.000    21244723.121    86993599.464        1036.106          38.000  
G11  19926010.288   104711892.552       -1846.565          43.000    19926009.862    81593807.991       -1438.497          36.000  
G06  20179011.461   106041415.405       -2975.935          40.000    20179013.785    82629882.850       -2318.969          38.000  
G17  20727857.676   108925641.950       -3160.987          38.000    20727863.423    84877143.921       -2463.397          36.000  
G14  22392345.365   117672591.878       -5467.656          40.000    22392351.342    91692926.541       -4260.211          33.000  
G12  20671241.443   108628109.494         140.990          41.000    20671244.323    84645166.536         109.699          38.000  
G13  23787892.166   125006219.061         572.835          24.000                                                                  
G19  18900837.904    99324572.218       -2218.231          43.000                                                                  
G22  20795806.688   109282684.511       -4840.586          40.000                                                                  
> 2025 04 04 08 15 55.9940000  0 11                     
G09  21651974.106   113781901.660       -1949.524          34.000    21651988.307    88661278.764       -1519.404          35.000  
G20  18782172.006    98700984.100        -791.859          45.000                                                                  
G05  21244464.297   111640424.109        1329.580          42.000    21244470.021    86992563.263        1036.224          37.000  
G11  19926361.582   104713738.663       -1846.043          43.000    19926361.111    81595246.511       -1438.294          36.000  
G06  20179577.525   106044390.828       -2975.263          41.000    20179580.013    82632201.341       -2318.495          38.000  
G17  20728459.200   108928802.716       -3160.611          40.000    20728464.920    84879606.794       -2462.618          35.000  
G14  22393385.675   117678059.086       -5466.940          39.000    22393391.624    91697186.731       -4259.420          35.000  
G12  20671214.702   108627968.661         140.401          41.000    20671217.505    84645056.771         109.924          38.000  
G13  23787784.540   125005645.917         573.448          24.000                                                                  
G19  18901260.128    99326790.477       -2218.304          43.000                                                                  
G22  20796727.890   109287525.010       -4840.579          40.000                                                                  
> 2025 04 04 08 15 56.9940000  0 11                     
G09  21652345.199   113783851.705       -1950.052          33.000    21652359.453    88662798.281       -1519.572          36.000  
G20  18782322.749    98701776.292        -792.642          45.000                                                                  
G05  21244211.144   111639094.402        1329.301          42.000    21244217.034    86991527.138        1035.747          37.000  
G11  19926712.784   104715584.634       -1846.219          43.000    19926712.373    81596684.957       -1438.166          36.000  
G06  20180143.767   106047366.030       -2975.380          41.000    20180146.216    82634519.686       -2318.722          38.000  
G17  20729060.729   108931963.585       -3161.193          40.000    20729066.375    84882069.812       -2463.521          35.000  
G14  22394425.927   117683526.063       -5467.216          38.000    22394432.015    91701446.723       -4260.069          35.000  
G12  20671187.928   108627828.136         140.220          41.000    20671190.769    84644947.297         108.743          38.000  
G13  23787676.894                         573.765          23.000                                                                  
G19  18901682.297    99329008.899       -2218.665          43.000                                                                  
G22  20797649.113   109292365.525       -4840.881          41.000                                                                  
> 2025 04 04 08 15 57.9940000  0 11                     
G09  21652716.452   113785802.763       -1951.713          33.000    21652730.804    88664318.593       -1520.962          35.000  
G20  18782473.719    98702569.453        -793.752          45.000                                                                  
G05  21243958.174   111637765.478        1328.451          42.000    21243964.097    86990491.615        1034.601          38.000  
G11  19927064.176   104717431.183       -1847.145          43.000    19927063.765    81598123.822       -1438.772          36.000  
G06  20180709.990   106050341.680       -2976.125          41.000    20180712.536    82636838.394       -2319.111          38.000  
G17  20729662.452   108935125.246       -3162.523          40.000    20729668.072    84884533.436       -2463.629          35.000  
G14  22395466.418   117688993.503       -5467.870          38.000    22395472.387    91705707.047       -4260.437          35.000  
G12  20671161.410   108627688.661         138.664          42.000    20671164.178    84644838.587         108.328          39.000  
G13  23787566.975                         568.138          22.000                                                                  
G19  18902104.581    99331228.201       -2219.934          43.000                                                                  
G22  20798570.349   109297206.739       -4841.717          41.000                                                                  
> 2025 04 04 08 15 58.9940000  0 11                     
G09  21653088.068   113787755.090       -1952.849          34.000    21653102.429    88665839.889       -1521.859          35.000  
G20  18782624.797    98703363.915        -795.396          46.000                                                                  
G05  21243705.498   111636437.638        1327.078          43.000    21243711.407    86989456.942        1033.770          38.000  
G11  19927415.741   104719278.613       -1847.909          43.000    19927415.297    81599563.396       -1440.256          36.000  
G06  20181276.262   106053318.100       -2976.864          41.000    20181278.922    82639157.670       -2319.666          37.000  
G17  20730264.433   108938288.004       -3163.427          40.000    20730269.926    84886997.931       -2465.217          34.000  
G14  22396506.966   117694461.690       -5469.017          38.000    22396512.957    91709967.998       -4261.882          35.000  
G12  20671135.301   108627550.482         137.218          42.000    20671137.951    84644730.923         106.745          39.000  
G13  23787457.900                         576.730          20.000                                                                  
G19  18902527.182    99333448.654       -2221.075          43.000                                                                  
G22  20799491.799   109302048.950       -4842.748          40.000                                                                  
> 2025 04 04 08 15 59.9940000  0 11                     
G09  21653459.843   113789709.021       -1954.814          34.000    21653474.261    88667362.422       -1522.963          35.000  
G20  18782776.312    98704159.974        -796.730          45.000                                                                  
G05  21243453.058   111635111.195        1325.773          43.000    21243458.997    86988423.347        1033.142          38.000  
G11  19927767.536   104721127.219       -1848.945          43.000    19927767.035    81601003.841       -1440.781          36.000  
G06  20181842.877   106056295.584       -2977.625          41.000    20181845.504    82641477.785       -2320.662          37.000  
G17  20730866.559   108941452.169       -3164.657          40.000    20730871.983    84889463.523       -2466.131          35.000  
G14  22397547.657   117699930.909       -5469.784          38.000    22397553.669    91714229.739       -4262.429          35.000  
G12  20671109.425   108627413.948         135.806          42.000    20671111.891    84644624.528         105.771          39.000  
G13  23787349.465                         573.667          19.000                                                                  
G19  18902949.954    99335670.593       -2222.571          43.000                                                                  
G22  20800413.412   109306892.484       -4844.058          41.000                                                                  
> 2025 04 04 08 16 00.9940000  0 11                     
G09  21653832.143   113791664.443       -1955.895          34.000    21653846.346    88668886.117       -1523.805          35.000  
G20  18782928.108    98704957.537        -798.249          45.000                                                                  
G05  21243200.897   111633786.037        1324.539          43.000    21243206.854    86987390.738        1032.249          38.000  
G11  19928119.434   104722976.929       -1850.289          43.000    19928118.949    81602445.148       -1441.489          36.000  
G06  20182409.612   106059274.082       -2979.021          42.000    20182412.201    82643798.676       -2321.340          37.000  
G17  20731468.946   108944617.661       -3166.194          40.000    20731474.367    84891930.130       -2467.189          34.000  
G14  22398588.544   117705401.097       -5470.457          38.000    22398594.558    91718492.221       -4263.155          34.000  
G12  20671083.765   108627278.959         134.209          42.000    20671086.203    84644519.343         104.632          39.000  
G13  23787242.691                         579.890          17.000                                                                  
G19  18903373.076    99337893.906       -2223.926          43.000                                                                  
G22  20801335.367   109311737.220       -4845.286          40.000                                                                  
> 2025 04 04 08 16 01.9940000  0 10                     
G09  21654204.575   113793621.317       -1957.739          34.000    21654218.760    88670410.967       -1525.351          35.000  
G20  18783080.173    98705756.578        -799.825          45.000                                                                  
G05  21242948.951   111632462.146        1323.240          43.000    21242954.977    86986359.137        1031.148          38.000  
G11  19928471.616   104724827.657       -1851.221          43.000    19928471.116    81603887.300       -1442.385          36.000  
G06  20182976.616   106062253.480       -2979.737          41.000    20182979.232    82646120.283       -2321.445          38.000  
G17  20732071.585   108947784.405       -3167.308          40.000    20732076.923    84894397.743       -2468.586          35.000  
G14  22399629.707   117710872.228       -5471.271          37.000    22399635.605    91722755.417       -4263.754          34.000  
G12  20671058.393   108627145.462         132.625          42.000    20671060.713    84644415.300         103.450          39.000  
G19  18903796.494    99340118.565       -2225.287          43.000                                                                  
G22  20802257.416   109316583.134       -4846.451          40.000                                                                  
> 2025 04 04 08 16 02.9940000  0 10                     
G09  21654577.146   113795579.243       -1958.913          34.000    21654591.415    88671936.599       -1525.645          35.000  
G20  18783232.350    98706556.630        -800.453          45.000                                                                  
G05  21242697.211   111631139.084        1322.612          43.000    21242703.161    86985328.184        1030.817          37.000  
G11  19928823.924   104726679.026       -1851.862          43.000    19928823.412    81605329.915       -1442.774          36.000  
G06  20183543.722   106065233.412       -2980.318          41.000    20183546.421    82648442.310       -2322.481          38.000  
G17  20732674.365   108950952.013       -3168.001          39.000    20732679.661    84896865.964       -2468.290          34.000  
G14  22400670.912   117716343.834       -5471.894          37.000    22400676.825    91727019.035       -4264.289          34.000  
G12  20671033.284   108627013.038         131.800          42.000    20671035.496    84644312.128         102.646          39.000  
G19  18904219.863    99342344.139       -2225.861          43.000                                                                  
G22  20803179.782   109321429.808       -4846.689          40.000                                                                  
> 2025 04 04 08 16 03.9940000  0 10                     
G09  21654950.036   113797538.318       -1959.848          34.000    21654964.319    88673463.184       -1527.053          35.000  
G20  18783384.884    98707357.917        -802.134          45.000                                                                  
G05  21242445.607   111629817.031        1321.485          43.000    21242451.610    86984298.034        1029.397          37.000  
G11  19929176.318   104728531.153       -1852.680          43.000    19929175.730    81606773.128       -1443.537          36.000  
G06  20184111.044   106068214.017       -2981.325          41.000    20184113.667    82650764.848       -2323.114          38.000  
G17  20733277.306   108954120.636       -3169.073          40.000    20733282.691    84899335.019       -2469.661          35.000  
G14  22401712.208   117721816.121       -5472.844          37.000    22401718.039    91731283.139       -4264.710          33.000  
G12  20671008.457   108626881.851         130.349          42.000    20671010.454    84644209.888         101.720          38.000  
G19  18904643.539    99344570.807       -2227.362          44.000                                                                  
G22  20804102.297   109326277.416       -4848.153          40.000                                                                  
> 2025 04 04 08 16 04.9940000  0 10                     
G09  21655323.092   113799499.003       -1961.641          34.000    21655337.467    88674991.026       -1528.810          35.000  
G20  18783537.624    98708160.764        -803.905          45.000                                                                  
G05  21242194.224   111628496.364        1319.357          43.000    21242200.267    86983268.916        1028.476          37.000  
G11  19929529.084   104730384.458       -1854.051          43.000    19929528.366    81608217.258       -1444.652          36.000  
G06  20184678.373   106071195.659       -2982.653          41.000    20184681.082    82653088.216       -2324.095          38.000  
G17  20733880.542   108957290.646       -3171.106          40.000    20733885.965    84901805.115       -2470.162          35.000  
G14  22402753.849   117727289.445       -5474.459          36.000    22402759.491    91735548.014       -4264.816          33.000  
G12  20670983.841   108626752.275         128.285          42.000    20670985.811    84644108.929         100.316          38.000  
G19  18905067.570    99346798.926       -2229.175          44.000                                                                  
G22  20805024.982   109331126.292       -4849.923          40.000                                                                  
> 2025 04 04 08 16 05.9940000  0 10                     
G09  21655696.576   113801461.741       -1963.320          34.000    21655710.997    88676520.426       -1530.690          35.000  
G20  18783690.743    98708965.675        -805.825          45.000                                                                  
G05  21241943.282   111627177.497        1317.946          43.000    21241949.354    86982241.260        1026.751          37.000  
G11  19929881.965   104732239.391       -1855.678          43.000    19929881.430    81609662.674       -1446.310          36.000  
G06  20185246.111   106074178.828       -2984.091          41.000    20185248.760    82655412.750       -2325.020          38.000  
G17  20734484.106   108960462.477       -3172.520          40.000    20734489.613    84904276.706       -2472.120          35.000  
G14  22403795.624   117732764.249       -5475.921          36.000    22403801.256    91739814.116       -4266.520          33.000  
G12  20670959.581   108626624.777         126.414          43.000    20670961.547    84644009.589          98.415          38.000  
G19  18905491.953    99349028.954       -2230.750          44.000                                                                  
G22  20805948.123   109335976.924       -4851.345          40.000                                                                  
> 2025 04 04 08 16 06.9940000  0 11                     
G09  21656070.420   113803426.379       -1965.243          34.000    21656084.962    88678051.307       -1531.902          35.000  
G20  18783844.289    98709772.520        -807.925          45.000                                                                  
G05  21241692.714   111625860.382        1316.220          43.000    21241698.690    86981214.937        1025.339          37.000  
G11  19930235.215   104734095.851       -1857.707          43.000    19930234.675    81611109.258       -1447.211          36.000  
G06  20185814.157   106077163.399       -2985.395          41.000    20185816.773    82657738.399       -2326.146          38.000  
G17  20735088.043   108963636.080       -3174.658          40.000    20735093.538    84906749.688       -2473.967          35.000  
G14  22404837.698   117738240.438       -5477.117          35.000    22404843.216    91744081.284       -4267.756          32.000  
G12  20670935.788   108626499.264         124.376          43.000    20670937.707    84643911.785          96.787          38.000  
G13  23786603.251                         569.490          11.000                                                                  
G19  18905916.698    99351260.803       -2232.739          44.000                                                                  
G22  20806871.434   109340829.214       -4853.167          40.000                                                                  
> 2025 04 04 08 16 07.9940000  0 11                     
G09  21656444.725   113805393.241       -1968.083          34.000    21656459.261    88679583.950       -1534.009          35.000  
G20  18783998.304    98710581.567        -810.178          45.000                                                                  
G05  21241442.467   111624545.262        1314.234          43.000    21241448.479    86980190.178        1023.703          37.000  
G11  19930588.918   104735954.074       -1859.222          43.000    19930588.366    81612557.226       -1448.617          35.000  
G06  20186382.462   106080149.661       -2986.942          40.000    20186384.988    82660065.357       -2327.587          38.000  
G17  20735692.291   108966811.688       -3176.585          41.000    20735697.896    84909224.169       -2475.265          35.000  
G14  22405880.142   117743718.289       -5478.372          36.000    22405885.476    91748349.739       -4268.880          32.000  
G12  20670912.320   108626375.972         122.146          43.000    20670914.217    84643815.715          95.225          38.000  
G13  23786495.571                         554.011          12.000                                                                  
G19  18906341.791    99353494.738       -2234.937          44.000                                                                  
G22  20807795.278   109345683.445       -4855.553          40.000                                                                  
> 2025 04 04 08 16 08.9940000  0 11                     
G09  21656819.504   113807362.371       -1969.970          34.000    21656834.002    88681118.306       -1534.966          35.000  
G20  18784152.752    98711392.917        -812.670          45.000                                                                  
G05  21241192.547   111623232.232        1311.825          43.000    21241198.501    86979167.011        1022.314          37.000  
G11  19930942.841   104737814.185       -1861.329          43.000    19930942.305    81614006.692       -1450.593          35.000  
G06  20186951.123   106083137.712       -2989.432          41.000    20186953.604    82662393.690       -2329.309          38.000  
G17  20736296.994   108969989.395       -3178.861          41.000    20736302.602    84911700.281       -2476.625          35.000  
G14  22406922.908   117749197.926       -5480.706          36.000    22406928.215    91752619.593       -4270.480          32.000  
G12  20670889.375   108626255.019         119.563          43.000    20670891.226    84643721.460          93.209          38.000  
G13  23786387.261                         559.323          15.000                                                                  
G19  18906767.260    99355730.848       -2237.170          44.000                                                                  
G22  20808719.279   109350539.643       -4857.538          40.000                                                                  
> 2025 04 04 08 16 09.9940000  0 11                     
G09  21657194.631   113809333.781       -1972.642          34.000    21657209.181    88682654.476       -1537.080          35.000  
G20  18784307.570    98712206.515        -814.847          45.000                                                                  
G05  21240943.053   111621921.250        1309.800          43.000    21240949.051    86978145.479        1020.844          37.000  
G11  19931297.200   104739676.151       -1863.210          43.000    19931296.654    81615457.537       -1451.552          35.000  
G06  20187520.076   106086127.452       -2990.774          41.000    20187522.558    82664723.359       -2330.478          38.000  
G17  20736902.060   108973169.176       -3180.771          40.000    20736907.781    84914178.081       -2479.368          35.000  
G14  22407965.907   117754679.253       -5482.621          35.000    22407971.118    91756890.778       -4272.203          32.000  
G12  20670866.726   108626136.350         117.325          43.000    20670868.753    84643628.994          91.251          38.000  
G13  23786279.948                         548.278          15.000                                                                  
G19  18907193.304    99357969.092       -2239.465          44.000                                                                  
G22  20809643.681   109355397.813       -4859.465          40.000                                                                  
> 2025 04 04 08 16 10.9940000  0 11                     
G09  21657570.143   113811307.251       -1974.517          34.000    21657584.790    88684192.268       -1538.441          36.000  
G20  18784462.787    98713022.219        -816.647          45.000                                                                  
G05  21240693.986   111620612.153        1307.909          43.000    21240700.009    86977125.398        1019.569          37.000  
G11  19931651.803   104741539.747       -1864.412          43.000    19931651.328    81616909.716       -1452.488          35.000  
G06  20188089.278   106089118.775       -2992.097          40.000    20188091.785    82667054.245       -2331.101          38.000  
G17  20737507.460   108976350.858       -3182.292          40.000    20737513.171    84916657.297       -2480.174          35.000  
G14  22409009.346   117760162.156       -5484.487          35.000    22409014.536    91761163.149       -4273.513          31.000  
G12  20670844.454   108626019.821         115.470          43.000    20670846.562    84643538.197          89.872          38.000  
G13  23786175.226                         548.278          14.000                                                                  
G19  18907619.597    99360209.306       -2241.095          44.000                                                                  
G22  20810568.438   109360257.765       -4860.607          40.000                                                                  
> 2025 04 04 08 16 11.9940000  0 10                     
G09  21657946.030   113813282.420       -1976.241          35.000    21657960.663    88685731.355       -1539.953          36.000  
G20  18784618.406    98713839.604        -818.000          45.000                                                                  
G05  21240445.190   111619304.511        1306.881          43.000    21240451.137    86976106.473        1018.455          37.000  
G11  19932006.771   104743404.637       -1865.421          43.000    19932006.159    81618362.868       -1453.433          35.000  
G06  20188658.724   106092111.248       -2993.126          40.000    20188661.233    82669386.075       -2332.360          38.000  
G17  20738113.296   108979534.054       -3183.989          40.000    20738118.905    84919137.680       -2480.899          35.000  
G14  22410052.962   117765646.143       -5484.960          35.000    22410058.045    91765436.412       -4273.099          30.000  
G12  20670822.660   108625904.992         114.130          43.000    20670824.758    84643448.711          88.819          38.000  
G19  18908046.256    99362451.079       -2242.493          44.000                                                                  
G22  20811493.625   109365119.142       -4861.875          40.000                                                                  
> 2025 04 04 08 16 12.9940000  0 10                     
G09  21658322.227   113815259.342       -1977.971          35.000    21658336.808    88687271.787       -1540.794          36.000  
G20  18784774.247    98714658.737        -820.048          45.000                                                                  
G05  21240196.570   111617998.441        1305.474          43.000    21240202.578    86975088.762        1016.946          37.000  
G11  19932361.853   104745270.836       -1866.599          43.000    19932361.187    81619817.035       -1454.219          35.000  
G06  20189228.328   106095104.932       -2994.173          40.000    20189230.844    82671718.791       -2333.350          38.000  
G17  20738719.402   108982718.756       -3185.334          40.000    20738725.022    84921619.272       -2482.218          35.000  
G14  22411096.741   117771131.356       -5484.930          34.000    22411101.906    91769710.638       -4274.231          31.000  
G12  20670801.178   108625791.952         112.148          43.000    20670803.319    84643360.601          87.490          38.000  
G19  18908473.172    99364694.466       -2244.159          44.000                                                                  
G22  20812419.118   109369981.972       -4863.248          40.000                                                                  
> 2025 04 04 08 16 13.9940000  0 10                     
G09  21658698.643   113817237.639       -1979.152          35.000    21658713.372    88688813.331       -1542.791          36.000  
G20  18784930.303    98715479.247        -821.112          45.000                                                                  
G05  21239948.304   111616693.516        1304.284          43.000    21239954.343    86974071.979        1016.177          37.000  
G11  19932717.160   104747138.020       -1867.602          43.000    19932716.562    81621272.005       -1455.287          35.000  
G06  20189798.259   106098099.513       -2995.315          40.000    20189800.716    82674052.215       -2333.835          38.000  
G17  20739325.746   108985904.705       -3186.893          40.000    20739331.311    84924101.837       -2483.249          35.000  
G14  22412140.662   117776617.440       -5487.507          34.000    22412145.768    91773985.499       -4275.686          31.000  
G12  20670779.926   108625680.329         110.883          43.000    20670782.101    84643273.636          86.657          38.000  
G19  18908900.211    99366939.137       -2245.410          44.000                                                                  
G22  20813344.751   109374845.919       -4864.330          40.000                                                                  
> 2025 04 04 08 16 14.9940000  0 10                     
G09  21659075.437   113819217.463       -1980.336          35.000    21659090.283    88690356.067       -1543.540          36.000  
G20  18785086.716    98716301.335        -822.640          45.000                                                                  
G05  21239700.206   111615389.969        1303.099          43.000    21239706.387    86973056.210        1015.346          37.000  
G11  19933072.637   104749006.338       -1868.890          43.000    19933072.044    81622727.847       -1455.863          35.000  
G06  20190368.263   106101095.089       -2996.151          40.000    20190370.726    82676386.425       -2334.128          38.000  
G17  20739932.256   108989091.993       -3187.720          40.000    20739937.783    84926585.425       -2484.332          35.000  
G14  22413184.783   117782104.551       -5487.816          33.000    22413190.061    91778261.098       -4274.703          31.000  
G12  20670759.069   108625570.291         109.485          43.000    20670761.109    84643187.906          85.115          38.000  
G19  18909327.683    99369185.230       -2246.735          44.000                                                                  
G22  20814270.541   109379711.113       -4865.446          40.000                                                                  
> 2025 04 04 08 16 15.9940000  0 10                     
G09  21659452.298   113821198.518       -1981.537          35.000    21659467.223    88691899.740       -1544.049          35.000  
G20  18785243.349    98717124.661        -824.273          45.000                                                                  
G05  21239452.361   111614087.461        1301.810          43.000    21239458.450    86972041.259        1014.681          37.000  
G11  19933428.285   104750875.480       -1869.684          43.000    19933427.718    81624184.335       -1456.827          36.000  
G06  20190938.326   106104091.382       -2996.796          40.000    20190940.947    82678721.222       -2335.507          38.000  
G17  20740538.923   108992280.336       -3188.828          40.000    20740544.529    84929069.841       -2484.978          35.000  
G14  22414229.111   117787592.349       -5488.877          32.000    22414234.378    91782537.313       -4275.810          31.000  
G12  20670738.481   108625461.550         107.998          43.000    20670740.421    84643103.165          84.147          38.000  
G19  18909755.263    99371432.453       -2247.937          44.000                                                                  
G22  20815196.609   109384577.260       -4866.752          41.000                                                                  
> 2025 04 04 08 16 16.9940000  0 10                     
G09  21659829.473   113823180.742       -1982.656          35.000    21659844.435    88693444.322       -1545.307          35.000  
G20  18785400.219    98717949.129        -825.069          45.000                                                                  
G05  21239204.726   111612785.894        1301.076          43.000    21239210.822    86971027.065        1013.661          36.000  
G11  19933784.171   104752745.328       -1870.087          43.000    19933783.611    81625641.379       -1457.858          35.000  
G06  20191508.543   106107088.289       -2996.935          40.000    20191511.226    82681056.468       -2335.361          38.000  
G17  20741145.848   108995469.655       -3189.994          40.000    20741151.446    84931554.981       -2485.308          35.000  
G14  22415273.643   117793080.676       -5488.027          31.000    22415278.611    91786814.034       -4277.530          31.000  
G12  20670717.999   108625353.981         106.743          43.000    20670719.978    84643019.333          83.612          38.000  
G19  18910183.049    99373680.698       -2248.828          44.000                                                                  
G22  20816122.774   109389444.282       -4867.911          40.000                                                                  
> 2025 04 04 08 16 17.9940000  0 10                     
G09  21660206.893   113825163.929       -1983.513          35.000    21660221.855    88694989.675       -1545.934          35.000  
G20  18785557.222    98718774.593        -825.865          45.000                                                                  
G05  21238957.181   111611485.109        1300.280          43.000    21238963.315    86970013.468        1013.257          36.000  
G11  19934140.165   104754615.794       -1870.926          43.000    19934139.566    81627098.878       -1458.024          36.000  
G06  20192078.944   106110085.692       -2997.582          40.000    20192081.555    82683392.117       -2335.991          38.000  
G17  20741752.797   108998659.768       -3190.633          39.000    20741758.569    84934040.799       -2485.770          35.000  
G14  22416318.148   117798569.601       -5489.203          31.000    22416323.116    91791091.022       -4277.112          31.000  
G12  20670697.632   108625247.434         105.910          43.000    20670699.677    84642936.333          82.506          38.000  
G19  18910611.031    99375929.818       -2249.615          44.000                                                                  
G22  20817049.175   109394311.979       -4868.300          40.000                                                                  
> 2025 04 04 08 16 18.9940000  0 10                     
G09  21660584.522   113827148.053       -1984.733          35.000    21660599.392    88696535.741       -1546.196          35.000  
G20  18785714.434    98719600.953        -826.753          45.000                                                                  
G05  21238709.759   111610185.007        1299.827          43.000    21238715.904    86969000.422        1012.611          36.000  
G11  19934496.188   104756486.701       -1871.022          43.000    19934495.570    81628556.676       -1457.602          35.000  
G06  20192649.235   106113083.438       -2997.677          40.000    20192651.952    82685728.047       -2336.365          38.000  
G17  20742360.005   109001850.570       -3190.949          39.000    20742365.879    84936527.161       -2486.353          35.000  
G14  22417362.564   117804058.730       -5488.988          31.000    22417367.688    91795368.332       -4277.760          31.000  
G12  20670677.516   108625141.833         105.119          43.000    20670679.606    84642854.045          81.641          38.000  
G19  18911039.249    99378179.696       -2250.189          44.000                                                                  
G22  20817975.576   109399180.259       -4868.641          40.000                                                                  
> 2025 04 04 08 16 19.9940000  0 11                     
G09  21660962.222   113829132.948       -1985.532          35.000    21660977.174    88698082.440       -1547.447          35.000  
G20  18785871.834    98720428.118        -827.447          45.000                                                                  
G05  21238462.491   111608885.513        1299.148          43.000    21238468.653    86967987.807        1012.568          36.000  
G11  19934852.243   104758357.998       -1871.409          43.000    19934851.586    81630014.837       -1457.801          35.000  
G06  20193219.700   106116081.472       -2998.026          39.000    20193222.561    82688064.168       -2336.227          38.000  
G17  20742967.315   109005042.006       -3191.860          39.000    20742973.227    84939013.973       -2487.077          35.000  
G14  22418407.074   117809548.251       -5490.257          31.000    22418412.267    91799645.772       -4276.932          31.000  
G12  20670657.622   108625037.073         104.160          42.000    20670659.648    84642772.406          81.024          38.000  
G13  23785183.461                         559.695          20.000                                                                  
G19  18911467.416    99380430.277       -2250.922          44.000                                                                  
G22  20818902.050   109404049.099       -4869.295          41.000                                                                  
> 2025 04 04 08 16 20.9940000  0 11                     
G09  21661340.355   113831118.823       -1986.161          34.000    21661355.082    88699629.860       -1547.792          35.000  
G20  18786029.444    98721256.309        -828.742          45.000                                                                  
G05  21238215.393   111607586.827        1298.115          43.000    21238221.594    86966975.901        1011.008          36.000  
G11  19935208.522   104760229.919       -1872.630          43.000    19935207.731    81631473.437       -1459.338          34.000  
G06  20193790.319   106119079.999       -2998.964          39.000    20193793.156    82690400.653       -2336.639          38.000  
G17  20743574.822   109008234.254       -3192.600          39.000    20743580.787    84941501.456       -2488.059          35.000  
G14  22419451.677   117815038.149       -5490.384          31.000    22419456.892    91803923.643       -4278.184          32.000  
G12  20670637.991   108624933.352         102.737          42.000    20670639.942    84642691.606          80.031          38.000  
G13  23785073.933                         559.695          19.000                                                                  
G19  18911896.001    99382681.732       -2251.959          44.000                                                                  
G22  20819828.685   109408918.650       -4870.325          40.000                                                                  
> 2025 04 04 08 16 21.9940000  0 11                     
G09  21661718.512   113833106.225       -1988.493          37.000    21661733.213    88701178.432       -1549.461          37.000  
G20  18786187.313    98722086.002        -830.488          45.000                                                                  
G05  21237968.425   111606289.415        1296.531          42.000    21237974.672    86965964.917        1010.387          35.000  
G11  19935565.069   104762102.904       -1873.616          43.000    19935564.279    81632932.940       -1460.174          36.000  
G06  20194361.112   106122079.470       -3000.156          39.000    20194363.877    82692737.878       -2337.292          38.000  
G17  20744182.471   109011427.826       -3194.497          39.000    20744188.487    84943989.868       -2488.635          34.000  
G14  22420496.148   117820528.987       -5491.028          30.000    22420501.744    91808202.305       -4278.919          34.000  
G12  20670618.517   108624831.166         101.577          42.000    20670620.530    84642611.939          79.245          38.000  
G13  23784971.229                         559.695          20.000                                                                  
G19  18912324.715    99384934.608       -2253.784          44.000                                                                  
G22  20820755.601   109413789.380       -4871.333          41.000                                                                  
> 2025 04 04 08 16 22.9940000  0 11                     
G09  21662097.130   113835095.504       -1990.238          36.000    21662111.615    88702728.492       -1549.984          35.000  
G20  18786345.594    98722917.566        -832.357          45.000                                                                  
G05  21237721.878   111604993.691        1295.022          42.000    21237728.160    86964955.227        1009.575          36.000  
G11  19935921.721   104763977.317       -1874.828          43.000    19935920.939    81634393.555       -1461.389          36.000  
G06  20194932.038   106125080.359       -3001.933          39.000    20194934.996    82695076.226       -2338.568          38.000  
G17  20744790.507   109014623.046       -3195.337          37.000    20744796.413    84946479.698       -2489.683          37.000  
G14  22421541.249   117826021.271       -5493.426          31.000    22421546.978    91812481.965       -4280.839          35.000  
G12  20670599.452   108624730.898          99.733          42.000    20670601.379    84642533.831          77.553          38.000  
G13  23784862.449                         559.695          19.000                                                                  
G19  18912753.714    99387189.219       -2255.365          44.000                                                                  
G22  20821682.844   109418661.754       -4873.306          41.000                                                                  
> 2025 04 04 08 16 23.9940000  0 11                     
G09  21662475.846   113837085.280       -1989.612          36.000    21662490.187    88704278.992       -1550.212          36.000  
G20  18786503.903    98723749.632        -831.748          45.000                                                                  
G05  21237475.306   111603698.243        1295.828          42.000    21237481.628    86963945.801        1010.044          36.000  
G11  19936278.542   104765851.862       -1874.215          43.000    19936277.694    81635854.235       -1461.083          36.000  
G06  20195502.841   106128081.137       -3000.374          39.000    20195506.085    82697414.580       -2338.318          38.000  
G17  20745398.522   109017818.609       -3195.102          38.000    20745404.520    84948969.755       -2489.941          37.000  
G14  22422586.163   117831513.337       -5491.172          31.000    22422592.074    91816761.518       -4279.072          35.000  
G12  20670580.445   108624631.175          99.821          42.000    20670582.353    84642456.127          77.563          38.000  
G13  23784757.097                         559.695          19.000                                                                  
G19  18913182.806    99389444.208       -2254.779          44.000                                                                  
G22  20822610.109   109423534.304       -4872.681          41.000                                                                  
> 2025 04 04 08 16 24.9940000  0 11                     
G09  21662854.372   113839074.907       -1989.174          36.000    21662868.687    88705829.385       -1550.295          36.000  
G20  18786662.202    98724581.580        -831.817          45.000                                                                  
G05  21237228.717   111602402.475        1295.986          42.000    21237235.021    86962936.116        1009.436          36.000  
G11  19936635.160   104767725.814       -1873.387          43.000    19936634.275    81637314.442       -1459.909          36.000  
G06  20196073.820   106131081.321       -2999.959          38.000    20196076.933    82699752.342       -2337.587          39.000  
G17  20746006.541   109021013.856       -3195.009          38.000    20746012.696    84951459.559       -2489.891          37.000  
G14  22423630.867   117837004.834       -5490.473          29.000    22423637.253    91821040.611       -4279.019          35.000  
G12  20670561.384   108624531.346          99.875          43.000    20670563.344    84642378.323          77.582          38.000  
G13  23784650.947                         559.695          19.000                                                                  
G19  18913611.868    99391698.943       -2254.620          44.000                                                                  
G22  20823537.274   109428406.413       -4871.887          40.000                                                                  
> 2025 04 04 08 16 25.9940000  0 11                     
G09  21663232.911   113841064.232       -1989.722          36.000    21663247.135    88707379.491       -1550.196          36.000  
G20  18786820.358    98725413.218        -832.004          45.000                                                                  
G05  21236982.135   111601106.188        1296.284          42.000    21236988.307    86961926.015        1010.366          36.000  
G11  19936991.556   104769599.075       -1873.383          43.000    19936990.777    81638774.089       -1459.544          36.000  
G06  20196644.613   106134080.618       -2998.957          39.000    20196647.614    82702089.460       -2337.189          38.000  
G17  20746614.396   109024208.598       -3195.157          38.000    20746620.639    84953948.964       -2489.706          37.000  
G14  22424672.565                       -5490.573          27.000    22424682.209    91825319.044       -4277.975          35.000  
G12  20670542.405   108624431.253          99.758          43.000    20670544.464    84642300.307          78.196          38.000  
G13  23784545.824                         559.695          19.000                                                                  
G19  18914040.864    99393953.247       -2254.272          44.000                                                                  
G22  20824464.271   109433277.945       -4871.716          40.000                                                                  
> 2025 04 04 08 16 26.9940000  0 11                     
G09  21663611.586   113843053.920       -1990.046          36.000    21663625.803    88708929.901       -1550.852          36.000  
G20  18786978.670    98726245.172        -832.320          45.000                                                                  
G05  21236735.561   111599810.031        1295.794          42.000    21236741.629    86960916.047        1009.871          35.000  
G11  19937347.946   104771472.221       -1873.318          43.000    19937347.201    81640233.701       -1459.804          36.000  
G06  20197215.245   106137079.767       -2998.968          39.000    20197218.407    82704426.444       -2336.976          38.000  
G17  20747222.402   109027403.483       -3195.088          37.000    20747228.590    84956438.473       -2489.948          38.000  
G14  22425715.723                       -5497.918          26.000    22425726.938    91829597.320       -4278.510          34.000  
G12  20670523.503   108624331.511          99.309          43.000    20670525.469    84642222.616          77.180          38.000  
G13  23784439.209                         559.695          19.000                                                                  
G19  18914469.845    99396207.772       -2254.987          44.000                                                                  
G22  20825391.300   109438149.514       -4871.737          40.000                                                                  
> 2025 04 04 08 16 27.9940000  0 10                     
G09  21663990.023   113845044.137       -1990.560          36.000    21664004.497    88710480.711       -1551.244          36.000  
G20  18787137.011    98727077.742        -832.905          45.000                                                                  
G05  21236488.973   111598514.259        1295.356          42.000    21236494.964    86959906.345        1009.522          36.000  
G11  19937704.388   104773345.534       -1873.403          43.000    19937703.660    81641693.423       -1459.581          36.000  
G06  20197785.896   106140078.991       -2999.521          39.000    20197789.131    82706763.494       -2337.182          38.000  
G17  20747830.484   109030598.748       -3195.459          37.000    20747836.603    84958928.285       -2489.568          38.000  
G14  22426758.532                       -5489.593          25.000    22426771.914    91833875.626       -4278.961          33.000  
G12  20670504.557   108624232.405          98.588          42.000    20670506.610    84642145.367          76.908          38.000  
G19  18914898.922    99398462.763       -2255.450          44.000                                                                  
G22  20826318.393   109443021.399       -4871.910          40.000                                                                  
> 2025 04 04 08 16 28.9940000  0 10                     
G09  21664368.901   113847035.167       -1991.055          36.000    21664383.166    88712032.175       -1552.221          36.000  
G20  18787295.621    98727911.108        -834.079          45.000                                                                  
G05  21236242.528   111597219.087        1294.756          42.000    21236248.525    86958897.149        1008.785          36.000  
G11  19938060.814   104775219.268       -1874.101          43.000    19938060.167    81643153.450       -1460.125          36.000  
G06  20198356.682   106143078.462       -2999.968          39.000    20198359.812    82709100.749       -2337.659          38.000  
G17  20748438.622   109033794.681       -3196.805          37.000    20748444.749    84961418.583       -2490.643          37.000  
G14  22427801.890                       -5491.108          24.000    22427816.788    91838154.111       -4279.242          34.000  
G12  20670485.932   108624134.149          97.277          43.000    20670487.906    84642068.796          75.950          38.000  
G19  18915328.159    99400718.431       -2256.232          44.000                                                                  
G22  20827245.540   109447893.793       -4872.717          40.000                                                                  
> 2025 04 04 08 16 29.9940000  0 10                     
G09  21664748.002   113849027.385       -1992.772          36.000    21664762.234    88713584.545       -1552.950          35.000  
G20  18787454.394    98728745.638        -835.164          45.000                                                                  
G05  21235996.189   111595924.866        1293.775          42.000    21236002.188    86957888.678        1007.600          36.000  
G11  19938417.645   104777093.729       -1875.156          43.000    19938416.884    81644614.054       -1460.860          36.000  
G06  20198927.529   106146078.567       -3000.736          39.000    20198930.759    82711438.487       -2338.157          38.000  
G17  20749046.998   109036991.547       -3197.252          37.000    20749053.107    84963909.645       -2491.445          37.000  
G14  22428843.227                       -5497.123          23.000    22428861.828    91842433.087       -4279.596          34.000  
G12  20670467.461   108624037.077          96.522          43.000    20670469.370    84641993.192          74.538          38.000  
G19  18915757.641    99402975.156       -2257.410          44.000                                                                  
G22  20828172.938   109452767.069       -4873.649          40.000                                                                  
> 2025 04 04 08 16 30.9940000  0 10                     
G09  21665127.397   113851021.079       -1994.927          35.000    21665141.628    88715138.063       -1554.350          36.000  
G20  18787613.494    98729581.657        -836.843          45.000                                                                  
G05  21235750.104   111594631.946        1292.072          42.000    21235756.100    86956881.185        1006.779          36.000  
G11  19938774.407   104778969.228       -1875.885          43.000    19938773.752    81646075.511       -1462.040          36.000  
G06  20199498.567   106149079.642       -3001.907          39.000    20199501.947    82713776.975       -2338.863          38.000  
G17  20749655.585   109040189.721       -3198.997          37.000    20749661.603    84966401.733       -2492.599          37.000  
G14  22429888.912                       -5489.568          21.000    22429906.927    91846712.736       -4279.579          34.000  
G12  20670449.238   108623941.527          94.740          43.000    20670451.155    84641918.713          73.865          38.000  
G19  18916187.344    99405233.224       -2258.948          44.000                                                                  
G22  20829100.463   109457641.540       -4875.097          40.000                                                                  
> 2025 04 04 08 16 31.9940000  0 10                     
G09  21665507.065   113853016.405       -1996.339          36.000    21665521.260    88716692.851       -1555.103          36.000  
G20  18787772.890    98730419.319        -838.087          45.000                                                                  
G05  21235504.358   111593340.461        1290.900          42.000    21235510.320    86955874.854        1005.846          36.000  
G11  19939131.549   104780845.999       -1877.169          43.000    19939130.881    81647537.926       -1462.626          36.000  
G06  20200069.837   106152081.806       -3002.292          39.000    20200073.252    82716116.362       -2339.977          38.000  
G17  20750264.530   109043389.368       -3200.574          37.000    20750270.486    84968894.951       -2493.815          37.000  
G14  22430936.028                       -5493.355          21.000    22430952.329    91850993.385       -4281.048          35.000  
G12  20670431.401   108623847.672          93.233          42.000    20670433.253    84641845.573          72.763          37.000  
G19  18916617.478    99407492.831       -2260.144          44.000                                                                  
G22  20830028.332   109462517.339       -4876.135          40.000                                                                  
> 2025 04 04 08 16 32.9940000  0 10                     
G09  21665886.904   113855012.969       -1997.362          36.000    21665901.085    88718248.616       -1555.825          36.000  
G20  18787932.543    98731258.259        -839.517          45.000                                                                  
G05  21235258.802   111592050.014        1290.023          42.000    21235264.861    86954869.320        1005.425          36.000  
G11  19939488.929   104782723.578       -1877.666          43.000    19939488.205    81649000.990       -1463.280          36.000  
G06  20200641.290   106155084.750       -3003.470          40.000    20200644.615    82718456.289       -2340.381          38.000  
G17  20750873.655   109046590.042       -3201.128          37.000    20750879.482    84971388.987       -2494.375          37.000  
G14  22431983.918                       -5499.836          22.000    22431997.768    91855274.472       -4281.045          35.000  
G12  20670413.802   108623755.118          92.023          43.000    20670415.595    84641773.454          71.606          38.000  
G19  18917047.660    99409753.575       -2261.261          44.000                                                                  
G22  20830956.381   109467394.129       -4876.985          40.000                                                                  
> 2025 04 04 08 16 33.9940000  0 10                     
G09  21666266.975   113857010.718       -1998.140          36.000    21666281.218    88719805.309       -1557.060          36.000  
G20  18788092.379    98732098.377        -840.492          45.000                                                                  
G05  21235013.500   111590760.553        1289.223          42.000    21235019.426    86953864.528        1004.655          36.000  
G11  19939846.522   104784601.928       -1878.539          43.000    19939845.626    81650464.615       -1463.572          36.000  
G06  20201212.927   106158088.323       -3003.619          40.000    20201216.232    82720796.737       -2340.479          38.000  
G17  20751482.852   109049791.710       -3201.521          37.000    20751488.738    84973883.778       -2494.878          37.000  
G14  22433030.824                       -5501.113          21.000    22433043.455    91859556.090       -4281.183          36.000  
G12  20670396.486   108623663.766          91.040          43.000    20670398.203    84641702.282          70.452          37.000  
G19  18917478.078    99412015.376       -2262.140          44.000                                                                  
G22  20831884.418   109472271.805       -4877.728          40.000                                                                  
> 2025 04 04 08 16 34.9940000  0 10                     
G09  21666647.301   113859009.437       -1999.894          36.000    21666661.564    88721362.742       -1557.479          36.000  
G20  18788252.314    98732939.456        -841.597          45.000                                                                  
G05  21234768.252   111589471.838        1288.315          42.000    21234774.126    86952860.319        1004.015          36.000  
G11  19940203.979   104786480.817       -1879.066          44.000    19940203.088    81651928.670       -1463.726          36.000  
G06  20201784.527   106161092.300       -3004.046          40.000    20201787.762    82723137.482       -2340.774          38.000  
G17  20752092.256   109052994.180       -3203.114          37.000    20752098.143    84976379.181       -2495.583          37.000  
G14  22434076.148                       -5496.268          21.000    22434089.183    91863838.053       -4282.043          37.000  
G12  20670379.237   108623573.410          90.085          43.000    20670380.864    84641631.853          70.105          37.000  
G19  18917908.664    99414278.010       -2263.007          44.000                                                                  
G22  20832812.649   109477150.132       -4878.366          39.000                                                                  
> 2025 04 04 08 16 35.9940000  0 10                     
G09  21667027.851   113861009.086       -1999.632          35.000    21667041.989    88722920.987       -1558.941          36.000  
G20  18788412.597    98733781.526        -842.569          45.000                                                                  
G05  21234523.159   111588183.912        1287.493          42.000    21234528.951    86951856.757        1003.233          36.000  
G11  19940561.544   104788360.272       -1879.878          44.000    19940560.630    81653393.192       -1464.638          36.000  
G06  20202356.244   106164096.779       -3004.497          40.000    20202359.504    82725478.618       -2340.860          38.000  
G17  20752701.828   109056197.406       -3203.267          38.000    20752707.769    84978875.261       -2496.151          36.000  
G14  22435121.993                       -5497.611          22.000    22435135.069    91868120.318       -4281.933          37.000  
G12  20670362.325   108623484.086          89.104          43.000    20670363.859    84641562.250          69.599          37.000  
G19  18918339.457    99416541.521       -2263.940          44.000                                                                  
G22  20833741.160   109482029.181       -4879.301          39.000                                                                  
> 2025 04 04 08 16 36.9940000  0 10                     
G09  21667408.449   113863009.380       -2000.202          35.000    21667422.479    88724479.637       -1559.024          36.000  
G20  18788572.949    98734624.153        -842.597          45.000                                                                  
G05  21234278.227   111586896.347        1287.567          42.000    21234283.843    86950853.458        1003.371          36.000  
G11  19940919.218   104790239.865       -1879.492          44.000    19940918.254    81654857.822       -1464.363          36.000  
G06  20202927.966   106167101.295       -3004.413          40.000    20202931.206    82727819.787       -2340.542          38.000  
G17  20753311.507   109059401.049       -3203.511          39.000    20753317.382    84981371.581       -2496.391          37.000  
G14  22436168.370                       -5494.600          24.000    22436180.864    91872402.628       -4281.871          37.000  
G12  20670345.434   108623395.357          88.798          43.000    20670346.902    84641493.120          68.864          37.000  
G19  18918770.332    99418805.461       -2263.904          44.000                                                                  
G22  20834669.621   109486908.480       -4879.165          39.000                                                                  
> 2025 04 04 08 16 37.9940000  0 10                     
G09  21667789.081   113865009.958       -2001.153          35.000    21667803.143    88726038.479       -1558.925          35.000  
G20  18788733.413    98735467.091        -843.049          45.000                                                                  
G05  21234033.178   111585608.867        1287.507          42.000    21234038.890    86949850.240        1003.015          36.000  
G11  19941276.907   104792119.338       -1879.240          44.000    19941275.960    81656322.345       -1464.539          35.000  
G06  20203499.699   106170105.550       -3003.834          40.000    20203502.933    82730160.782       -2340.791          38.000  
G17  20753921.125   109062604.771       -3203.888          38.000    20753927.034    84983867.966       -2496.090          37.000  
G14  22437212.593                       -5495.623          26.000    22437226.705    91876684.729       -4281.772          37.000  
G12  20670328.598   108623306.959          88.496          43.000    20670330.119    84641424.261          68.373          37.000  
G19  18919201.175    99421069.593       -2264.282          44.000                                                                  
G22  20835598.181   109491787.803       -4879.023          40.000                                                                  
> 2025 04 04 08 16 38.9940000  0 10                     
G09  21668169.860   113867010.887       -2001.121          36.000    21668183.848    88727597.670       -1559.345          35.000  
G20  18788893.933    98736310.432        -843.463          45.000                                                                  
G05  21233788.195   111584321.602        1287.283          42.000    21233793.904    86948847.196        1002.875          36.000  
G11  19941634.576   104793998.813       -1879.569          44.000    19941633.615    81657786.868       -1464.874          35.000  
G06  20204071.312   106173109.705       -3004.205          40.000    20204074.637    82732501.677       -2340.864          38.000  
G17  20754530.806   109065808.700       -3204.060          38.000    20754536.764    84986364.554       -2496.546          37.000  
G14  22438258.361   117913843.3283      -5495.835          27.000    22438272.463    91880966.728       -4281.958          37.000  
G12  20670311.869   108623219.015          87.678          43.000    20670313.249    84641355.702          68.543          37.000  
G19  18919632.101    99423333.988       -2264.600          44.000                                                                  
G22  20836526.765   109496667.226       -4879.452          40.000                                                                  
> 2025 04 04 08 16 39.9940000  0 10                     
G09  21668550.640   113869012.310       -2001.033          36.000    21668564.774    88729157.279       -1559.863          36.000  
G20  18789054.610    98737154.302        -844.123          45.000                                                                  
G05  21233543.222   111583034.647        1286.936          42.000    21233548.932    86947844.391        1002.473          36.000  
G11  19941992.291   104795878.357       -1879.616          44.000    19941991.333    81659251.464       -1464.808          36.000  
G06  20204642.866   106176113.852       -3004.113          40.000    20204646.265    82734842.551       -2340.487          38.000  
G17  20755140.680   109069012.968       -3204.393          37.000    20755146.390    84988861.366       -2496.567          37.000  
G14  22439305.542   117919346.5013      -5495.361          28.000    22439318.171    91885248.676       -4282.096          37.000  
G12  20670295.202   108623131.615          87.140          43.000    20670296.563    84641287.581          68.376          37.000  
G19  18920063.151    99425598.784       -2264.984          44.000                                                                  
G22  20837455.211   109501546.902       -4879.990          40.000                                                                  
> 2025 04 04 08 16 40.9940000  0 10                     
G09  21668931.371   113871014.048       -2001.821          36.000    21668945.575    88730717.036       -1559.549          35.000  
G20  18789215.208    98737998.429        -844.220          45.000                                                                  
G05  21233298.309   111581747.749        1286.819          42.000    21233303.964    86946841.600        1002.560          37.000  
G11  19942349.836   104797757.768       -1879.320          44.000    19942348.998    81660715.922       -1464.225          35.000  
G06  20205214.514   106179117.706       -3003.443          40.000    20205217.848    82737183.213       -2340.078          38.000  
G17  20755750.409   109072217.310       -3204.445          37.000    20755756.085    84991358.260       -2496.895          37.000  
G14  22440355.797   117924865.4173      -5495.072          30.000    22440363.795    91889530.447       -4281.733          38.000  
G12  20670278.660   108623044.508          87.052          43.000    20670280.023    84641219.720          67.706          37.000  
G19  18920494.189    99427863.725       -2265.027          44.000                                                                  
G22  20838383.794   109506426.524       -4879.997          40.000                                                                  
> 2025 04 04 08 16 41.9940000  0 10                     
G09  21669312.408   113873016.035       -2002.542          36.000    21669326.492    88732277.024       -1560.033          36.000  
G20  18789375.851    98738842.818        -844.993          45.000                                                                  
G05  21233053.433   111580460.921        1286.455          42.000    21233059.067    86945838.880        1002.520          37.000  
G11  19942707.404   104799637.007       -1879.608          44.000    19942706.687    81662180.256       -1464.462          35.000  
G06  20205786.056   106182121.328       -3003.909          40.000    20205789.419    82739523.692       -2340.094          38.000  
G17  20756360.164   109075421.709       -3204.460          37.000    20756365.764    84993855.243       -2497.877          37.000  
G14  22441405.685   117930382.0382      -5494.942          31.000    22441409.391    91893811.953       -4281.284          38.000  
G12  20670262.116   108622957.691          86.539          43.000    20670263.583    84641152.072          67.264          37.000  
G19  18920925.274    99430128.798       -2265.265          44.000                                                                  
G22  20839312.311   109511306.099       -4879.749          40.000                                                                  
> 2025 04 04 08 16 42.9940000  0 10                     
G09  21669693.410   113875018.675       -2002.819          36.000    21669707.590    88733837.561       -1561.243          36.000  
G20  18789536.702    98739687.886        -845.459          45.000                                                                  
G05  21232808.593   111579174.551        1286.164          42.000    21232814.339    86944836.508        1002.151          36.000  
G11  19943065.094   104801516.506       -1879.767          44.000    19943064.299    81663644.819       -1464.829          35.000  
G06  20206357.674   106185125.084       -3004.082          40.000    20206360.977    82741864.287       -2340.627          38.000  
G17  20756970.017   109078626.620       -3205.456          36.000    20756975.530    84996352.544       -2498.083          37.000  
G14  22442452.548   117935883.8002      -5495.270          31.000    22442455.101    91898093.592       -4281.832          38.000  
G12  20670245.696   108622871.595          85.773          43.000    20670247.250    84641084.996          66.787          37.000  
G19  18921356.413    99432394.433       -2266.077          44.000                                                                  
G22  20840240.884   109516186.058       -4880.224          40.000                                                                  
> 2025 04 04 08 16 43.9940000  0 10                     
G09  21670074.630   113877022.012       -2003.273          36.000    21670088.719    88735398.576       -1560.844          36.000  
G20  18789697.604    98740533.637        -845.561          45.000                                                                  
G05  21232563.919   111577888.659        1286.226          42.000    21232569.628    86943834.530        1002.176          37.000  
G11  19943422.860   104803396.262       -1879.278          44.000    19943421.995    81665109.549       -1464.235          35.000  
G06  20206929.247   106188128.991       -3003.384          40.000    20206932.561    82744204.998       -2340.365          38.000  
G17  20757579.973   109081832.015       -3205.415          36.000    20757585.453    84998850.229       -2497.491          37.000  
G14  22443496.942   117941378.7182      -5495.878          32.000    22443500.783    91902375.336       -4281.665          38.000  
G12  20670229.415   108622786.230          85.553          43.000    20670230.968    84641018.474          66.537          37.000  
G19  18921787.669    99434660.642       -2266.199          44.000                                                                  
G22  20841169.548   109521066.447       -4880.377          40.000                                                                  
> 2025 04 04 08 16 44.9940000  0 10                     
G09  21670455.885   113879025.126       -2002.695          36.000    21670469.845    88736959.451       -1560.856          35.000  
G20  18789858.439    98741379.189        -845.387          45.000                                                                  
G05  21232319.125   111576602.371        1286.589          42.000    21232324.819    86942832.222        1002.864          37.000  
G11  19943780.480   104805275.396       -1878.613          44.000    19943779.545    81666573.815       -1463.909          35.000  
G06  20207500.760   106191132.172       -3002.695          41.000    20207504.086    82746545.122       -2339.790          38.000  
G17  20758189.826   109085037.015       -3204.612          36.000    20758195.200    85001347.605       -2496.672          37.000  
G14  22444543.744   117946872.8042      -5493.417          33.000    22444546.313    91906656.488       -4280.630          38.000  
G12  20670213.273   108622700.694          85.808          43.000    20670214.603    84640951.818          66.756          37.000  
G19  18922218.779    99436926.507       -2265.686          44.000                                                                  
G22  20842098.130   109525946.318       -4879.789          40.000                                                                  
> 2025 04 04 08 16 45.9940000  0 10                     
G09  21670836.907   113881027.734       -2002.625          36.000    21670850.935    88738519.904       -1560.104          35.000  
G20  18790019.169    98742224.219        -845.027          45.000                                                                  
G05  21232074.215   111575315.352        1286.937          42.000    21232079.836    86941829.366        1002.843          36.000  
G11  19944137.924   104807153.587       -1877.919          44.000    19944137.039    81668037.341       -1463.289          35.000  
G06  20208072.032   106194134.315       -3002.261          41.000    20208075.314    82748884.432       -2338.794          38.000  
G17  20758799.580   109088241.286       -3204.054          37.000    20758804.989    85003844.450       -2496.463          37.000  
G14  22445590.063   117952365.8982      -5492.605          34.000    22445591.678    91910936.795       -4280.003          38.000  
G12  20670196.949   108622614.679          86.138          43.000    20670198.300    84640884.779          67.355          37.000  
G19  18922649.791    99439191.739       -2265.088          44.000                                                                  
G22  20843026.583   109530825.390       -4879.464          40.000                                                                  
> 2025 04 04 08 16 46.9940000  0 10                     
G09  21671218.106   113883030.256       -2003.101          36.000    21671231.953    88740080.341       -1560.739          35.000  
G20  18790179.893    98743069.193        -845.093          45.000                                                                  
G05  21231829.293   111574028.056        1287.320          42.000    21231834.845    86940826.284        1002.951          37.000  
G11  19944495.214   104809031.308       -1877.631          44.000    19944494.385    81669500.485       -1462.954          36.000  
G06  20208643.196   106197135.839       -3001.292          41.000    20208646.540    82751223.300       -2338.546          38.000  
G17  20759409.318   109091445.336       -3204.164          37.000    20759414.676    85006341.106       -2496.586          37.000  
G14  22446634.807   117957858.3492      -5491.902          34.000    22446636.890    91915216.643       -4279.751          38.000  
G12  20670180.633   108622528.626          86.056          43.000    20670181.891    84640817.726          67.142          37.000  
G19  18923080.738    99441456.796       -2264.990          44.000                                                                  
G22  20843954.986   109535704.069       -4878.647          40.000                                                                  
> 2025 04 04 08 16 47.9940000  0 10                     
G09  21671599.173   113885032.873       -2002.440          37.000    21671613.034    88741640.826       -1560.479          35.000  
G20  18790340.725    98743914.267        -845.196          45.000                                                                  
G05  21231584.324   111572740.662        1287.296          42.000    21231589.841    86939823.120        1002.981          37.000  
G11  19944852.471   104810908.692       -1877.292          44.000    19944851.677    81670963.423       -1462.967          36.000  
G06  20209214.279   106200136.975       -3001.111          40.000    20209217.592    82753561.836       -2338.458          38.000  
G17  20760019.013   109094649.279       -3204.211          37.000    20760024.486    85008837.673       -2496.342          37.000  
G14  22447679.994   117963350.4102      -5491.938          35.000    22447682.056    91919496.151       -4279.178          38.000  
G12  20670164.291   108622442.722          85.770          43.000    20670165.508    84640750.804          66.451          37.000  
G19  18923511.709    99443721.830       -2264.984          44.000                                                                  
G22  20844883.286   109540582.596       -4878.465          40.000                                                                  
> 2025 04 04 08 16 48.9940000  0 10                     
G09  21671980.506   113887036.040       -2004.214          36.000    21671994.050    88743201.740       -1561.445          35.000  
G20  18790501.696    98744759.843        -845.879          44.000                                                                  
G05  21231339.422   111571453.578        1286.659          42.000    21231344.955    86938820.208        1002.375          37.000  
G11  19945209.790   104812786.199       -1877.985          44.000    19945208.949    81672426.369       -1463.267          36.000  
G06  20209785.339   106203138.080       -3001.507          40.000    20209788.646    82755900.346       -2338.681          38.000  
G17  20760628.780   109097853.529       -3204.510          37.000    20760634.191    85011334.493       -2496.715          37.000  
G14  22448724.741   117968842.402       -5492.185          35.000    22448727.189    91923775.643       -4279.927          39.000  
G12  20670148.044   108622357.369          84.927          43.000    20670149.316    84640684.285          66.148          37.000  
G19  18923942.799    99445987.265       -2266.083          44.000                                                                  
G22  20845811.644   109545461.344       -4879.254          40.000                                                                  
> 2025 04 04 08 16 49.9940000  0 10                     
G09  21672362.089   113889040.174       -2005.070          36.000    21672375.405    88744763.384       -1562.049          35.000  
G20  18790662.745    98745606.408        -847.233          44.000                                                                  
G05  21231094.732   111570167.262        1285.924          42.000    21231100.119    86937817.862        1002.054          36.000  
G11  19945567.226   104814664.222       -1878.465          44.000    19945566.311    81673889.788       -1463.846          36.000  
G06  20210356.548   106206139.628       -3001.826          40.000    20210359.745    82758239.220       -2339.448          38.000  
G17  20761238.739   109101058.583       -3205.625          37.000    20761244.025    85013831.935       -2497.681          37.000  
G14  22449769.618   117974334.845       -5493.124          36.000    22449772.449    91928055.432       -4279.936          39.000  
G12  20670131.965   108622273.045          83.742          43.000    20670133.290    84640618.559          65.059          37.000  
G19  18924374.097    99448253.541       -2266.687          44.000                                                                  
G22  20846740.140   109550340.762       -4880.152          40.000                                                                  
> 2025 04 04 08 16 50.9940000  0 10                     
G09  21672743.564   113891045.371       -2006.253          37.000    21672756.850    88746325.879       -1562.908          34.000  
G20  18790824.071    98746454.082        -848.642          44.000                                                                  
G05  21230850.134   111568881.862        1284.624          42.000    21230855.600    86936816.283        1000.483          37.000  
G11  19945924.709   104816542.950       -1879.311          44.000    19945923.870    81675353.744       -1464.564          36.000  
G06  20210928.031   106209141.748       -3002.568          40.000    20210930.962    82760578.511       -2339.498          38.000  
G17  20761848.858   109104264.543       -3206.459          38.000    20761854.039    85016330.076       -2498.516          37.000  
G14  22450814.777   117979827.812       -5493.429          37.000    22450817.817    91932335.660       -4280.590          38.000  
G12  20670116.126   108622189.828          82.341          43.000    20670117.491    84640553.735          64.298          37.000  
G19  18924805.537    99450520.820       -2268.115          44.000                                                                  
G22  20847668.905   109555220.994       -4881.010          40.000                                                                  
> 2025 04 04 08 16 51.9940000  0 10                     
G09  21673125.444   113893051.914       -2006.767          36.000    21673138.660    88747889.469       -1564.298          34.000  
G20  18790985.644    98747303.107        -849.641          45.000                                                                  
G05  21230605.754   111567597.576        1283.996          42.000    21230611.166    86935815.570         999.910          36.000  
G11  19946282.382   104818422.605       -1879.959          44.000    19946281.593    81676818.375       -1464.798          36.000  
G06  20211499.501   106212144.684       -3003.135          41.000    20211502.356    82762918.488       -2340.362          38.000  
G17  20762459.185   109107471.656       -3207.590          38.000    20762464.265    85018829.140       -2499.417          37.000  
G14  22451860.084   117985321.607       -5494.523          37.000    22451863.284    91936616.541       -4281.172          38.000  
G12  20670100.640   108622108.009          81.193          43.000    20670101.920    84640489.960          63.433          37.000  
G19  18925237.250    99452789.304       -2268.945          44.000                                                                  
G22  20848597.783   109560102.292       -4881.604          39.000                                                                  
> 2025 04 04 08 16 52.9940000  0 10                     
G09  21673507.636   113895059.622       -2008.245          37.000    21673520.721    88749453.886       -1563.998          34.000  
G20  18791147.415    98748153.268        -850.495          44.000                                                                  
G05  21230361.544   111566314.280        1282.999          42.000    21230366.982    86934815.595         999.365          37.000  
G11  19946640.121   104820302.982       -1880.476          44.000    19946639.295    81678283.605       -1465.100          36.000  
G06  20212071.128   106215148.246       -3003.562          41.000    20212073.939    82765258.915       -2340.603          37.000  
G17  20763069.702   109110679.729       -3208.414          38.000    20763074.741    85021328.924       -2499.805          37.000  
G14  22452905.301   117990815.989       -5494.843          37.000    22452908.899    91940897.896       -4281.413          39.000  
G12  20670085.263   108622027.387          80.252          43.000    20670086.538    84640427.151          62.373          37.000  
G19  18925669.144    99455058.826       -2269.897          44.000                                                                  
G22  20849526.782   109564984.426       -4882.696          39.000                                                                  
> 2025 04 04 08 16 53.9940000  0 10                     
G09  21673890.026   113897068.409       -2009.528          37.000    21673902.913    88751019.159       -1565.621          34.000  
G20  18791309.406    98749004.520        -851.862          44.000                                                                  
G05  21230117.564   111565031.830        1281.702          42.000    21230122.987    86933816.282         998.549          37.000  
G11  19946998.051   104822184.015       -1881.346          44.000    19946997.275    81679749.352       -1466.704          36.000  
G06  20212642.846   106218152.362       -3004.399          40.000    20212645.569    82767599.776       -2341.251          38.000  
G17  20763680.220   109113888.692       -3209.481          38.000    20763685.383    85023829.439       -2501.144          37.000  
G14  22453950.601   117996310.878       -5495.593          37.000    22453954.610    91945179.638       -4282.032          38.000  
G12  20670070.144   108621947.837          79.238          42.000    20670071.332    84640365.169          61.513          37.000  
G19  18926101.164    99457329.293       -2270.911          44.000                                                                  
G22  20850455.811   109569867.349       -4883.569          39.000                                                                  
> 2025 04 04 08 16 54.9940000  0 10                     
G09  21674272.562   113899078.220       -2009.995          37.000    21674285.318    88752585.327       -1566.922          34.000  
G20  18791471.629    98749856.848        -853.028          44.000                                                                  
G05  21229873.681   111563750.261        1281.002          42.000    21229879.063    86932817.646         998.219          37.000  
G11  19947356.120   104824065.698       -1881.896          44.000    19947355.389    81681215.614       -1466.733          36.000  
G06  20213214.638   106221157.024       -3004.897          40.000    20213217.338    82769941.068       -2341.306          37.000  
G17  20764290.972   109117098.544       -3210.481          38.000    20764296.281    85026330.604       -2501.298          37.000  
G14  22454996.190   118001806.311       -5495.618          37.000    22455000.396    91949461.777       -4282.001          38.000  
G12  20670055.140   108621869.445          77.819          42.000    20670056.400    84640304.106          60.356          37.000  
G19  18926533.419    99459600.733       -2272.113          44.000                                                                  
G22  20851385.121   109574751.062       -4884.251          39.000                                                                  
> 2025 04 04 08 16 55.9940000  0 10                     
G09  21674655.374   113901089.257       -2011.382          37.000    21674667.938    88754152.305       -1567.178          34.000  
G20  18791634.122    98750710.345        -853.832          45.000                                                                  
G05  21229629.885   111562469.634        1280.470          42.000    21229635.377    86931819.767         997.522          36.000  
G11  19947714.234   104825948.140       -1882.539          44.000    19947713.589    81682682.458       -1466.905          36.000  
G06  20213786.545   106224162.340       -3005.356          40.000    20213789.315    82772282.867       -2342.178          37.000  
G17  20764902.033   109120309.382       -3211.508          38.000    20764907.320    85028832.558       -2502.231          37.000  
G14  22456041.891   118007302.390       -5496.199          38.000    22456046.337    91953744.445       -4282.618          38.000  
G12  20670040.464   108621792.245          76.866          42.000    20670041.600    84640243.916          60.001          37.000  
G19  18926965.894    99461873.217       -2272.906          44.000                                                                  
G22  20852314.523   109579635.651       -4885.349          39.000                                                                  
> 2025 04 04 08 16 56.9940000  0 10                     
G09  21675038.363   113903101.362       -2013.066          37.000    21675050.737    88755720.191       -1568.345          35.000  
G20  18791796.818    98751564.910        -855.171          45.000                                                                  
G05  21229386.259   111561189.869        1279.083          42.000    21229391.822    86930822.548         996.500          36.000  
G11  19948072.505   104827831.239       -1883.468          44.000    19948072.071    81684149.790       -1467.484          36.000  
G06  20214358.447   106227168.181       -3006.039          40.000    20214361.400    82774625.099       -2342.640          37.000  
G17  20765513.191   109123521.067       -3212.295          39.000    20765518.550    85031335.232       -2503.474          37.000  
G14  22457087.626   118012798.973       -5496.968          38.000    22457092.324    91958027.498       -4283.506          38.000  
G12  20670025.937   108621716.150          75.294          42.000    20670027.081    84640184.636          58.686          37.000  
G19  18927398.525    99464146.638       -2273.901          44.000                                                                  
G22  20853244.193   109584521.003       -4886.018          39.000                                                                  
> 2025 04 04 08 16 57.9940000  0 10                     
G09  21675421.431   113905114.614       -2013.206          36.000    21675433.922    88757288.998       -1569.408          35.000  
G20  18791959.697    98752420.689        -856.173          45.000                                                                  
G05  21229142.886   111559911.117        1278.426          42.000    21229148.402    86929826.109         996.470          36.000  
G11  19948431.034   104829715.125       -1884.054          44.000    19948430.507    81685617.756       -1468.311          36.000  
G06  20214930.594   106230174.713       -3006.716          40.000    20214933.488    82776967.843       -2343.264          38.000  
G17  20766124.586   109126733.809       -3212.876          39.000    20766129.917    85033838.614       -2503.741          37.000  
G14  22458133.612   118018296.245       -5497.688          39.000    22458138.441    91962311.069       -4283.292          39.000  
G12  20670011.662   108621641.323          74.351          42.000    20670012.869    84640126.295          58.349          37.000  
G19  18927831.330    99466421.168       -2274.847          44.000                                                                  
G22  20854174.029   109589407.313       -4886.703          39.000                                                                  
> 2025 04 04 08 16 58.9940000  0 10                     
G09  21675804.734   113907128.748       -2014.891          36.000    21675817.267    88758858.418       -1569.810          35.000  
G20  18792122.791    98753277.275        -857.046          45.000                                                                  
G05  21228899.660   111558632.982        1277.732          42.000    21228905.256    86928830.133         995.894          37.000  
G11  19948789.745   104831599.391       -1884.467          44.000    19948789.041    81687085.979       -1468.408          36.000  
G06  20215502.897   106233181.517       -3006.763          40.000    20215505.619    82779310.782       -2342.832          37.000  
G17  20766736.041   109129947.163       -3213.581          38.000    20766741.408    85036342.539       -2504.469          37.000  
G14  22459179.480   118023793.753       -5498.028          39.000    22459184.666    91966594.840       -4283.820          38.000  
G12  20669997.509   108621567.330          73.533          42.000    20669998.709    84640068.641          57.436          37.000  
G19  18928264.276    99468696.379       -2275.446          44.000                                                                  
G22  20855103.988   109594294.086       -4887.142          39.000                                                                  
> 2025 04 04 08 16 59.9940000  0 10                     
G09  21676188.188   113909143.687       -2015.605          36.000    21676200.691    88760428.506       -1570.462          35.000  
G20  18792285.988    98754134.733        -857.868          45.000                                                                  
G05  21228656.487   111557355.491        1277.002          42.000    21228662.212    86927834.738         994.860          37.000  
G11  19949148.455   104833484.100       -1884.927          44.000    19949147.726    81688554.588       -1468.545          36.000  
G06  20216075.101   106236188.691       -3007.553          40.000    20216077.916    82781654.045       -2343.635          38.000  
G17  20767347.714   109133161.188       -3214.301          38.000    20767352.981    85038846.978       -2504.812          37.000  
G14  22460225.300   118029291.563       -5498.007          39.000    22460230.953    91970878.855       -4283.971          38.000  
G12  20669983.566   108621494.246          72.519          43.000    20669984.847    84640011.664          56.835          37.000  
G19  18928697.499    99470972.354       -2276.501          44.000                                                                  
G22  20856034.052   109599181.456       -4887.438          40.000                                                                  
> 2025 04 04 08 17 00.9940000  0 10                     
G09  21676571.605   113911159.265       -2015.632          36.000    21676584.299    88761999.086       -1570.444          35.000  
G20  18792449.259    98754992.800        -858.174          45.000                                                                  
G05  21228413.452   111556078.411        1277.118          42.000    21228419.188    86926839.605         994.839          37.000  
G11  19949507.169   104835369.016       -1884.900          44.000    19949506.422    81690023.364       -1468.555          36.000  
G06  20216647.223   106239195.926       -3007.144          40.000    20216650.242    82783997.326       -2343.262          38.000  
G17  20767959.407   109136375.660       -3214.457          38.000    20767964.600    85041351.698       -2504.011          37.000  
G14  22461271.491   118034789.470       -5497.719          39.000    22461277.150    91975162.937       -4283.734          38.000  
G12  20669969.859   108621421.804          72.390          42.000    20669971.137    84639955.257          56.007          37.000  
G19  18929130.665    99473248.802       -2276.428          44.000                                                                  
G22  20856964.189   109604069.142       -4887.366          40.000                                                                  
> 2025 04 04 08 17 01.9940000  0 10                     
G09  21676955.099   113913174.995       -2015.675          36.000    21676967.917    88763569.822       -1571.078          36.000  
G20  18792612.640    98755851.048        -858.326          45.000                                                                  
G05  21228170.349   111554801.308        1277.331          42.000    21228176.248    86925844.453         995.285          37.000  
G11  19949865.772   104837253.675       -1884.449          44.000    19949865.005    81691491.921       -1468.026          36.000  
G06  20217219.417   106242202.802       -3006.732          40.000    20217222.373    82786340.362       -2342.914          38.000  
G17  20768571.099   109139590.088       -3213.956          38.000    20768576.270    85043856.485       -2504.513          37.000  
G14  22462317.449   118040286.973       -5497.173          39.000    22462323.297    91979446.724       -4283.655          38.000  
G12  20669956.206   108621349.573          72.310          42.000    20669957.383    84639898.951          56.428          38.000  
G19  18929563.829    99475525.319       -2276.514          44.000                                                                  
G22  20857894.316   109608956.737       -4887.391          40.000                                                                  
> 2025 04 04 08 17 02.9940000  0 10                     
G09  21677338.629   113915191.088       -2016.069          35.000    21677351.589    88765140.762       -1571.020          36.000  
G20  18792776.056    98756709.634        -858.920          45.000                                                                  
G05  21227927.369   111553524.337        1276.861          42.000    21227933.170    86924849.410         995.022          37.000  
G11  19950224.478   104839138.242       -1884.756          44.000    19950223.755    81692960.441       -1468.853          36.000  
G06  20217791.474   106245209.494       -3006.831          40.000    20217794.541    82788683.191       -2342.337          38.000  
G17  20769182.791   109142804.677       -3214.750          37.000    20769188.003    85046361.355       -2505.106          37.000  
G14  22463363.395   118045784.287       -5497.254          40.000    22463369.388    91983730.356       -4283.747          39.000  
G12  20669942.511   108621277.730          71.450          42.000    20669943.744    84639842.962          55.877          38.000  
G19  18929997.084    99477802.033       -2276.764          44.000                                                                  
G22  20858824.360   109613844.320       -4887.202          40.000                                                                  
> 2025 04 04 08 17 03.9940000  0 10                     
G09  21677722.319   113917207.798       -2017.105          35.000    21677735.401    88766712.237       -1571.865          36.000  
G20  18792939.507    98757568.850        -859.411          45.000                                                                  
G05  21227684.458   111552247.791        1276.395          42.000    21227690.226    86923854.728         994.732          37.000  
G11  19950583.203   104841023.029       -1884.787          44.000    19950582.386    81694429.092       -1468.806          36.000  
G06  20218363.692   106248216.296       -3006.941          41.000    20218366.650    82791026.177       -2342.918          38.000  
G17  20769794.593   109146019.747       -3214.830          38.000    20769799.731    85048866.563       -2505.096          37.000  
G14  22464409.344   118051281.680       -5497.409          40.000    22464415.516    91988014.047       -4283.939          39.000  
G12  20669928.988   108621206.556          70.762          42.000    20669930.240    84639787.506          55.164          38.000  
G19  18930430.479    99480079.277       -2277.423          44.000                                                                  
G22  20859754.587   109618732.289       -4887.861          40.000                                                                  
> 2025 04 04 08 17 04.9940000  0 10                     
G09  21678106.022   113919225.454       -2018.728          35.000    21678119.369    88768284.428       -1572.497          36.000  
G20  18793103.263    98758429.005        -860.657          45.000                                                                  
G05  21227441.656   111550972.006        1275.263          42.000    21227447.358    86922860.606         994.097          37.000  
G11  19950941.932   104842908.341       -1885.703          44.000    19950941.141    81695898.150       -1469.530          36.000  
G06  20218936.041   106251223.489       -3007.591          41.000    20218938.905    82793369.438       -2343.213          38.000  
G17  20770406.620   109149235.535       -3216.379          37.000    20770411.690    85051372.374       -2505.891          37.000  
G14  22465455.428   118056779.460       -5497.935          40.000    22465461.915    91992298.015       -4284.166          39.000  
G12  20669915.675   108621136.335          69.591          42.000    20669916.853    84639732.794          54.218          37.000  
G19  18930863.997    99482357.326       -2278.546          45.000                                                                  
G22  20860684.877   109623620.902       -4889.482          40.000                                                                  
> 2025 04 04 08 17 05.9940000  0 10                     
G09  21678490.218   113921244.385       -2019.841          35.000    21678503.585    88769857.629       -1573.467          36.000  
G20  18793267.210    98759290.449        -861.681          45.000                                                                  
G05  21227199.039   111549697.279        1274.658          42.000    21227204.857    86921867.341         992.830          37.000  
G11  19951300.855   104844794.494       -1886.171          44.000    19951300.109    81697367.889       -1469.916          36.000  
G06  20219508.431   106254231.465       -3008.270          41.000    20219511.392    82795713.296       -2343.926          38.000  
G17  20771018.832   109152452.397       -3217.153          37.000    20771023.886    85053879.043       -2506.912          37.000  
G14  22466501.664   118062277.982       -5498.497          40.000    22466508.228    91996582.572       -4284.432          39.000  
G12  20669902.495   108621067.451          68.603          42.000    20669903.868    84639679.135          52.965          37.000  
G19  18931297.743    99484636.549       -2279.584          45.000                                                                  
G22  20861615.229   109628510.477       -4889.749          40.000                                                                  
> 2025 04 04 08 17 06.9940000  0 10                     
G09  21678874.383   113923264.262       -2020.529          35.000    21678887.967    88771431.571       -1574.503          37.000  
G20  18793431.259    98760152.895        -863.056          45.000                                                                  
G05  21226956.562   111548423.344        1273.480          42.000    21226962.404    86920874.675         991.812          37.000  
G11  19951659.894   104846681.240       -1887.269          44.000    19951659.093    81698838.059       -1470.306          36.000  
G06  20220081.045   106257239.887       -3009.247          41.000    20220083.922    82798057.508       -2344.089          38.000  
G17  20771631.127   109155670.108       -3218.460          37.000    20771636.158    85056386.301       -2507.506          37.000  
G14  22467548.127   118067776.962       -5499.558          40.000    22467554.729    92000867.491       -4285.305          39.000  
G12  20669889.568   108620999.604          66.920          42.000    20669890.960    84639626.248          52.322          37.000  
G19  18931731.715    99486916.630       -2280.731          45.000                                                                  
G22  20862545.815   109633400.761       -4890.959          40.000                                                                  
> 2025 04 04 08 17 07.9940000  0 10                     
G09  21679258.808   113925285.437       -2021.719          35.000    21679272.678    88773006.495       -1575.239          37.000  
G20  18793595.561    98761016.584        -864.211          45.000                                                                  
G05  21226714.393   111547150.489        1272.440          42.000    21226720.178    86919882.808         991.593          37.000  
G11  19952019.128   104848568.810       -1887.819          44.000    19952018.328    81700308.899       -1471.034          36.000  
G06  20220653.619   106260249.022       -3009.386          41.000    20220656.599    82800402.309       -2344.592          38.000  
G17  20772243.634   109158888.839       -3219.074          37.000    20772248.750    85058894.431       -2508.521          37.000  
G14  22468594.575   118073276.633       -5499.796          40.000    22468601.390    92005152.946       -4285.774          39.000  
G12  20669876.937   108620933.036          65.968          42.000    20669878.314    84639574.374          51.363          37.000  
G19  18932165.969    99489197.856       -2281.635          44.000                                                                  
G22  20863476.534   109638291.983       -4891.343          40.000                                                                  
> 2025 04 04 08 17 08.9940000  0 10                     
G09  21679643.595   113927307.544       -2022.661          35.000    21679657.626    88774582.171       -1575.817          37.000  
G20  18793760.034    98761881.225        -865.095          45.000                                                                  
G05  21226472.198   111545878.353        1271.707          42.000    21226478.057    86918891.553         990.657          37.000  
G11  19952378.475   104850456.905       -1888.361          44.000    19952377.626    81701780.129       -1471.317          36.000  
G06  20221226.328   106263258.578       -3009.656          41.000    20221229.321    82802747.452       -2345.543          38.000  
G17  20772856.311   109162108.320       -3219.929          38.000    20772861.404    85061403.122       -2508.790          36.000  
G14  22469640.997   118078776.701       -5500.262          40.000    22469648.051    92009438.717       -4285.913          39.000  
G12  20669864.344   108620867.456          64.999          42.000    20669865.916    84639523.265          51.081          37.000  
G19  18932600.206    99491479.904       -2282.428          44.000                                                                  
G22  20864407.476   109643183.887       -4892.185          40.000                                                                  
> 2025 04 04 08 17 09.9940000  0 10                     
G09  21680028.404   113929330.531       -2023.465          36.000    21680042.671    88776158.516       -1576.129          36.000  
G20  18793924.763    98762746.761        -866.232          45.000                                                                  
G05  21226230.324   111544606.887        1271.137          42.000    21226236.176    86917900.802         990.482          36.000  
G11  19952737.912   104852345.467       -1889.080          44.000    19952737.089    81703251.769       -1472.254          36.000  
G06  20221799.062   106266268.503       -3009.923          41.000    20221802.101    82805092.839       -2345.750          38.000  
G17  20773469.112   109165328.535       -3220.981          39.000    20773474.090    85063912.375       -2509.606          36.000  
G14  22470687.717   118084277.096       -5500.523          40.000    22470694.828    92013724.725       -4286.008          40.000  
G12  20669852.007   108620802.804          63.966          42.000    20669853.649    84639472.878          50.099          37.000  
G19  18933034.691    99493762.722       -2283.295          44.000                                                                  
G22  20865338.512   109648076.337       -4892.585          40.000                                                                  
> 2025 04 04 08 17 10.9940000  0 10                     
G09  21680413.586   113931354.423       -2024.464          35.000    21680427.939    88777735.583       -1577.176          36.000  
G20  18794089.521    98763613.177        -867.043          45.000                                                                  
G05  21225988.517   111543336.102        1270.528          41.000    21225994.360    86916910.599         989.961          37.000  
G11  19953097.471   104854234.496       -1889.462          44.000    19953096.623    81704723.712       -1471.886          36.000  
G06  20222372.043   106269278.799       -3010.477          41.000    20222374.866    82807438.516       -2346.048          38.000  
G17  20774082.141   109168549.408       -3221.295          38.000    20774086.893    85066422.184       -2510.619          36.000  
G14  22471734.408   118089777.819       -5501.017          38.000    22471741.613    92018011.002       -4286.672          39.000  
G12  20669839.957   108620739.089          62.924          42.000    20669841.445    84639423.233          49.184          37.000  
G19  18933469.336    99496046.311       -2284.253          44.000                                                                  
G22  20866269.653   109652969.416       -4893.242          39.000                                                                  
> 2025 04 04 08 17 11.9940000  0 11                     
G09  21680798.767   113933378.950       -2024.852          36.000    21680813.176    88779313.122       -1577.717          36.000  
G20  18794254.576    98764480.257        -867.487          45.000                                                                  
G05  21225746.743   111542065.780        1270.257          41.000    21225752.617    86915920.743         989.182          37.000  
G11  19953457.095   104856123.740       -1889.358          44.000    19953456.101    81706195.826       -1472.049          36.000  
G06  20222944.819   106272289.221       -3010.618          41.000    20222947.700    82809784.264       -2345.832          38.000  
G17  20774695.277   109171770.783       -3221.710          38.000    20774699.887    85068932.317       -2510.472          36.000  
G14  22472781.096   118095278.719       -5501.433          37.000    22472788.351    92022297.408       -4286.636          37.000  
G12  20669827.840   108620676.032          62.645          42.000    20669829.445    84639374.131          48.478          37.000  
G13  23779633.859                         566.281          19.000                                                                  
G19  18933903.928    99498330.421       -2284.381          44.000                                                                  
G22  20867200.927   109657862.864       -4893.495          41.000                                                                  
> 2025 04 04 08 17 12.9940000  0 11                     
G09  21681184.176   113935403.975       -2023.604          37.000    21681198.585    88780891.026       -1576.326          34.000  
G20  18794419.627    98765347.845        -866.169          44.000                                                                  
G05  21225504.969   111540795.791        1271.476          41.000    21225510.841    86914931.057         991.706          36.000  
G11  19953816.671   104858013.095       -1887.667          44.000    19953815.658    81707668.000       -1469.975          36.000  
G06  20223517.702   106275299.606       -3008.836          41.000    20223520.490    82812129.981       -2343.505          38.000  
G17  20775308.377   109174992.486       -3220.544          37.000    20775312.872    85071442.642       -2508.052          36.000  
G14  22473827.843   118100779.597       -5499.485          35.000    22473835.173    92026583.685       -4284.067          33.000  
G12  20669815.948   108620613.570          63.918          41.000    20669817.537    84639325.396          50.369          36.000  
G13  23779517.863                         566.281          18.000                                                                  
G19  18934338.665    99500614.944       -2283.081          43.000                                                                  
G22  20868132.142   109662756.508       -4892.036          41.000                                                                  
> 2025 04 04 08 17 13.9940000  0 11                     
G09  21681569.662   113937429.460       -2025.420          38.000    21681584.113    88782469.389       -1578.357          37.000  
G20  18794584.767    98766215.899        -867.932          45.000                                                                  
G05  21225263.416   111539526.069        1269.724          42.000    21225269.234    86913941.738         989.480          36.000  
G11  19954176.241   104859902.490       -1889.381          45.000    19954175.338    81709140.360       -1472.461          37.000  
G06  20224090.644   106278309.959       -3010.118          41.000    20224093.453    82814475.730       -2345.168          38.000  
G17  20775921.451   109178214.382       -3221.724          37.000    20775926.048    85073953.325       -2510.340          37.000  
G14  22474874.535   118106280.301       -5500.045          35.000    22474881.915    92030870.051       -4285.942          36.000  
G12  20669804.241   108620551.589          61.766          42.000    20669805.749    84639277.118          48.947          36.000  
G13  23779406.723                         566.281          18.000                                                                  
G19  18934773.515    99502899.802       -2284.882          44.000                                                                  
G22  20869063.425   109667650.338       -4894.051          40.000                                                                  
> 2025 04 04 08 17 14.9940000  0 11                     
G09  21681955.045   113939454.426       -2024.673          39.000    21681969.458    88784047.301       -1577.724          38.000  
G20  18794749.890    98767083.433        -867.262          45.000                                                                  
G05  21225021.574   111538255.611        1270.609          42.000    21225027.575    86912951.750         990.826          37.000  
G11  19954535.526   104861790.924       -1888.023          45.000    19954534.719    81710611.831       -1471.131          37.000  
G06  20224663.404   106281319.195       -3008.474          41.000    20224666.176    82816820.633       -2344.349          38.000  
G17  20776534.390   109181435.635       -3220.588          37.000    20776539.105    85076463.387       -2510.188          37.000  
G14  22475921.122   118111779.924       -5497.993          34.000    22475928.541    92035155.485       -4284.879          36.000  
G12  20669792.287   108620489.123          62.749          42.000    20669793.830    84639228.443          48.749          37.000  
G13  23779303.280                         566.281          18.000                                                                  
G19  18935208.235    99505184.006       -2283.813          44.000                                                                  
G22  20869994.495   109672543.318       -4892.225          40.000                                                                  
> 2025 04 04 08 17 15.9940000  0 11                     
G09  21682340.216   113941478.626       -2023.288          39.000    21682354.699    88785624.583       -1576.953          37.000  
G20  18794914.892    98767950.197        -866.105          45.000                                                                  
G05  21224779.668   111536984.162        1272.131          41.000    21224785.670    86911961.049         991.020          37.000  
G11  19954894.758   104863678.194       -1886.535          44.000    19954893.887    81712082.412       -1469.631          37.000  
G06  20225235.838   106284327.204       -3007.428          41.000    20225238.677    82819164.511       -2343.110          38.000  
G17  20777147.156   109184655.929       -3219.492          38.000    20777151.906    85078972.706       -2508.656          37.000  
G14  22476967.399   118117278.297       -5497.385          35.000    22476974.974    92039439.947       -4284.081          36.000  
G12  20669780.162   108620425.924          63.874          43.000    20669781.760    84639179.218          49.665          37.000  
G13  23779198.201                         566.281          19.000                                                                  
G19  18935642.657    99507467.336       -2282.648          44.000                                                                  
G22  20870925.389   109677435.263       -4891.062          40.000                                                                  
> 2025 04 04 08 17 16.9940000  0 10                     
G09  21682725.287   113943502.194       -2023.628          38.000    21682739.759    88787201.350       -1576.322          37.000  
G20  18795079.759    98768816.297        -865.751          45.000                                                                  
G05  21224537.501   111535711.851        1272.514          41.000    21224543.541    86910969.636         991.493          37.000  
G11  19955253.813   104865564.357       -1885.745          44.000    19955252.804    81713552.174       -1469.305          36.000  
G06  20225808.087   106287333.975       -3006.123          41.000    20225810.815    82821507.462       -2342.658          38.000  
G17  20777759.814   109187875.364       -3219.001          39.000    20777764.581    85081481.345       -2508.490          37.000  
G14  22478013.411   118122775.442       -5496.547          36.000    22478021.080    92043723.411       -4283.137          35.000  
G12  20669767.961   108620362.107          63.767          43.000    20669769.644    84639129.485          49.363          37.000  
G19  18936076.941    99509749.878       -2282.288          44.000                                                                  
G22  20871856.094   109682326.249       -4890.600          40.000                                                                  
> 2025 04 04 08 17 17.9940000  0 10                     
G09  21683110.469   113945525.669       -2023.828          39.000    21683124.874    88788778.119       -1577.030          37.000  
G20  18795244.567    98769682.379        -866.359          45.000                                                                  
G05  21224295.381   111534439.281        1272.350          41.000    21224301.524    86909978.047         991.156          36.000  
G11  19955612.750   104867450.059       -1885.850          44.000    19955611.636    81715021.531       -1469.194          37.000  
G06  20226380.177   106290340.190       -3006.338          41.000    20226382.908    82823849.969       -2342.806          38.000  
G17  20778372.590   109191094.576       -3219.227          39.000    20778377.180    85083989.827       -2508.804          37.000  
G14  22479059.356   118128271.961       -5496.504          36.000    22479067.031    92048006.419       -4283.101          36.000  
G12  20669755.652   108620298.277          63.619          43.000    20669757.502    84639079.729          49.243          37.000  
G19  18936511.325    99512032.279       -2282.776          44.000                                                                  
G22  20872786.864   109687216.898       -4890.632          41.000                                                                  
> 2025 04 04 08 17 18.9940000  0 10                     
G09  21683495.379   113947549.476       -2023.850          38.000    21683510.108    88790355.122       -1577.416          37.000  
G20  18795409.429    98770548.764        -866.652          45.000                                                                  
G05  21224053.190   111533166.835        1272.603          41.000    21224059.343    86908986.533         991.591          36.000  
G11  19955971.630   104869335.675       -1885.588          44.000    19955970.471    81716490.865       -1469.484          37.000  
G06  20226952.212   106293346.203       -3005.991          41.000    20226954.978    82826192.303       -2342.194          38.000  
G17  20778985.244   109194313.875       -3219.172          38.000    20778989.805    85086498.355       -2508.554          37.000  
G14  22480105.160   118133768.263       -5495.467          36.000    22480112.891    92052289.224       -4282.266          36.000  
G12  20669743.520   108620234.792          63.425          42.000    20669745.435    84639030.262          49.164          37.000  
G19  18936945.783    99514314.850       -2282.599          44.000                                                                  
G22  20873717.656   109692107.542       -4890.149          40.000                                                                  
> 2025 04 04 08 17 19.9940000  0 10                     
G09  21683880.600   113949573.527       -2024.262          38.000    21683895.288    88791932.311       -1577.530          37.000  
G20  18795574.352    98771415.410        -866.940          45.000                                                                  
G05  21223810.991   111531894.459        1272.498          42.000    21223817.194    86907995.053         991.740          36.000  
G11  19956330.211   104871221.113       -1885.404          44.000    19956329.306    81717960.018       -1468.932          37.000  
G06  20227524.159   106296351.929       -3005.666          41.000    20227526.971    82828534.436       -2342.292          38.000  
G17  20779597.977   109197533.296       -3219.312          38.000    20779602.377    85089006.985       -2508.625          37.000  
G14  22481151.185   118139264.277       -5495.962          36.000    22481158.864    92056571.826       -4282.302          36.000  
G12  20669731.559   108620171.627          62.919          42.000    20669733.290    84638981.025          49.280          37.000  
G19  18937380.159    99516597.573       -2282.831          44.000                                                                  
G22  20874648.304   109696998.201       -4890.909          40.000                                                                  
> 2025 04 04 08 17 20.9940000  0 10                     
G09  21684265.583   113951598.071       -2025.094          38.000    21684280.606    88793509.883       -1577.856          37.000  
G20  18795739.430    98772282.527        -867.729          45.000                                                                  
G05  21223568.930   111530622.373        1271.639          42.000    21223575.099    86907003.841         990.639          36.000  
G11  19956688.979   104873106.603       -1885.870          44.000    19956688.220    81719429.242       -1469.526          37.000  
G06  20228096.028   106299357.622       -3005.914          41.000    20228099.043    82830876.524       -2342.260          38.000  
G17  20780210.566   109200752.974       -3220.089          38.000    20780215.203    85091515.847       -2509.442          37.000  
G14  22482197.215   118144760.226       -5496.352          36.000    22482204.616    92060854.409       -4283.233          36.000  
G12  20669719.663   108620108.967          62.060          43.000    20669721.405    84638932.203          48.484          37.000  
G19  18937814.540    99518880.664       -2283.398          44.000                                                                  
G22  20875579.075   109701889.001       -4891.195          40.000                                                                  
> 2025 04 04 08 17 21.9940000  0 10                     
G09  21684650.870   113953623.417       -2025.639          38.000    21684666.058    88795088.081       -1578.706          38.000  
G20  18795904.522    98773150.483        -868.649          45.000                                                                  
G05  21223326.923   111529350.918        1270.729          42.000    21223333.214    86906013.096         990.096          36.000  
G11  19957047.848   104874992.523       -1886.508          44.000    19957047.105    81720898.784       -1470.155          37.000  
G06  20228668.102   106302363.616       -3006.556          41.000    20228671.078    82833218.850       -2342.741          38.000  
G17  20780823.362   109203973.307       -3220.778          39.000    20780828.120    85094025.155       -2509.692          37.000  
G14  22483243.222   118150256.444       -5496.536          36.000    22483250.518    92065137.170       -4282.992          36.000  
G12  20669707.964   108620047.177          61.200          43.000    20669709.639    84638884.044          47.591          37.000  
G19  18938249.173    99521164.469       -2284.430          44.000                                                                  
G22  20876509.859   109706780.344       -4891.979          40.000                                                                  
> 2025 04 04 08 17 22.9940000  0 10                     
G09  21685036.533   113955649.995       -2027.126          38.000    21685051.788    88796667.218       -1579.387          38.000  
G20  18796069.936    98774019.660        -869.900          45.000                                                                  
G05  21223085.159   111528080.445        1270.288          42.000    21223091.481    86905023.129         989.634          37.000  
G11  19957406.867   104876879.221       -1887.080          44.000    19957406.160    81722368.944       -1470.806          37.000  
G06  20229240.223   106305370.288       -3006.864          41.000    20229243.272    82835561.704       -2343.129          38.000  
G17  20781436.380   109207194.672       -3221.674          38.000    20781441.240    85096535.310       -2510.432          37.000  
G14  22484289.291   118155753.329       -5497.595          35.000    22484296.586    92069420.459       -4283.592          36.000  
G12  20669696.409   108619986.657          60.022          43.000    20669698.159    84638836.889          46.531          37.000  
G19  18938683.964    99523449.358       -2285.376          44.000                                                                  
G22  20877440.834   109711672.605       -4892.692          40.000                                                                  
> 2025 04 04 08 17 23.9940000  0 11                     
G09  21685422.321   113957677.871       -2028.224          38.000    21685437.644    88798247.382       -1580.378          38.000  
G20  18796235.585    98774890.103        -871.042          45.000                                                                  
G05  21222843.541   111526811.090        1268.773          41.000    21222849.854    86904034.022         988.701          36.000  
G11  19957766.009   104878766.793       -1888.201          44.000    19957765.277    81723839.755       -1470.622          37.000  
G06  20229812.717   106308377.711       -3007.783          41.000    20229815.623    82837905.178       -2343.979          38.000  
G17  20782049.622   109210417.141       -3223.052          38.000    20782054.521    85099046.333       -2511.545          37.000  
G14  22485335.407   118161250.961       -5498.104          36.000    22485342.797    92073704.323       -4283.836          36.000  
G12  20669685.028   108619927.440          58.638          43.000    20669686.937    84638790.760          45.595          37.000  
G13  23778322.601                         572.083          25.000                                                                  
G19  18939118.943    99525735.433       -2286.609          44.000                                                                  
G22  20878372.040   109716565.874       -4893.806          40.000                                                                  
> 2025 04 04 08 17 24.9940000  0 11                     
G09  21685808.447   113959706.792       -2029.531          38.000    21685823.707    88799828.345       -1581.432          37.000  
G20  18796401.445    98775761.604        -871.967          45.000                                                                  
G05  21222602.116   111525542.568        1268.029          41.000    21222608.547    86903045.576         987.831          36.000  
G11  19958125.315   104880654.980       -1888.674          44.000    19958124.596    81725311.077       -1471.630          37.000  
G06  20230384.983   106311385.670       -3008.138          41.000    20230388.057    82840249.028       -2344.315          38.000  
G17  20782662.974   109213640.452       -3223.758          38.000    20782667.937    85101557.987       -2512.213          37.000  
G14  22486381.690   118166749.097       -5498.299          36.000    22486389.005    92077988.570       -4284.268          36.000  
G12  20669673.939   108619869.330          57.537          42.000    20669675.962    84638745.470          44.800          37.000  
G13  23778213.071                         571.833          26.000                                                                  
G19  18939554.047    99528022.422       -2287.482          44.000                                                                  
G22  20879303.322   109721459.883       -4894.557          40.000                                                                  
> 2025 04 04 08 17 25.9940000  0 11                     
G09  21686194.825   113961737.017       -2031.452          38.000    21686210.102    88801410.357       -1582.521          37.000  
G20  18796567.447    98776634.418        -873.643          45.000                                                                  
G05  21222361.023   111524275.176        1266.421          41.000    21222367.327    86902057.974         987.422          36.000  
G11  19958484.791   104882544.058       -1889.628          44.000    19958484.139    81726783.100       -1472.694          36.000  
G06  20230957.516   106314394.391       -3009.115          41.000    20230960.657    82842593.491       -2344.921          38.000  
G17  20783276.571   109216864.901       -3225.205          38.000    20783281.501    85104070.524       -2513.033          37.000  
G14  22487427.959   118172247.998       -5500.002          36.000    22487435.495    92082273.436       -4285.274          35.000  
G12  20669663.129   108619812.564          55.965          42.000    20669665.074    84638701.237          43.664          37.000  
G13  23778103.522                         571.067          26.000                                                                  
G19  18939989.466    99530310.618       -2289.075          44.000                                                                  
G22  20880234.815   109726354.911       -4896.028          40.000                                                                  
> 2025 04 04 08 17 26.9940000  0 11                     
G09  21686581.150   113963768.672       -2032.707          38.000    21686596.793    88802993.452       -1583.539          37.000  
G20  18796733.874    98777508.684        -875.193          45.000                                                                  
G05  21222120.062   111523009.011        1265.374          41.000    21222126.389    86901071.356         986.062          36.000  
G11  19958844.507   104884434.154       -1890.840          44.000    19958843.905    81728255.878       -1473.258          37.000  
G06  20231530.113   106317404.056       -3010.438          41.000    20231533.382    82844938.662       -2345.807          38.000  
G17  20783890.366   109220090.573       -3226.636          38.000    20783895.324    85106584.053       -2514.303          37.000  
G14  22488474.695   118177747.770       -5500.509          36.000    22488482.009    92086558.967       -4285.840          35.000  
G12  20669652.594   108619757.281          54.456          42.000    20669654.500    84638658.165          42.448          37.000  
G13  23777995.525                         569.749          26.000                                                                  
G19  18940425.168    99532600.121       -2290.259          44.000                                                                  
G22  20881166.597   109731251.068       -4896.619          40.000                                                                  
> 2025 04 04 08 17 27.9940000  0 11                     
G09  21686968.012   113965801.884       -2034.011          38.000    21686983.768    88804577.809       -1585.350          37.000  
G20  18796900.487    98778384.508        -876.718          45.000                                                                  
G05  21221879.383   111521744.204        1264.084          41.000    21221885.644    86900085.788         985.134          36.000  
G11  19959204.349   104886325.394       -1891.844          44.000    19959203.734    81729729.586       -1474.119          37.000  
G06  20232103.114   106320414.733       -3011.315          41.000    20232106.270    82847284.666       -2346.838          38.000  
G17  20784504.379   109223317.630       -3227.843          38.000    20784509.477    85109098.638       -2515.283          38.000  
G14  22489521.639   118183248.540       -5501.476          36.000    22489528.805    92090845.321       -4287.214          35.000  
G12  20669642.190   108619703.629          52.862          42.000    20669644.288    84638616.363          41.089          37.000  
G13  23777888.658                         569.616          26.000                                                                  
G19  18940861.124    99534891.096       -2291.711          44.000                                                                  
G22  20882098.516   109736148.499       -4897.862          40.000                                                                  
> 2025 04 04 08 17 28.9940000  0 11                     
G09  21687355.262   113967836.519       -2035.219          38.000    21687370.913    88806163.231       -1586.192          37.000  
G20  18797067.397    98779261.748        -877.895          45.000                                                                  
G05  21221638.990   111520480.612        1263.020          41.000    21221645.103    86899101.206         983.562          37.000  
G11  19959564.515   104888217.658       -1892.850          44.000    19959563.849    81731204.063       -1474.894          37.000  
G06  20232676.010   106323426.305       -3012.146          41.000    20232679.391    82849631.346       -2347.373          38.000  
G17  20785118.692   109226545.930       -3228.726          38.000    20785123.738    85111614.178       -2515.826          37.000  
G14  22490568.645   118188750.210       -5502.075          36.000    22490575.705    92095132.297       -4287.119          35.000  
G12  20669632.233   108619651.422          51.508          42.000    20669634.276    84638575.661          40.231          37.000  
G13  23777780.889                         569.099          27.000                                                                  
G19  18941297.390    99537183.361       -2292.969          45.000                                                                  
G22  20883030.647   109741047.063       -4899.077          40.000                                                                  
> 2025 04 04 08 17 29.9940000  0 11                     
G09  21687742.514   113969872.448       -2036.210          38.000    21687758.315    88807749.655       -1586.819          37.000  
G20  18797234.551    98780140.287        -879.010          45.000                                                                  
G05  21221398.791   111519218.099        1262.002          41.000    21221404.758    86898117.430         983.771          36.000  
G11  19959924.808   104890110.757       -1893.474          44.000    19959924.087    81732679.209       -1475.445          36.000  
G06  20233249.203   106326438.630       -3012.605          41.000    20233252.592    82851978.582       -2347.305          39.000  
G17  20785733.281   109229775.330       -3229.849          38.000    20785738.214    85114130.605       -2517.027          38.000  
G14  22491615.608   118194252.615       -5502.932          36.000    22491622.781    92099419.893       -4287.790          36.000  
G12  20669622.505   108619600.540          50.358          42.000    20669624.542    84638536.010          39.433          37.000  
G13  23777674.238   124952520.8353        568.525          26.000                                                                  
G19  18941733.873    99539476.786       -2293.799          44.000                                                                  
G22  20883962.885   109745946.598       -4899.516          40.000                                                                  
> 2025 04 04 08 17 30.9940000  0 11                     
G09  21688130.122   113971909.261       -2036.975          38.000    21688145.997    88809336.784       -1587.429          37.000  
G20  18797401.981    98781019.697        -879.757          45.000                                                                  
G05  21221158.706   111517956.282        1261.378          41.000    21221164.579    86897134.195         982.729          36.000  
G11  19960285.122   104892004.326       -1893.764          44.000    19960284.432    81734154.703       -1475.507          36.000  
G06  20233822.584   106329451.298       -3012.521          40.000    20233826.008    82854326.130       -2347.850          39.000  
G17  20786347.905   109233005.427       -3230.394          37.000    20786352.869    85116647.536       -2517.319          38.000  
G14  22492662.674   118199755.319       -5502.887          36.000    22492669.940    92103707.752       -4288.336          35.000  
G12  20669613.088   108619550.578          49.708          42.000    20669615.024    84638497.086          38.505          37.000  
G13  23777565.165   124951951.9432        569.269          26.000                                                                  
G19  18942170.461    99541770.972       -2294.421          44.000                                                                  
G22  20884895.320   109750846.749       -4900.393          40.000                                                                  
> 2025 04 04 08 17 31.9940000  0 11                     
G09  21688517.700   113973946.399       -2037.318          38.000    21688533.710    88810924.159       -1587.408          37.000  
G20  18797569.415    98781899.445        -879.736          45.000                                                                  
G05  21220918.648   111516694.580        1261.681          41.000    21220924.515    86896151.062         983.181          37.000  
G11  19960645.424   104893897.778       -1893.254          44.000    19960644.744    81735630.159       -1475.692          37.000  
G06  20234395.800   106332463.798       -3012.510          40.000    20234399.329    82856673.530       -2347.864          39.000  
G17  20786962.568   109236235.644       -3230.394          37.000    20786967.643    85119164.593       -2517.274          38.000  
G14  22493709.653   118205257.819       -5502.210          35.000    22493717.028    92107995.412       -4288.182          35.000  
G12  20669603.744   108619500.978          49.428          42.000    20669605.602    84638458.433          38.612          37.000  
G13  23777457.191   124951382.0291        570.807          25.000                                                                  
G19  18942606.987    99544065.378       -2294.580          44.000                                                                  
G22  20885827.753   109755746.890       -4900.019          40.000                                                                  
> 2025 04 04 08 17 32.9940000  0 11                     
G09  21688905.325   113975983.761       -2037.641          38.000    21688921.321    88812511.694       -1587.685          37.000  
G20  18797736.817    98782779.419        -880.275          45.000                                                                  
G05  21220678.613   111515432.925        1261.637          41.000    21220684.474    86895167.916         983.392          37.000  
G11  19961005.768   104895791.065       -1893.164          44.000    19961005.037    81737105.443       -1475.571          36.000  
G06  20234969.026   106335475.977       -3012.232          41.000    20234972.509    82859020.659       -2347.029          39.000  
G17  20787577.172   109239465.921       -3230.138          37.000    20787582.441    85121681.686       -2517.307          38.000  
G14  22494756.706   118210760.003       -5501.977          35.000    22494764.075    92112282.818       -4287.356          35.000  
G12  20669594.369   108619451.644          49.020          42.000    20669596.144    84638419.987          38.483          37.000  
G13  23777348.887   124950812.091         569.943          25.000                                                                  
G19  18943043.598    99546359.893       -2294.678          45.000                                                                  
G22  20886760.211   109760646.993       -4900.081          39.000                                                                  
> 2025 04 04 08 17 33.9940000  0 11                     
G09  21689292.951   113978021.332       -2037.494          38.000    21689309.003    88814099.438       -1587.732          37.000  
G20  18797904.362    98783659.629        -880.120          45.000                                                                  
G05  21220438.422   111514171.299        1261.716          41.000    21220444.465    86894184.867         983.393          37.000  
G11  19961366.071   104897684.146       -1892.548          44.000    19961365.288    81738580.575       -1474.896          36.000  
G06  20235542.180   106338487.883       -3011.657          41.000    20235545.719    82861367.603       -2346.849          39.000  
G17  20788191.813   109242696.264       -3229.984          37.000    20788197.141    85124198.802       -2517.269          38.000  
G14  22495803.782   118216261.876       -5501.864          35.000    22495810.902    92116569.980       -4286.969          35.000  
G12  20669585.050   108619402.595          49.122          42.000    20669586.798    84638381.787          38.022          37.000  
G13  23777240.747   124950241.482         570.863          24.000                                                                  
G19  18943480.228    99548654.513       -2294.348          44.000                                                                  
G22  20887692.681   109765547.004       -4899.512          39.000                                                                  
> 2025 04 04 08 17 34.9940000  0 11                     
G09  21689680.815   113980059.170       -2038.075          38.000    21689696.753    88815687.340       -1588.318          37.000  
G20  18798071.922    98784540.073        -880.543          45.000                                                                  
G05  21220198.348   111512909.689        1261.531          42.000    21220204.356    86893201.824         982.535          37.000  
G11  19961726.267   104899577.026       -1892.486          44.000    19961725.573    81740055.537       -1474.745          36.000  
G06  20236115.126   106341499.455       -3011.199          41.000    20236118.772    82863714.277       -2346.409          39.000  
G17  20788806.511   109245926.572       -3230.228          37.000    20788811.770    85126715.959       -2517.413          38.000  
G14  22496850.746   118221763.391       -5501.032          35.000    22496857.809    92120856.889       -4286.758          35.000  
G12  20669575.731   108619353.797          48.616          43.000    20669577.502    84638343.752          37.846          37.000  
G13  23777132.376   124949670.187         570.900          23.000                                                                  
G19  18943916.915    99550949.266       -2294.958          44.000                                                                  
G22  20888625.175   109770446.983       -4899.803          39.000                                                                  
> 2025 04 04 08 17 35.9940000  0 11                     
G09  21690068.611   113982097.251       -2038.269          38.000    21690084.495    88817275.514       -1588.712          36.000  
G20  18798239.554    98785420.833        -881.081          44.000                                                                  
G05  21219958.255   111511648.214        1261.261          42.000    21219964.301    86892218.840         982.886          37.000  
G11  19962086.473   104901469.824       -1892.752          44.000    19962085.818    81741530.463       -1475.256          36.000  
G06  20236688.109   106344510.824       -3011.452          41.000    20236691.841    82866060.797       -2346.710          39.000  
G17  20789421.232   109249157.062       -3230.509          37.000    20789426.498    85129233.211       -2517.589          38.000  
G14  22497897.642   118227264.741       -5501.486          35.000    22497904.711    92125143.614       -4286.282          35.000  
G12  20669566.615   108619305.365          47.850          43.000    20669568.173    84638305.997          37.647          37.000  
G13  23777022.082                         572.218          22.000                                                                  
G19  18944353.643    99553244.194       -2295.209          45.000                                                                  
G22  20889557.620   109775346.983       -4900.611          39.000                                                                  
> 2025 04 04 08 17 36.9940000  0 11                     
G09  21690456.500   113984136.129       -2039.074          38.000    21690472.404    88818864.217       -1589.452          36.000  
G20  18798407.299    98786302.312        -881.615          44.000                                                                  
G05  21219718.324   111510387.264        1260.966          42.000    21219724.382    86891236.313         982.289          37.000  
G11  19962446.595   104903362.911       -1892.968          44.000    19962446.094    81743005.557       -1474.986          36.000  
G06  20237261.173   106347522.407       -3011.617          40.000    20237264.912    82868407.479       -2346.311          39.000  
G17  20790036.130   109252388.100       -3231.613          37.000    20790041.343    85131750.855       -2517.752          38.000  
G14  22498944.431   118232766.175       -5501.212          35.000    22498951.555    92129430.503       -4286.743          35.000  
G12  20669557.621   108619257.687          47.409          43.000    20669559.160    84638268.853          37.123          37.000  
G13  23776914.952                         571.621          22.000                                                                  
G19  18944790.389    99555539.725       -2295.862          44.000                                                                  
G22  20890490.071   109780247.368       -4900.564          39.000                                                                  
> 2025 04 04 08 17 37.9940000  0 11                     
G09  21690844.642   113986175.754       -2039.885          37.000    21690860.549    88820453.511       -1588.970          37.000  
G20  18798575.173    98787184.588        -882.474          44.000                                                                  
G05  21219478.547   111509126.915        1260.007          42.000    21219484.550    86890254.204         981.951          37.000  
G11  19962806.837   104905256.357       -1893.582          43.000    19962806.389    81744480.985       -1475.436          36.000  
G06  20237834.422   106350534.233       -3012.195          40.000    20237838.028    82870754.364       -2347.125          39.000  
G17  20790651.071   109255619.675       -3231.425          36.000    20790656.290    85134268.975       -2517.915          38.000  
G14  22499991.371   118238267.915       -5501.655          35.000    22499998.492    92133717.568       -4287.410          35.000  
G12  20669548.660   108619210.817          46.693          42.000    20669550.272    84638232.345          35.910          37.000  
G13  23776806.881                         573.086          21.000                                                                  
G19  18945227.422    99557835.941       -2296.631          44.000                                                                  
G22  20891422.721   109785148.267       -4901.165          39.000                                                                  
> 2025 04 04 08 17 38.9940000  0 11                     
G09  21691232.643   113988215.884       -2040.461          37.000    21691248.678    88822043.253       -1589.836          36.000  
G20  18798743.137    98788067.359        -882.996          44.000                                                                  
G05  21219238.802   111507866.875        1259.726          42.000    21219244.677    86889272.362         981.452          37.000  
G11  19963167.179   104907149.899       -1893.686          44.000    19963166.702    81745956.455       -1475.410          36.000  
G06  20238407.672   106353546.025       -3011.680          41.000    20238411.176    82873101.221       -2347.115          39.000  
G17  20791266.140   109258851.629       -3232.096          37.000    20791271.306    85136787.377       -2518.584          38.000  
G14  22501038.284   118243769.586       -5501.345          35.000    22501045.452    92138004.553       -4286.810          36.000  
G12  20669539.887   108619164.515          45.863          42.000    20669541.567    84638196.258          35.877          37.000  
G13  23776697.923                         571.566          21.000                                                                  
G19  18945664.427    99560132.547       -2296.759          45.000                                                                  
G22  20892355.376   109790049.349       -4901.071          40.000                                                                  
> 2025 04 04 08 17 39.9940000  0 11                     
G09  21691620.852   113990256.154       -2040.051          37.000    21691636.926    88823633.062       -1589.724          36.000  
G20  18798910.965    98788950.283        -882.955          44.000                                                                  
G05  21218999.031   111506606.738        1260.091          41.000    21219004.853    86888290.440         981.678          36.000  
G11  19963527.444   104909043.123       -1892.841          43.000    19963526.895    81747431.734       -1474.949          36.000  
G06  20238980.644   106356557.456       -3011.045          40.000    20238984.264    82875447.769       -2346.192          38.000  
G17  20791881.208   109262083.504       -3231.711          37.000    20791886.190    85139305.733       -2518.265          38.000  
G14  22502085.159   118249270.854       -5500.844          33.000    22502092.361    92142291.257       -4286.763          36.000  
G12  20669531.078   108619118.414          45.911          41.000    20669532.706    84638160.336          35.661          37.000  
G13  23776588.919                         569.223          19.000                                                                  
G19  18946101.529    99562429.162       -2296.368          44.000                                                                  
G22  20893287.988   109794950.347       -4900.863          39.000                                                                  
> 2025 04 04 08 17 40.9940000  0 11                     
G09  21692009.073   113992296.137       -2039.989          37.000    21692025.038    88825222.661       -1589.109          36.000  
G20  18799078.803    98789832.918        -882.116          44.000                                                                  
G05  21218759.088   111505346.121        1261.164          41.000    21218764.969    86887308.142         982.695          36.000  
G11  19963887.496   104910935.677       -1891.880          43.000    19963887.037    81748906.428       -1474.424          36.000  
G06  20239553.588   106359568.050       -3009.811          40.000    20239557.193    82877793.681       -2345.212          39.000  
G17  20792496.190   109265314.908       -3230.927          38.000    20792501.129    85141823.688       -2517.351          38.000  
G14  22503131.703   118254771.311       -5499.902          33.000    22503139.055    92146577.289       -4285.308          36.000  
G12  20669522.294   108619072.017          46.860          41.000    20669523.896    84638124.196          36.387          37.000  
G13  23776478.144                         576.686          19.000                                                                  
G19  18946538.529    99564725.394       -2295.844          44.000                                                                  
G22  20894220.535   109799850.644       -4899.786          39.000                                                                  
> 2025 04 04 08 17 41.9940000  0 11                     
G09  21692397.017   113994335.486       -2039.264          37.000    21692413.042    88826811.773       -1589.100          36.000  
G20  18799246.584    98790714.930        -881.904          44.000                                                                  
G05  21218519.002   111504084.670        1261.784          41.000    21218524.870    86886325.196         983.299          36.000  
G11  19964247.429   104912827.175       -1891.122          43.000    19964247.020    81750380.287       -1472.556          36.000  
G06  20240126.324   106362577.480       -3008.614          40.000    20240129.948    82880138.705       -2344.621          39.000  
G17  20793111.015   109268545.474       -3230.143          37.000    20793115.845    85144341.028       -2516.649          38.000  
G14  22504178.196   118260270.566       -5499.174          33.000    22504185.565    92150862.428       -4284.651          36.000  
G12  20669513.306   108619025.055          47.330          41.000    20669514.974    84638087.604          36.503          37.000  
G13  23776367.227                         577.368          19.000                                                                  
G19  18946975.366    99567020.836       -2295.166          44.000                                                                  
G22  20895152.759   109804750.072       -4898.787          39.000                                                                  
> 2025 04 04 08 17 42.9940000  0 11                     
G09  21692785.103   113996374.380       -2038.864          37.000    21692800.940    88828400.533       -1588.749          36.000  
G20  18799414.311    98791596.473        -881.270          44.000                                                                  
G05  21218278.942   111502822.576        1262.410          41.000    21218284.702    86885341.744         983.582          37.000  
G11  19964607.208   104914717.778       -1889.832          43.000    19964606.829    81751853.559       -1473.807          36.000  
G06  20240698.668   106365585.945       -3008.066          40.000    20240702.496    82882482.954       -2343.852          39.000  
G17  20793725.705   109271775.391       -3229.426          37.000    20793730.541    85146857.866       -2516.638          38.000  
G14  22505224.554   118265768.760       -5497.922          32.000    22505231.812    92155146.764       -4283.930          36.000  
G12  20669504.244   108618977.680          47.514          41.000    20669505.891    84638050.709          36.734          37.000  
G13  23776257.297                         571.252          18.000                                                                  
G19  18947412.084    99569315.734       -2294.629          44.000                                                                  
G22  20896085.045   109809648.766       -4898.162          39.000                                                                  
> 2025 04 04 08 17 43.9940000  0 11                     
G09  21693173.026   113998412.798       -2038.061          35.000    21693188.769    88829988.877       -1587.430          36.000  
G20  18799581.918    98792477.556        -880.686          44.000                                                                  
G05  21218038.548   111501559.773        1263.442          41.000    21218044.435    86884357.775         984.410          37.000  
G11  19964966.716   104916607.498       -1889.263          43.000    19964966.422    81753326.036       -1471.940          36.000  
G06  20241271.031   106368593.408       -3006.982          40.000    20241274.745    82884826.419       -2343.299          39.000  
G17  20794340.211   109275004.674       -3229.224          37.000    20794345.017    85149374.190       -2515.744          38.000  
G14  22506270.737   118271266.005       -5496.898          33.000    22506277.960    92159430.306       -4283.264          36.000  
G12  20669495.119   108618929.859          48.141          42.000    20669496.846    84638013.435          37.519          37.000  
G13  23776145.491                         583.844          16.000                                                                  
G19  18947848.633    99571610.043       -2294.061          44.000                                                                  
G22  20897017.082   109814546.685       -4897.795          40.000                                                                  
> 2025 04 04 08 17 44.9940000  0 11                     
G09  21693560.709   114000450.765       -2038.063          34.000    21693576.508    88831576.931       -1587.990          36.000  
G20  18799749.444    98793358.187        -881.072          44.000                                                                  
G05  21217798.186   111500296.342        1263.561          41.000    21217804.152    86883373.282         984.360          37.000  
G11  19965326.191   104918496.337       -1888.964          43.000    19965325.926    81754797.813       -1471.294          36.000  
G06  20241843.105   106371599.866       -3006.495          40.000    20241846.843    82887169.092       -2342.472          39.000  
G17  20794954.552   109278233.288       -3228.757          38.000    20794959.481    85151890.011       -2515.918          38.000  
G14  22507316.806   118276762.179       -5495.980          32.000    22507323.789    92163713.032       -4282.605          36.000  
G12  20669485.927   108618881.636          48.137          42.000    20669487.629    84637975.845          37.163          37.000  
G13  23776034.822                         579.277          15.000                                                                  
G19  18948285.134    99573903.767       -2293.787          44.000                                                                  
G22  20897948.861   109819443.818       -4897.421          40.000                                                                  
> 2025 04 04 08 17 45.9940000  0 11                     
G09  21693948.373   114002488.354       -2037.350          34.000    21693964.286    88833164.675       -1587.729          36.000  
G20  18799917.055    98794238.417        -879.853          44.000                                                                  
G05  21217557.568   111499032.354        1264.502          41.000    21217563.609    86882388.372         984.864          37.000  
G11  19965685.355   104920384.361       -1887.247          43.000    19965685.302    81756269.039       -1470.822          36.000  
G06  20242415.063   106374605.428       -3004.832          40.000    20242418.772    82889511.115       -2341.548          39.000  
G17  20795568.748   109281461.372       -3227.586          38.000    20795573.710    85154405.385       -2515.258          38.000  
G14  22508362.678   118282257.472       -5495.023          32.000    22508369.459    92167995.045       -4281.384          35.000  
G12  20669476.624   108618833.093          48.854          42.000    20669478.435    84637938.000          37.938          37.000  
G13  23775922.849                         583.016          13.000                                                                  
G19  18948721.489    99576197.009       -2292.987          44.000                                                                  
G22  20898880.576   109824340.288       -4896.025          40.000                                                                  
> 2025 04 04 08 17 46.9940000  0 11                     
G09  21694335.819   114004525.166       -2035.986          35.000    21694351.855    88834751.808       -1586.567          37.000  
G20  18800084.508    98795117.921        -879.194          44.000                                                                  
G05  21217316.814   111497767.374        1265.388          41.000    21217322.915    86881402.683         986.145          37.000  
G11  19966044.353   104922271.233       -1886.618          43.000    19966044.307    81757739.298       -1469.365          36.000  
G06  20242986.812   106377609.724       -3003.964          40.000    20242990.393    82891852.103       -2340.795          39.000  
G17  20796182.791   109284688.477       -3226.325          37.000    20796187.874    85156920.002       -2514.067          38.000  
G14  22509408.169   118287751.370       -5493.226          32.000    22509414.995    92172276.088       -4280.384          36.000  
G12  20669467.352   108618783.816          49.420          42.000    20669469.014    84637899.597          38.623          37.000  
G13  23775810.979                         583.016          12.000                                                                  
G19  18949157.772    99578489.369       -2291.949          44.000                                                                  
G22  20899812.065   109829235.694       -4895.193          40.000                                                                  
> 2025 04 04 08 17 47.9940000  0 11                     
G09  21694723.345   114006561.551       -2036.926          36.000    21694739.345    88836338.562       -1587.003          36.000  
G20  18800251.731    98795996.932        -879.216          44.000                                                                  
G05  21217076.029   111496501.721        1265.844          41.000    21217082.039    86880416.458         986.077          37.000  
G11  19966403.180   104924157.191       -1885.863          43.000    19966403.144    81759208.896       -1469.382          36.000  
G06  20243558.415   106380612.989       -3003.038          40.000    20243561.915    82894192.313       -2339.953          39.000  
G17  20796796.782   109287914.960       -3226.400          36.000    20796801.826    85159434.146       -2514.054          38.000  
G14  22510453.317   118293244.385       -5493.038          32.000    22510460.196    92176556.294       -4279.939          35.000  
G12  20669457.892   108618734.077          49.739          42.000    20669459.684    84637860.860          38.396          37.000  
G13  23775700.414                         580.773          13.000                                                                  
G19  18949593.938    99580781.143       -2291.626          44.000                                                                  
G22  20900743.454   109834130.357       -4894.550          40.000                                                                  
> 2025 04 04 08 17 48.9940000  0 11                     
G09  21695110.841   114008598.259       -2037.012          37.000    21695126.851    88837925.623       -1587.107          37.000  
G20  18800419.177    98796876.299        -879.479          44.000                                                                  
G05  21216835.074   111495236.236        1265.363          41.000    21216841.195    86879430.373         986.213          37.000  
G11  19966762.042   104926043.065       -1885.915          43.000    19966761.948    81760678.407       -1469.156          36.000  
G06  20244129.956   106383616.086       -3003.413          40.000    20244133.484    82896532.381       -2340.392          39.000  
G17  20797410.718   109291141.570       -3226.573          36.000    20797415.966    85161948.374       -2513.905          38.000  
G14  22511498.506   118298737.102       -5493.188          32.000    22511505.462    92180836.351       -4280.730          36.000  
G12  20669448.581   108618684.759          49.183          42.000    20669450.326    84637822.415          38.364          37.000  
G13  23775590.373                         590.844          13.000                                                                  
G19  18950030.134    99583073.142       -2292.120          44.000                                                                  
G22  20901674.951   109839025.055       -4895.130          40.000                                                                  
> 2025 04 04 08 17 49.9940000  0 11                     
G09  21695498.560   114010635.294       -2037.135          36.000    21695514.456    88839512.971       -1587.676          36.000  
G20  18800586.610    98797756.055        -879.699          44.000                                                                  
G05  21216594.314   111493970.941        1265.180          41.000    21216600.415    86878444.415         986.227          37.000  
G11  19967120.751   104927928.921       -1885.822          43.000    19967120.798    81762147.901       -1469.393          36.000  
G06  20244701.321   106386619.023       -3002.785          40.000    20244704.949    82898872.329       -2339.611          39.000  
G17  20798024.807   109294368.387       -3226.335          37.000    20798030.097    85164462.777       -2514.382          38.000  
G14  22512543.712   118304229.618       -5491.337          31.000    22512550.639    92185116.258       -4279.760          36.000  
G12  20669439.332   108618635.880          48.757          41.000    20669441.025    84637784.314          37.920          37.000  
G13  23775478.056                         590.485          13.000                                                                  
G19  18950466.385    99585365.426       -2292.242          44.000                                                                  
G22  20902606.367   109843919.829       -4894.639          40.000                                                                  
> 2025 04 04 08 17 50.9940000  0 11                     
G09  21695886.383   114012672.858       -2037.546          37.000    21695902.189    88841100.666       -1588.031          35.000  
G20  18800754.102    98798636.292        -880.524          44.000                                                                  
G05  21216353.658   111492705.919        1264.632          41.000    21216359.742    86877458.697         985.356          37.000  
G11  19967479.555   104929814.810       -1885.961          43.000    19967479.657    81763617.464       -1469.910          36.000  
G06  20245272.691   106389621.925       -3002.833          40.000    20245276.410    82901212.272       -2340.222          39.000  
G17  20798638.917   109297595.486       -3227.289          37.000    20798644.235    85166977.401       -2514.865          38.000  
G14  22513588.956   118309722.141       -5492.882          30.000    22513595.872    92189396.130       -4280.349          36.000  
G12  20669430.195   108618587.502          48.028          41.000    20669431.824    84637746.641          37.023          37.000  
G13  23775365.926                         589.271          13.000                                                                  
G19  18950902.644    99587658.058       -2292.859          44.000                                                                  
G22  20903537.881   109848814.801       -4895.246          40.000                                                                  
> 2025 04 04 08 17 51.9940000  0 11                     
G09  21696274.386   114014711.285       -2038.917          36.000    21696290.082    88842689.064       -1589.233          36.000  
G20  18800921.711    98799517.405        -881.586          44.000                                                                  
G05  21216113.027   111491441.570        1263.878          41.000    21216119.141    86876473.512         984.393          37.000  
G11  19967838.543   104931701.187       -1887.185          44.000    19967838.571    81765087.341       -1470.572          36.000  
G06  20245844.316   106392625.167       -3003.582          40.000    20245847.971    82903552.448       -2340.469          39.000  
G17  20799253.113   109300823.261       -3228.302          37.000    20799258.514    85169492.560       -2515.569          38.000  
G14  22514634.324   118315214.980       -5493.476          30.000    22514641.184    92193676.232       -4280.541          36.000  
G12  20669421.016   108618540.039          46.751          42.000    20669422.661    84637709.648          36.549          37.000  
G13  23775253.592                         576.590          13.000                                                                  
G19  18951339.078    99589951.448       -2293.896          43.000                                                                  
G22  20904469.417   109853710.332       -4895.978          40.000                                                                  
> 2025 04 04 08 17 52.9940000  0 11                     
G09  21696662.411   114016750.736       -2039.764          37.000    21696678.188    88844278.247       -1589.172          36.000  
G20  18801089.563    98800399.537        -882.465          44.000                                                                  
G05  21215872.454   111490178.034        1263.168          41.000    21215878.651    86875488.939         984.218          37.000  
G11  19968197.593   104933588.128       -1887.166          44.000    19968197.627    81766557.678       -1470.759          36.000  
G06  20246415.881   106395628.889       -3003.876          40.000    20246419.521    82905893.022       -2340.944          39.000  
G17  20799867.515   109304051.906       -3229.049          38.000    20799872.918    85172008.344       -2515.760          39.000  
G14  22515679.699   118320708.242       -5493.787          30.000    22515686.558    92197956.692       -4280.550          36.000  
G12  20669412.292   108618493.659          45.894          42.000    20669413.828    84637673.494          35.572          37.000  
G13  23775141.952                         585.734          13.000                                                                  
G19  18951775.659    99592245.759       -2294.708          43.000                                                                  
G22  20905401.064   109858606.612       -4896.601          40.000                                                                  
> 2025 04 04 08 17 53.9940000  0 11                     
G09  21697050.579   114018791.120       -2040.841          37.000    21697066.449    88845868.159       -1590.291          36.000  
G20  18801257.559    98801282.593        -883.449          44.000                                                                  
G05  21215632.168   111488915.218        1262.268          42.000    21215638.257    86874504.918         983.728          37.000  
G11  19968556.658   104935475.568       -1887.782          44.000    19968556.793    81768028.407       -1470.333          36.000  
G06  20246987.541   106398633.030       -3004.391          40.000    20246991.262    82908233.879       -2340.911          39.000  
G17  20800482.054   109307281.260       -3229.823          37.000    20800487.410    85174524.762       -2517.071          38.000  
G14  22516725.090   118326201.894       -5493.786          29.000    22516731.894    92202237.454       -4280.640          36.000  
G12  20669403.605   108618448.215          45.018          42.000    20669405.132    84637638.111          34.824          37.000  
G13  23775030.944                         586.196          15.000                                                                  
G19  18952212.380    99594540.862       -2295.538          43.000                                                                  
G22  20906332.947   109863503.483       -4897.198          40.000                                                                  
> 2025 04 04 08 17 54.9940000  0 11                     
G09  21697439.017   114020832.263       -2041.371          37.000    21697454.781    88847458.687       -1591.135          36.000  
G20  18801425.728    98802166.449        -884.285          44.000                                                                  
G05  21215392.054   111487653.007        1261.802          42.000    21215398.071    86873521.394         982.951          37.000  
G11  19968915.889   104937363.383       -1888.070          44.000    19968916.020    81769499.481       -1471.266          36.000  
G06  20247559.199   106401637.401       -3004.289          40.000    20247563.022    82910574.943       -2340.872          39.000  
G17  20801096.791   109310511.201       -3230.160          38.000    20801101.995    85177041.605       -2517.126          38.000  
G14  22517770.499   118331695.669       -5493.650          28.000    22517777.326    92206518.372       -4280.774          36.000  
G12  20669395.086   108618403.607          44.448          42.000    20669396.702    84637603.342          34.551          37.000  
G13  23774920.740                         588.800          16.000                                                                  
G19  18952649.273    99596836.639       -2296.143          43.000                                                                  
G22  20907264.868   109868400.906       -4898.005          40.000                                                                  
> 2025 04 04 08 17 55.9940000  0 11                     
G09  21697827.474   114022873.908       -2041.593          37.000    21697843.242    88849049.585       -1590.977          36.000  
G20  18801594.032    98803050.792        -884.693          44.000                                                                  
G05  21215151.882   111486391.071        1261.884          42.000    21215157.916    86872538.070         982.998          37.000  
G11  19969275.173   104939251.286       -1887.981          44.000    19969275.247    81770970.532       -1471.261          36.000  
G06  20248131.055   106404641.751       -3004.115          40.000    20248134.784    82912916.025       -2341.333          38.000  
G17  20801711.433   109313741.467       -3230.138          37.000    20801716.678    85179558.659       -2517.060          38.000  
G14  22518815.786   118337189.603       -5494.510          27.000    22518822.790    92210799.292       -4281.060          36.000  
G12  20669386.676   108618359.557          43.916          42.000    20669388.316    84637568.997          34.164          37.000  
G13  23774809.010                         579.939          17.000                                                                  
G19  18953086.243    99599132.800       -2296.265          43.000                                                                  
G22  20908196.913   109873298.468       -4897.371          40.000                                                                  
> 2025 04 04 08 17 56.9940000  0 11                     
G09  21698216.107   114024916.172       -2042.647          37.000    21698231.820    88850640.915       -1591.492          36.000  
G20  18801762.382    98803935.701        -885.125          44.000                                                                  
G05  21214911.798   111485129.517        1261.440          42.000    21214917.859    86871555.024         982.767          38.000  
G11  19969634.466   104941139.302       -1888.039          44.000    19969634.430    81772441.736       -1471.412          36.000  
G06  20248702.735   106407646.139       -3004.227          40.000    20248706.615    82915257.098       -2341.154          39.000  
G17  20802326.174   109316972.107       -3230.639          37.000    20802331.425    85182076.036       -2517.455          38.000  
G14  22519861.120   118342683.509       -5493.725          27.000    22519868.186    92215080.240       -4280.929          36.000  
G12  20669378.369   108618316.090          43.442          42.000    20669380.060    84637535.146          33.796          37.000  
G13  23774696.873                         595.767          16.000                                                                  
G19  18953523.214    99601429.395       -2296.692          43.000                                                                  
G22  20909128.939   109878196.272       -4897.708          40.000                                                                  
> 2025 04 04 08 17 57.9940000  0 11                     
G09  21698604.886   114026958.870       -2043.124          37.000    21698620.499    88852232.631       -1591.796          36.000  
G20  18801930.801    98804821.111        -885.939          44.000                                                                  
G05  21214671.801   111483868.265        1260.855          42.000    21214677.796    86870572.224         982.506          38.000  
G11  19969993.787   104943027.420       -1888.407          44.000    19969993.738    81773912.976       -1471.076          36.000  
G06  20249274.380   106410650.478       -3004.269          40.000    20249278.310    82917598.160       -2340.873          39.000  
G17  20802941.057   109320203.051       -3231.524          36.000    20802946.185    85184593.672       -2518.208          38.000  
G14  22520906.544   118348177.329       -5493.884          27.000    22520913.612    92219361.093       -4280.977          35.000  
G12  20669370.131   108618273.192          42.406          42.000    20669371.879    84637501.689          33.334          36.000  
G13  23774586.081                         593.412          16.000                                                                  
G19  18953960.289    99603726.390       -2297.375          43.000                                                                  
G22  20910060.886   109883094.327       -4898.441          41.000                                                                  
> 2025 04 04 08 17 58.9940000  0 11                     
G09  21698994.119   114029002.308       -2043.861          38.000    21699009.351    88853824.932       -1592.560          36.000  
G20  18802099.449    98805707.212        -886.427          44.000                                                                  
G05  21214431.757   111482607.497        1260.518          42.000    21214437.961    86869589.822         982.305          38.000  
G11  19970353.137   104944915.806       -1888.409          44.000    19970353.098    81775384.425       -1471.544          37.000  
G06  20249846.039   106413655.023       -3004.754          40.000    20249849.926    82919939.337       -2341.093          39.000  
G17  20803555.973   109323434.500       -3231.371          37.000    20803561.123    85187111.674       -2518.248          38.000  
G14  22521951.974   118353671.188       -5494.087          26.000    22521959.015    92223642.073       -4281.305          34.000  
G12  20669362.108   108618231.029          41.854          42.000    20669363.814    84637468.835          32.600          36.000  
G13  23774475.393                         576.720          14.000                                                                  
G19  18954397.454    99606023.964       -2297.870          43.000                                                                  
G22  20910992.929   109887992.775       -4898.572          41.000                                                                  
> 2025 04 04 08 17 59.9940000  0 11                     
G09  21699383.507   114031046.704       -2045.032          38.000    21699398.382    88855417.933       -1593.000          36.000  
G20  18802268.275    98806594.293        -887.704          45.000                                                                  
G05  21214191.994   111481347.487        1259.578          42.000    21214198.131    86868607.991         981.770          38.000  
G11  19970712.558   104946804.735       -1889.405          44.000    19970712.569    81776856.326       -1471.951          37.000  
G06  20250417.900   106416659.971       -3005.330          40.000    20250421.684    82922280.882       -2341.756          39.000  
G17  20804171.095   109326666.746       -3232.673          37.000    20804176.156    85189630.294       -2518.901          38.000  
G14  22522997.525   118359165.475       -5494.175          25.000    22523004.607    92227923.343       -4281.281          34.000  
G12  20669354.379   108618189.863          40.305          42.000    20669356.100    84637436.747          31.671          36.000  
G13  23774362.719                         596.034          13.000                                                                  
G19  18954834.786    99608322.376       -2298.816          43.000                                                                  
G22  20911925.244   109892891.879       -4899.685          41.000                                                                  
> 2025 04 04 08 18 00.9940000  0 11                     
G09  21699772.980   114033092.231       -2046.501          38.000    21699787.644    88857011.875       -1594.971          36.000  
G20  18802437.306    98807482.526        -888.979          44.000                                                                  
G05  21213952.424   111480088.444        1258.155          42.000    21213958.617    86867626.926         980.387          37.000  
G11  19971072.128   104948694.385       -1890.394          44.000    19971072.213    81778328.824       -1473.357          37.000  
G06  20250989.848   106419665.555       -3006.266          40.000    20250993.572    82924622.871       -2342.575          39.000  
G17  20804786.396   109329899.971       -3234.311          36.000    20804791.338    85192149.675       -2520.277          38.000  
G14  22524042.836                       -5504.326          23.000    22524050.262    92232205.149       -4282.484          34.000  
G12  20669346.653   108618149.889          38.956          42.000    20669348.533    84637405.611          30.102          37.000  
G13  23774251.575                         584.049          11.000                                                                  
G19  18955272.302    99610621.812       -2300.043          44.000                                                                  
G22  20912857.771   109897791.835       -4900.547          41.000                                                                  
> 2025 04 04 08 18 01.9940000  0 10                     
G09  21700162.591   114035139.160       -2047.368          38.000    21700177.080    88858606.876       -1595.595          36.000  
G20  18802606.667    98808372.159        -890.439          45.000                                                                  
G05  21213713.033   111478830.575        1257.682          42.000    21213719.260    86866646.794         979.585          37.000  
G11  19971431.842   104950584.998       -1890.832          44.000    19971431.954    81779802.001       -1473.365          36.000  
G06  20251562.022   106422671.996       -3006.632          40.000    20251565.633    82926965.571       -2343.157          39.000  
G17  20805401.910   109333134.377       -3234.849          36.000    20805406.781    85194670.010       -2521.168          38.000  
G14  22525086.605                       -5495.511          21.000    22525095.976    92236487.548       -4282.579          35.000  
G12  20669339.394   108618111.324          37.896          42.000    20669341.239    84637375.588          29.242          37.000  
G19  18955710.069    99612922.534       -2301.184          44.000                                                                  
G22  20913790.425   109902692.892       -4901.609          41.000                                                                  
> 2025 04 04 08 18 02.9940000  0 10                     
G09  21700552.257   114037186.621       -2047.671          38.000    21700566.662    88860202.302       -1595.614          36.000  
G20  18802776.089    98809262.321        -890.056          45.000                                                                  
G05  21213473.734   111477573.089        1257.403          42.000    21213479.926    86865666.930         979.711          37.000  
G11  19971791.786   104952475.746       -1890.367          44.000    19971791.762    81781275.287       -1472.801          36.000  
G06  20252134.139   106425678.466       -3006.359          40.000    20252137.744    82929308.248       -2342.331          39.000  
G17  20806017.398   109336369.096       -3234.202          36.000    20806022.286    85197190.574       -2520.695          38.000  
G14  22526132.769                       -5503.916          20.000    22526141.631    92240769.981       -4282.444          34.000  
G12  20669332.047   108618073.376          37.974          42.000    20669333.899    84637345.969          30.015          37.000  
G19  18956147.959    99615223.689       -2301.117          43.000                                                                  
G22  20914723.059   109907594.177       -4901.056          41.000                                                                  
> 2025 04 04 08 18 03.9940000  0 10                     
G09  21700941.899   114039233.720       -2046.518          38.000    21700956.178    88861797.450       -1594.824          36.000  
G20  18802945.440    98810152.138        -889.355          45.000                                                                  
G05  21213234.414   111476315.019        1258.508          42.000    21213240.504    86864686.623         980.851          37.000  
G11  19972151.417   104954365.705       -1889.305          44.000    19972151.442    81782748.031       -1472.151          36.000  
G06  20252705.890   106428684.036       -3005.121          40.000    20252709.617    82931650.251       -2341.243          39.000  
G17  20806632.788   109339603.342       -3233.619          36.000    20806637.767    85199710.721       -2519.487          37.000  
G14  22527179.479                       -5490.943          20.000    22527187.178    92245051.718       -4281.343          34.000  
G12  20669324.714   108618035.113          38.579          42.000    20669326.614    84637316.186          29.774          37.000  
G19  18956585.810    99617524.356       -2300.177          44.000                                                                  
G22  20915655.543   109912494.832       -4900.172          40.000                                                                  
> 2025 04 04 08 18 04.9940000  0 11                     
G09  21701331.114   114041279.730       -2045.637          38.000    21701345.568    88863391.743       -1593.817          36.000  
G20  18803114.562    98811040.854        -888.219          44.000                                                                  
G05  21212994.768   111475055.664        1259.958          42.000    21213000.864    86863705.304         981.771          37.000  
G11  19972510.815   104956254.146       -1887.718          44.000    19972510.826    81784219.533       -1471.184          36.000  
G06  20253277.489   106431687.963       -3003.227          41.000    20253281.307    82933990.989       -2340.010          39.000  
G17  20807247.987   109342836.252       -3232.371          37.000    20807252.861    85202229.901       -2519.069          37.000  
G04  23736601.182                       -2796.000          16.000                                                                  
G14  22528226.924                       -5496.205          19.000    22528232.506    92249332.106       -4280.144          34.000  
G12  20669317.344   108617995.783          39.500          42.000    20669319.123    84637285.505          31.353          37.000  
G19  18957023.356    99619823.827       -2299.109          44.000                                                                  
G22  20916587.826   109917394.059       -4898.515          41.000                                                                  
> 2025 04 04 08 18 05.9940000  0 11                     
G09  21701720.305   114043325.075       -2045.707          38.000    21701734.742    88864985.506       -1593.600          36.000  
G20  18803283.500    98811928.920        -888.290          45.000                                                                  
G05  21212754.919   111473795.433        1260.366          42.000    21212761.059    86862723.341         981.496          37.000  
G11  19972870.029   104958141.489       -1887.148          44.000    19972870.028    81785690.166       -1470.121          36.000  
G06  20253848.913   106434690.715       -3002.597          41.000    20253852.767    82936330.825       -2339.886          39.000  
G17  20807862.974   109346068.319       -3231.839          37.000    20807867.841    85204748.385       -2518.270          37.000  
G04  23737129.671                       -2796.000          16.000                                                                  
G14  22529277.160                       -5483.959          19.000    22529277.491    92253611.587       -4279.498          35.000  
G12  20669309.714   108617955.830          39.901          42.000    20669311.580    84637254.397          30.977          37.000  
G19  18957460.753    99622122.509       -2298.663          44.000                                                                  
G22  20917519.899   109922292.342       -4898.354          41.000                                                                  
> 2025 04 04 08 18 06.9940000  0 11                     
G09  21702109.705   114045370.828       -2046.243          38.000    21702124.039    88866579.633       -1593.862          35.000  
G20  18803452.498    98812817.416        -888.881          45.000                                                                  
G05  21212515.085   111472535.475        1259.514          42.000    21212521.362    86861741.521         981.423          37.000  
G11  19973229.261   104960028.870       -1887.417          44.000    19973229.114    81787160.857       -1470.724          36.000  
G06  20254420.292   106437693.352       -3002.346          41.000    20254424.117    82938670.530       -2339.653          39.000  
G17  20808478.014   109349300.644       -3232.606          36.000    20808482.918    85207267.084       -2519.083          37.000  
G04  23737664.300                       -2796.000          16.000                                                                  
G14  22530320.870                       -5494.559          19.000    22530322.576    92257890.947       -4279.106          34.000  
G12  20669302.206   108617916.360          39.260          42.000    20669304.076    84637223.643          30.492          37.000  
G19  18957898.376    99624421.510       -2299.414          44.000                                                                  
G22  20918452.028   109927190.755       -4898.543          41.000                                                                  
> 2025 04 04 08 18 07.9940000  0 11                     
G09  21702499.291   114047417.632       -2047.562          38.000    21702513.517    88868174.555       -1595.456          35.000  
G20  18803621.859    98813706.932        -890.022          45.000                                                                  
G05  21212275.446   111471276.288        1258.628          42.000    21212281.783    86860760.344         980.702          38.000  
G11  19973588.611   104961916.826       -1888.444          44.000    19973588.362    81788631.987       -1471.427          36.000  
G06  20254991.804   106440696.502       -3003.533          41.000    20254995.573    82941010.643       -2340.439          39.000  
G17  20809093.233   109352533.802       -3233.770          35.000    20809098.131    85209786.395       -2519.511          37.000  
G04  23738193.612                       -2796.000          16.000                                                                  
G14  22531366.786                       -5492.780          21.000    22531367.745    92262170.704       -4280.128          34.000  
G12  20669295.001   108617877.939          37.702          42.000    20669296.684    84637193.716          29.433          37.000  
G19  18958336.155    99626721.402       -2300.525          44.000                                                                  
G22  20919384.255   109932089.853       -4899.375          41.000                                                                  
> 2025 04 04 08 18 08.9940000  0 11                     
G09  21702888.944   114049465.645       -2048.766          38.000    21702903.241    88869770.397       -1596.312          35.000  
G20  18803791.380    98814597.672        -890.971          44.000                                                                  
G05  21212036.010   111470018.147        1257.874          42.000    21212042.394    86859779.974         979.926          37.000  
G11  19973948.090   104963805.594       -1889.076          44.000    19973947.798    81790103.733       -1471.508          36.000  
G06  20255563.536   106443700.334       -3003.553          41.000    20255567.204    82943351.301       -2340.765          39.000  
G17  20809708.558   109355767.943       -3233.735          37.000    20809713.584    85212306.518       -2520.390          37.000  
G04  23738726.142                       -2796.000          16.000                                                                  
G14  22532413.820                       -5493.733          24.000    22532412.976    92266450.957       -4281.053          34.000  
G12  20669287.852   108617840.787          36.955          41.000    20669289.624    84637164.777          28.053          37.000  
G19  18958774.024    99629022.424       -2301.349          44.000                                                                  
G22  20920316.806   109936989.922       -4900.064          41.000                                                                  
