     2.11           O                   G                   RINEX VERSION / TYPE
WALKEGNOS           ISMB                  20180216  082104  PGM / RUN BY / DATE 
                                                            COMMENT             
                                                            MARKER NAME         
1                                                           MARKER NUMBER       
NavSAS              ISMB / POLITO                           OBSERVER / AGENCY   
1                                    NVSFW ver              REC # / TYPE / VERS 
1                   PATCH                                   ANT # / TYPE        
        0.0000        0.0000        0.0000                  APPROX POSITION XYZ 
        0.0000        0.0000        0.0000                  ANTENNA: DELTA H/E/N
     1     0                                                WAVELENGTH FACT L1/2
     4    L1    C1    D1    S1                              # / TYPES OF OBSERV 
     1.000                                                  INTERVAL            
  2018    02    16     8    21    4.0000000     GPS         TIME OF FIRST OBS   
                                                            END OF HEADER       
 18  2 16  8 21  4.0000000  2  1
            *** FROM NOW ON KINEMATIC DATA! ***             COMMENT             
 18  2 16  8 21  4.0000000  0  8G23G11G09G03G30G01G10G05            -0.000786576
    107528.014    22690947.123       -2122.189          39.000  
   -118338.575    21507275.381        2228.431          38.000  
     34376.918    20497235.326        -702.140          38.000  
    153885.829    25100227.526       -3089.046          39.000  
   -187645.747    22801027.042        3536.780          38.000  
    -68639.452    22486017.341        1301.055          38.000  
     68427.611    21429789.043       -1383.896          38.000  
   -185210.142    24384754.598        3557.578          39.000  
 18  2 16  8 21  5.0000000  0  8G23G11G09G03G30G01G10G05            -0.000786427
    109650.758    22691351.035       -2122.802          38.000  
   -120566.589    21506851.403        2227.953          38.000  
     35079.618    20497369.022        -702.941          38.000  
    156975.364    25100815.452       -3089.684          38.000  
   -191182.014    22800354.166        3536.161          38.000  
    -69939.811    22485769.855        1300.174          38.000  
     69812.119    21430052.433       -1384.717          38.000  
   -188767.502    24384077.701        3557.490          38.000  
 18  2 16  8 21  6.0000000  0  8G23G11G09G03G30G01G10G05            -0.000786280
    111774.103    22691755.053       -2123.333          38.000  
   -122794.182    21506427.478        2227.946          38.000  
     35782.964    20497502.879        -703.313          38.000  
    160065.503    25101403.468       -3090.102          38.000  
   -194717.751    22799681.325        3535.677          39.000  
    -71239.574    22485522.477        1299.747          38.000  
     71197.214    21430316.036       -1385.067          38.000  
   -192324.787    24383400.805        3557.662          38.000  
 18  2 16  8 21  7.0000000  0  8G23G11G09G03G30G01G10G05            -0.000786130
    113897.777    22692159.161       -2123.672          38.000  
   -125021.818    21506003.553        2227.523          38.000  
     36486.717    20497636.772        -703.801          38.000  
    163155.975    25101991.520       -3090.540          38.000  
   -198253.223    22799008.557        3535.392          38.000  
    -72538.987    22485275.277        1299.503          38.000  
     72582.670    21430579.640       -1385.548          38.000  
   -195882.236    24382723.873        3557.647          38.000  
 18  2 16  8 21  8.0000000  0  8G23G11G09G03G30G01G10G05            -0.000785983
    116022.084    22692563.412       -2124.595          38.000  
   -127249.014    21505579.700        2226.949          38.000  
     37191.163    20497770.825        -704.780          38.000  
    166247.113    25102579.750       -3091.479          38.000  
   -201788.122    22798335.877        3534.697          38.000  
    -73837.709    22485028.148        1298.431          38.000  
     73968.787    21430843.369       -1386.361          38.000  
   -199439.599    24382046.976        3557.394          38.000  
 18  2 16  8 21  9.0000000  0  8G23G11G09G03G30G01G10G05            -0.000785835
    118147.101    22692967.806       -2125.335          38.000  
   -129475.700    21505155.936        2226.643          38.000  
     37896.373    20497904.986        -705.499          38.000  
    169338.978    25103168.106       -3092.223          38.000  
   -205322.306    22797663.305        3533.964          38.000  
    -75135.693    22484781.091        1297.724          38.000  
     75355.683    21431107.241       -1387.206          38.000  
   -202996.753    24381370.080        3557.149          38.000  
 18  2 16  8 21 10.0000000  0  8G23G11G09G03G30G01G10G05            -0.000785684
    120272.470    22693372.218       -2125.105          38.000  
   -131702.119    21504732.297        2226.803          38.000  
     38602.045    20498039.325        -705.598          38.000  
    172431.235    25103756.568       -3092.068          38.000  
   -208856.123    22796990.804        3533.872          38.000  
    -76433.274    22484534.159        1297.768          38.000  
     76742.994    21431371.202       -1387.314          38.000  
   -206554.062    24380693.130        3557.762          38.000  
 18  2 16  8 21 11.0000000  0  8G23G11G09G03G30G01G10G05            -0.000785536
    122398.096    22693776.683       -2125.531          38.000  
   -133928.585    21504308.641        2226.521          38.000  
     39308.021    20498173.665        -706.121          38.000  
    175523.811    25104345.085       -3092.718          38.000  
   -212389.698    22796318.393        3533.450          38.000  
    -77730.545    22484287.298        1297.194          38.000  
     78130.655    21431635.235       -1387.803          38.000  
   -210111.609    24380016.180        3557.617          38.000  
 18  2 16  8 21 12.0000000  0  8G23G11G09G03G30G01G10G05            -0.000785388
    124524.413    22694181.309       -2126.326          38.000  
   -136154.477    21503885.109        2225.846          38.000  
     40014.738    20498308.183        -706.750          38.000  
    178617.093    25104933.762       -3093.295          38.000  
   -215922.545    22795646.107        3532.712          38.000  
    -79027.079    22484040.545        1296.338          38.000  
     79519.068    21431899.446       -1388.520          38.000  
   -213669.016    24379339.248        3557.712          38.000  
 18  2 16  8 21 13.0000000  0  8G23G11G09G03G30G01G10G05            -0.000785238
    126651.247    22694586.007       -2126.864          38.000  
   -138379.940    21503461.649        2225.416          38.000  
     40722.089    20498442.754        -707.479          38.000  
    181710.994    25105522.510       -3094.093          38.000  
   -219454.820    22794973.910        3532.101          38.000  
    -80323.007    22483793.970        1295.603          38.000  
     80908.149    21432163.765       -1389.220          38.000  
   -217226.359    24378662.315        3557.463          38.000  
 18  2 16  8 21 14.0000000  0  8G23G11G09G03G30G01G10G05            -0.000785090
    128778.377    22694990.758       -2127.173          38.000  
   -140605.145    21503038.242        2225.194          38.000  
     41429.824    20498577.487        -707.851          38.000  
    184805.249    25106111.348       -3094.190          38.000  
   -222986.740    22794301.749        3531.958          38.000  
    -81618.609    22483547.449        1295.644          38.000  
     82297.636    21432428.155       -1389.633          38.000  
   -220783.915    24377985.330        3557.896          38.000  
 18  2 16  8 21 15.0000000  0  8G23G11G09G03G30G01G10G05            -0.000784942
    130905.523    22695395.563       -2127.132          38.000  
   -142830.517    21502614.764        2225.352          38.000  
     42137.651    20498712.273        -707.872          38.000  
    187899.622    25106700.204       -3094.415          38.000  
   -226518.531    22793629.659        3531.810          38.000  
    -82914.060    22483300.910        1295.450          38.000  
     83687.336    21432692.670       -1389.737          38.000  
   -224341.898    24377308.201        3558.120          38.000  
 18  2 16  8 21 16.0000000  0  8G23G11G09G03G30G01G10G05            -0.000784793
    133033.244    22695800.404       -2128.031          38.000  
   -145055.328    21502191.412        2224.676          38.000  
     42846.154    20498847.148        -708.760          38.000  
    190994.657    25107289.238       -3095.318          38.000  
   -230049.652    22792957.712        3530.848          38.000  
    -84208.864    22483054.514        1294.575          39.000  
     85077.751    21432957.257       -1390.758          38.000  
   -227899.830    24376631.090        3558.012          38.000  
 18  2 16  8 21 17.0000000  0  8G23G11G09G03G30G01G10G05            -0.000784640
    135161.428    22696205.441       -2128.165          38.000  
   -147279.673    21501768.094        2224.383          38.000  
     43555.217    20498982.113        -708.976          38.000  
    194090.252    25107878.326       -3095.682          38.000  
   -233580.176    22792285.855        3530.565          38.000  
    -85503.069    22482808.244        1294.149          38.000  
     86468.841    21433221.951       -1391.135          38.000  
   -231457.711    24375953.979        3558.101          38.000  
 18  2 16  8 21 18.0000000  0  8G23G11G09G03G30G01G10G05            -0.000784494
    137290.088    22696610.496       -2128.662          38.000  
   -149503.497    21501344.902        2223.876          38.000  
     44264.878    20499117.131        -709.668          38.000  
    197186.428    25108467.522       -3096.338          38.000  
   -237110.080    22791614.158        3529.792          38.000  
    -86796.699    22482562.080        1293.740          38.000  
     87860.617    21433486.787       -1392.100          38.000  
   -235015.591    24375276.940        3558.088          38.000  
 18  2 16  8 21 19.0000000  0  8G23G11G09G03G30G01G10G05            -0.000784348
    139419.318    22697015.676       -2129.158          38.000  
   -151726.768    21500921.800        2223.177          38.000  
     44975.198    20499252.275        -710.338          38.000  
    200283.275    25109056.860       -3096.948          38.000  
   -240639.251    22790942.623        3529.108          38.000  
    -88089.589    22482316.023        1292.806          38.000  
     89253.206    21433751.749       -1392.608          38.000  
   -238573.328    24374599.918        3557.894          38.000  
 18  2 16  8 21 20.0000000  0  8G23G11G09G03G30G01G10G05            -0.000784199
    141548.947    22697420.945       -2129.725          38.000  
   -153949.570    21500498.840        2222.778          38.000  
     45686.063    20499387.525        -711.108          38.000  
    203380.654    25109646.288       -3097.591          38.000  
   -244167.840    22790271.176        3528.384          38.000  
    -89381.951    22482070.074        1292.174          38.000  
     90646.471    21434016.890       -1393.414          38.000  
   -242131.082    24373922.950        3557.780          38.000  
 18  2 16  8 21 21.0000000  0  8G23G11G09G03G30G01G10G05            -0.000784053
    143678.849    22697826.233       -2129.919          38.000  
   -156171.977    21500075.969        2222.345          38.000  
     46397.311    20499522.883        -711.436          38.000  
    206478.424    25110235.805       -3097.825          38.000  
   -247695.947    22789599.766        3527.989          38.000  
    -90673.877    22481824.268        1292.008          38.000  
     92040.281    21434282.155       -1393.879          38.000  
   -245688.986    24373245.875        3558.043          38.000  
 18  2 16  8 21 22.0000000  0  8G23G11G09G03G30G01G10G05            -0.000783905
    145809.149    22698231.627       -2130.393          38.000  
   -158393.843    21499653.224        2221.747          38.000  
     47109.066    20499658.330        -711.816          38.000  
    209576.727    25110825.411       -3098.489          38.000  
   -251223.454    22788928.498        3527.307          38.000  
    -91965.205    22481578.515        1291.058          38.000  
     93434.749    21434547.510       -1394.885          38.000  
   -249246.899    24372568.818        3557.929          38.000  
 18  2 16  8 21 23.0000000  0  8G23G11G09G03G30G01G10G05            -0.000783757
    147939.947    22698637.111       -2130.785          38.000  
   -160615.085    21499230.532        2221.341          38.000  
     47821.479    20499793.867        -712.364          38.000  
    212675.646    25111415.106       -3098.830          38.000  
   -254750.214    22788257.373        3526.776          38.000  
    -93255.849    22481332.906        1290.684          38.000  
     94830.107    21434813.062       -1395.141          38.000  
   -252804.679    24371891.814        3558.016          38.000  
 18  2 16  8 21 24.0000000  0  8G23G11G09G03G30G01G10G05            -0.000783609
    150070.901    22699042.613       -2130.853          38.000  
   -162835.955    21498807.930        2220.855          38.000  
     48534.184    20499929.475        -712.622          38.000  
    215774.894    25112004.874       -3099.173          38.000  
   -258276.546    22787586.373        3526.290          38.000  
    -94546.108    22481087.385        1290.270          38.000  
     96225.975    21435078.685       -1395.795          38.000  
   -256362.663    24371214.757        3558.118          38.000  
 18  2 16  8 21 25.0000000  0  8G23G11G09G03G30G01G10G05            -0.000783455
    152202.064    22699448.168       -2131.039          38.000  
   -165056.400    21498385.399        2220.451          38.000  
     49247.254    20500065.226        -712.892          38.000  
    218874.488    25112594.712       -3099.557          38.000  
   -261802.413    22786915.445        3525.931          38.000  
    -95835.931    22480841.918        1289.734          38.000  
     97622.428    21435344.469       -1396.477          38.000  
   -259920.799    24370537.699        3558.448          38.000  
 18  2 16  8 21 29.0000000  0  8G23G11G09G03G30G01G10G05            -0.000782870
    160729.978    22701071.086       -2132.464          38.000  
   -173932.055    21496696.365        2217.970          38.000  
     52104.392    20500608.944        -714.944          38.000  
    231277.589    25114954.924       -3101.467          38.000  
   -275899.554    22784232.930        3523.373          38.000  
   -100989.348    22479861.195        1287.634          38.000  
    103215.690    21436408.873       -1399.673          38.000  
   -274153.224    24367829.327        3558.420          38.000  
 18  2 16  8 21 30.0000000  0  8G23G11G09G03G30G01G10G05            -0.000782725
    162862.646    22701476.910       -2132.839          38.000  
   -176149.388    21496274.406        2216.832          38.000  
     52819.822    20500745.088        -715.638          38.000  
    234379.450    25115545.156       -3102.102          38.000  
   -279422.301    22783562.591        3522.513          38.000  
   -102276.228    22479616.282        1286.644          38.000  
    104615.828    21436675.246       -1400.680          38.000  
   -277711.307    24367152.234        3557.940          38.000  
 18  2 16  8 21 31.0000000  0  8G23G11G09G03G30G01G10G05            -0.000782576
    164995.587    22701882.769       -2133.117          38.000  
   -178365.993    21495852.572        2216.228          38.000  
     53535.724    20500881.322        -716.203          38.000  
    237481.766    25116135.477       -3102.634          38.000  
   -282944.375    22782892.360        3521.713          38.000  
   -103562.473    22479371.530        1285.814          38.000  
    106016.872    21436941.834       -1401.355          38.000  
   -281269.370    24366475.159        3557.977          38.000  
 18  2 16  8 21 32.0000000  0  8G23G11G09G03G30G01G10G05            -0.000782430
    167128.752    22702288.700       -2132.953          38.000  
   -180581.980    21495430.881        2215.900          38.000  
     54252.013    20501017.627        -716.213          38.000  
    240584.423    25116725.887       -3102.587          38.000  
   -286465.880    22782222.254        3521.405          38.000  
   -104848.177    22479126.867        1285.599          38.000  
    107418.620    21437208.601       -1401.759          38.000  
   -284827.454    24365798.066        3558.348          38.000  
 18  2 16  8 21 33.0000000  0  8G23G11G09G03G30G01G10G05            -0.000782283
    169262.047    22702694.666       -2133.074          38.000  
   -182797.344    21495009.333        2215.283          39.000  
     54968.649    20501154.021        -716.616          38.000  
    243687.388    25117316.369       -3103.041          38.000  
   -289986.841    22781552.219        3520.692          38.000  
   -106133.379    22478882.258        1285.096          38.000  
    108821.082    21437475.511       -1402.641          38.000  
   -288385.587    24365120.955        3558.338          38.000  
 18  2 16  8 21 34.0000000  0  8G23G11G09G03G30G01G10G05            -0.000782137
    171395.411    22703100.614       -2133.459          38.000  
   -185012.123    21494587.874        2214.113          38.000  
     55685.580    20501290.469        -717.316          38.000  
    246790.585    25117906.869       -3103.479          38.000  
   -293507.332    22780882.291        3519.928          38.000  
   -107418.077    22478637.774        1284.222          38.000  
    110224.163    21437742.510       -1403.878          38.000  
   -291943.811    24364443.862        3558.114          39.000  
 18  2 16  8 21 35.0000000  0  8G23G11G09G03G30G01G10G05            -0.000781992
    173529.102    22703506.634       -2133.588          38.000  
   -187226.033    21494166.594        2213.771          38.000  
     56403.027    20501426.988        -717.430          38.000  
    249894.240    25118497.476       -3103.594          38.000  
   -297027.114    22780212.525        3519.667          38.000  
   -108702.078    22478393.416        1283.910          38.000  
    111628.223    21438009.705       -1404.172          38.000  
   -295501.902    24363766.805        3558.116          38.000  
 18  2 16  8 21 36.0000000  0  8G23G11G09G03G30G01G10G05            -0.000781846
    175662.874    22703912.672       -2133.830          38.000  
   -189439.283    21493745.439        2212.926          38.000  
     57120.805    20501563.561        -717.906          38.000  
    252998.167    25119088.119       -3104.194          38.000  
   -300546.346    22779542.883        3519.007          38.000  
   -109985.517    22478149.200        1283.087          38.000  
    113033.006    21438277.026       -1405.030          38.000  
   -299060.064    24363089.712        3558.395          38.000  
 18  2 16  8 21 37.0000000  0  8G23G11G09G03G30G01G10G05            -0.000781700
    177797.003    22704318.799       -2134.241          38.000  
   -191651.578    21493324.427        2211.932          38.000  
     57839.172    20501700.295        -718.713          38.000  
    256102.583    25119678.886       -3104.840          38.000  
   -304064.784    22778873.366        3517.945          38.000  
   -111268.174    22477905.091        1282.303          38.000  
    114438.789    21438544.525       -1406.303          38.000  
   -302617.936    24362412.690        3557.693          38.000  
 18  2 16  8 21 38.0000000  0  8G23G11G09G03G30G01G10G05            -0.000781554
    179931.281    22704724.944       -2134.378          38.000  
   -193863.137    21492903.594        2210.936          38.000  
     58557.894    20501837.082        -718.898          38.000  
    259207.267    25120269.708       -3104.683          38.000  
   -307582.663    22778203.957        3517.723          38.000  
   -112550.207    22477661.125        1281.863          38.000  
    115845.344    21438812.203       -1407.291          38.000  
   -306175.796    24361735.651        3557.964          38.000  
 18  2 16  8 21 39.0000000  0  8G23G11G09G03G30G01G10G05            -0.000781410
    182065.778    22705131.143       -2134.549          38.000  
   -196073.737    21492482.903        2210.307          38.000  
     59277.109    20501973.959        -719.272          38.000  
    262312.367    25120860.618       -3105.245          38.000  
   -311099.792    22777534.637        3516.764          38.000  
   -113831.497    22477417.338        1280.945          38.000  
    117252.897    21439080.060       -1407.787          38.000  
   -309733.494    24361058.612        3557.741          38.000  
 18  2 16  8 21 40.0000000  0  8G23G11G09G03G30G01G10G05            -0.000781265
    184200.554    22705537.377       -2134.530          38.000  
   -198283.405    21492062.410        2209.552          38.000  
     59996.860    20502110.943        -719.691          39.000  
    265417.892    25121451.583       -3105.448          38.000  
   -314616.219    22776865.478        3516.361          38.000  
   -115112.001    22477173.658        1280.411          38.000  
    118661.433    21439348.113       -1408.640          38.000  
   -313290.942    24360381.644        3557.534          38.000  
 18  2 16  8 21 41.0000000  0  8G23G11G09G03G30G01G10G05            -0.000781119
    186335.444    22705943.629       -2134.922          38.000  
   -200492.260    21491642.077        2208.522          38.000  
     60716.968    20502247.998        -720.301          38.000  
    268523.641    25122042.618       -3105.890          38.000  
   -318132.058    22776196.444        3515.463          38.000  
   -116391.877    22476930.103        1279.489          38.000  
    120070.799    21439616.309       -1409.788          38.000  
   -316848.362    24359704.676        3557.438          38.000  
 18  2 16  8 21 42.0000000  0  8G23G11G09G03G30G01G10G05            -0.000780976
    188470.475    22706349.917       -2135.056          38.000  
   -202700.270    21491221.904        2207.438          38.000  
     61437.476    20502385.143        -720.503          38.000  
    271629.677    25122633.672       -3106.072          38.000  
   -321647.279    22775527.553        3515.031          38.000  
   -117671.060    22476686.674        1278.917          38.000  
    121481.011    21439884.630       -1410.841          38.000  
   -320405.634    24359027.726        3557.346          38.000  
 18  2 16  8 21 43.0000000  0  8G23G11G09G03G30G01G10G05            -0.000780836
    190605.572    22706756.223       -2135.060          38.000  
   -204907.365    21490801.893        2206.764          38.000  
     62158.309    20502522.306        -720.738          38.000  
    274735.903    25123224.779       -3106.283          38.000  
   -325161.958    22774858.751        3514.498          38.000  
   -118949.605    22476443.369        1278.303          38.000  
    122892.142    21440153.148       -1411.469          38.000  
   -323962.844    24358350.865        3557.282          38.000  
 18  2 16  8 21 44.0000000  0  8G23G11G09G03G30G01G10G05            -0.000780689
    192740.651    22707162.529       -2135.181          38.000  
   -207113.748    21490382.024        2206.030          38.000  
     62879.433    20502659.504        -721.229          38.000  
    277842.245    25123815.905       -3106.584          38.000  
   -328676.142    22774190.021        3513.790          38.000  
   -120227.586    22476200.154        1277.596          38.000  
    124304.013    21440421.862       -1412.309          38.000  
   -327520.028    24357673.951        3557.013          38.000  
 18  2 16  8 21 45.0000000  0  8G23G11G09G03G30G01G10G05            -0.000780541
    194875.835    22707568.906       -2135.054          38.000  
   -209319.186    21489962.317        2205.098          38.000  
     63600.942    20502796.845        -721.532          38.000  
    280948.787    25124407.048       -3106.416          38.000  
   -332189.754    22773521.380        3513.483          38.000  
   -121504.866    22475957.081        1277.012          38.000  
    125716.806    21440690.702       -1413.062          38.000  
   -331077.077    24356997.072        3557.068          38.000  
 18  2 16  8 21 46.0000000  0  8G23G11G09G03G30G01G10G05            -0.000780394
    197011.168    22707975.266       -2135.357          38.000  
   -211523.709    21489542.806        2203.696          38.000  
     64322.894    20502934.240        -722.215          38.000  
    284055.625    25124998.262       -3106.986          38.000  
   -335702.700    22772852.899        3512.634          38.000  
   -122781.359    22475714.170        1276.117          38.000  
    127130.519    21440959.738       -1414.565          38.000  
   -334633.905    24356320.193        3556.702          38.000  
 18  2 16  8 21 47.0000000  0  8G23G11G09G03G30G01G10G05            -0.000780247
    199146.678    22708381.661       -2135.367          38.000  
   -213727.157    21489123.509        2203.394          38.000  
     65045.263    20503071.725        -722.273          38.000  
    287162.711    25125589.512       -3107.058          38.000  
   -339214.997    22772184.509        3512.182          38.000  
   -124057.061    22475471.384        1275.494          38.000  
    128545.273    21441228.970       -1414.853          38.000  
   -338190.493    24355643.386        3556.738          38.000  
 18  2 16  8 21 48.0000000  0  8G23G11G09G03G30G01G10G05            -0.000780101
    201282.135    22708788.038       -2135.404          38.000  
   -215929.764    21488704.373        2202.405          38.000  
     65767.922    20503209.262        -722.771          38.000  
    290269.855    25126180.780       -3107.199          38.000  
   -342726.850    22771516.207        3511.741          38.000  
   -125332.173    22475228.704        1274.894          38.000  
    129960.846    21441498.382       -1415.920          38.000  
   -341747.020    24354966.615        3556.561          38.000  
 18  2 16  8 21 49.0000000  0  8G23G11G09G03G30G01G10G05            -0.000779959
    203417.670    22709194.434       -2135.325          38.000  
   -218131.440    21488285.398        2201.421          38.000  
     66490.955    20503346.854        -722.991          38.000  
    293377.162    25126772.084       -3107.199          38.000  
   -346238.109    22770848.049        3511.261          38.000  
   -126606.521    22474986.204        1274.172          38.000  
    131377.318    21441767.936       -1416.675          38.000  
   -345303.340    24354289.861        3556.542          38.000  
 18  2 16  8 21 50.0000000  0  8G23G11G09G03G30G01G10G05            -0.000779821
    205553.165    22709600.811       -2135.431          38.000  
   -220332.321    21487866.584        2200.309          38.000  
     67214.237    20503484.517        -723.241          38.000  
    296484.509    25127363.406       -3107.250          38.000  
   -349748.922    22770179.944        3510.643          38.000  
   -127880.239    22474743.828        1273.468          38.000  
    132794.566    21442037.633       -1417.718          38.000  
   -348859.584    24353613.126        3556.369          38.000  
 18  2 16  8 21 51.0000000  0  8G23G11G09G03G30G01G10G05            -0.000779673
    207688.614    22710007.188       -2135.689          38.000  
   -222532.244    21487447.949        2199.427          38.000  
     67937.786    20503622.216        -723.833          38.000  
    299591.879    25127954.728       -3107.543          38.000  
   -353259.314    22769511.910        3509.988          38.000  
   -129153.336    22474501.560        1272.674          38.000  
    134212.723    21442307.491       -1418.509          38.000  
   -352415.718    24352936.426        3555.977          38.000  
 18  2 16  8 21 52.0000000  0  8G23G11G09G03G30G01G10G05            -0.000779523
    209824.191    22710413.583       -2135.554          38.000  
   -224731.116    21487029.492        2198.455          38.000  
     68661.783    20503759.950        -723.990          38.000  
    302699.432    25128546.103       -3107.548          38.000  
   -356769.072    22768844.038        3509.555          38.000  
   -130425.572    22474259.453        1271.914          38.000  
    135631.899    21442577.546       -1419.452          38.000  
   -355971.546    24352259.762        3555.788          38.000  
 18  2 16  8 21 53.0000000  0  8G23G11G09G03G30G01G10G05            -0.000779371
    211959.691    22710819.961       -2135.354          38.000  
   -226929.167    21486611.196        2197.671          38.000  
     69386.026    20503897.774        -724.228          38.000  
    305806.974    25129137.460       -3107.418          38.000  
   -360278.420    22768176.237        3509.291          38.000  
   -131697.180    22474017.524        1271.448          38.000  
    137051.865    21442847.779       -1420.221          38.000  
   -359527.277    24351583.115        3555.873          38.000  
 18  2 16  8 21 54.0000000  0  8G23G11G09G03G30G01G10G05            -0.000779225
    214095.266    22711226.356       -2135.443          38.000  
   -229126.235    21486193.115        2196.423          38.000  
     70110.652    20504035.687        -724.676          38.000  
    308914.640    25129728.836       -3107.637          38.000  
   -363787.215    22767508.525        3508.662          38.000  
   -132967.975    22473775.721        1270.461          38.000  
    138472.741    21443118.173       -1421.396          38.000  
   -363082.732    24350906.559        3555.489          38.000  
 18  2 16  8 21 55.0000000  0  8G23G11G09G03G30G01G10G05            -0.000779081
    216231.062    22711632.751       -2135.843          38.000  
   -231322.057    21485775.301        2195.519          38.000  
     70835.806    20504173.689        -725.177          38.000  
    312022.527    25130320.265       -3107.796          38.000  
   -367295.336    22766840.938        3507.869          38.000  
   -134237.845    22473534.060        1269.471          38.000  
    139894.822    21443388.799       -1422.480          38.000  
   -366637.772    24350230.037        3554.997          38.000  
 18  2 16  8 21 56.0000000  0  8G23G11G09G03G30G01G10G05            -0.000778938
    218366.793    22712039.164       -2135.617          38.000  
   -233516.980    21485357.613        2194.357          38.000  
     71561.241    20504311.728        -725.517          38.000  
    315130.417    25130911.694       -3107.905          38.000  
   -370803.022    22766173.441        3507.365          38.000  
   -135506.992    22473292.524        1268.672          38.000  
    141317.718    21443659.586       -1423.165          38.000  
   -370192.628    24349553.552        3554.757          38.000  
 18  2 16  8 21 57.0000000  0  8G23G11G09G03G30G01G10G05            -0.000778783
    220502.590    22712445.631       -2136.048          38.000  
   -235710.908    21484940.121        2193.313          38.000  
     72287.079    20504449.837        -726.111          38.000  
    318238.364    25131503.105       -3108.124          38.000  
   -374310.225    22765506.068        3506.938          38.000  
   -136775.355    22473051.149        1267.769          38.000  
    142741.595    21443930.534       -1424.444          38.000  
   -373747.180    24348877.120        3554.131          38.000  
 18  2 16  8 21 58.0000000  0  8G23G11G09G03G30G01G10G05            -0.000778637
    222638.413    22712852.080       -2135.444          38.000  
   -237903.874    21484522.825        2192.539          38.000  
     73013.273    20504588.000        -726.055          38.000  
    321346.347    25132094.551       -3107.676          38.000  
   -377816.921    22764838.768        3506.814          38.000  
   -138042.909    22472809.953        1267.444          38.000  
    144166.360    21444201.643       -1424.955          38.000  
   -377301.471    24348200.760        3554.459          38.000  
 18  2 16  8 21 59.0000000  0  8G23G11G09G03G30G01G10G05            -0.000778491
    224774.211    22713258.528       -2135.924          38.000  
   -240095.833    21484105.709        2191.495          38.000  
     73739.736    20504726.235        -726.691          38.000  
    324454.272    25132685.998       -3107.853          38.000  
   -381323.234    22764171.538        3506.085          38.000  
   -139309.729    22472568.900        1266.263          38.000  
    145592.067    21444472.966       -1426.171          38.000  
   -380855.532    24347524.435        3553.718          38.000  
 18  2 16  8 22  0.0000000  0  8G23G11G09G03G30G01G10G05            -0.000778347
    226909.937    22713664.942       -2135.542          38.000  
   -242286.893    21483688.753        2190.892          38.000  
     74466.505    20504864.506        -726.730          38.000  
    327562.158    25133277.391       -3107.527          38.000  
   -384829.177    22763504.381        3506.149          38.000  
   -140575.843    22472327.972        1265.901          38.000  
    147018.615    21444744.450       -1426.788          38.000  
   -384409.390    24346848.164        3553.985          38.000  
 18  2 16  8 22  1.0000000  0  8G23G11G09G03G30G01G10G05            -0.000778203
    229045.678    22714071.372       -2135.502          38.000  
   -244476.990    21483271.994        2189.938          38.000  
     75193.596    20505002.883        -727.025          38.000  
    330670.014    25133868.785       -3107.595          38.000  
   -388334.674    22762837.294        3505.752          38.000  
   -141841.168    22472087.169        1265.222          38.000  
    148446.068    21445016.095       -1427.640          38.000  
   -387962.965    24346171.911        3553.573          38.000  
 18  2 16  8 22  2.0000000  0  8G23G11G09G03G30G01G10G05            -0.000778056
    231181.403    22714477.803       -2135.486          38.000  
   -246666.153    21482855.413        2188.575          38.000  
     75921.008    20505141.297        -727.266          38.000  
    333777.804    25134460.178       -3107.507          38.000  
   -391839.750    22762170.297        3505.012          38.000  
   -143105.703    22471846.527        1264.351          38.000  
    149874.372    21445287.883       -1428.671          38.000  
   -391516.255    24345495.729        3553.263          38.000  
 18  2 16  8 22  3.0000000  0  8G23G11G09G03G30G01G10G05            -0.000777908
    233317.405    22714884.288       -2136.035          38.000  
   -248854.038    21482439.083        2187.292          38.000  
     76649.049    20505279.853        -728.208          38.000  
    336885.852    25135051.607       -3108.144          38.000  
   -395344.196    22761503.425        3504.121          38.000  
   -144369.177    22471606.099        1262.976          38.000  
    151303.884    21445559.921       -1429.896          38.000  
   -395068.991    24344819.655        3552.501          38.000  
 18  2 16  8 22  4.0000000  0  8G23G11G09G03G30G01G10G05            -0.000777762
    235453.599    22715290.808       -2136.140          38.000  
   -251040.797    21482022.949        2186.250          38.000  
     77377.589    20505418.463        -728.644          38.000  
    339993.992    25135643.054       -3108.095          38.000  
   -398848.076    22760836.643        3503.780          38.000  
   -145631.692    22471365.833        1262.136          38.000  
    152734.486    21445832.156       -1430.000          38.000  
   -398621.251    24344143.669        3552.121          38.000  
 18  2 16  8 22  5.0000000  0  8G23G11G09G03G30G01G10G05            -0.000777616
    237589.677    22715697.293       -2135.922          38.000  
   -253226.724    21481606.958        2185.584          38.000  
     78106.352    20505557.127        -728.707          38.000  
    343101.961    25136234.482       -3107.845          38.000  
   -402351.679    22760169.949        3503.449          38.000  
   -146893.518    22471125.691        1261.534          38.000  
    154165.853    21446104.569       -1431.658          38.000  
   -402173.290    24343467.756        3551.983          38.000  
 18  2 16  8 22  6.0000000  0  8G23G11G09G03G30G01G10G05            -0.000777473
    239725.582    22716103.741       -2135.770          38.000  
   -255411.932    21481191.110        2184.851          38.000  
     78835.273    20505695.826        -728.858          38.000  
    346209.666    25136825.858       -3107.510          38.000  
   -405855.125    22759503.292        3503.335          38.000  
   -148154.722    22470885.692        1260.862          38.000  
    155597.877    21446377.072       -1432.317          38.000  
   -405725.229    24342791.878        3551.837          38.000  
 18  2 16  8 22  7.0000000  0  8G23G11G09G03G30G01G10G05            -0.000777327
    241861.723    22716510.244       -2136.294          38.000  
   -257595.906    21480775.495        2183.296          38.000  
     79564.767    20505834.615        -729.766          38.000  
    349317.521    25137417.251       -3107.970          38.000  
   -409357.978    22758836.742        3502.398          38.000  
   -149414.910    22470645.890        1259.553          38.000  
    157031.066    21446649.824       -1433.828          38.000  
   -409276.600    24342116.089        3550.781          38.000  
 18  2 16  8 22  8.0000000  0  8G23G11G09G03G30G01G10G05            -0.000777185
    243997.860    22716916.746       -2135.965          38.000  
   -259778.998    21480360.094        2182.745          38.000  
     80294.588    20505973.493        -729.735          38.000  
    352425.270    25138008.662       -3107.449          38.000  
   -412860.522    22758170.245        3502.442          38.000  
   -150674.300    22470406.212        1259.167          38.000  
    158465.098    21446922.702       -1434.392          38.000  
   -412827.678    24341440.372        3550.794          38.000  
 18  2 16  8 22  9.0000000  0  8G23G11G09G03G30G01G10G05            -0.000777038
    246133.965    22717323.249       -2136.335          38.000  
   -261961.208    21479944.818        2181.484          38.000  
     81024.694    20506112.425        -730.430          38.000  
    355532.878    25138600.002       -3107.694          38.000  
   -416362.808    22757503.802        3501.956          38.000  
   -151932.947    22470166.714        1258.002          38.000  
    159899.918    21447195.759       -1435.462          38.000  
   -416378.511    24340764.691        3550.564          38.000  
 18  2 16  8 22 10.0000000  0  8G23G11G09G03G30G01G10G05            -0.000776894
    248270.211    22717729.751       -2136.002          38.000  
   -264142.435    21479529.756        2180.947          38.000  
     81755.283    20506251.446        -730.516          38.000  
    358640.513    25139191.341       -3107.381          38.000  
   -419864.640    22756837.430        3502.008          38.000  
   -153190.666    22469927.358        1257.593          38.000  
    161335.692    21447468.958       -1435.886          38.000  
   -419928.854    24340089.099        3550.387          38.000  
 18  2 16  8 22 11.0000000  0  8G23G11G09G03G30G01G10G05            -0.000776746
    250406.498    22718136.254       -2136.034          38.000  
   -266322.719    21479114.855        2179.993          38.000  
     82486.217    20506390.520        -730.861          38.000  
    361748.022    25139782.663       -3107.194          38.000  
   -423366.161    22756171.076        3501.579          38.000  
   -154447.564    22469688.182        1256.694          38.000  
    162772.376    21447742.390       -1436.956          38.000  
   -423478.858    24339413.560        3549.940          38.000  
 18  2 16  8 22 12.0000000  0  8G23G11G09G03G30G01G10G05            -0.000776601
    252542.961    22718542.810       -2136.120          38.000  
   -268501.970    21478700.186        2178.958          38.000  
     83217.670    20506529.702        -731.457          38.000  
    364855.599    25140373.985       -3107.361          38.000  
   -426867.231    22755504.812        3501.103          38.000  
   -155703.513    22469449.165        1255.793          38.000  
    164210.023    21448015.965       -1437.810          38.000  
   -427028.369    24338738.111        3549.489          38.000  
 18  2 16  8 22 14.0000000  0  8G23G11G09G03G30G01G10G05            -0.000776315
    256816.185    22719355.957       -2136.794          38.000  
   -272857.759    21477871.314        2177.043          38.000  
     84681.771    20506808.316        -732.346          38.000  
    371070.512    25141556.682       -3107.263          38.000  
   -433868.443    22754172.498        3500.379          38.000  
   -158212.834    22468971.669        1253.900          38.000  
    167087.937    21448563.633       -1439.693          38.000  
   -434126.236    24337387.463        3548.571          38.000  
 18  2 16  8 22 15.0000000  0  8G23G11G09G03G30G01G10G05            -0.000776167
    258952.780    22719762.549       -2136.452          38.000  
   -275034.459    21477457.092        2176.412          38.000  
     85414.299    20506947.694        -732.580          38.000  
    374177.748    25142147.950       -3107.094          38.000  
   -437368.726    22753506.412        3500.408          38.000  
   -159466.355    22468733.154        1253.279          38.000  
    168528.052    21448837.672       -1440.382          38.000  
   -437674.718    24336712.211        3548.449          38.000  
 18  2 16  8 22 16.0000000  0  8G23G11G09G03G30G01G10G05            -0.000776020
    261089.573    22720169.159       -2136.559          38.000  
   -277210.178    21477043.085        2175.549          38.000  
     86147.310    20507087.180        -732.937          38.000  
    377284.963    25142739.236       -3106.910          38.000  
   -440868.627    22752840.380        3500.032          38.000  
   -160718.944    22468494.781        1252.457          38.000  
    169969.091    21449111.890       -1441.159          38.000  
   -441222.732    24336037.065        3548.133          38.000  
 18  2 16  8 22 17.0000000  0  8G23G11G09G03G30G01G10G05            -0.000775879
    263226.505    22720575.786       -2136.859          38.000  
   -279385.048    21476629.220        2174.440          38.000  
     86880.754    20507226.737        -733.485          38.000  
    380392.120    25143330.522       -3106.988          38.000  
   -444368.240    22752174.437        3499.566          38.000  
   -161970.670    22468256.569        1251.205          38.000  
    171410.970    21449386.287       -1442.305          38.000  
   -444770.334    24335362.010        3547.437          38.000  
 18  2 16  8 22 18.0000000  0  8G23G11G09G03G30G01G10G05            -0.000775732
    265363.455    22720982.449       -2136.873          38.000  
   -281559.192    21476215.517        2173.840          38.000  
     87614.522    20507366.366        -733.797          38.000  
    383499.116    25143921.772       -3106.927          38.000  
   -447867.681    22751508.530        3499.417          38.000  
   -163221.660    22468018.536        1250.557          38.000  
    172853.575    21449660.826       -1442.864          38.000  
   -448317.638    24334686.971        3547.062          38.000  
 18  2 16  8 22 19.0000000  0  8G23G11G09G03G30G01G10G05            -0.000775588
    267500.375    22721389.095       -2136.848          38.000  
   -283732.671    21475801.920        2173.164          38.000  
     88348.544    20507506.048        -734.052          38.000  
    386605.860    25144512.951       -3106.592          38.000  
   -451367.010    22750842.659        3499.281          38.000  
   -164471.967    22467780.592        1250.024          38.000  
    174296.810    21449935.437       -1443.497          38.000  
   -451864.719    24334011.951        3546.997          38.000  
 18  2 16  8 22 20.0000000  0  8G23G11G09G03G30G01G10G05            -0.000775446
    269637.595    22721795.776       -2137.193          38.000  
   -285905.171    21475388.503        2172.072          38.000  
     89083.143    20507645.837        -734.536          38.000  
    389712.689    25145104.183       -3106.753          38.000  
   -454865.962    22750176.823        3498.964          38.000  
   -165721.281    22467542.827        1249.014          38.000  
    175741.016    21450210.227       -1444.498          38.000  
   -455411.259    24333337.056        3546.435          38.000  
 18  2 16  8 22 21.0000000  0  8G23G11G09G03G30G01G10G05            -0.000775304
    271774.967    22722202.475       -2137.393          38.000  
   -288076.893    21474975.228        2171.390          38.000  
     89818.213    20507785.716        -735.304          38.000  
    392819.459    25145695.397       -3106.795          38.000  
   -458364.650    22749511.041        3498.680          38.000  
   -166969.749    22467305.240        1248.181          38.000  
    177186.022    21450485.214       -1445.334          38.000  
   -458957.377    24332662.250        3545.976          38.000  
 18  2 16  8 22 22.0000000  0  8G23G11G09G03G30G01G10G05            -0.000775162
    273912.545    22722609.245       -2137.627          38.000  
   -290247.813    21474562.096        2170.817          38.000  
     90553.724    20507925.702        -735.657          38.000  
    395926.167    25146286.576       -3106.455          38.000  
   -461863.070    22748845.313        3498.427          38.000  
   -168217.343    22467067.832        1247.220          38.000  
    178631.821    21450760.325       -1445.829          38.000  
   -462503.101    24331987.480        3545.596          38.000  
 18  2 16  8 22 23.0000000  0  8G23G11G09G03G30G01G10G05            -0.000775017
    276050.196    22723016.016       -2137.623          38.000  
   -292418.101    21474149.071        2170.149          38.000  
     91289.610    20508065.723        -736.015          38.000  
    399032.759    25146877.755       -3106.410          38.000  
   -465361.336    22748179.638        3498.299          38.000  
   -169464.194    22466830.549        1246.571          38.000  
    180078.309    21451035.562       -1446.813          38.000  
   -466048.500    24331312.835        3545.154          38.000  
 18  2 16  8 22 24.0000000  0  8G23G11G09G03G30G01G10G05            -0.000774870
    278188.018    22723422.840       -2137.967          38.000  
   -294587.649    21473736.208        2169.226          38.000  
     92025.893    20508205.834        -736.507          38.000  
    402139.251    25147468.898       -3106.326          38.000  
   -468859.427    22747513.982        3498.074          38.000  
   -170710.249    22466593.445        1245.632          38.000  
    181525.520    21451310.905       -1447.518          38.000  
   -469593.549    24330638.244        3544.774          38.000  
 18  2 16  8 22 25.0000000  0  8G23G11G09G03G30G01G10G05            -0.000774725
    280325.929    22723829.682       -2138.056          38.000  
   -296756.579    21473323.469        2168.632          38.000  
     92762.551    20508345.981        -736.840          38.000  
    405245.621    25148060.023       -3106.361          38.000  
   -472357.373    22746848.378        3497.862          38.000  
   -171955.581    22466356.484        1244.982          38.000  
    182973.375    21451586.410       -1448.049          38.000  
   -473138.328    24329963.670        3544.697          38.000  
 18  2 16  8 22 26.0000000  0  8G23G11G09G03G30G01G10G05            -0.000774583
    282464.016    22724236.559       -2138.195          38.000  
   -298924.836    21472910.837        2168.097          38.000  
     93499.632    20508486.235        -737.393          38.000  
    408351.875    25148651.130       -3106.181          38.000  
   -475855.174    22746182.775        3497.713          38.000  
   -173200.105    22466119.666        1244.154          38.000  
    184421.946    21451862.075       -1448.805          38.000  
   -476682.740    24329289.204        3544.218          38.000  
 18  2 16  8 22 27.0000000  0  8G23G11G09G03G30G01G10G05            -0.000774435
    284602.321    22724643.455       -2138.447          38.000  
   -301092.486    21472498.331        2167.161          38.000  
     94237.151    20508626.578        -737.682          38.000  
    411458.112    25149242.256       -3106.206          38.000  
   -479352.757    22745517.225        3497.428          38.000  
   -174443.849    22465883.009        1243.306          38.000  
    185871.171    21452137.848       -1449.540          38.000  
   -480226.792    24328614.792        3543.914          38.000  
 18  2 16  8 22 28.0000000  0  8G23G11G09G03G30G01G10G05            -0.000774290
    286740.822    22725050.386       -2138.742          38.000  
   -303259.478    21472085.950        2166.687          38.000  
     94975.143    20508767.047        -738.289          38.000  
    414564.292    25149833.345       -3106.180          38.000  
   -482850.171    22744851.694        3497.273          38.000  
   -175686.789    22465646.494        1242.470          38.000  
    187321.135    21452413.764       -1450.251          38.000  
   -483770.487    24327940.450        3543.532          38.000  
 18  2 16  8 22 29.0000000  0  8G23G11G09G03G30G01G10G05            -0.000774143
    288879.582    22725457.389       -2138.948          38.000  
   -305425.831    21471673.694        2165.964          38.000  
     95713.594    20508907.551        -738.680          38.000  
    417670.443    25150424.434       -3106.151          38.000  
   -486347.385    22744186.216        3497.008          38.000  
   -176928.921    22465410.105        1241.649          38.000  
    188771.806    21452689.804       -1451.127          38.000  
   -487313.810    24327266.181        3543.001          38.000  
 18  2 16  8 22 30.0000000  0  8G23G11G09G03G30G01G10G05            -0.000773998
    291018.694    22725864.463       -2138.931          39.000  
   -307591.436    21471261.598        2165.867          38.000  
     96452.634    20509048.144        -738.914          38.000  
    420776.697    25151015.506       -3106.057          38.000  
   -489844.335    22743520.755        3497.180          38.000  
   -178170.174    22465173.877        1241.089          38.000  
    190223.231    21452966.006       -1451.415          38.000  
   -490856.676    24326591.982        3542.825          38.000  
 18  2 16  8 22 31.0000000  0  8G23G11G09G03G30G01G10G05            -0.000773851
    293158.042    22726271.609       -2139.301          38.000  
   -309756.541    21470849.610        2164.903          38.000  
     97192.133    20509188.863        -739.590          38.000  
    423882.900    25151606.577       -3106.096          38.000  
   -493341.098    22742855.349        3496.748          38.000  
   -179410.654    22464937.809        1240.268          38.000  
    191675.282    21453242.332       -1452.332          38.000  
   -494399.234    24325917.874        3542.556          38.000  
 18  2 16  8 22 32.0000000  0  8G23G11G09G03G30G01G10G05            -0.000773709
    295297.676    22726678.790       -2139.802          38.000  
   -311921.058    21470437.711        2164.101          38.000  
     97932.104    20509329.671        -740.118          38.000  
    426989.118    25152197.667       -3106.248          38.000  
   -496837.690    22742189.995        3496.483          38.000  
   -180650.345    22464701.884        1239.253          38.000  
    193127.995    21453518.766       -1453.212          38.000  
   -497941.434    24325243.800        3542.025          38.000  
 18  2 16  8 22 33.0000000  0  8G23G11G09G03G30G01G10G05            -0.000773565
    297437.568    22727086.025       -2139.868          38.000  
   -314085.039    21470025.919        2163.922          38.000  
     98672.575    20509470.604        -740.497          38.000  
    430095.328    25152788.756       -3105.933          38.000  
   -500334.121    22741524.660        3496.514          38.000  
   -181889.275    22464466.102        1238.726          38.000  
    194581.316    21453795.361       -1453.387          38.000  
   -501483.318    24324569.799        3542.043          38.000  
 18  2 16  8 22 34.0000000  0  8G23G11G09G03G30G01G10G05            -0.000773418
    299577.597    22727493.242       -2139.943          38.000  
   -316248.618    21469614.217        2164.027          38.000  
     99413.358    20509611.555        -740.789          38.000  
    433201.407    25153379.828       -3105.738          38.000  
   -503830.570    22740859.307        3496.695          38.000  
   -183127.614    22464230.428        1238.183          38.000  
    196035.144    21454072.009       -1453.712          38.000  
   -505025.031    24323895.815        3541.905          38.000  
 18  2 16  8 22 35.0000000  0  8G23G11G09G03G30G01G10G05            -0.000773273
    301717.966    22727900.549       -2140.402          38.000  
   -318411.737    21469202.586        2162.881          38.000  
    100154.671    20509752.648        -741.385          38.000  
    436307.538    25153970.899       -3105.951          38.000  
   -507326.805    22740194.008        3496.399          38.000  
   -184365.168    22463994.914        1237.385          38.000  
    197489.573    21454348.782       -1454.651          38.000  
   -508566.385    24323221.903        3541.322          38.000  
 18  2 16  8 22 36.0000000  0  8G23G11G09G03G30G01G10G05            -0.000773129
    303858.572    22728307.891       -2140.654          38.000  
   -320574.433    21468791.045        2162.519          38.000  
    100896.417    20509893.832        -741.937          38.000  
    439413.657    25154562.007       -3106.083          38.000  
   -510822.937    22739528.708        3496.097          38.000  
   -185602.036    22463759.543        1236.535          38.000  
    198944.536    21454625.663       -1455.163          38.000  
   -512107.519    24322548.044        3541.065          38.000  
 18  2 16  8 22 37.0000000  0  8G23G11G09G03G30G01G10G05            -0.000772984
    305999.492    22728715.305       -2141.079          38.000  
   -322736.667    21468379.611        2162.186          39.000  
    101638.629    20510035.051        -742.397          38.000  
    442519.776    25155153.078       -3106.123          38.000  
   -514318.927    22738863.445        3495.900          39.000  
   -186838.201    22463524.298        1235.856          38.000  
    200400.078    21454902.633       -1455.741          38.000  
   -515648.375    24321874.257        3540.811          38.000  
 18  2 16  8 22 38.0000000  0  8G23G11G09G03G30G01G10G05            -0.000772838
    308140.651    22729122.754       -2140.946          38.000  
   -324898.466    21467968.230        2162.131          38.000  
    102381.280    20510176.359        -742.617          38.000  
    445625.908    25155744.168       -3105.978          38.000  
   -517814.854    22738198.199        3496.159          38.000  
   -188073.703    22463289.195        1235.326          38.000  
    201856.155    21455179.710       -1455.986          38.000  
   -519189.012    24321200.487        3540.768          39.000  
 18  2 16  8 22 39.0000000  0  8G23G11G09G03G30G01G10G05            -0.000772693
    310282.023    22729530.257       -2141.592          38.000  
   -327060.150    21467556.867        2161.284          38.000  
    103124.285    20510317.774        -743.480          38.000  
    448731.928    25156335.221       -3106.215          38.000  
   -521310.779    22737532.953        3495.806          38.000  
   -189308.656    22463054.182        1234.584          38.000  
    203312.541    21455456.858       -1456.774          38.000  
   -522729.540    24320526.754        3540.264          38.000  
 18  2 16  8 22 40.0000000  0  8G23G11G09G03G30G01G10G05            -0.000772548
    312423.865    22729937.832       -2141.870          38.000  
   -329221.241    21467145.629        2160.878          38.000  
    103867.905    20510459.279        -743.736          38.000  
    451838.180    25156926.311       -3106.234          38.000  
   -524806.404    22736867.743        3495.575          38.000  
   -190542.767    22462819.347        1233.894          38.000  
    204769.667    21455734.132       -1457.425          38.000  
   -526269.676    24319853.074        3540.051          38.000  
 18  2 16  8 22 41.0000000  0  8G23G11G09G03G30G01G10G05            -0.000772401
    314565.848    22730345.460       -2142.049          38.000  
   -331382.191    21466734.428        2160.802          38.000  
    104611.836    20510600.855        -744.025          38.000  
    454944.287    25157517.364       -3106.072          38.000  
   -528302.104    22736202.515        3495.609          38.000  
   -191776.414    22462584.584        1233.444          38.000  
    206227.080    21456011.495       -1457.554          38.000  
   -529809.794    24319179.411        3540.079          38.000  
 18  2 16  8 22 42.0000000  0  8G23G11G09G03G30G01G10G05            -0.000772255
    316708.040    22730753.106       -2142.350          38.000  
   -333542.833    21466323.279        2160.949          38.000  
    105356.133    20510742.467        -744.570          38.000  
    458050.380    25158108.418       -3106.232          39.000  
   -531797.793    22735537.323        3495.641          38.000  
   -193009.502    22462349.928        1232.652          38.000  
    207684.909    21456288.911       -1457.876          39.000  
   -533349.808    24318505.767        3539.886          38.000  
 18  2 16  8 22 43.0000000  0  8G23G11G09G03G30G01G10G05            -0.000772111
    318850.705    22731160.859       -2142.703          38.000  
   -335703.208    21465912.167        2160.203          38.000  
    106101.008    20510884.169        -745.020          38.000  
    461156.643    25158699.525       -3106.218          39.000  
   -535293.260    22734872.184        3495.535          39.000  
   -194241.856    22462115.433        1232.183          38.000  
    209143.248    21456566.417       -1458.428          38.000  
   -536889.523    24317832.176        3539.810          38.000  
 18  2 16  8 22 44.0000000  0  8G23G11G09G03G30G01G10G05            -0.000771969
    320993.649    22731568.648       -2143.155          38.000  
   -337863.317    21465501.072        2159.850          38.000  
    106846.290    20511025.977        -745.430          38.000  
    464262.917    25159290.650       -3106.051          38.000  
   -538788.668    22734207.045        3495.377          39.000  
   -195473.658    22461880.991        1231.681          38.000  
    210602.018    21456844.013       -1459.024          38.000  
   -540429.145    24317158.621        3539.728          38.000  
 18  2 16  8 22 45.0000000  0  8G23G11G09G03G30G01G10G05            -0.000771825
    323136.986    22731976.491       -2143.373          38.000  
   -340023.120    21465090.084        2159.762          38.000  
    107592.103    20511167.929        -745.947          38.000  
    467369.379    25159881.793       -3106.416          38.000  
   -542283.903    22733541.960        3495.272          38.000  
   -196704.772    22461646.710        1230.816          38.000  
    212061.293    21457121.662       -1459.429          38.000  
   -543968.532    24316485.084        3539.436          38.000  
 18  2 16  8 22 46.0000000  0  8G23G11G09G03G30G01G10G05            -0.000771679
    325280.566    22732384.423       -2143.736          38.000  
   -342182.696    21464679.150        2159.919          38.000  
    108338.262    20511309.916        -746.302          38.000  
    470475.816    25160472.919       -3106.511          38.000  
   -545779.150    22732876.822        3495.217          38.000  
   -197935.431    22461412.537        1230.460          38.000  
    213520.921    21457399.418       -1459.716          38.000  
   -547507.900    24315811.565        3539.307          38.000  
 18  2 16  8 22 47.0000000  0  8G23G11G09G03G30G01G10G05            -0.000771535
    327424.435    22732792.390       -2143.958          38.000  
   -344342.253    21464268.216        2159.296          38.000  
    109084.858    20511451.975        -746.766          38.000  
    473582.322    25161064.062       -3106.507          38.000  
   -549274.333    22732211.719        3495.222          38.000  
   -199165.522    22461178.452        1229.749          38.000  
    214980.853    21457677.263       -1460.063          38.000  
   -551047.194    24315138.046        3539.240          38.000  
 18  2 16  8 22 48.0000000  0  8G23G11G09G03G30G01G10G05            -0.000771387
    329568.831    22733200.465       -2144.473          38.000  
   -346501.407    21463857.336        2158.914          38.000  
    109832.055    20511594.176        -747.361          38.000  
    476689.102    25161655.258       -3106.878          38.000  
   -552769.239    22731546.634        3494.852          38.000  
   -200394.929    22460944.529        1229.053          38.000  
    216441.362    21457955.180       -1460.811          38.000  
   -554586.221    24314464.598        3538.910          38.000  
 18  2 16  8 22 49.0000000  0  8G23G11G09G03G30G01G10G05            -0.000771245
    331713.608    22733608.612       -2144.969          38.000  
   -348660.356    21463446.492        2158.800          38.000  
    110579.742    20511736.467        -747.827          38.000  
    479796.030    25162246.473       -3106.885          38.000  
   -556264.010    22730881.602        3494.834          38.000  
   -201623.748    22460710.695        1228.593          38.000  
    217902.294    21458233.168       -1461.153          38.000  
   -558125.154    24313791.150        3538.932          38.000  
 18  2 16  8 22 50.0000000  0  8G23G11G09G03G30G01G10G05            -0.000771098
    333858.778    22734016.829       -2145.202          38.000  
   -350819.025    21463035.683        2159.216          38.000  
    111327.927    20511878.848        -748.274          38.000  
    482903.160    25162837.723       -3107.161          38.000  
   -559758.640    22730216.589        3494.781          38.000  
   -202851.993    22460476.932        1228.151          38.000  
    219363.658    21458511.246       -1461.270          38.000  
   -561663.977    24313117.721        3538.877          38.000  
 18  2 16  8 22 51.0000000  0  8G23G11G09G03G30G01G10G05            -0.000770954
    336004.267    22734425.101       -2145.599          38.000  
   -352977.731    21462624.856        2158.521          38.000  
    112076.513    20512021.300        -748.677          38.000  
    486010.375    25163428.991       -3107.295          38.000  
   -563253.206    22729551.593        3494.708          38.000  
   -204079.751    22460243.277        1227.563          38.000  
    220825.308    21458789.360       -1461.806          38.000  
   -565202.775    24312444.309        3538.814          38.000  
 18  2 16  8 22 52.0000000  0  8G23G11G09G03G30G01G10G05            -0.000770808
    338150.251    22734833.444       -2145.884          38.000  
   -355136.131    21462214.137        2158.450          38.000  
    112825.690    20512163.859        -749.075          38.000  
    489117.892    25164020.313       -3107.418          38.000  
   -566747.477    22728886.651        3494.348          38.000  
   -205306.858    22460009.765        1227.171          38.000  
    222287.456    21459067.598       -1462.124          38.000  
   -568741.387    24311770.914        3538.775          38.000  
 18  2 16  8 22 53.0000000  0  8G23G11G09G03G30G01G10G05            -0.000770666
    340296.628    22735241.894       -2146.199          38.000  
   -357294.378    21461803.453        2158.385          38.000  
    113575.339    20512306.525        -749.545          38.000  
    492225.586    25164611.706       -3107.436          38.000  
   -570241.660    22728221.762        3494.476          38.000  
   -206533.452    22459776.342        1226.673          38.000  
    223749.996    21459345.944       -1462.495          38.000  
   -572279.986    24311097.538        3538.892          38.000  
 18  2 16  8 22 54.0000000  0  8G23G11G09G03G30G01G10G05            -0.000770530
    342443.517    22735650.451       -2147.086          38.000  
   -359452.297    21461392.787        2158.356          38.000  
    114325.564    20512449.298        -750.349          38.000  
    495333.612    25165203.153       -3108.112          38.000  
   -573735.562    22727556.910        3493.906          38.000  
   -207759.409    22459543.079        1225.879          38.000  
    225213.033    21459624.361       -1462.850          38.000  
   -575818.422    24310424.198        3538.519          38.000  
 18  2 16  8 22 55.0000000  0  8G23G11G09G03G30G01G10G05            -0.000770387
    344590.849    22736059.062       -2147.294          38.000  
   -361610.191    21460982.157        2157.965          38.000  
    115076.336    20512592.161        -750.747          38.000  
    498441.919    25165794.635       -3108.192          38.000  
   -577229.239    22726892.093        3493.810          38.000  
   -208984.806    22459309.907        1225.413          38.000  
    226676.442    21459902.868       -1463.408          38.000  
   -579356.750    24309750.857        3538.418          38.000  
 18  2 16  8 22 56.0000000  0  8G23G11G09G03G30G01G10G05            -0.000770243
    346738.364    22736467.691       -2147.338          38.000  
   -363768.130    21460571.509        2158.212          38.000  
    115827.337    20512735.060        -750.849          38.000  
    501550.221    25166386.154       -3107.993          38.000  
   -580722.975    22726227.276        3494.052          38.000  
   -210209.927    22459076.787        1225.329          38.000  
    228140.002    21460181.392       -1463.304          38.000  
   -582895.316    24309077.499        3538.946          38.000  
 18  2 16  8 22 57.0000000  0  8G23G11G09G03G30G01G10G05            -0.000770098
    348886.210    22736876.409       -2148.349          38.000  
   -365926.052    21460160.843        2157.596          38.000  
    116578.741    20512878.048        -751.846          38.000  
    504658.690    25166977.672       -3108.712          38.000  
   -584216.624    22725562.477        3493.357          38.000  
   -211434.645    22458843.722        1224.344          38.000  
    229603.862    21460459.952       -1464.295          38.000  
   -586433.953    24308404.140        3538.453          38.000  
 18  2 16  8 22 58.0000000  0  8G23G11G09G03G30G01G10G05            -0.000769956
    351034.477    22737285.217       -2148.077          38.000  
   -368083.714    21459750.284        2158.367          38.000  
    117330.659    20513021.125        -751.948          38.000  
    507767.456    25167569.226       -3108.582          38.000  
   -587710.032    22724897.713        3493.502          38.000  
   -212658.826    22458610.745        1224.274          38.000  
    231068.143    21460738.566       -1464.164          38.000  
   -589972.559    24307730.764        3538.950          38.000  
 18  2 16  8 22 59.0000000  0  8G23G11G09G03G30G01G10G05            -0.000769812
    353183.005    22737694.060       -2148.285          38.000  
   -370241.611    21459339.654        2158.150          38.000  
    118082.860    20513164.238        -751.986          38.000  
    510876.327    25168160.833       -3108.624          38.000  
   -591203.445    22724232.932        3493.731          38.000  
   -213882.715    22458377.840        1224.283          38.000  
    232532.539    21461017.234       -1464.244          38.000  
   -593511.354    24307057.370        3539.164          38.000  
 18  2 16  8 23  0.0000000  0  8G23G11G09G03G30G01G10G05            -0.000769667
    355331.966    22738102.993       -2148.989          38.000  
   -372399.347    21458929.060        2157.865          38.000  
    118835.565    20513307.458        -752.648          38.000  
    513985.483    25168752.495       -3109.079          38.000  
   -594696.629    22723568.222        3493.255          38.000  
   -215106.092    22458145.025        1223.311          38.000  
    233997.330    21461296.008       -1464.808          38.000  
   -597050.152    24306383.976        3538.903          38.000  
 18  2 16  8 23  1.0000000  0  8G23G11G09G03G30G01G10G05            -0.000769523
    357481.343    22738512.014       -2149.501          38.000  
   -374556.957    21458518.483        2157.714          38.000  
    119588.763    20513450.768        -753.268          38.000  
    517094.966    25169344.210       -3109.604          38.000  
   -598189.558    22722903.512        3492.801          38.000  
   -216329.010    22457912.317        1222.831          38.000  
    235462.505    21461574.801       -1465.253          38.000  
   -600588.990    24305710.564        3538.992          38.000  
 18  2 16  8 23  2.0000000  0  8G23G11G09G03G30G01G10G05            -0.000769379
    359631.110    22738921.108       -2149.701          38.000  
   -376714.424    21458107.942        2158.263          38.000  
    120342.399    20513594.185        -753.596          38.000  
    520204.713    25169935.978       -3109.670          38.000  
   -601682.330    22722238.874        3493.102          38.000  
   -217551.485    22457679.698        1222.626          38.000  
    236928.019    21461853.683       -1465.115          38.000  
   -604127.892    24305037.152        3539.356          38.000  
 18  2 16  8 23  3.0000000  0  8G23G11G09G03G30G01G10G05            -0.000769235
    361781.298    22739330.255       -2150.299          38.000  
   -378871.881    21457697.401        2157.226          38.000  
    121096.542    20513737.709        -754.509          38.000  
    523314.795    25170527.818       -3110.348          38.000  
   -605174.821    22721574.236        3492.345          38.000  
   -218773.478    22457447.186        1221.703          38.000  
    238393.898    21462132.654       -1466.236          38.000  
   -607666.823    24304363.722        3538.949          38.000  
 18  2 16  8 23  4.0000000  0  8G23G11G09G03G30G01G10G05            -0.000769090
    363932.070    22739739.527       -2150.659          38.000  
   -381029.101    21457286.879        2157.390          38.000  
    121851.275    20513881.340        -754.735          38.000  
    526425.348    25171119.747       -3110.428          39.000  
   -608666.927    22720909.705        3492.345          38.000  
   -219994.881    22457214.746        1221.395          38.000  
    239860.246    21462411.696       -1466.091          38.000  
   -611205.672    24303690.310        3539.102          38.000  
 18  2 16  8 23  5.0000000  0  8G23G11G09G03G30G01G10G05            -0.000768947
    366083.184    22740148.871       -2151.230          38.000  
   -383186.242    21456876.427        2157.114          38.000  
    122606.398    20514025.043        -755.138          38.000  
    529536.172    25171711.748       -3110.815          38.000  
   -612158.838    22720245.263        3491.966          38.000  
   -221215.922    22456982.413        1220.955          38.000  
    241326.941    21462690.775       -1466.670          38.000  
   -614744.676    24303016.862        3539.246          38.000  
 18  2 16  8 23  6.0000000  0  8G23G11G09G03G30G01G10G05            -0.000768803
    368234.677    22740558.304       -2151.806          39.000  
   -385343.230    21456465.976        2157.344          39.000  
    123361.997    20514168.799        -755.865          38.000  
    532647.319    25172303.784       -3111.454          38.000  
   -615650.504    22719580.821        3491.522          38.000  
   -222436.529    22456750.133        1220.385          38.000  
    242793.975    21462969.978       -1467.162          39.000  
   -618283.761    24302343.379        3539.014          38.000  
 18  2 16  8 23  7.0000000  0  8G23G11G09G03G30G01G10G05            -0.000768660
    370386.684    22740967.844       -2152.129          38.000  
   -387500.138    21456055.524        2156.807          38.000  
    124118.169    20514312.698        -756.565          38.000  
    535758.918    25172895.910       -3111.691          38.000  
   -619141.795    22718916.487        3491.303          38.000  
   -223656.591    22456517.979        1219.950          39.000  
    244261.466    21463249.218       -1467.481          38.000  
   -621822.851    24301669.913        3539.152          38.000  
 18  2 16  8 23  8.0000000  0  8G23G11G09G03G30G01G10G05            -0.000768518
    372539.032    22741377.420       -2152.226          38.000  
   -389656.983    21455645.091        2157.101          38.000  
    124874.710    20514456.651        -756.503          38.000  
    538870.812    25173488.107       -3111.718          38.000  
   -622632.857    22718252.170        3491.296          38.000  
   -224876.314    22456285.896        1219.957          38.000  
    245729.261    21463528.528       -1467.658          38.000  
   -625362.096    24300996.412        3539.569          38.000  
 18  2 16  8 23  9.0000000  0  8G23G11G09G03G30G01G10G05            -0.000768374
    374691.726    22741787.067       -2152.743          38.000  
   -391813.716    21455234.675        2156.697          38.000  
    125631.650    20514600.675        -757.024          38.000  
    541983.004    25174080.340       -3112.082          38.000  
   -626123.669    22717587.889        3490.910          38.000  
   -226095.644    22456053.849        1219.311          38.000  
    247197.381    21463807.910       -1468.093          38.000  
   -628901.507    24300322.893        3539.642          38.000  
 18  2 16  8 23 10.0000000  0  8G23G11G09G03G30G01G10G05            -0.000768229
    376844.813    22742196.821       -2153.256          38.000  
   -393970.260    21454824.277        2156.613          38.000  
    126389.074    20514744.789        -757.673          38.000  
    545095.609    25174672.663       -3112.768          38.000  
   -629614.154    22716923.697        3490.156          38.000  
   -227314.540    22455821.873        1218.530          38.000  
    248665.922    21464087.382       -1468.882          38.000  
   -632441.023    24299649.320        3539.548          38.000  
 18  2 16  8 23 11.0000000  0  8G23G11G09G03G30G01G10G05            -0.000768086
    378998.309    22742606.612       -2153.540          38.000  
   -396126.791    21454413.897        2156.428          38.000  
    127146.924    20514889.010        -757.898          39.000  
    548208.568    25175265.039       -3112.878          38.000  
   -633104.331    22716259.542        3490.124          38.000  
   -228533.027    22455590.005        1218.483          39.000  
    250134.818    21464366.907       -1469.006          38.000  
   -635980.632    24298975.729        3539.719          38.000  
 18  2 16  8 23 12.0000000  0  8G23G11G09G03G30G01G10G05            -0.000767942
    381152.097    22743016.474       -2153.720          38.000  
   -398283.261    21454003.535        2156.650          38.000  
    127905.155    20515033.302        -758.132          38.000  
    551321.839    25175857.486       -3113.226          38.000  
   -636594.272    22715595.421        3490.029          38.000  
   -229751.164    22455358.226        1218.056          38.000  
    251604.023    21464646.522       -1469.205          38.000  
   -639520.469    24298302.120        3539.981          38.000  
 18  2 16  8 23 13.0000000  0  8G23G11G09G03G30G01G10G05            -0.000767798
    383306.277    22743426.389       -2154.240          38.000  
   -400439.528    21453593.226        2156.230          38.000  
    128663.836    20515177.702        -758.762          38.000  
    554435.501    25176450.023       -3113.688          38.000  
   -640083.849    22714931.355        3489.628          38.000  
   -230968.900    22455126.482        1217.671          38.000  
    253073.637    21464926.172       -1469.693          38.000  
   -643060.443    24297628.458        3540.214          38.000  
 18  2 16  8 23 14.0000000  0  8G23G11G09G03G30G01G10G05            -0.000767654
    385460.814    22743836.376       -2154.232          38.000  
   -402595.593    21453182.954        2156.673          38.000  
    129422.928    20515322.137        -758.885          38.000  
    557549.530    25177042.613       -3113.732          38.000  
   -643573.090    22714267.378        3489.500          38.000  
   -232186.212    22454894.828        1217.461          38.000  
    254543.644    21465205.893       -1469.688          38.000  
   -646600.533    24296954.760        3540.544          38.000  
 18  2 16  8 23 15.0000000  0  8G23G11G09G03G30G01G10G05            -0.000767509
    387615.556    22744246.381       -2154.731          38.000  
   -404751.745    21452772.645        2156.259          38.000  
    130182.314    20515466.644        -759.370          38.000  
    560663.812    25177635.240       -3114.355          38.000  
   -647062.122    22713603.418        3489.084          38.000  
   -233403.292    22454663.246        1217.048          38.000  
    256013.929    21465485.687       -1470.224          38.000  
   -650140.929    24296281.063        3540.523          38.000  
 18  2 16  8 23 16.0000000  0  8G23G11G09G03G30G01G10G05            -0.000767365
    389770.600    22744656.439       -2155.186          38.000  
   -406907.747    21452362.390        2155.929          38.000  
    130942.058    20515611.204        -759.982          38.000  
    563778.421    25178227.937       -3114.824          38.000  
   -650550.841    22712939.549        3488.476          38.000  
   -234620.014    22454431.717        1216.493          38.000  
    257484.561    21465765.569       -1470.748          38.000  
   -653681.557    24295607.311        3540.794          38.000  
 18  2 16  8 23 17.0000000  0  8G23G11G09G03G30G01G10G05            -0.000767222
    391925.967    22745066.604       -2155.461          38.000  
   -409063.565    21451952.171        2155.778          38.000  
    131702.214    20515755.854        -760.293          38.000  
    566893.396    25178820.706       -3115.021          38.000  
   -654039.220    22712275.732        3488.332          38.000  
   -235836.351    22454200.242        1216.288          38.000  
    258955.598    21466045.505       -1471.054          38.000  
   -657222.332    24294933.488        3541.059          38.000  
 18  2 16  8 23 18.0000000  0  8G23G11G09G03G30G01G10G05            -0.000767078
    394081.724    22745476.859       -2155.916          38.000  
   -411219.052    21451541.988        2155.412          38.000  
    132462.830    20515900.593        -760.857          38.000  
    570008.845    25179413.547       -3115.760          38.000  
   -657527.119    22711612.005        3487.645          38.000  
   -237052.216    22453968.909        1215.580          38.000  
    260427.127    21466325.531       -1471.788          38.000  
   -660763.192    24294259.683        3540.869          38.000  
 18  2 16  8 23 19.0000000  0  8G23G11G09G03G30G01G10G05            -0.000766934
    396237.922    22745887.186       -2156.020          38.000  
   -413374.310    21451131.858        2155.335          38.000  
    133223.976    20516045.404        -761.194          38.000  
    573124.770    25180006.495       -3115.930          38.000  
   -661014.530    22710948.368        3487.425          38.000  
   -238267.565    22453737.630        1215.294          38.000  
    261899.221    21466605.681       -1471.916          38.000  
   -664304.110    24293585.878        3541.188          38.000  
 18  2 16  8 23 20.0000000  0  8G23G11G09G03G30G01G10G05            -0.000766791
    398394.359    22746297.548       -2156.440          38.000  
   -415529.401    21450721.764        2155.085          38.000  
    133985.437    20516190.321        -761.486          38.000  
    576241.028    25180599.532       -3116.359          38.000  
   -664501.618    22710284.784        3487.053          38.000  
   -239482.598    22453506.423        1214.992          38.000  
    263371.695    21466885.903       -1472.484          38.000  
   -667845.275    24292912.019        3541.370          38.000  
 18  2 16  8 23 21.0000000  0  8G23G11G09G03G30G01G10G05            -0.000766648
    400551.068    22746707.946       -2156.755          38.000  
   -417684.249    21450311.688        2154.735          38.000  
    134747.278    20516335.275        -761.932          38.000  
    579357.625    25181192.605       -3116.673          38.000  
   -667988.317    22709621.289        3486.575          38.000  
   -240697.242    22453275.252        1214.512          38.000  
    264844.597    21467166.179       -1473.067          38.000  
   -671386.618    24292238.089        3541.579          38.000  
 18  2 16  8 23 22.0000000  0  8G23G11G09G03G30G01G10G05            -0.000766504
    402708.222    22747118.433       -2157.071          38.000  
   -419838.644    21449901.719        2154.523          38.000  
    135509.658    20516480.336        -762.445          38.000  
    582474.774    25181785.785       -3117.273          38.000  
   -671474.452    22708957.901        3486.194          38.000  
   -241911.340    22453044.259        1214.107          38.000  
    266318.110    21467446.580       -1473.781          38.000  
   -674927.974    24291564.177        3541.725          38.000  
 18  2 16  8 23 23.0000000  0  8G23G11G09G03G30G01G10G05            -0.000766359
    404865.588    22747528.956       -2157.318          38.000  
   -421992.893    21449491.785        2154.165          38.000  
    136272.360    20516625.450        -762.774          38.000  
    585592.225    25182379.018       -3117.490          38.000  
   -674960.219    22708294.585        3485.672          38.000  
   -243125.090    22452813.302        1213.689          38.000  
    267792.055    21467727.016       -1474.133          38.000  
   -678469.551    24290890.246        3541.691          38.000  
 18  2 16  8 23 24.0000000  0  8G23G11G09G03G30G01G10G05            -0.000766215
    407023.397    22747939.568       -2157.955          38.000  
   -424146.676    21449081.941        2153.579          38.000  
    137035.601    20516770.689        -763.593          38.000  
    588710.232    25182972.324       -3118.221          38.000  
   -678445.391    22707631.394        3485.000          38.000  
   -244338.261    22452582.452        1212.813          38.000  
    269266.628    21468007.613       -1474.767          38.000  
   -682011.158    24290216.298        3541.754          38.000  
 18  2 16  8 23 25.0000000  0  8G23G11G09G03G30G01G10G05            -0.000766073
    409181.261    22748350.180       -2157.754          38.000  
   -426300.343    21448672.097        2153.738          38.000  
    137798.987    20516915.982        -763.160          38.000  
    591828.394    25183565.700       -3118.093          38.000  
   -681930.344    22706968.221        3485.130          38.000  
   -245551.253    22452351.620        1213.034          38.000  
    270741.518    21468288.264       -1474.884          38.000  
   -685553.114    24289542.314        3542.181          38.000  
 18  2 16  8 23 26.0000000  0  8G23G11G09G03G30G01G10G05            -0.000765930
    411339.207    22748760.828       -2157.893          38.000  
   -428453.781    21448262.289        2153.341          38.000  
    138562.622    20517061.293        -763.686          38.000  
    594946.775    25184159.131       -3118.346          38.000  
   -685414.970    22706305.102        3484.604          38.000  
   -246763.957    22452120.841        1212.687          38.000  
    272216.739    21468569.004       -1475.472          38.000  
   -689095.389    24288868.223        3542.538          38.000  
 18  2 16  8 23 27.0000000  0  8G23G11G09G03G30G01G10G05            -0.000765787
    413497.444    22749171.548       -2158.362          38.000  
   -430606.898    21447852.588        2153.108          38.000  
    139326.639    20517206.694        -764.183          38.000  
    598065.562    25184752.597       -3118.863          38.000  
   -688899.106    22705642.090        3483.928          38.000  
   -247976.223    22451890.152        1212.270          38.000  
    273692.554    21468849.852       -1475.899          38.000  
   -692637.783    24288194.115        3542.487          38.000  
 18  2 16  8 23 28.0000000  0  8G23G11G09G03G30G01G10G05            -0.000765642
    415656.038    22749582.321       -2158.377          38.000  
   -432759.477    21447442.977        2152.848          38.000  
    140091.148    20517352.165        -764.402          38.000  
    601184.833    25185346.188       -3119.075          38.000  
   -692382.656    22704979.185        3483.691          38.000  
   -249187.916    22451659.588        1211.859          38.000  
    275169.040    21469130.824       -1476.263          38.000  
   -696180.195    24287520.041        3542.835          38.000  
 18  2 16  8 23 29.0000000  0  8G23G11G09G03G30G01G10G05            -0.000765498
    417814.855    22749993.130       -2158.846          38.000  
   -434911.671    21447033.437        2152.136          38.000  
    140856.036    20517497.708        -765.067          38.000  
    604304.489    25185939.832       -3119.935          38.000  
   -695865.718    22704316.369        3482.961          38.000  
   -250399.152    22451429.096        1210.982          38.000  
    276646.099    21469411.886       -1477.303          38.000  
   -699722.745    24286845.915        3542.540          38.000  
 18  2 16  8 23 30.0000000  0  8G23G11G09G03G30G01G10G05            -0.000765355
    419974.031    22750404.010       -2159.175          38.000  
   -437063.248    21446623.986        2151.242          38.000  
    141621.416    20517643.359        -765.458          38.000  
    607424.624    25186533.602       -3120.396          38.000  
   -699348.135    22703653.696        3482.120          38.000  
   -251609.826    22451198.710        1210.466          38.000  
    278123.831    21469693.109       -1478.240          38.000  
   -703265.286    24286171.788        3542.513          38.000  
 18  2 16  8 23 31.0000000  0  8G23G11G09G03G30G01G10G05            -0.000765207
    422133.370    22750814.944       -2159.381          38.000  
   -439214.496    21446214.624        2151.242          38.000  
    142387.099    20517789.045        -765.832          38.000  
    610545.044    25187127.390       -3120.503          38.000  
   -702830.117    22702991.113        3481.762          38.000  
   -252820.091    22450968.432        1210.121          38.000  
    279602.150    21469974.439       -1478.530          38.000  
   -706808.009    24285497.661        3542.785          38.000  
 18  2 16  8 23 35.0000000  0  8G23G11G09G03G30G01G10G05            -0.000764634
    430771.862    22752458.823       -2159.773          38.000  
   -447815.169    21444578.001        2149.356          38.000  
    145452.638    20518372.379        -766.971          38.000  
    623029.488    25189503.076       -3121.524          38.000  
   -716753.665    22700341.512        3480.029          38.000  
   -257657.126    22450047.999        1208.497          38.000  
    285520.818    21471100.670       -1480.818          38.000  
   -720980.739    24282800.654        3543.582          38.000  
 18  2 16  8 23 36.0000000  0  8G23G11G09G03G30G01G10G05            -0.000764490
    432931.836    22752869.828       -2159.972          38.000  
   -449964.069    21444169.068        2148.814          38.000  
    146219.817    20518518.351        -767.262          38.000  
    626151.349    25190097.114       -3121.916          38.000  
   -720233.303    22699679.358        3479.529          38.000  
   -258865.218    22449818.114        1207.812          38.000  
    287002.035    21471382.536       -1481.483          38.000  
   -724524.206    24282126.313        3543.497          38.000  
 18  2 16  8 23 37.0000000  0  8G23G11G09G03G30G01G10G05            -0.000764346
    435092.003    22753280.887       -2160.330          38.000  
   -452112.347    21443760.278        2147.957          38.000  
    146987.372    20518664.395        -767.692          38.000  
    629273.546    25190691.241       -3122.359          38.000  
   -723712.384    22699017.292        3478.844          38.000  
   -260072.799    22449588.300        1207.421          38.000  
    288483.958    21471664.527       -1482.235          38.000  
   -728067.733    24281451.989        3543.531          38.000  
 18  2 16  8 23 38.0000000  0  8G23G11G09G03G30G01G10G05            -0.000764205
    437252.338    22753691.982       -2160.211          38.000  
   -454259.988    21443351.596        2147.329          38.000  
    147755.285    20518810.528        -767.755          38.000  
    632396.075    25191285.422       -3122.446          38.000  
   -727190.877    22698355.352        3478.479          38.000  
   -261279.793    22449358.612        1206.883          38.000  
    289966.565    21471946.661       -1482.911          38.000  
   -731611.284    24280777.684        3543.744          38.000  
 18  2 16  8 23 39.0000000  0  8G23G11G09G03G30G01G10G05            -0.000764064
    439412.757    22754103.094       -2160.338          38.000  
   -456407.018    21442943.039        2146.850          38.000  
    148523.523    20518956.714        -768.353          38.000  
    635518.843    25191879.656       -3122.741          38.000  
   -730668.902    22697693.502        3477.000          38.000  
   -262486.319    22449129.013        1206.409          38.000  
    291449.929    21472228.938       -1483.496          38.000  
   -735154.926    24280103.378        3543.908          38.000  
 18  2 16  8 23 40.0000000  0  8G23G11G09G03G30G01G10G05            -0.000763921
    441573.329    22754514.243       -2160.545          38.000  
   -458553.407    21442534.588        2146.233          38.000  
    149292.092    20519102.972        -768.709          38.000  
    638641.919    25192473.962       -3123.028          38.000  
   -734146.326    22697031.794        3477.272          38.000  
   -263692.288    22448899.539        1205.924          38.000  
    292933.981    21472511.322       -1484.077          38.000  
   -738698.587    24279429.037        3543.873          38.000  
 18  2 16  8 23 41.0000000  0  8G23G11G09G03G30G01G10G05            -0.000763778
    443734.031    22754925.427       -2160.767          38.000  
   -460699.092    21442126.281        2145.369          38.000  
    150061.027    20519249.302        -769.096          38.000  
    641765.289    25193068.304       -3123.357          38.000  
   -737623.202    22696370.140        3476.740          38.000  
   -264897.674    22448670.154        1205.183          38.000  
    294418.807    21472793.885       -1485.039          38.000  
   -742242.261    24278754.696        3543.692          38.000  
 18  2 16  8 23 42.0000000  0  8G23G11G09G03G30G01G10G05            -0.000763636
    445894.628    22755336.575       -2160.630          38.000  
   -462844.305    21441718.028        2144.699          38.000  
    150830.070    20519395.613        -769.155          38.000  
    644888.737    25193662.663       -3123.571          38.000  
   -741099.709    22695708.575        3476.223          38.000  
   -266102.710    22448440.841        1204.983          38.000  
    295904.124    21473076.537       -1485.974          38.000  
   -745786.161    24278080.319        3544.119          38.000  
 18  2 16  8 23 43.0000000  0  8G23G11G09G03G30G01G10G05            -0.000763493
    448055.390    22755747.759       -2160.615          38.000  
   -464988.698    21441309.935        2144.281          38.000  
    151599.534    20519542.032        -769.562          38.000  
    648012.485    25194257.094       -3123.804          38.000  
   -744575.626    22695047.135        3475.767          38.000  
   -267307.092    22448211.653        1204.246          38.000  
    297390.335    21473359.332       -1486.462          38.000  
   -749329.973    24277405.960        3544.039          38.000  
 18  2 16  8 23 44.0000000  0  8G23G11G09G03G30G01G10G05            -0.000763350
    450216.230    22756158.943       -2160.680          38.000  
   -467132.400    21440902.021        2143.743          38.000  
    152369.275    20519688.522        -769.645          38.000  
    651136.444    25194851.597       -3123.883          38.000  
   -748050.983    22694385.820        3475.270          38.000  
   -268510.928    22447982.572        1203.838          38.000  
    298877.266    21473642.270       -1486.936          38.000  
   -752873.818    24276731.583        3544.231          38.000  
 18  2 16  8 23 45.0000000  0  8G23G11G09G03G30G01G10G05            -0.000763207
    452377.039    22756570.127       -2160.798          38.000  
   -469275.443    21440494.214        2142.818          38.000  
    153139.244    20519835.030        -769.948          38.000  
    654260.520    25195446.081       -3124.173          38.000  
   -751525.916    22693724.559        3474.692          38.000  
   -269714.271    22447753.563        1203.091          38.000  
    300364.886    21473925.333       -1487.909          38.000  
   -756417.751    24276057.188        3544.176          38.000  
 18  2 16  8 23 46.0000000  0  8G23G11G09G03G30G01G10G05            -0.000763063
    454537.882    22756981.347       -2161.145          38.000  
   -471417.780    21440086.550        2141.571          38.000  
    153909.520    20519981.628        -770.665          38.000  
    657384.780    25196040.619       -3124.424          38.000  
   -755000.316    22693063.405        3474.005          38.000  
   -270917.045    22447524.696        1202.351          38.000  
    301853.198    21474208.540       -1488.896          38.000  
   -759961.659    24275382.847        3543.722          38.000  
 18  2 16  8 23 47.0000000  0  8G23G11G09G03G30G01G10G05            -0.000762923
    456698.850    22757392.567       -2161.048          38.000  
   -473559.190    21439679.029        2141.137          38.000  
    154680.166    20520128.261        -770.697          38.000  
    660509.310    25196635.193       -3124.513          38.000  
   -758474.101    22692402.377        3473.507          38.000  
   -272119.124    22447295.937        1201.730          38.000  
    303342.502    21474491.924       -1489.643          38.000  
   -763505.464    24274708.506        3543.692          38.000  
 18  2 16  8 23 48.0000000  0  8G23G11G09G03G30G01G10G05            -0.000762787
    458859.876    22757803.805       -2160.994          38.000  
   -475699.850    21439271.705        2140.504          38.000  
    155451.132    20520274.948        -771.082          38.000  
    663634.038    25197229.803       -3124.862          38.000  
   -761947.352    22691741.437        3473.029          38.000  
   -273320.618    22447067.285        1201.375          38.000  
    304832.551    21474775.488       -1490.236          38.000  
   -767049.248    24274034.165        3543.970          38.000  
 18  2 16  8 23 49.0000000  0  8G23G11G09G03G30G01G10G05            -0.000762644
    461020.981    22758215.042       -2161.031          38.000  
   -477839.613    21438864.523        2139.480          38.000  
    156222.440    20520421.706        -771.288          38.000  
    666758.969    25197824.466       -3124.889          38.000  
   -765420.026    22691080.587        3472.622          38.000  
   -274521.408    22446838.794        1200.545          38.000  
    306323.479    21475059.194       -1491.233          38.000  
   -770592.894    24273359.806        3543.769          38.000  
 18  2 16  8 23 50.0000000  0  8G23G11G09G03G30G01G10G05            -0.000762500
    463182.114    22758626.262       -2161.354          38.000  
   -479978.597    21438457.503        2137.896          38.000  
    156994.052    20520568.536        -771.909          38.000  
    669884.057    25198419.165       -3125.351          38.000  
   -768892.153    22690419.880        3471.816          38.000  
   -275721.580    22446610.410        1199.694          38.000  
    307815.165    21475343.044       -1492.508          38.000  
   -774136.475    24272685.464        3543.360          38.000  
 18  2 16  8 23 51.0000000  0  8G23G11G09G03G30G01G10G05            -0.000762361
    465343.239    22759037.500       -2160.661          38.000  
   -482116.704    21438050.643        2138.139          38.000  
    157765.953    20520715.401        -771.614          38.000  
    673009.244    25199013.900       -3124.806          38.000  
   -772363.775    22689759.262        3471.770          38.000  
   -276921.122    22446382.151        1199.536          38.000  
    309307.733    21475627.054       -1492.441          38.000  
   -777680.009    24272011.123        3543.939          38.000  
 18  2 16  8 23 52.0000000  0  8G23G11G09G03G30G01G10G05            -0.000762213
    467504.348    22759448.756       -2161.008          38.000  
   -484254.016    21437643.926        2136.984          38.000  
    158538.104    20520862.338        -772.251          38.000  
    676134.528    25199608.616       -3125.329          38.000  
   -775834.921    22689098.734        3470.776          38.000  
   -278120.085    22446153.999        1198.608          38.000  
    310801.099    21475911.261       -1493.699          38.000  
   -781223.479    24271336.800        3543.378          38.000  
 18  2 16  8 23 53.0000000  0  8G23G11G09G03G30G01G10G05            -0.000762069
    469665.436    22759859.993       -2161.058          38.000  
   -486390.494    21437237.370        2136.310          38.000  
    159310.513    20521009.293        -772.381          38.000  
    679259.884    25200203.333       -3125.291          38.000  
   -779305.597    22688438.295        3470.523          38.000  
   -279318.415    22445925.955        1198.187          38.000  
    312295.242    21476195.611       -1494.405          38.000  
   -784766.878    24270662.494        3543.475          38.000  
 18  2 16  8 23 54.0000000  0  8G23G11G09G03G30G01G10G05            -0.000761925
    471826.618    22760271.249       -2161.344          38.000  
   -488526.010    21436830.993        2134.717          38.000  
    160083.359    20521156.337        -773.116          38.000  
    682385.436    25200798.104       -3125.657          38.000  
   -782775.644    22687777.981        3469.680          38.000  
   -280515.958    22445698.071        1197.216          38.000  
    313790.311    21476480.103       -1495.783          38.000  
   -788310.051    24269988.225        3542.924          38.000  
 18  2 16  8 23 55.0000000  0  8G23G11G09G03G30G01G10G05            -0.000761783
    473987.616    22760682.469       -2160.891          38.000  
   -490660.761    21436424.776        2134.583          38.000  
    160856.275    20521303.417        -772.846          38.000  
    685510.909    25201392.856       -3125.331          38.000  
   -786245.385    22687117.738        3469.700          38.000  
   -281713.015    22445470.295        1196.968          38.000  
    315286.111    21476764.775       -1495.977          38.000  
   -791853.305    24269313.955        3543.565          38.000  
 18  2 16  8 23 56.0000000  0  8G23G11G09G03G30G01G10G05            -0.000761634
    476148.678    22761093.688       -2161.241          38.000  
   -492794.570    21436018.721        2133.528          38.000  
    161629.571    20521450.551        -773.352          38.000  
    688636.502    25201987.644       -3125.569          38.000  
   -789714.542    22686457.585        3468.847          38.000  
   -282909.297    22445242.625        1195.893          38.000  
    316782.837    21477049.607       -1497.186          38.000  
   -795396.315    24268639.739        3542.957          38.000  
 18  2 16  8 23 57.0000000  0  8G23G11G09G03G30G01G10G05            -0.000761493
    478309.632    22761504.873       -2160.957          38.000  
   -494927.525    21435612.808        2132.665          39.000  
    162403.075    20521597.738        -773.412          38.000  
    691762.077    25202582.397       -3125.490          38.000  
   -793183.307    22685797.485        3468.651          38.000  
   -284104.990    22445015.117        1195.522          38.000  
    318280.330    21477334.546       -1497.819          38.000  
   -798939.268    24267965.559        3543.083          38.000  
 18  2 16  8 23 58.0000000  0  8G23G11G09G03G30G01G10G05            -0.000761348
    480470.667    22761916.075       -2161.124          38.000  
   -497059.526    21435207.074        2131.216          38.000  
    163176.984    20521745.032        -774.112          38.000  
    694887.808    25203177.221       -3125.939          38.000  
   -796651.485    22685137.529        3467.918          38.000  
   -285299.875    22444787.752        1194.550          38.000  
    319778.739    21477619.682       -1499.005          38.000  
   -802481.939    24267291.414        3542.490          38.000  
 18  2 16  8 23 59.0000000  0  8G23G11G09G03G30G01G10G05            -0.000761207
    482631.485    22762327.276       -2160.764          38.000  
   -499190.701    21434801.501        2130.842          38.000  
    163950.979    20521892.309        -774.103          38.000  
    698013.351    25203771.974       -3125.533          38.000  
   -800119.393    22684477.590        3467.783          38.000  
   -286494.231    22444560.476        1193.968          38.000  
    321277.912    21477904.979       -1499.502          38.000  
   -806024.653    24266617.269        3542.713          38.000  
 18  2 16  8 24  0.0000000  0  8G23G11G09G03G30G01G10G05            -0.000761063
    484792.278    22762738.478       -2160.450          38.000  
   -501320.978    21434396.106        2130.181          38.000  
    164725.279    20522039.639        -774.212          38.000  
    701138.929    25204366.744       -3125.357          38.000  
   -803586.804    22683817.759        3467.381          38.000  
   -287687.885    22444333.342        1193.510          38.000  
    322777.942    21478190.419       -1500.227          38.000  
   -809567.150    24265943.143        3542.667          38.000  
 18  2 16  8 24  1.0000000  0  8G23G11G09G03G30G01G10G05            -0.000760916
    486952.965    22763149.609       -2160.312          38.000  
   -503450.398    21433990.890        2129.277          38.000  
    165499.773    20522187.040        -774.363          38.000  
    704264.417    25204961.497       -3125.256          38.000  
   -807053.870    22683158.034        3467.221          38.000  
   -288880.894    22444106.334        1192.867          38.000  
    324278.734    21478476.002       -1500.866          38.000  
   -813109.557    24265269.034        3542.593          38.000  
 18  2 16  8 24  2.0000000  0  8G23G11G09G03G30G01G10G05            -0.000760771
    489113.707    22763560.811       -2160.627          38.000  
   -505578.840    21433585.853        2127.888          38.000  
    166274.656    20522334.478        -775.028          38.000  
    707389.987    25205556.303       -3125.450          38.000  
   -810520.402    22682498.381        3466.534          38.000  
   -290073.083    22443879.469        1191.920          38.000  
    325780.466    21478761.763       -1502.178          38.000  
   -816651.673    24264594.978        3542.193          38.000  
 18  2 16  8 24  3.0000000  0  8G23G11G09G03G30G01G10G05            -0.000760629
    491274.532    22763972.013       -2160.709          38.000  
   -507706.145    21433181.013        2127.030          38.000  
    167049.929    20522482.058        -775.338          38.000  
    710515.642    25206151.109       -3125.426          38.000  
   -813986.375    22681838.818        3465.869          38.000  
   -291264.423    22443652.747        1191.045          39.000  
    327283.246    21479047.739       -1503.113          38.000  
   -820193.426    24263920.995        3541.599          38.000  
 18  2 16  8 24  4.0000000  0  8G23G11G09G03G30G01G10G05            -0.000760486
    493435.147    22764383.179       -2160.538          38.000  
   -509832.677    21432776.351        2126.083          38.000  
    167825.336    20522629.602        -775.414          38.000  
    713641.121    25206745.915       -3125.414          38.000  
   -817452.095    22681179.326        3465.635          38.000  
   -292455.198    22443426.132        1190.511          38.000  
    328786.732    21479333.858       -1503.954          38.000  
   -823735.143    24263247.011        3541.606          38.000  
 18  2 16  8 24  7.0000000  0  8G23G11G09G03G30G01G10G05            -0.000760052
    499916.906    22765616.588       -2160.625          38.000  
   -516206.564    21431563.473        2123.291          38.000  
    170153.439    20523072.593        -776.425          38.000  
    723017.332    25208530.155       -3125.223          38.000  
   -827846.662    22679201.296        3464.223          38.000  
   -296022.842    22442747.234        1188.006          38.000  
    333302.458    21480193.161       -1506.604          38.000  
   -834358.704    24261225.435        3540.696          38.000  
 18  2 16  8 24  9.0000000  0  8G23G11G09G03G30G01G10G05            -0.000759767
    504238.115    22766438.903       -2160.738          38.000  
   -520450.831    21430755.811        2121.125          38.000  
    171707.206    20523368.254        -777.174          38.000  
    729268.016    25209719.660       -3125.271          38.000  
   -834774.219    22677883.045        3463.411          38.000  
   -298397.267    22442295.452        1186.461          38.000  
    336317.524    21480766.918       -1508.328          38.000  
   -841439.553    24259878.003        3540.013          38.000  
 18  2 16  8 24 10.0000000  0  8G23G11G09G03G30G01G10G05            -0.000759623
    506398.546    22766850.016       -2160.371          38.000  
   -522571.736    21430352.221        2120.390          38.000  
    172484.444    20523516.138        -777.453          38.000  
    732393.122    25210314.359       -3125.054          38.000  
   -838237.553    22677223.000        3463.067          38.000  
   -299583.426    22442069.748        1185.880          38.000  
    337826.195    21481054.019       -1509.151          38.000  
   -844979.684    24259204.323        3540.039          38.000  
 18  2 16  8 24 11.0000000  0  8G23G11G09G03G30G01G10G05            -0.000759479
    508558.765    22767261.092       -2160.423          38.000  
   -524691.848    21429948.774        2119.571          38.000  
    173261.763    20523664.076        -777.714          38.000  
    735517.914    25210908.969       -3124.961          38.000  
   -841700.745    22676564.972        3462.838          38.000  
   -300769.018    22441844.152        1185.049          38.000  
    339335.570    21481341.264       -1509.953          38.000  
   -848519.730    24258530.643        3539.815          38.000  
 18  2 16  8 24 12.0000000  0  8G23G11G09G03G30G01G10G05            -0.000759337
    510719.031    22767672.187       -2160.041          38.000  
   -526810.939    21429545.524        2118.721          38.000  
    174039.467    20523812.085        -777.629          38.000  
    738642.686    25211503.596       -3124.730          38.000  
   -845163.512    22675906.034        3462.598          38.000  
   -301953.727    22441618.680        1184.395          38.000  
    340845.869    21481628.669       -1510.542          38.000  
   -852059.378    24257857.070        3539.530          38.000  
 18  2 16  8 24 13.0000000  0  8G23G11G09G03G30G01G10G05            -0.000759194
    512878.988    22768083.193       -2159.729          38.000  
   -528929.440    21429142.399        2118.270          39.000  
    174817.175    20523960.076        -777.587          38.000  
    741767.025    25212098.134       -3124.044          38.000  
   -848626.252    22675247.096        3462.612          38.000  
   -303137.981    22441393.316        1184.004          38.000  
    342356.706    21481916.182       -1511.120          38.000  
   -855599.038    24257183.479        3539.619          38.000  
 18  2 16  8 24 14.0000000  0  8G23G11G09G03G30G01G10G05            -0.000759051
    515039.268    22768494.269       -2160.237          38.000  
   -531046.731    21428739.506        2116.944          38.000  
    175595.550    20524108.211        -778.418          39.000  
    744891.608    25212692.762       -3124.476          38.000  
   -852088.343    22674588.283        3461.977          38.000  
   -304321.096    22441168.184        1182.777          38.000  
    343868.683    21482203.909       -1512.203          38.000  
   -859138.043    24256510.014        3538.806          38.000  
 18  2 16  8 24 15.0000000  0  8G23G11G09G03G30G01G10G05            -0.000758905
    517199.461    22768905.346       -2159.908          38.000  
   -533163.121    21428336.774        2116.206          38.000  
    176374.166    20524256.363        -778.504          38.000  
    748015.986    25213287.336       -3124.048          38.000  
   -855550.192    22673929.488        3462.099          38.000  
   -305503.508    22440943.178        1182.413          38.000  
    345381.479    21482491.779       -1512.932          38.000  
   -862676.845    24255836.602        3538.914          38.000  
 18  2 16  8 24 16.0000000  0  8G23G11G09G03G30G01G10G05            -0.000758759
    519359.631    22769316.441       -2159.866          38.000  
   -535278.655    21427934.221        2115.190          38.000  
    177153.087    20524404.586        -778.891          39.000  
    751140.225    25213881.874       -3124.005          38.000  
   -859011.737    22673270.782        3461.625          38.000  
   -306685.140    22440718.296        1181.560          38.000  
    346895.060    21482779.792       -1513.903          38.000  
   -866215.318    24255163.243        3538.568          38.000  
 18  2 16  8 24 17.0000000  0  8G23G11G09G03G30G01G10G05            -0.000758617
    521519.813    22769727.518       -2160.030          38.000  
   -537393.315    21427531.828        2114.198          38.000  
    177932.322    20524552.881        -779.250          38.000  
    754264.332    25214476.394       -3123.959          38.000  
   -862472.000    22672612.112        3461.285          38.000  
   -307865.961    22440493.575        1180.562          38.000  
    348409.449    21483067.965       -1514.805          38.000  
   -869753.455    24254489.974        3538.162          39.000  
 18  2 16  8 24 18.0000000  0  8G23G11G09G03G30G01G10G05            -0.000758475
    523680.003    22770138.613       -2160.055          38.000  
   -539507.128    21427129.561        2113.349          38.000  
    178711.891    20524701.230        -779.601          38.000  
    757388.310    25215070.878       -3124.076          38.000  
   -865933.992    22671953.496        3460.853          38.000  
   -309046.003    22440269.015        1179.649          39.000  
    349924.639    21483356.300       -1515.599          38.000  
   -873291.270    24253816.741        3537.682          38.000  
 18  2 16  8 24 19.0000000  0  8G23G11G09G03G30G01G10G05            -0.000758331
    525840.274    22770549.725       -2160.127          38.000  
   -541619.995    21426727.508        2112.333          38.000  
    179491.855    20524849.650        -780.125          38.000  
    760512.195    25215665.345       -3123.869          38.000  
   -869394.645    22671294.951        3460.506          38.000  
   -310225.177    22440044.634        1178.657          38.000  
    351440.698    21483644.813       -1516.405          38.000  
   -876828.713    24253143.579        3537.376          38.000  
 18  2 16  8 24 20.0000000  0  8G23G11G09G03G30G01G10G05            -0.000758188
    528000.552    22770960.802       -2160.106          38.000  
   -543732.056    21426325.562        2111.892          38.000  
    180272.129    20524998.141        -780.326          38.000  
    763635.909    25216259.758       -3123.529          38.000  
   -872855.092    22670636.441        3460.541          38.000  
   -311403.620    22439820.396        1178.153          38.000  
    352957.537    21483933.451       -1517.091          38.000  
   -880365.826    24252470.471        3537.145          38.000  
 18  2 16  8 24 21.0000000  0  8G23G11G09G03G30G01G10G05            -0.000758045
    530160.761    22771371.825       -2160.145          38.000  
   -545843.385    21425923.795        2111.118          38.000  
    181052.638    20525146.687        -780.537          38.000  
    766759.403    25216854.135       -3123.333          38.000  
   -876315.347    22669977.968        3460.217          38.000  
   -312581.328    22439596.300        1177.296          38.000  
    354475.040    21484222.197       -1517.712          38.000  
   -883902.695    24251797.416        3536.723          38.000  
 18  2 16  8 24 22.0000000  0  8G23G11G09G03G30G01G10G05            -0.000757901
    532320.950    22771782.902       -2160.266          38.000  
   -547953.961    21425522.153        2110.275          38.000  
    181833.444    20525295.250        -780.966          38.000  
    769882.685    25217448.495       -3123.174          38.000  
   -879775.436    22669319.530        3459.984          38.000  
   -313758.318    22439372.294        1176.497          38.000  
    355993.258    21484511.121       -1518.548          38.000  
   -887439.309    24251124.415        3536.447          38.000  
 18  2 16  8 24 23.0000000  0  8G23G11G09G03G30G01G10G05            -0.000757756
    534481.423    22772194.033       -2160.457          38.000  
   -550063.474    21425120.725        2109.192          38.000  
    182614.826    20525443.920        -781.383          38.000  
    773006.077    25218042.854       -3123.218          38.000  
   -883235.072    22668661.182        3459.683          38.000  
   -314934.295    22439148.502        1175.781          38.000  
    357512.466    21484800.188       -1519.491          38.000  
   -890975.325    24250451.557        3535.895          38.000  
 18  2 16  8 24 24.0000000  0  8G23G11G09G03G30G01G10G05            -0.000757614
    536641.884    22772605.145       -2160.434          38.000  
   -552172.290    21424719.476        2108.480          38.000  
    183396.498    20525592.680        -781.761          38.000  
    776129.244    25218637.196       -3123.040          38.000  
   -886694.553    22668002.869        3459.555          38.000  
   -316109.551    22438924.854        1175.027          38.000  
    359032.364    21485089.434       -1520.102          39.000  
   -894511.100    24249778.699        3535.724          38.000  
 18  2 16  8 24 25.0000000  0  8G23G11G09G03G30G01G10G05            -0.000757473
    538802.295    22773016.258       -2160.381          38.000  
   -554280.460    21424318.281        2107.763          38.000  
    184178.402    20525741.475        -781.994          38.000  
    779252.174    25219231.484       -3122.995          38.000  
   -890153.937    22667344.592        3459.286          38.000  
   -317284.116    22438701.330        1174.147          38.000  
    360552.901    21485378.787       -1520.978          38.000  
   -898046.632    24249105.895        3535.468          38.000  
 18  2 16  8 24 26.0000000  0  8G23G11G09G03G30G01G10G05            -0.000757328
    540962.817    22773427.406       -2160.233          38.000  
   -556387.854    21423917.264        2107.379          38.000  
    184960.700    20525890.360        -782.186          38.000  
    782374.978    25219825.754       -3122.535          38.000  
   -893613.098    22666686.333        3459.261          38.000  
   -318457.895    22438477.949        1173.692          38.000  
    362074.163    21485668.283       -1521.162          39.000  
   -901581.785    24248433.198        3535.146          38.000  
 18  2 16  8 24 27.0000000  0  8G23G11G09G03G30G01G10G05            -0.000757183
    543123.477    22773838.590       -2160.706          38.000  
   -558494.474    21423516.355        2106.152          38.000  
    185743.420    20526039.298        -782.933          38.000  
    785497.680    25220420.006       -3122.730          38.000  
   -897072.021    22666028.163        3458.843          38.000  
   -319630.845    22438254.747        1172.663          38.000  
    363596.189    21485957.922       -1522.423          38.000  
   -905116.583    24247760.554        3534.645          38.000  
 18  2 16  8 24 28.0000000  0  8G23G11G09G03G30G01G10G05            -0.000757039
    545284.344    22774249.810       -2160.693          38.000  
   -560600.264    21423115.642        2105.582          38.000  
    186526.609    20526188.343        -783.185          38.000  
    788620.376    25221014.241       -3122.436          38.000  
   -900530.631    22665369.994        3458.751          38.000  
   -320802.900    22438031.688        1171.997          38.000  
    365119.038    21486247.704       -1523.074          38.000  
   -908650.924    24247087.000        3534.467          38.000  
 18  2 16  8 24 29.0000000  0  8G23G11G09G03G30G01G10G05            -0.000756896
    547445.221    22774661.012       -2160.849          38.000  
   -562705.463    21422715.037        2104.893          38.000  
    187310.084    20526337.443        -783.556          38.000  
    791742.860    25221608.403       -3122.420          38.000  
   -903989.167    22664711.878        3458.471          38.000  
   -321974.271    22437808.808        1171.037          38.000  
    366642.473    21486537.594       -1523.792          38.000  
   -912185.018    24246415.481        3533.876          38.000  
 18  2 16  8 24 30.0000000  0  8G23G11G09G03G30G01G10G05            -0.000756753
    549606.262    22775072.250       -2161.023          38.000  
   -564809.966    21422314.574        2104.628          38.000  
    188093.971    20526486.649        -783.894          38.000  
    794865.225    25222202.602       -3122.164          38.000  
   -907447.507    22664053.761        3458.282          38.000  
   -323144.853    22437586.089        1170.255          38.000  
    368166.621    21486827.644       -1524.261          38.000  
   -915718.769    24245743.070        3533.726          38.000  
 18  2 16  8 24 31.0000000  0  8G23G11G09G03G30G01G10G05            -0.000756611
    551767.508    22775483.541       -2161.372          38.000  
   -566913.711    21421914.254        2103.313          38.000  
    188878.346    20526635.909        -784.557          38.000  
    797987.574    25222796.747       -3122.244          38.000  
   -910905.591    22663395.717        3457.842          38.000  
   -324314.589    22437363.512        1169.298          38.000  
    369691.498    21487117.819       -1525.316          38.000  
   -919252.092    24245070.694        3533.151          38.000  
 18  2 16  8 24 32.0000000  0  8G23G11G09G03G30G01G10G05            -0.000756474
    553928.811    22775894.797       -2161.503          38.000  
   -569016.923    21421514.006        2102.845          38.000  
    189663.004    20526785.222        -784.903          38.000  
    801109.744    25223390.892       -3122.287          38.000  
   -914363.622    22662737.672        3457.880          38.000  
   -325483.666    22437141.061        1168.648          38.000  
    371216.957    21487408.101       -1525.929          38.000  
   -922785.178    24244398.372        3532.703          38.000  
 18  2 16  8 24 33.0000000  0  8G23G11G09G03G30G01G10G05            -0.000756330
    556090.222    22776306.106       -2161.268          38.000  
   -571119.563    21421113.865        2102.525          38.000  
    190448.024    20526934.607        -785.047          38.000  
    804231.737    25223985.001       -3121.803          38.000  
   -917821.536    22662079.663        3457.959          38.000  
   -326652.020    22436918.716        1168.119          38.000  
    372743.007    21487698.508       -1526.236          38.000  
   -926318.017    24243726.086        3532.865          38.000  
 18  2 16  8 24 34.0000000  0  8G23G11G09G03G30G01G10G05            -0.000756186
    558251.595    22776717.415       -2161.033          38.000  
   -573221.760    21420713.813        2102.262          38.000  
    191233.260    20527084.064        -785.225          38.000  
    807353.459    25224579.057       -3121.498          38.000  
   -921279.485    22661421.636        3458.023          38.000  
   -327819.822    22436696.461        1167.623          38.000  
    374269.517    21487989.005       -1526.538          38.000  
   -929850.711    24243053.818        3532.848          38.000  
 18  2 16  8 24 35.0000000  0  8G23G11G09G03G30G01G10G05            -0.000756041
    560413.273    22777128.778       -2161.497          38.000  
   -575323.353    21420313.887        2101.362          38.000  
    192019.009    20527233.592        -785.816          38.000  
    810475.175    25225173.113       -3121.555          38.000  
   -924737.208    22660763.628        3457.720          38.000  
   -328986.773    22436474.385        1166.573          38.000  
    375796.699    21488279.627       -1527.486          38.000  
   -933382.996    24242381.639        3532.283          38.000  
 18  2 16  8 24 36.0000000  0  8G23G11G09G03G30G01G10G05            -0.000755897
    562575.024    22777540.141       -2161.764          38.000  
   -577424.491    21419914.049        2100.837          38.000  
    192805.035    20527383.156        -786.153          38.000  
    813596.714    25225767.097       -3121.501          38.000  
   -928194.906    22660105.637        3457.688          38.000  
   -330153.135    22436252.416        1166.083          38.000  
    377324.380    21488570.320       -1527.975          38.000  
   -936915.088    24241709.513        3531.979          38.000  
 18  2 16  8 24 37.0000000  0  8G23G11G09G03G30G01G10G05            -0.000755753
    564736.889    22777951.521       -2161.790          38.000  
   -579525.154    21419514.319        2100.592          38.000  
    193591.410    20527532.809        -786.282          38.000  
    816718.076    25226361.063       -3120.969          38.000  
   -931652.563    22659447.681        3457.967          38.000  
   -331318.846    22436030.590        1165.706          38.000  
    378852.569    21488861.156       -1528.177          38.000  
   -940446.979    24241037.423        3531.965          38.000  
 18  2 16  8 24 38.0000000  0  8G23G11G09G03G30G01G10G05            -0.000755608
    566898.984    22778362.938       -2162.177          38.000  
   -581625.273    21419114.679        2100.358          38.000  
    194378.221    20527682.498        -786.875          38.000  
    819839.431    25226955.030       -3121.215          38.000  
   -935110.041    22658789.744        3457.553          38.000  
   -332483.793    22435808.925        1164.772          38.000  
    380381.373    21489152.082       -1528.625          38.000  
   -943978.565    24240365.352        3531.538          38.000  
 18  2 16  8 24 39.0000000  0  8G23G11G09G03G30G01G10G05            -0.000755463
    569061.095    22778774.372       -2162.061          38.000  
   -583725.145    21418715.091        2099.579          38.000  
    195165.281    20527832.276        -787.337          38.000  
    822960.538    25227548.960       -3121.102          38.000  
   -938567.602    22658131.788        3457.599          38.000  
   -333648.233    22435587.349        1164.109          38.000  
    381910.516    21489443.097       -1529.336          38.000  
   -947510.046    24239693.333        3531.330          38.000  
 18  2 16  8 24 40.0000000  0  8G23G11G09G03G30G01G10G05            -0.000755317
    571223.621    22779185.913       -2162.532          38.000  
   -585824.369    21418315.594        2098.882          38.000  
    195952.907    20527982.143        -787.693          38.000  
    826081.750    25228142.891       -3121.125          38.000  
   -942024.880    22657473.905        3457.431          38.000  
   -334811.815    22435365.898        1163.444          38.000  
    383440.388    21489734.237       -1530.194          38.000  
   -951041.106    24239021.387        3530.782          38.000  
 18  2 16  8 24 41.0000000  0  8G23G11G09G03G30G01G10G05            -0.000755172
    573386.386    22779597.473       -2162.922          38.000  
   -587923.138    21417916.221        2098.372          38.000  
    196740.989    20528132.118        -788.351          38.000  
    829202.928    25228736.839       -3121.313          38.000  
   -945482.036    22656816.021        3457.013          38.000  
   -335974.687    22435144.608        1162.379          38.000  
    384970.787    21490025.430       -1530.751          38.000  
   -954571.915    24238349.493        3530.654          38.000  
 18  2 16  8 24 42.0000000  0  8G23G11G09G03G30G01G10G05            -0.000755028
    575549.254    22780009.068       -2162.919          38.000  
   -590021.583    21417516.902        2098.678          38.000  
    197529.342    20528282.146        -788.458          38.000  
    832323.926    25229330.734       -3120.926          38.000  
   -948939.225    22656158.155        3457.128          38.000  
   -337137.038    22434923.408        1162.014          38.000  
    386501.589    21490316.749       -1530.739          38.000  
   -958102.609    24237677.618        3530.608          38.000  
 18  2 16  8 24 43.0000000  0  8G23G11G09G03G30G01G10G05            -0.000754883
    577712.355    22780420.699       -2163.255          38.000  
   -592119.758    21417117.637        2097.877          38.000  
    198318.119    20528432.228        -789.038          38.000  
    835444.894    25229924.629       -3121.025          38.000  
   -952396.349    22655500.289        3457.121          38.000  
   -338298.733    22434702.332        1161.213          38.000  
    388032.809    21490608.121       -1531.473          38.000  
   -961633.090    24237005.797        3530.239          38.000  
 18  2 16  8 24 44.0000000  0  8G23G11G09G03G30G01G10G05            -0.000754739
    579875.641    22780832.329       -2163.108          38.000  
   -594217.606    21416718.443        2097.936          38.000  
    199107.232    20528582.382        -789.023          38.000  
    838565.757    25230518.488       -3120.481          38.000  
   -955853.436    22654842.441        3457.295          38.000  
   -339459.899    22434481.382        1161.273          38.000  
    389564.452    21490899.601       -1531.456          38.000  
   -965163.466    24236333.975        3530.699          38.000  
 18  2 16  8 24 45.0000000  0  8G23G11G09G03G30G01G10G05            -0.000754594
    582039.021    22781243.996       -2163.451          38.000  
   -596315.282    21416319.249        2097.521          38.000  
    199896.607    20528732.553        -789.575          38.000  
    841686.459    25231112.329       -3120.601          38.000  
   -959310.609    22654184.539        3457.319          38.000  
   -340620.562    22434260.538        1160.458          38.000  
    391096.408    21491191.116       -1532.219          38.000  
   -968693.787    24235662.153        3530.526          38.000  
 18  2 16  8 24 46.0000000  0  8G23G11G09G03G30G01G10G05            -0.000754448
    584202.888    22781655.770       -2163.792          38.000  
   -598412.335    21415920.198        2097.573          38.000  
    200686.614    20528882.885        -789.925          38.000  
    844807.369    25231706.224       -3120.603          38.000  
   -962767.454    22653526.709        3457.048          38.000  
   -341780.371    22434039.838        1159.718          38.000  
    392629.071    21491482.738       -1532.469          38.000  
   -972223.686    24234990.439        3530.160          38.000  
 18  2 16  8 24 47.0000000  0  8G23G11G09G03G30G01G10G05            -0.000754304
    586366.744    22782067.544       -2163.637          38.000  
   -600509.493    21415521.129        2097.270          38.000  
    201476.784    20529033.235        -790.084          38.000  
    847928.006    25232300.083       -3120.330          38.000  
   -966224.525    22652868.843        3457.422          38.000  
   -342939.872    22433819.209        1159.536          38.000  
    394161.811    21491774.432       -1532.724          38.000  
   -975753.701    24234318.689        3530.211          38.000  
 18  2 16  8 24 48.0000000  0  8G23G11G09G03G30G01G10G05            -0.000754158
    588531.076    22782479.407       -2164.427          38.000  
   -602606.150    21415122.131        2096.418          38.000  
    202267.565    20529183.728        -791.101          38.000  
    851048.853    25232893.960       -3120.850          38.000  
   -969681.315    22652211.013        3456.914          38.000  
   -344098.584    22433598.705        1158.408          38.000  
    395695.175    21492066.198       -1533.612          38.000  
   -979283.393    24233646.992        3529.773          38.000  
 18  2 16  8 24 49.0000000  0  8G23G11G09G03G30G01G10G05            -0.000754015
    590695.737    22782891.323       -2164.639          38.000  
   -604702.497    21414723.205        2096.264          38.000  
    203058.815    20529334.292        -791.561          38.000  
    854169.767    25233487.855       -3120.857          38.000  
   -973137.951    22651553.254        3456.670          38.000  
   -345256.673    22433378.327        1157.965          38.000  
    397229.018    21492358.053       -1534.172          38.000  
   -982812.864    24232975.367        3529.362          38.000  
 18  2 16  8 24 50.0000000  0  8G23G11G09G03G30G01G10G05            -0.000753872
    592860.759    22783303.329       -2165.162          38.000  
   -606798.476    21414324.333        2096.300          38.000  
    203850.522    20529484.946        -791.950          38.000  
    857290.779    25234081.768       -3121.009          38.000  
   -976594.457    22650895.513        3456.322          38.000  
   -346414.119    22433158.091        1157.196          38.000  
    398763.306    21492649.997       -1534.212          38.000  
   -986342.187    24232303.760        3529.403          38.000  
 18  2 16  8 24 51.0000000  0  8G23G11G09G03G30G01G10G05            -0.000753727
    595026.060    22783715.371       -2165.181          38.000  
   -608894.390    21413925.496        2095.820          38.000  
    204642.674    20529635.689        -792.256          38.000  
    860411.832    25234675.663       -3120.988          38.000  
   -980050.924    22650237.754        3456.805          38.000  
   -347571.009    22432937.927        1156.707          38.000  
    400297.927    21492942.012       -1534.662          38.000  
   -989871.374    24231632.242        3529.340          38.000  
 18  2 16  8 24 52.0000000  0  8G23G11G09G03G30G01G10G05            -0.000753583
    597191.630    22784127.467       -2165.809          38.000  
   -610990.103    21413526.678        2095.432          38.000  
    205435.169    20529786.504        -792.670          38.000  
    863532.877    25235269.593       -3121.145          38.000  
   -983507.323    22649580.014        3456.299          38.000  
   -348727.420    22432717.816        1156.011          38.000  
    401832.887    21493234.099       -1535.148          38.000  
   -993400.531    24230960.653        3529.051          38.000  
 18  2 16  8 24 53.0000000  0  8G23G11G09G03G30G01G10G05            -0.000753433
    599357.464    22784539.616       -2165.994          38.000  
   -613085.655    21413127.895        2095.185          38.000  
    206228.065    20529937.390        -793.140          38.000  
    866653.968    25235863.506       -3121.238          38.000  
   -986963.680    22648922.291        3456.092          38.000  
   -349883.319    22432497.849        1155.466          38.000  
    403368.183    21493526.294       -1535.541          38.000  
   -996929.629    24230289.063        3528.871          38.000  
 18  2 16  8 24 54.0000000  0  8G23G11G09G03G30G01G10G05            -0.000753293
    601523.634    22784951.818       -2166.272          38.000  
   -615180.978    21412729.165        2095.759          38.000  
    207021.399    20530088.365        -793.511          38.000  
    869775.149    25236457.436       -3121.096          38.000  
   -990419.957    22648264.585        3456.325          38.000  
   -351038.694    22432277.988        1155.229          38.000  
    404903.867    21493818.559       -1535.564          38.000  
  -1000458.652    24229617.510        3529.014          38.000  
 18  2 16  8 24 55.0000000  0  8G23G11G09G03G30G01G10G05            -0.000753149
    603690.099    22785364.110       -2166.537          38.000  
   -617276.295    21412330.436        2095.203          38.000  
    207815.145    20530239.394        -794.000          38.000  
    872896.401    25237051.385       -3121.098          38.000  
   -993876.134    22647606.898        3456.162          38.000  
   -352193.549    22432058.199        1154.623          38.000  
    406439.816    21494110.825       -1536.199          38.000  
  -1003987.636    24228945.974        3529.027          38.000  
 18  2 16  8 24 56.0000000  0  8G23G11G09G03G30G01G10G05            -0.000752995
    605856.849    22785776.438       -2166.849          38.000  
   -619371.470    21411931.724        2094.854          38.000  
    208609.267    20530390.548        -794.296          38.000  
    876017.739    25237645.387       -3121.333          38.000  
   -997332.266    22646949.211        3456.028          38.000  
   -353347.953    22431838.517        1154.135          38.000  
    407976.065    21494403.144       -1536.613          38.000  
  -1007516.613    24228274.438        3528.971          38.000  
 18  2 16  8 24 57.0000000  0  8G23G11G09G03G30G01G10G05            -0.000752868
    608024.148    22786188.873       -2167.368          38.000  
   -621466.315    21411533.084        2094.673          38.000  
    209404.028    20530541.774        -794.988          38.000  
    879139.415    25238239.461       -3121.781          38.000  
  -1000788.088    22646291.577        3455.784          38.000  
   -354501.659    22431618.979        1153.541          38.000  
    409512.866    21494695.571       -1536.952          38.000  
  -1011045.345    24227602.956        3528.723          38.000  
 18  2 16  8 24 58.0000000  0  8G23G11G09G03G30G01G10G05            -0.000752724
    610191.736    22786601.326       -2167.492          38.000  
   -623561.006    21411134.462        2095.128          38.000  
    210199.170    20530693.106        -795.321          38.000  
    882261.165    25238833.498       -3121.809          38.000  
  -1004243.832    22645633.979        3455.668          38.000  
   -355654.913    22431399.493        1153.240          38.000  
    411049.975    21494988.069       -1537.064          38.000  
  -1014574.097    24226931.456        3528.806          38.000  
 18  2 16  8 24 59.0000000  0  8G23G11G09G03G30G01G10G05            -0.000752580
    612359.580    22787013.850       -2167.899          38.000  
   -625655.786    21410735.858        2093.325          38.000  
    210994.624    20530844.457        -795.530          38.000  
    885382.956    25239427.572       -3122.185          38.000  
  -1007699.594    22644976.381        3455.656          38.000  
   -356807.781    22431180.098        1152.590          38.000  
    412587.232    21495280.603       -1537.510          38.000  
  -1018102.931    24226259.956        3528.554          38.000  
 18  2 16  8 25  0.0000000  0  8G23G11G09G03G30G01G10G05            -0.000752437
    614528.177    22787426.517       -2168.831          38.000  
   -627750.130    21410337.343        2094.329          38.000  
    211790.916    20530995.986        -796.334          38.000  
    888505.289    25240021.753       -3122.328          38.000  
  -1011154.829    22644318.873        3455.378          38.000  
   -357959.785    22430960.862        1151.827          38.000  
    414125.200    21495573.262       -1537.954          38.000  
  -1021631.400    24225588.509        3528.535          38.000  
 18  2 16  8 25  1.0000000  0  8G23G11G09G03G30G01G10G05            -0.000752293
    616696.671    22787839.166       -2168.111          38.000  
   -629844.764    21409938.774        2095.077          38.000  
    212587.200    20531147.533        -795.856          38.000  
    891627.384    25240615.880       -3121.748          38.000  
  -1014610.344    22643661.293        3455.959          38.000  
   -359111.773    22430741.663        1152.356          38.000  
    415663.078    21495865.938       -1537.324          38.000  
  -1025160.300    24224916.992        3529.511          38.000  
 18  2 16  8 25  2.0000000  0  8G23G11G09G03G30G01G10G05            -0.000752148
    618865.273    22788251.852       -2168.698          38.000  
   -631938.970    21409540.259        2092.368          38.000  
    213383.663    20531299.116        -796.484          38.000  
    894749.391    25241209.989       -3121.945          38.000  
  -1018065.986    22643003.695        3455.799          38.000  
   -360263.542    22430522.500        1151.690          38.000  
    417201.219    21496158.615       -1538.747          38.000  
  -1028689.495    24224245.420        3529.517          38.000  
 18  2 16  8 25  3.0000000  0  8G23G11G09G03G30G01G10G05            -0.000752004
    621033.236    22788664.412       -2167.885          38.000  
   -634033.718    21409141.637        2095.960          38.000  
    214179.572    20531450.574        -796.196          38.000  
    897870.625    25241803.937       -3121.097          38.000  
  -1021522.472    22642345.936        3456.481          38.000  
   -361415.876    22430303.247        1152.361          38.000  
    418738.868    21496451.220       -1537.516          38.000  
  -1032219.684    24223573.652        3530.239          38.000  
 18  2 16  8 25  4.0000000  0  8G23G11G09G03G30G01G10G05            -0.000751860
    623201.656    22789077.061       -2168.549          38.000  
   -636127.896    21408743.122        2094.238          38.000  
    214975.955    20531602.139        -796.469          38.000  
    900992.134    25242397.957       -3121.540          38.000  
  -1024978.725    22641688.249        3456.194          38.000  
   -362567.662    22430084.065        1151.523          38.000  
    420276.996    21496743.915       -1538.202          38.000  
  -1035749.846    24222901.866        3530.128          38.000  
