     3.03           OBSERVATION DATA    M: Mixed            RINEX VERSION / TYPE
RTKCONV 2.4.3 b34                       20250227 094653 UTC PGM / RUN BY / DATE 
format: RINEX                                               COMMENT             
log: E:\Nguyends_doa\RX\RX2\RinexObservables_20180216_082108COMMENT             
                                                            MARKER NAME         
                                                            MARKER NUMBER       
                                                            MARKER TYPE         
                                                            OBSERVER / AGENCY   
                                                            REC # / TYPE / VERS 
                                                            ANT # / TYPE        
        0.0000        0.0000        0.0000                  APPROX POSITION XYZ 
        0.0000        0.0000        0.0000                  ANTENNA: DELTA H/E/N
G    4 C1C L1C D1C S1C                                      SYS / # / OBS TYPES 
  2018    02    16    08    21   08.0000000     GPS         TIME OF FIRST OBS   
  2018    02    16    08    25   02.0000000     GPS         TIME OF LAST OBS    
G L1C                                                       SYS / PHASE SHIFT   
  0                                                         GLONASS SLOT / FRQ #
 C1C    0.000 C1P    0.000 C2C    0.000 C2P    0.000        GLONASS COD/PHS/BIS 
                                                            END OF HEADER       
> 2018 02 16 08 21 08.0000000  0  8                     
G10  21461945.619       74264.5111      -1354.760          43.000  
G30  22829437.823     -201925.8841       3566.249          43.000  
G01  22516129.379      -76069.7081       1330.143          43.000  
G11  21536681.217     -125624.9251       2258.687          43.000  
G03  25133681.839      171909.6591      -3059.822          43.000  
G05  24413148.243     -199836.3711       3589.114          43.000  
G09  20528872.503       37785.9421       -672.971          42.000  
G23  22723665.465      113186.7221      -2092.841          43.000  
> 2018 02 16 08 21 09.0000000  0  8                     
G10  21462203.540       75619.842       -1355.554          43.000  
G30  22828759.283     -205491.626        3565.500          43.000  
G01  22515876.372      -77399.253        1329.351          43.000  
G11  21536251.503     -127883.148        2258.009          42.000  
G03  25134264.137      174969.969       -3060.641          43.000  
G05  24412465.325     -203425.071        3588.725          43.000  
G09  20529000.695       38459.622        -673.991          43.000  
G23  22724063.802      115280.191       -2093.731          43.000  
> 2018 02 16 08 21 10.0000000  0  8                     
G10  21462461.623       76975.986       -1356.381          43.000  
G30  22828080.885     -209056.616        3564.772          43.000  
G01  22515623.561      -78727.992        1328.570          43.000  
G11  21535821.913     -130140.758        2257.754          43.000  
G03  25134846.667      178031.061       -3061.232          43.000  
G05  24411782.478     -207013.565        3588.751          43.000  
G09  20529129.084       39134.105        -674.703          43.000  
G23  22724462.281      117374.399       -2094.343          43.000  
> 2018 02 16 08 21 11.0000000  0  8                     
G10  21462719.776       78332.673       -1356.757          43.000  
G30  22827402.577     -212621.147        3564.351          43.000  
G01  22515370.785      -80056.232        1328.084          43.000  
G11  21535392.324     -132398.177        2257.361          43.000  
G03  25135429.269      181092.662       -3061.763          43.000  
G05  24411099.595     -210602.077        3588.697          43.000  
G09  20529257.509       39809.112        -675.079          43.000  
G23  22724860.885      119469.060       -2094.762          43.000  
> 2018 02 16 08 21 12.0000000  0  8                     
G10  21462978.109       79689.979       -1357.544          43.000  
G30  22826724.358     -216185.118        3563.591          43.000  
G01  22515118.135      -81383.895        1327.399          42.000  
G11  21534962.842     -134655.186        2256.805          43.000  
G03  25136011.959      184154.849       -3062.531          42.000  
G05  24410416.748     -214190.586        3588.545          42.000  
G09  20529386.077       40484.724        -675.852          43.000  
G23  22725259.561      121564.255       -2095.512          43.000  
> 2018 02 16 08 21 13.0000000  0  8                     
G10  21463236.513       81047.987       -1358.190          43.000  
G30  22826046.247     -219748.477        3563.233          43.000  
G01  22514865.646      -82710.913        1326.855          42.000  
G11  21534533.378     -136911.732        2256.552          43.000  
G03  25136594.811      187217.656       -3062.917          42.000  
G05  24409733.920     -217779.021        3588.675          43.000  
G09  20529514.787       41160.992        -676.293          43.000  
G23  22725658.380      123660.008       -2095.868          43.000  
> 2018 02 16 08 21 14.0000000  0  8                     
G10  21463495.006       82406.535       -1358.949          43.000  
G30  22825368.278     -223311.333        3562.654          43.000  
G01  22514613.228      -84037.427        1326.289          43.000  
G11  21534104.039     -139167.893        2256.124          43.000  
G03  25137177.735      190280.977       -3063.640          43.000  
G05  24409051.091     -221367.498        3588.476          43.000  
G09  20529643.587       41837.778        -677.027          43.000  
G23  22726057.305      125756.193       -2096.434          43.000  
> 2018 02 16 08 21 15.0000000  0  8                     
G10  21463753.696       83765.923       -1359.623          43.000  
G30  22824690.417     -226873.436        3561.873          43.000  
G01  22514360.935      -85363.193        1325.495          43.000  
G11  21533674.772     -141423.548        2255.440          43.000  
G03  25137760.819      193345.040       -3064.328          43.000  
G05  24408368.244     -224955.804        3588.307          43.000  
G09  20529772.548       42515.300        -677.608          43.000  
G23  22726456.321      127853.033       -2096.968          43.000  
> 2018 02 16 08 21 16.0000000  0  8                     
G10  21464012.439       85125.731       -1360.024          43.000  
G30  22824012.663     -230435.162        3561.538          43.000  
G01  22514108.714      -86688.611        1325.390          43.000  
G11  21533245.576     -143678.972        2255.352          43.000  
G03  25138343.974      196409.447       -3064.485          43.000  
G05  24407685.433     -228544.342        3588.781          43.000  
G09  20529901.562       43193.205        -678.043          42.000  
G23  22726855.390      129950.145       -2097.266          43.000  
> 2018 02 16 08 21 17.0000000  0  8                     
G10  21464271.326       86486.225       -1361.168          43.000  
G30  22823334.998     -233996.286        3560.490          43.000  
G01  22513856.636      -88013.410        1324.129          43.000  
G11  21532816.505     -145933.916        2254.284          43.000  
G03  25138927.201      199474.447       -3065.619          43.000  
G05  24407002.550     -232132.820        3588.078          43.000  
G09  20530030.648       43871.677        -679.124          43.000  
G23  22727254.548      132047.731       -2098.146          43.000  
> 2018 02 16 08 21 18.0000000  0  8                     
G10  21464530.373       87847.442       -1361.628          42.000  
G30  22822657.458     -237556.736        3560.276          43.000  
G01  22513604.647      -89337.578        1324.065          43.000  
G11  21532387.487     -148188.295        2254.387          43.000  
G03  25139510.571      202540.075       -3065.762          43.000  
G05  24406319.721     -235721.245        3588.562          43.000  
G09  20530159.877       44550.780        -679.277          43.000  
G23  22727653.813      134145.843       -2098.204          43.000  
> 2018 02 16 08 21 19.0000000  0  8                     
G10  21464789.527       89209.307       -1362.169          42.000  
G30  22821980.008     -241116.642        3559.554          43.000  
G01  22513352.783      -90661.211        1323.182          43.000  
G11  21531958.541     -150442.298        2253.736          42.000  
G03  25140094.031      205606.198       -3066.432          42.000  
G05  24405636.838     -239309.722        3588.408          43.000  
G09  20530289.177       45230.377        -679.943          43.000  
G23  22728053.150      136244.336       -2098.711          42.000  
> 2018 02 16 08 21 20.0000000  0  8                     
G10  21465048.843       90571.928       -1362.612          43.000  
G30  22821302.736     -244675.864        3559.110          43.000  
G01  22513101.026      -91984.212        1323.009          43.000  
G11  21531529.685     -152695.716        2253.336          43.000  
G03  25140677.633      208672.935       -3066.733          43.000  
G05  24404953.992     -242898.116        3588.602          43.000  
G09  20530418.620       45910.594        -680.258          43.000  
G23  22728452.541      138343.337       -2098.994          43.000  
> 2018 02 16 08 21 21.0000000  0  8                     
G10  21465308.283       91935.198       -1363.442          42.000  
G30  22820625.518     -248234.515        3558.402          43.000  
G01  22512849.377      -93306.670        1322.311          43.000  
G11  21531100.971     -154948.687        2252.861          43.000  
G03  25141261.325      211740.163       -3067.305          43.000  
G05  24404271.145     -246486.558        3588.521          43.000  
G09  20530548.135       46591.298        -680.860          43.000  
G23  22728852.056      140442.689       -2099.393          43.000  
> 2018 02 16 08 21 22.0000000  0  8                     
G10  21465567.795       93299.073       -1364.421          42.000  
G30  22819948.425     -251792.618        3557.710          43.000  
G01  22512597.799      -94628.604        1321.582          43.000  
G11  21530672.329     -157201.147        2252.115          43.000  
G03  25141845.105      214807.864       -3067.942          43.000  
G05  24403588.262     -250075.066        3588.469          43.000  
G09  20530677.793       47272.463        -681.445          42.000  
G23  22729251.626      142542.387       -2099.928          43.000  
> 2018 02 16 08 21 23.0000000  0  8                     
G10  21465827.467       94663.799       -1364.797          43.000  
G30  22819271.439     -255350.008        3557.145          42.000  
G01  22512346.328      -95949.880        1321.019          42.000  
G11  21530243.830     -159453.021        2251.765          43.000  
G03  25142428.994      217876.160       -3068.421          43.000  
G05  24402905.415     -253663.484        3588.515          43.000  
G09  20530807.540       47954.232        -681.844          43.000  
G23  22729651.248      144642.550       -2100.250          43.000  
> 2018 02 16 08 21 24.0000000  0  8                     
G10  21466087.301       96029.301       -1365.818          43.000  
G30  22818594.632     -258906.720        3556.387          43.000  
G01  22512095.000      -97270.520        1320.433          42.000  
G11  21529815.438     -161704.274        2251.051          42.000  
G03  25143012.989      220945.037       -3069.104          42.000  
G05  24402222.568     -257251.842        3588.394          43.000  
G09  20530937.394       48636.579        -682.585          42.000  
G23  22730051.032      146743.145       -2100.739          43.000  
> 2018 02 16 08 21 25.0000000  0  8                     
G10  21466347.242       97395.367       -1366.334          43.000  
G30  22817917.914     -262462.962        3556.026          43.000  
G01  22511843.780      -98590.713        1319.963          43.000  
G11  21529387.135     -163955.092        2250.676          43.000  
G03  25143597.056      224014.241       -3069.310          43.000  
G05  24401539.686     -260840.347        3588.610          43.000  
G09  20531067.302       49319.263        -682.749          43.000  
G23  22730450.798      148843.927       -2100.846          43.000  
> 2018 02 16 08 21 26.0000000  0  8                     
G10  21466607.325       98762.061       -1367.086          43.000  
G30  22817241.286     -266018.634        3555.485          43.000  
G01  22511592.613      -99910.405        1319.642          43.000  
G11  21528958.922     -166205.376        2250.035          43.000  
G03  25144181.194      227083.871       -3069.664          43.000  
G05  24400856.803     -264428.915        3588.660          42.000  
G09  20531197.317       50002.383        -683.196          43.000  
G23  22730850.617      150944.984       -2101.011          43.000  
> 2018 02 16 08 21 27.0000000  0  8                     
G10  21466867.534      100129.523       -1367.862          43.000  
G30  22816564.747     -269573.744        3554.724          43.000  
G01  22511341.589     -101229.549        1318.771          43.000  
G11  21528530.780     -168455.115        2249.388          43.000  
G03  25144765.386      230153.921       -3070.309          42.000  
G05  24400173.921     -268017.534        3588.553          43.000  
G09  20531327.385       50685.936        -683.899          43.000  
G23  22731250.472      153046.311       -2101.551          43.000  
> 2018 02 16 08 21 28.0000000  0  8                     
G10  21467127.921      101497.827       -1368.491          43.000  
G30  22815888.333     -273128.104        3554.177          43.000  
G01  22511090.690     -102547.990        1318.245          43.000  
G11  21528102.817     -170704.111        2248.831          43.000  
G03  25145349.703      233224.545       -3070.704          43.000  
G05  24399491.056     -271606.022        3588.607          43.000  
G09  20531457.561       51370.063        -684.228          42.000  
G23  22731650.417      155148.058       -2101.728          43.000  
> 2018 02 16 08 21 29.0000000  0  8                     
G10  21467388.416      102866.824       -1369.274          43.000  
G30  22815212.062     -276681.904        3553.647          43.000  
G01  22510839.916     -103865.921        1317.816          43.000  
G11  21527674.961     -172952.537        2248.188          43.000  
G03  25145934.110      236295.547       -3071.104          42.000  
G05  24398808.173     -275194.571        3588.673          43.000  
G09  20531587.826       52054.605        -684.713          43.000  
G23  22732050.397      157250.025       -2101.960          43.000  
> 2018 02 16 08 21 30.0000000  0  8                     
G10  21467649.053      104236.478       -1370.322          43.000  
G30  22814535.916     -280235.145        3552.964          43.000  
G01  22510589.231     -105183.297        1317.002          43.000  
G11  21527247.195     -175200.367        2247.233          43.000  
G03  25146518.570      239366.906       -3071.549          43.000  
G05  24398125.291     -278783.165        3588.507          43.000  
G09  20531718.163       52739.529        -685.172          43.000  
G23  22732450.395      159352.196       -2102.285          43.000  
> 2018 02 16 08 21 31.0000000  0  8                     
G10  21467909.798      105606.838       -1370.394          43.000  
G30  22813859.859     -283787.900        3552.668          42.000  
G01  22510338.601     -106500.240        1316.906          43.000  
G11  21526819.535     -177447.654        2247.192          43.000  
G03  25147103.065      242438.555       -3071.687          43.000  
G05  24397442.390     -282371.888        3588.935          42.000  
G09  20531848.553       53424.761        -685.201          42.000  
G23  22732850.447      161454.490       -2102.142          43.000  
> 2018 02 16 08 21 32.0000000  0  8                     
G10  21468170.740      106978.148       -1371.631          43.000  
G30  22813183.928     -287339.845        3551.581          43.000  
G01  22510088.148     -107816.382        1315.805          43.000  
G11  21526392.055     -179694.090        2246.122          43.000  
G03  25147687.686      245510.770       -3072.433          43.000  
G05  24396759.526     -285960.408        3588.430          43.000  
G09  20531979.051       54110.601        -685.997          42.000  
G23  22733250.570      163557.200       -2102.803          43.000  
> 2018 02 16 08 21 33.0000000  0  8                     
G10  21468431.842      108350.417       -1372.639          43.000  
G30  22812508.157     -290891.007        3550.875          43.000  
G01  22509837.839     -109131.760        1315.026          42.000  
G11  21525964.753     -181939.629        2245.264          42.000  
G03  25148272.414      248583.549       -3072.983          43.000  
G05  24396076.679     -289548.730        3588.298          43.000  
G09  20532109.691       54797.064        -686.598          43.000  
G23  22733650.765      165660.312       -2103.187          43.000  
> 2018 02 16 08 21 34.0000000  0  8                     
G10  21468693.158      109723.625       -1373.767          43.000  
G30  22811832.565     -294441.364        3550.080          42.000  
G01  22509587.691     -110446.338        1314.381          42.000  
G11  21525537.630     -184184.284        2244.190          43.000  
G03  25148857.232      251656.877       -3073.466          43.000  
G05  24395393.868     -293136.836        3588.178          43.000  
G09  20532240.474       55484.125        -687.252          43.000  
G23  22734051.049      167763.818       -2103.566          43.000  
> 2018 02 16 08 21 35.0000000  0  8                     
G10  21468954.636      111097.752       -1374.310          43.000  
G30  22811157.080     -297991.067        3549.379          42.000  
G01  22509337.649     -111760.268        1313.686          42.000  
G11  21525110.631     -186428.130        2243.627          43.000  
G03  25149442.103      254730.602       -3073.938          43.000  
G05  24394711.075     -296724.861        3587.933          43.000  
G09  20532371.293       56171.631        -687.655          43.000  
G23  22734451.404      169867.554       -2103.786          43.000  
> 2018 02 16 08 21 38.0000000  0  8                     
G10  21469740.033      115225.195       -1377.189          43.000  
G30  22809131.376     -308636.278        3547.554          42.000  
G01  22508588.294     -115698.053        1311.680          43.000  
G11  21523830.548     -193154.898        2240.996          43.000  
G03  25151197.270      263953.972       -3074.901          43.000  
G05  24392662.820     -307488.410        3587.748          43.000  
G09  20532764.287       58236.828        -688.943          43.000  
G23  22735652.560      176180.064       -2104.354          43.000  
> 2018 02 16 08 21 39.0000000  0  8                     
G10  21470002.189      116602.942       -1378.098          43.000  
G30  22808456.409     -312183.253        3546.566          43.000  
G01  22508338.807     -117009.181        1310.741          43.000  
G11  21523404.193     -195395.321        2239.986          43.000  
G03  25151782.480      267029.244       -3075.468          43.000  
G05  24391980.116     -311075.930        3587.366          43.000  
G09  20532895.481       58926.229        -689.638          43.000  
G23  22736053.076      178284.750       -2104.838          43.000  
> 2018 02 16 08 21 40.0000000  0  8                     
G10  21470264.560      117981.686       -1378.908          43.000  
G30  22807781.586     -315729.458        3546.141          43.000  
G01  22508089.462     -118319.465        1310.089          43.000  
G11  21522978.053     -197634.777        2239.321          43.000  
G03  25152367.798      270104.971       -3075.639          43.000  
G05  24391297.466     -314663.183        3587.393          43.000  
G09  20533026.747       59616.194        -689.970          43.000  
G23  22736453.664      180389.746       -2104.846          43.000  
> 2018 02 16 08 21 41.0000000  0  8                     
G10  21470527.092      119361.310       -1379.912          43.000  
G30  22807106.869     -319275.036        3545.341          43.000  
G01  22507840.243     -119629.084        1309.338          43.000  
G11  21522552.038     -199873.363        2238.272          43.000  
G03  25152953.151      273180.982       -3076.065          43.000  
G05  24390614.869     -318250.334        3587.247          43.000  
G09  20533158.102       60306.560        -690.512          43.000  
G23  22736854.252      182494.880       -2105.041          43.000  
> 2018 02 16 08 21 42.0000000  0  8                     
G10  21470789.767      120741.680       -1380.819          43.000  
G30  22806432.296     -322820.107        3545.029          43.000  
G01  22507591.131     -120938.118        1308.948          43.000  
G11  21522126.201     -202111.218        2237.417          43.000  
G03  25153538.541      276257.169       -3076.053          43.000  
G05  24389932.237     -321837.459        3587.401          43.000  
G09  20533289.529       60997.226        -690.606          43.000  
G23  22737254.857      184600.069       -2104.957          43.000  
> 2018 02 16 08 21 43.0000000  0  8                     
G10  21471052.638      122123.129       -1381.896          43.000  
G30  22805757.794     -326364.455        3543.973          42.000  
G01  22507342.180     -122246.340        1307.820          43.000  
G11  21521700.561     -204348.011        2236.391          43.000  
G03  25154123.983      279333.719       -3076.770          42.000  
G05  24389249.694     -325424.340        3586.766          43.000  
G09  20533421.045       61688.391        -691.385          43.000  
G23  22737655.499      186705.483       -2105.459          43.000  
> 2018 02 16 08 21 44.0000000  0  8                     
G10  21471315.670      123505.429       -1382.363          42.000  
G30  22805083.453     -329908.219        3543.723          43.000  
G01  22507093.372     -123553.893        1307.529          43.000  
G11  21521275.064     -206583.955        2235.946          43.000  
G03  25154709.480      282410.477       -3076.577          43.000  
G05  24388567.168     -329011.107        3587.036          43.000  
G09  20533552.650       62379.935        -691.442          43.000  
G23  22738056.158      188810.989       -2105.219          43.000  
> 2018 02 16 08 21 45.0000000  0  8                     
G10  21471578.898      124888.770       -1383.802          42.000  
G30  22804409.237     -333451.277        3542.666          43.000  
G01  22506844.706     -124860.620        1306.290          43.000  
G11  21520849.781     -208818.852        2234.369          43.000  
G03  25155295.030      285487.586       -3077.325          42.000  
G05  24387884.661     -332597.610        3586.404          43.000  
G09  20533684.345       63071.975        -692.323          43.000  
G23  22738456.871      190916.723       -2105.822          43.000  
> 2018 02 16 08 21 46.0000000  0  8                     
G10  21471842.323      126273.087       -1384.549          43.000  
G30  22803735.163     -336993.612        3542.538          42.000  
G01  22506596.202     -126166.507        1306.026          43.000  
G11  21520424.677     -211052.753        2233.606          43.000  
G03  25155880.651      288565.028       -3077.059          42.000  
G05  24387202.225     -336183.812        3586.543          43.000  
G09  20533816.165       63764.551        -692.423          42.000  
G23  22738857.619      193022.681       -2105.541          43.000  
> 2018 02 16 08 21 47.0000000  0  8                     
G10  21472105.963      127658.535       -1385.955          43.000  
G30  22803061.215     -340535.238        3541.278          42.000  
G01  22506347.858     -127471.534        1304.584          43.000  
G11  21519999.787     -213285.522        2232.265          43.000  
G03  25156466.326      291642.787       -3077.966          43.000  
G05  24386519.861     -339769.731        3585.773          43.000  
G09  20533948.056       64457.598        -693.303          43.000  
G23  22739258.421      195128.860       -2106.343          42.000  
> 2018 02 16 08 21 48.0000000  0  8                     
G10  21472369.799      129044.956       -1386.731          43.000  
G30  22802387.410     -344076.216        3540.797          43.000  
G01  22506099.657     -128775.771        1303.993          43.000  
G11  21519575.112     -215517.279        2231.503          43.000  
G03  25157052.037      294720.793       -3077.955          43.000  
G05  24385837.532     -343355.384        3585.657          43.000  
G09  20534080.019       65151.118        -693.658          43.000  
G23  22739659.242      197235.180       -2106.287          42.000  
> 2018 02 16 08 21 49.0000000  0  8                     
G10  21472633.832      130432.347       -1387.964          43.000  
G30  22801713.677     -347616.582        3540.019          43.000  
G01  22505851.617     -130079.225        1303.045          43.000  
G11  21519150.598     -217748.052        2230.286          43.000  
G03  25157637.784      297798.998       -3078.273          43.000  
G05  24385155.239     -346940.811        3585.267          43.000  
G09  20534212.071       65845.039        -694.099          43.000  
G23  22740060.079      199341.615       -2106.503          43.000  
> 2018 02 16 08 21 50.0000000  0  8                     
G10  21472898.025      131820.618       -1388.734          43.000  
G30  22801040.068     -351156.389        3539.860          42.000  
G01  22505603.720     -131381.932        1302.598          43.000  
G11  21518726.244     -219977.910        2229.370          43.000  
G03  25158223.584      300877.372       -3078.192          42.000  
G05  24384472.982     -350526.028        3585.373          42.000  
G09  20534344.177       66539.349        -694.191          43.000  
G23  22740460.935      201448.131       -2106.254          42.000  
> 2018 02 16 08 21 51.0000000  0  8                     
G10  21473162.398      133209.911       -1389.733          42.000  
G30  22800366.567     -354695.624        3538.826          42.000  
G01  22505355.966     -132683.885        1301.632          42.000  
G11  21518302.123     -222206.697        2228.319          43.000  
G03  25158809.420      303955.870       -3078.620          43.000  
G05  24383790.779     -354111.029        3584.797          43.000  
G09  20534476.372       67234.033        -694.930          43.000  
G23  22740861.791      203554.715       -2106.717          43.000  
> 2018 02 16 08 21 52.0000000  0  8                     
G10  21473426.966      134600.206       -1390.554          42.000  
G30  22799693.173     -358234.252        3538.443          43.000  
G01  22505108.391     -133984.985        1300.838          42.000  
G11  21517878.198     -224434.444        2227.450          43.000  
G03  25159395.309      307034.570       -3078.608          43.000  
G05  24383108.646     -357695.730        3584.763          43.000  
G09  20534608.674       67929.162        -695.154          43.000  
G23  22741262.665      205661.430       -2106.635          43.000  
> 2018 02 16 08 21 53.0000000  0  8                     
G10  21473691.714      135991.564       -1391.749          42.000  
G30  22799019.939     -361772.218        3537.801          43.000  
G01  22504860.959     -135285.204        1299.897          43.000  
G11  21517454.470     -226661.098        2226.258          43.000  
G03  25159981.217      310113.497       -3078.860          43.000  
G05  24382426.568     -361280.067        3584.297          43.000  
G09  20534741.065       68624.788        -695.698          43.000  
G23  22741663.592      207768.313       -2106.846          43.000  
> 2018 02 16 08 21 54.0000000  0  8                     
G10  21473956.676      137383.840       -1392.907          43.000  
G30  22798346.777     -365309.612        3537.111          43.000  
G01  22504613.723     -136584.604        1298.902          43.000  
G11  21517030.920     -228886.760        2224.809          43.000  
G03  25160567.124      313192.561       -3079.171          43.000  
G05  24381744.525     -364864.120        3583.912          42.000  
G09  20534873.528       69320.825        -696.261          43.000  
G23  22742064.555      209875.297       -2107.067          43.000  
> 2018 02 16 08 21 55.0000000  0  8                     
G10  21474221.834      138777.394       -1393.754          43.000  
G30  22797673.759     -368846.253        3536.547          43.000  
G01  22504366.666     -137882.994        1298.132          43.000  
G11  21516607.657     -231111.117        2224.252          42.000  
G03  25161153.139      316271.936       -3079.182          43.000  
G05  24381062.608     -368447.674        3583.534          42.000  
G09  20535006.081       70017.457        -696.602          43.000  
G23  22742465.536      211982.554       -2107.102          43.000  
> 2018 02 16 08 21 56.0000000  0  8                     
G10  21474487.171      140171.862       -1394.870          43.000  
G30  22797000.847     -372382.403        3535.901          43.000  
G01  22504119.752     -139180.593        1297.121          43.000  
G11  21516184.554     -233334.494        2222.929          43.000  
G03  25161739.118      319351.366       -3079.465          43.000  
G05  24380380.726     -372030.978        3583.073          43.000  
G09  20535138.723       70714.450        -697.110          43.000  
G23  22742866.535      214089.843       -2107.247          43.000  
> 2018 02 16 08 21 57.0000000  0  8                     
G10  21474752.758      141567.505       -1396.102          43.000  
G30  22796328.078     -375917.802        3535.111          42.000  
G01  22503873.034     -140477.174        1296.194          43.000  
G11  21515761.702     -235556.624        2221.650          43.000  
G03  25162325.168      322431.104       -3079.808          43.000  
G05  24379698.951     -375613.767        3582.656          43.000  
G09  20535271.472       71412.055        -697.733          43.000  
G23  22743267.605      216197.421       -2107.587          43.000  
> 2018 02 16 08 21 58.0000000  0  8                     
G10  21475018.524      142964.071       -1397.254          42.000  
G30  22795655.417     -379452.715        3534.683          43.000  
G01  22503626.477     -141772.933        1295.376          43.000  
G11  21515339.028     -237777.806        2220.487          43.000  
G03  25162911.236      325510.878       -3079.772          43.000  
G05  24379017.230     -379196.252        3582.266          43.000  
G09  20535404.274       72110.033        -698.119          43.000  
G23  22743668.675      218305.037       -2107.586          43.000  
> 2018 02 16 08 21 59.0000000  0  8                     
G10  21475284.487      144361.704       -1398.256          43.000  
G30  22794982.844     -382987.095        3534.037          43.000  
G01  22503380.063     -143067.829        1294.308          43.000  
G11  21514916.568     -239997.825        2219.427          43.000  
G03  25163497.322      328590.759       -3080.151          43.000  
G05  24378335.580     -382778.395        3581.810          43.000  
G09  20535537.148       72808.447        -698.750          43.000  
G23  22744069.781      220412.758       -2107.874          43.000  
> 2018 02 16 08 22 00.0000000  0  8                     
G10  21475550.646      145760.347       -1399.059          43.000  
G30  22794310.362     -386520.919        3533.659          43.000  
G01  22503133.810     -144361.842        1293.738          43.000  
G11  21514494.323     -242216.794        2218.613          43.000  
G03  25164083.408      331670.714       -3079.872          43.000  
G05  24377654.002     -386360.156        3581.718          43.000  
G09  20535670.165       73507.301        -699.013          43.000  
G23  22744470.887      222520.585       -2107.696          43.000  
> 2018 02 16 08 22 01.0000000  0  8                     
G10  21475817.020      147160.086       -1400.235          43.000  
G30  22793638.004     -390054.132        3532.971          43.000  
G01  22502887.718     -145654.863        1292.541          43.000  
G11  21514072.293     -244434.587        2217.294          43.000  
G03  25164669.548      334750.856       -3080.130          43.000  
G05  24376972.495     -389941.437        3581.101          43.000  
G09  20535803.254       74206.692        -699.604          43.000  
G23  22744872.029      224628.634       -2108.172          43.000  
> 2018 02 16 08 22 02.0000000  0  8                     
G10  21476083.572      148560.776       -1401.440          43.000  
G30  22792965.771     -393586.857        3532.386          43.000  
G01  22502641.823     -146947.030        1291.690          43.000  
G11  21513650.477     -246651.390        2215.952          43.000  
G03  25165255.688      337831.045       -3080.278          43.000  
G05  24376291.078     -393522.341        3580.508          43.000  
G09  20535936.378       74906.492        -700.137          43.000  
G23  22745273.188      226736.736       -2108.265          43.000  
> 2018 02 16 08 22 03.0000000  0  8                     
G10  21476350.321      149962.554       -1402.086          43.000  
G30  22792293.610     -397119.034        3532.156          43.000  
G01  22502396.088     -148238.264        1291.163          43.000  
G11  21513228.839     -248867.021        2215.454          43.000  
G03  25165841.845      340911.320       -3080.041          43.000  
G05  24375609.714     -397102.820        3580.505          43.000  
G09  20536069.627       75606.770        -700.211          43.000  
G23  22745674.383      228844.995       -2108.089          43.000  
> 2018 02 16 08 22 04.0000000  0  8                     
G10  21476617.230      151365.253       -1403.215          43.000  
G30  22791621.520     -400650.807        3531.585          43.000  
G01  22502150.532     -149528.656        1289.988          43.000  
G11  21512807.398     -251081.665        2214.135          43.000  
G03  25166427.985      343991.582       -3080.289          43.000  
G05  24374928.458     -400682.974        3579.988          43.000  
G09  20536202.966       76307.420        -700.798          43.000  
G23  22746075.561      230953.288       -2108.303          43.000  
> 2018 02 16 08 22 05.0000000  0  8                     
G10  21476884.336      152768.959       -1404.083          43.000  
G30  22790949.538     -404182.075        3531.245          43.000  
G01  22501905.136     -150818.134        1289.236          43.000  
G11  21512386.190     -253295.239        2213.175          43.000  
G03  25167014.143      347071.893       -3080.119          42.000  
G05  24374247.255     -404262.677        3579.621          43.000  
G09  20536336.376       77008.535        -701.094          43.000  
G23  22746476.774      233061.718       -2108.268          43.000  
> 2018 02 16 08 22 06.0000000  0  8                     
G10  21477151.657      154173.711       -1405.366          43.000  
G30  22790277.663     -407712.793        3530.519          43.000  
G01  22501659.938     -152106.623        1288.044          43.000  
G11  21511965.177     -255507.731        2211.870          43.000  
G03  25167600.318      350152.322       -3080.412          43.000  
G05  24373566.159     -407841.894        3579.007          43.000  
G09  20536469.911       77710.181        -701.850          43.000  
G23  22746878.005      235170.327       -2108.583          43.000  
> 2018 02 16 08 22 07.0000000  0  8                     
G10  21477419.138      155579.430       -1406.099          43.000  
G30  22789605.859     -411243.120        3530.244          43.000  
G01  22501414.900     -153394.269        1287.364          43.000  
G11  21511544.344     -257719.170        2211.113          43.000  
G03  25168186.493      353232.717       -3080.331          43.000  
G05  24372885.117     -411420.748        3578.829          43.000  
G09  20536603.464       78412.210        -702.117          43.000  
G23  22747279.272      237279.012       -2108.542          43.000  
> 2018 02 16 08 22 08.0000000  0  8                     
G10  21477686.834      156986.141       -1406.993          43.000  
G30  22788934.180     -414772.971        3529.886          43.000  
G01  22501170.041     -154680.979        1286.493          43.000  
G11  21511123.725     -259929.568        2210.060          43.000  
G03  25168772.705      356313.151       -3080.152          43.000  
G05  24372204.165     -414999.144        3578.439          43.000  
G09  20536737.143       79114.714        -702.453          43.000  
G23  22747680.574      239387.837       -2108.625          43.000  
> 2018 02 16 08 22 09.0000000  0  8                     
G10  21477954.673      158393.715       -1408.044          42.000  
G30  22788262.519     -418302.492        3529.333          43.000  
G01  22500925.342     -155966.873        1285.458          43.000  
G11  21510703.267     -262139.040        2208.947          43.000  
G03  25169358.880      359393.513       -3080.412          43.000  
G05  24371523.283     -418577.191        3577.806          43.000  
G09  20536870.892       79817.580        -703.115          43.000  
G23  22748081.877      241496.698       -2108.994          42.000  
> 2018 02 16 08 22 10.0000000  0  8                     
G10  21478222.744      159802.414       -1408.785          43.000  
G30  22787591.001     -421831.411        3529.077          43.000  
G01  22500680.858     -157251.670        1284.726          43.000  
G11  21510283.059     -264347.359        2208.127          43.000  
G03  25169945.091      362474.048       -3080.182          43.000  
G05  24370842.527     -422154.629        3577.593          43.000  
G09  20537004.767       80521.075        -703.398          43.000  
G23  22748483.251      243605.849       -2108.855          43.000  
> 2018 02 16 08 22 11.0000000  0  8                     
G10  21478490.976      161212.038       -1409.913          43.000  
G30  22786919.519     -425359.984        3528.486          43.000  
G01  22500436.517     -158535.611        1283.554          42.000  
G11  21509862.994     -266554.691        2207.013          43.000  
G03  25170531.302      365554.522       -3080.351          43.000  
G05  24370161.825     -425731.683        3576.966          42.000  
G09  20537138.695       81224.971        -704.073          43.000  
G23  22748884.625      245715.094       -2109.179          43.000  
> 2018 02 16 08 22 12.0000000  0  8                     
G10  21478759.422      162622.657       -1411.234          43.000  
G30  22786248.162     -428888.101        3527.720          43.000  
G01  22500192.373     -159818.601        1282.323          43.000  
G11  21509443.161     -268760.977        2205.613          43.000  
G03  25171117.496      368635.061       -3080.716          43.000  
G05  24369481.229     -429308.232        3576.126          43.000  
G09  20537272.731       81929.369        -704.766          43.000  
G23  22749286.053      247824.529       -2109.663          43.000  
> 2018 02 16 08 22 13.0000000  0  8                     
G10  21479028.047      164034.334       -1412.103          43.000  
G30  22785576.877     -432415.728        3527.532          43.000  
G01  22499948.443     -161100.547        1281.510          43.000  
G11  21509023.525     -270966.169        2204.727          43.000  
G03  25171703.725      371715.698       -3080.605          43.000  
G05  24368800.741     -432884.218        3575.748          43.000  
G09  20537406.891       82634.367        -705.257          43.000  
G23  22749687.516      249934.226       -2109.763          43.000  
> 2018 02 16 08 22 14.0000000  0  8                     
G10  21479296.851      165446.891       -1412.873          43.000  
G30  22784905.680     -435942.989        3527.192          43.000  
G01  22499704.656     -162381.598        1280.640          43.000  
G11  21508604.068     -273170.448        2203.885          43.000  
G03  25172289.972      374796.300       -3080.506          43.000  
G05  24368120.342     -436459.776        3575.427          43.000  
G09  20537541.159       83339.798        -705.596          43.000  
G23  22750088.979      252044.041       -2109.739          42.000  
> 2018 02 16 08 22 15.0000000  0  8                     
G10  21479565.816      166860.431       -1414.029          43.000  
G30  22784234.556     -439469.829        3526.554          43.000  
G01  22499461.065     -163661.689        1279.627          43.000  
G11  21508184.807     -275373.712        2202.811          42.000  
G03  25172876.218      377876.955       -3080.709          43.000  
G05  24367440.069     -440034.834        3574.839          43.000  
G09  20537675.481       84045.744        -706.118          43.000  
G23  22750490.532      254154.085       -2110.065          42.000  
> 2018 02 16 08 22 16.0000000  0  8                     
G10  21479834.995      168274.892       -1414.990          43.000  
G30  22783563.467     -442996.333        3526.328          42.000  
G01  22499217.635     -164940.872        1278.675          43.000  
G11  21507765.725     -277576.019        2201.797          43.000  
G03  25173462.430      380957.583       -3080.611          42.000  
G05  24366759.848     -443609.432        3574.362          43.000  
G09  20537809.891       84752.177        -706.673          43.000  
G23  22750892.102      256264.305       -2110.353          42.000  
> 2018 02 16 08 22 17.0000000  0  8                     
G10  21480104.334      169690.303       -1415.828          43.000  
G30  22782892.485     -446522.401        3525.943          43.000  
G01  22498974.420     -166219.056        1277.664          43.000  
G11  21507346.839     -279777.355        2200.981          42.000  
G03  25174048.677      384038.284       -3080.619          43.000  
G05  24366079.736     -447183.498        3573.917          43.000  
G09  20537944.427       85459.165        -707.159          43.000  
G23  22751293.727      258374.764       -2110.442          43.000  
> 2018 02 16 08 22 18.0000000  0  8                     
G10  21480373.817      171106.483       -1416.144          43.000  
G30  22782221.521     -450048.262        3526.047          43.000  
G01  22498731.348     -167496.463        1277.143          43.000  
G11  21506928.096     -281977.903        2200.501          43.000  
G03  25174634.888      387118.858       -3080.259          43.000  
G05  24365399.658     -450757.220        3573.835          42.000  
G09  20538079.053       86166.518        -707.355          43.000  
G23  22751695.351      260485.296       -2110.302          43.000  
> 2018 02 16 08 22 19.0000000  0  8                     
G10  21480643.478      172523.545       -1417.394          43.000  
G30  22781550.646     -453573.780        3525.480          43.000  
G01  22498488.454     -168772.951        1276.137          43.000  
G11  21506509.532     -284177.558        2199.226          43.000  
G03  25175221.099      390199.420       -3080.442          43.000  
G05  24364719.706     -454330.482        3573.176          43.000  
G09  20538213.767       86874.364        -708.060          43.000  
G23  22752097.029      262596.045       -2110.810          42.000  
> 2018 02 16 08 22 20.0000000  0  8                     
G10  21480913.265      173941.292       -1418.174          43.000  
G30  22780879.790     -457099.181        3525.245          43.000  
G01  22498245.686     -170048.732        1275.360          42.000  
G11  21506091.094     -286376.553        2198.624          43.000  
G03  25175807.274      393279.773       -3080.257          43.000  
G05  24364039.808     -457903.484        3572.945          43.000  
G09  20538348.517       87582.499        -708.328          43.000  
G23  22752498.688      264706.782       -2110.714          42.000  
> 2018 02 16 08 22 21.0000000  0  8                     
G10  21481183.230      175359.954       -1419.352          43.000  
G30  22780209.004     -460624.202        3524.520          43.000  
G01  22498003.114     -171323.534        1274.114          43.000  
G11  21505672.815     -288574.595        2197.387          43.000  
G03  25176393.468      396360.210       -3080.703          43.000  
G05  24363359.999     -461475.943        3571.966          43.000  
G09  20538483.357       88291.216        -709.261          43.000  
G23  22752900.384      266817.835       -2111.471          43.000  
> 2018 02 16 08 22 22.0000000  0  8                     
G10  21481453.374      176779.535       -1419.836          43.000  
G30  22779538.308     -464148.861        3524.601          43.000  
G01  22497760.702     -172597.361        1273.360          42.000  
G11  21505254.734     -290771.743        2196.976          43.000  
G03  25176979.679      399440.709       -3080.464          43.000  
G05  24362680.261     -465047.890        3571.767          42.000  
G09  20538618.304       89000.494        -709.485          43.000  
G23  22753302.169      268929.163       -2111.383          43.000  
> 2018 02 16 08 22 23.0000000  0  8                     
G10  21481723.643      178199.840       -1420.431          43.000  
G30  22778867.630     -467673.304        3524.632          43.000  
G01  22497518.452     -173870.394        1272.910          43.000  
G11  21504836.760     -292968.187        2196.278          43.000  
G03  25177565.872      402521.118       -3080.120          43.000  
G05  24362000.613     -468619.468        3571.621          43.000  
G09  20538753.358       89710.201        -709.685          43.000  
G23  22753703.972      271040.659       -2111.400          43.000  
> 2018 02 16 08 22 24.0000000  0  8                     
G10  21481994.109      179621.149       -1421.700          43.000  
G30  22778197.006     -471197.290        3523.870          43.000  
G01  22497276.434     -175142.344        1271.471          43.000  
G11  21504418.982     -295163.643        2195.049          42.000  
G03  25178152.083      405601.718       -3080.666          43.000  
G05  24361321.090     -472190.415        3570.686          43.000  
G09  20538888.555       90420.594        -710.624          43.000  
G23  22754105.864      273152.568       -2112.022          43.000  
> 2018 02 16 08 22 25.0000000  0  8                     
G10  21482264.735      181043.208       -1422.262          43.000  
G30  22777526.489     -474721.049        3523.759          42.000  
G01  22497034.541     -176413.471        1270.900          43.000  
G11  21504001.329     -297358.367        2194.341          43.000  
G03  25178738.294      408682.266       -3080.400          43.000  
G05  24360641.656     -475760.988        3570.552          43.000  
G09  20539023.859       91131.446        -710.953          43.000  
G23  22754507.774      275264.677       -2112.005          42.000  
> 2018 02 16 08 22 26.0000000  0  8                     
G10  21482535.486      182466.002       -1422.784          42.000  
G30  22776855.954     -478244.620        3523.808          43.000  
G01  22496792.809     -177683.776        1270.057          43.000  
G11  21503583.819     -299552.421        2194.229          43.000  
G03  25179324.506      411762.762       -3080.164          43.000  
G05  24359962.276     -479331.179        3570.245          43.000  
G09  20539159.217       91842.752        -711.320          42.000  
G23  22754909.774      277376.993       -2112.159          43.000  
> 2018 02 16 08 22 27.0000000  0  8                     
G10  21482806.399      183889.513       -1424.115          43.000  
G30  22776185.490     -481767.943        3523.116          43.000  
G01  22496551.256     -178953.255        1268.922          43.000  
G11  21503166.435     -301745.794        2192.773          42.000  
G03  25179910.699      414843.258       -3080.651          43.000  
G05  24359282.931     -482900.960        3569.451          42.000  
G09  20539294.664       92554.554        -712.264          42.000  
G23  22755311.773      279489.556       -2112.797          43.000  
> 2018 02 16 08 22 28.0000000  0  8                     
G10  21483077.454      185313.881       -1424.588          43.000  
G30  22775515.098     -485290.944        3523.197          43.000  
G01  22496309.863     -180221.780        1268.316          43.000  
G11  21502749.193     -303938.375        2192.418          43.000  
G03  25180496.910      417923.855       -3080.381          43.000  
G05  24358603.729     -486470.251        3569.377          43.000  
G09  20539430.272       93266.941        -712.332          43.000  
G23  22755713.844      281602.483       -2112.781          43.000  
> 2018 02 16 08 22 29.0000000  0  8                     
G10  21483348.634      186739.105       -1425.519          43.000  
G30  22774844.777     -488813.570        3522.528          43.000  
G01  22496068.631     -181489.337        1267.148          43.000  
G11  21502332.112     -306130.135        2191.366          43.000  
G03  25181083.175      421004.603       -3080.786          43.000  
G05  24357924.635     -490038.983        3568.512          43.000  
G09  20539565.952       93979.991        -713.264          43.000  
G23  22756116.004      283715.833       -2113.499          43.000  
> 2018 02 16 08 22 30.0000000  0  8                     
G10  21483619.993      188165.135       -1425.943          43.000  
G30  22774174.474     -492335.912        3522.426          43.000  
G01  22495827.578     -182755.997        1266.562          43.000  
G11  21501915.192     -308321.166        2191.309          43.000  
G03  25181669.440      424085.429       -3080.629          43.000  
G05  24357245.594     -493607.271        3568.298          43.000  
G09  20539701.739       94693.613        -713.557          43.000  
G23  22756518.236      285829.530       -2113.619          43.000  
> 2018 02 16 08 22 31.0000000  0  8                     
G10  21483891.477      189591.852       -1427.089          43.000  
G30  22773504.243     -495858.023        3522.109          43.000  
G01  22495586.721     -184021.800        1265.573          43.000  
G11  21501498.362     -310511.596        2190.164          43.000  
G03  25182255.686      427166.316       -3080.872          43.000  
G05  24356566.643     -497175.147        3567.805          43.000  
G09  20539837.615       95407.775        -714.246          43.000  
G23  22756920.521      287943.558       -2114.182          43.000  
> 2018 02 16 08 22 32.0000000  0  8                     
G10  21484163.068      191019.092       -1427.533          43.000  
G30  22772834.030     -499380.088        3522.078          43.000  
G01  22495345.990     -185286.972        1264.912          43.000  
G11  21501081.602     -312701.587        2189.667          43.000  
G03  25182841.933      430247.059       -3080.690          43.000  
G05  24355887.727     -500742.815        3567.518          43.000  
G09  20539973.598       96122.286        -714.671          43.000  
G23  22757322.824      290057.706       -2114.273          43.000  
> 2018 02 16 08 22 33.0000000  0  8                     
G10  21484434.838      192447.214       -1428.481          42.000  
G30  22772163.888     -502901.734        3521.509          43.000  
G01  22495105.437     -186551.109        1263.711          43.000  
G11  21500665.022     -314890.783        2188.933          43.000  
G03  25183428.216      433328.060       -3081.024          43.000  
G05  24355208.937     -504309.910        3567.008          42.000  
G09  20540109.688       96837.528        -715.421          43.000  
G23  22757725.235      292172.384       -2114.786          43.000  
> 2018 02 16 08 22 34.0000000  0  8                     
G10  21484706.769      193876.188       -1429.145          43.000  
G30  22771493.799     -506423.025        3521.197          43.000  
G01  22494865.063     -187814.308        1262.827          43.000  
G11  21500248.584     -317079.212        2188.553          43.000  
G03  25184014.534      436409.277       -3081.222          43.000  
G05  24354530.236     -507876.472        3566.367          43.000  
G09  20540245.904       97553.467        -716.200          43.000  
G23  22758127.752      294287.557       -2115.274          43.000  
> 2018 02 16 08 22 35.0000000  0  8                     
G10  21484978.789      195305.795       -1430.062          43.000  
G30  22770823.782     -509944.068        3520.851          43.000  
G01  22494624.850     -189076.680        1261.981          43.000  
G11  21499832.218     -319267.157        2187.496          43.000  
G03  25184600.871      439490.586       -3081.374          43.000  
G05  24353851.624     -511442.657        3565.920          43.000  
G09  20540382.227       98269.959        -716.862          43.000  
G23  22758530.324      296403.112       -2115.807          43.000  
> 2018 02 16 08 22 36.0000000  0  8                     
G10  21485250.952      196736.043       -1430.551          43.000  
G30  22770153.766     -513464.925        3520.734          43.000  
G01  22494384.797     -190338.259        1261.144          43.000  
G11  21499415.995     -321454.560        2187.107          43.000  
G03  25185187.243      442571.981       -3081.466          43.000  
G05  24353173.065     -515008.501        3565.624          43.000  
G09  20540518.692       98986.987        -717.286          43.000  
G23  22758932.930      298519.003       -2116.023          43.000  
> 2018 02 16 08 22 37.0000000  0  8                     
G10  21485523.258      198166.994       -1431.173          42.000  
G30  22769483.820     -516985.506        3520.522          42.000  
G01  22494144.888     -191599.005        1260.463          43.000  
G11  21498999.843     -323641.370        2186.630          43.000  
G03  25185773.633      445653.525       -3081.441          43.000  
G05  24352494.596     -518573.948        3565.406          43.000  
G09  20540655.230       99704.620        -717.766          43.000  
G23  22759335.645      300635.334       -2116.362          43.000  
> 2018 02 16 08 22 38.0000000  0  8                     
G10  21485795.690      199598.643       -1431.667          43.000  
G30  22768813.946     -520505.856        3520.405          43.000  
G01  22493905.139     -192858.933        1259.646          43.000  
G11  21498583.817     -325827.623        2186.644          42.000  
G03  25186360.058      448735.229       -3081.622          43.000  
G05  24351816.163     -522139.019        3565.091          43.000  
G09  20540791.910      100422.850        -718.400          42.000  
G23  22759738.448      302752.089       -2116.803          43.000  
> 2018 02 16 08 22 39.0000000  0  8                     
G10  21486068.228      201030.837       -1432.544          43.000  
G30  22768144.090     -524025.971        3519.911          42.000  
G01  22493665.533     -194118.090        1258.774          42.000  
G11  21498167.862     -328013.486        2185.580          42.000  
G03  25186946.502      451817.063       -3081.966          42.000  
G05  24351137.819     -525703.737        3564.498          42.000  
G09  20540928.715      101141.649        -719.128          42.000  
G23  22760141.341      304869.247       -2117.320          43.000  
> 2018 02 16 08 22 40.0000000  0  8                     
G10  21486340.909      202463.748       -1433.219          43.000  
G30  22767474.288     -527545.820        3519.859          42.000  
G01  22493426.071     -195376.406        1257.949          43.000  
G11  21497752.014     -330198.785        2185.020          43.000  
G03  25187532.981      454899.100       -3082.156          43.000  
G05  24350459.547     -529268.079        3564.170          43.000  
G09  20541065.627      101861.068        -719.637          43.000  
G23  22760544.305      306986.876       -2117.692          43.000  
> 2018 02 16 08 22 41.0000000  0  8                     
G10  21486613.644      203897.155       -1433.678          42.000  
G30  22766804.521     -531065.542        3519.765          43.000  
G01  22493186.751     -196634.065        1257.400          43.000  
G11  21497336.237     -332383.748        2184.891          43.000  
G03  25188119.514      457981.188       -3082.031          42.000  
G05  24349781.328     -532832.205        3563.000          43.000  
G09  20541202.629      102580.973        -720.010          43.000  
G23  22760947.341      309104.841       -2117.977          43.000  
> 2018 02 16 08 22 42.0000000  0  8                     
G10  21486886.522      205331.111       -1433.754          43.000  
G30  22766134.790     -534585.094        3519.782          43.000  
G01  22492947.556     -197891.030        1256.826          42.000  
G11  21496920.532     -334568.265        2185.063          43.000  
G03  25188706.029      461063.399       -3081.903          43.000  
G05  24349103.145     -536396.099        3564.083          43.000  
G09  20541339.720      103301.398        -720.374          42.000  
G23  22761350.431      311223.183       -2118.230          42.000  
> 2018 02 16 08 22 43.0000000  0  8                     
G10  21487159.471      206765.529       -1434.797          42.000  
G30  22765465.059     -538104.471        3519.112          43.000  
G01  22492708.504     -199147.307        1255.858          43.000  
G11  21496504.899     -336752.555        2183.781          42.000  
G03  25189292.597      464145.757       -3082.617          42.000  
G05  24348425.016     -539959.729        3563.376          43.000  
G09  20541476.919      104022.358        -721.350          42.000  
G23  22761753.627      313341.920       -2119.053          43.000  
> 2018 02 16 08 22 44.0000000  0  8                     
G10  21487432.546      208200.573       -1435.397          42.000  
G30  22764795.400     -541623.613        3519.004          43.000  
G01  22492469.578     -200402.818        1255.128          43.000  
G11  21496089.337     -338936.404        2183.552          43.000  
G03  25189879.183      467228.317       -3082.652          43.000  
G05  24347746.922     -543523.069        3563.242          42.000  
G09  20541614.224      104743.913        -721.829          43.000  
G23  22762156.895      315461.130       -2119.468          43.000  
> 2018 02 16 08 22 45.0000000  0  8                     
G10  21487705.727      209636.193       -1435.584          43.000  
G30  22764125.794     -545142.509        3519.125          43.000  
G01  22492230.794     -201657.616        1254.806          42.000  
G11  21495673.828     -341119.842        2183.517          43.000  
G03  25190465.806      470311.106       -3082.557          42.000  
G05  24347068.882     -547086.119        3563.252          43.000  
G09  20541751.655      105466.079        -722.204          43.000  
G23  22762560.253      317580.813       -2119.649          43.000  
> 2018 02 16 08 22 46.0000000  0  8                     
G10  21487979.016      211072.322       -1436.076          43.000  
G30  22763456.206     -548661.238        3518.736          43.000  
G01  22491992.153     -202911.749        1253.951          43.000  
G11  21495258.409     -343302.926        2183.477          43.000  
G03  25191052.481      473394.059       -3083.031          43.000  
G05  24346390.878     -550648.983        3562.864          43.000  
G09  20541889.175      106188.741        -722.804          43.000  
G23  22762963.682      319700.891       -2120.148          43.000  
> 2018 02 16 08 22 47.0000000  0  8                     
G10  21488252.376      212508.816       -1436.860          43.000  
G30  22762786.653     -552179.852        3518.384          43.000  
G01  22491753.619     -204165.302        1253.114          43.000  
G11  21494842.990     -345485.906        2182.326          43.000  
G03  25191639.157      476477.121       -3083.327          43.000  
G05  24345712.927     -554211.725        3562.550          43.000  
G09  20542026.802      106911.882        -723.446          43.000  
G23  22763367.200      321821.331       -2120.740          43.000  
> 2018 02 16 08 22 48.0000000  0  8                     
G10  21488525.862      213945.896       -1437.204          43.000  
G30  22762117.137     -555698.183        3518.269          43.000  
G01  22491515.229     -205418.115        1252.557          43.000  
G11  21494427.661     -347668.499        2182.445          43.000  
G03  25192225.904      479560.476       -3083.413          42.000  
G05  24345035.012     -557774.179        3562.399          43.000  
G09  20542164.519      107635.674        -723.998          43.000  
G23  22763770.790      323942.302       -2121.104          43.000  
> 2018 02 16 08 22 49.0000000  0  8                     
G10  21488799.454      215383.498       -1437.851          43.000  
G30  22761447.674     -559216.288        3517.975          42.000  
G01  22491276.981     -206670.251        1251.789          43.000  
G11  21494012.385     -349850.777        2182.034          43.000  
G03  25192812.723      482644.088       -3083.778          43.000  
G05  24344357.168     -561336.428        3562.117          43.000  
G09  20542302.360      108360.040        -724.705          43.000  
G23  22764174.487      326063.756       -2121.706          43.000  
> 2018 02 16 08 22 50.0000000  0  8                     
G10  21489073.154      216821.858       -1438.343          42.000  
G30  22760778.300     -562733.930        3517.607          42.000  
G01  22491038.876     -207921.510        1250.954          43.000  
G11  21493597.216     -352032.461        2182.080          43.000  
G03  25193399.578      485728.183       -3084.168          43.000  
G05  24343679.379     -564898.258        3561.735          42.000  
G09  20542440.345      109085.205        -725.485          43.000  
G23  22764578.309      328185.904       -2122.271          43.000  
> 2018 02 16 08 22 51.0000000  0  8                     
G10  21489346.908      218260.531       -1438.646          43.000  
G30  22760108.927     -566251.466        3517.711          42.000  
G01  22490800.897     -209172.247        1250.680          43.000  
G11  21493182.065     -354214.130        2181.323          43.000  
G03  25193986.504      488812.429       -3084.115          43.000  
G05  24343001.589     -568460.046        3561.935          43.000  
G09  20542578.455      109810.812        -725.633          43.000  
G23  22764982.238      330308.412       -2122.392          43.000  
> 2018 02 16 08 22 52.0000000  0  8                     
G10  21489620.768      219699.609       -1439.204          43.000  
G30  22759439.607     -569768.835        3517.480          43.000  
G01  22490562.989     -210422.435        1250.162          43.000  
G11  21492766.949     -356395.617        2181.487          43.000  
G03  25194573.465      491896.868       -3084.283          43.000  
G05  24342323.817     -572021.739        3561.888          43.000  
G09  20542716.636      110536.912        -726.096          43.000  
G23  22765386.221      332431.346       -2122.964          43.000  
> 2018 02 16 08 22 53.0000000  0  8                     
G10  21489894.701      221139.057       -1439.472          43.000  
G30  22758770.287     -573286.087        3517.383          43.000  
G01  22490325.170     -211672.102        1249.522          43.000  
G11  21492351.852     -358576.946        2181.342          42.000  
G03  25195160.463      494981.489       -3084.528          43.000  
G05  24341646.062     -575583.409        3561.833          42.000  
G09  20542854.888      111263.470        -726.489          43.000  
G23  22765790.257      334554.624       -2123.290          42.000  
> 2018 02 16 08 22 54.0000000  0  8                     
G10  21490168.704      222579.016       -1439.880          43.000  
G30  22758101.038     -576803.074        3517.002          43.000  
G01  22490087.476     -212921.165        1248.946          43.000  
G11  21491936.826     -360757.957        2181.581          43.000  
G03  25195747.496      498066.417       -3084.897          43.000  
G05  24340968.326     -579144.924        3561.484          43.000  
G09  20542993.248      111990.616        -727.268          43.000  
G23  22766194.383      336678.424       -2123.889          43.000  
> 2018 02 16 08 22 55.0000000  0  8                     
G10  21490442.833      224019.555       -1440.994          43.000  
G30  22757431.843     -580319.626        3516.253          43.000  
G01  22489849.943     -214169.424        1247.746          42.000  
G11  21491521.836     -362938.701        2180.181          43.000  
G03  25196334.636      501151.856       -3085.783          43.000  
G05  24340290.643     -582706.143        3560.931          43.000  
G09  20543131.751      112718.508        -728.376          43.000  
G23  22766598.670      338802.894       -2124.922          43.000  
> 2018 02 16 08 22 56.0000000  0  8                     
G10  21490717.122      225460.869       -1441.333          43.000  
G30  22756762.773     -583835.606        3516.113          43.000  
G01  22489612.571     -215416.792        1247.378          42.000  
G11  21491106.953     -365118.905        2180.282          43.000  
G03  25196921.884      504237.919       -3086.007          43.000  
G05  24339613.050     -586266.948        3561.048          43.000  
G09  20543270.415      113447.271        -728.762          43.000  
G23  22767003.082      340928.158       -2125.260          43.000  
> 2018 02 16 08 22 57.0000000  0  8                     
G10  21490991.465      226902.545       -1441.567          43.000  
G30  22756093.739     -587351.427        3516.047          43.000  
G01  22489375.306     -216663.668        1246.877          43.000  
G11  21490692.106     -367298.986        2180.221          42.000  
G03  25197509.185      507324.222       -3086.241          43.000  
G05  24338935.439     -589827.757        3561.054          42.000  
G09  20543409.186      114176.503        -729.177          42.000  
G23  22767407.565      343053.818       -2125.557          43.000  
> 2018 02 16 08 22 58.0000000  0  8                     
G10  21491265.880      228344.635       -1442.344          43.000  
G30  22755424.741     -590867.038        3515.380          43.000  
G01  22489138.131     -217910.045        1246.049          42.000  
G11  21490277.276     -369478.840        2180.060          43.000  
G03  25198096.522      510410.794       -3086.857          43.000  
G05  24338257.828     -593388.549        3560.665          43.000  
G09  20543548.028      114906.226        -730.087          43.000  
G23  22767812.155      345179.922       -2126.441          43.000  
> 2018 02 16 08 23 01.0000000  0  8                     
G10  21492089.660      232673.531       -1443.450          43.000  
G30  22753418.085     -601412.030        3514.656          43.000  
G01  22488427.265     -221645.693        1244.608          43.000  
G11  21489033.003     -376017.552        2179.365          43.000  
G03  25199858.997      519672.831       -3087.789          42.000  
G05  24336225.065     -604070.429        3560.573          43.000  
G09  20543965.270      117098.872        -731.564          43.000  
G23  22769026.480      351561.309       -2127.701          43.000  
> 2018 02 16 08 23 02.0000000  0  8                     
G10  21492364.432      234117.526       -1444.070          43.000  
G30  22752749.337     -604926.313        3514.143          43.000  
G01  22488190.536     -222889.702        1243.755          43.000  
G11  21488618.352     -378196.539        2179.334          43.000  
G03  25200446.656      522761.047       -3088.480          43.000  
G05  24335547.544     -607630.880        3560.445          43.000  
G09  20544104.576      117830.976        -732.363          43.000  
G23  22769431.464      353689.539       -2128.423          43.000  
> 2018 02 16 08 23 03.0000000  0  8                     
G10  21492639.311      235562.016       -1444.598          42.000  
G30  22752080.678     -608440.178        3513.759          42.000  
G01  22487953.933     -224133.064        1243.105          43.000  
G11  21488203.737     -380375.389        2178.714          43.000  
G03  25201034.404      525849.757       -3088.786          43.000  
G05  24334870.057     -611191.175        3560.330          43.000  
G09  20544244.008      118563.728        -732.839          42.000  
G23  22769836.555      355818.371       -2128.940          42.000  
> 2018 02 16 08 23 04.0000000  0  8                     
G10  21492914.297      237007.042       -1445.234          43.000  
G30  22751412.091     -611953.640        3513.343          42.000  
G01  22487717.454     -225375.831        1242.527          43.000  
G11  21487789.194     -382553.950        2178.436          43.000  
G03  25201622.277      528938.963       -3089.319          43.000  
G05  24334192.571     -614751.388        3560.261          43.000  
G09  20544383.565      119297.124        -733.592          42.000  
G23  22770241.771      357947.783       -2129.575          42.000  
> 2018 02 16 08 23 05.0000000  0  8                     
G10  21493189.355      238452.476       -1445.391          43.000  
G30  22750743.575     -615466.796        3513.262          43.000  
G01  22487481.047     -226618.113        1242.366          43.000  
G11  21487374.650     -384732.344        2178.568          43.000  
G03  25202210.203      532028.538       -3089.490          43.000  
G05  24333515.085     -618311.635        3560.603          43.000  
G09  20544523.230      120031.015        -733.854          42.000  
G23  22770647.076      360077.641       -2129.818          43.000  
> 2018 02 16 08 23 06.0000000  0  8                     
G10  21493464.502      239898.357       -1445.808          42.000  
G30  22750075.095     -618979.619        3512.803          42.000  
G01  22487244.765     -227859.883        1241.803          43.000  
G11  21486960.142     -386910.499        2178.762          43.000  
G03  25202798.201      535118.522       -3089.942          43.000  
G05  24332837.581     -621871.889        3560.515          43.000  
G09  20544663.001      120765.448        -734.505          43.000  
G23  22771052.488      362207.979       -2130.330          42.000  
> 2018 02 16 08 23 07.0000000  0  8                     
G10  21493739.757      241344.876       -1446.785          42.000  
G30  22749406.704     -622491.879        3512.113          43.000  
G01  22487008.590     -229100.921        1240.846          43.000  
G11  21486545.706     -389088.378        2177.712          43.000  
G03  25203386.324      538209.159       -3090.828          43.000  
G05  24332160.149     -625431.939        3560.065          43.000  
G09  20544802.880      121500.640        -735.590          43.000  
G23  22771458.026      364339.025       -2131.342          43.000  
> 2018 02 16 08 23 08.0000000  0  8                     
G10  21494015.101      242791.838       -1446.945          43.000  
G30  22748738.438     -626003.768        3512.017          42.000  
G01  22486772.522     -230341.453        1240.569          43.000  
G11  21486131.323     -391266.034        2177.819          43.000  
G03  25203974.537      541300.223       -3090.957          43.000  
G05  24331482.680     -628992.008        3560.293          43.000  
G09  20544942.866      122236.359        -735.832          43.000  
G23  22771863.652      366470.550       -2131.603          43.000  
> 2018 02 16 08 23 09.0000000  0  8                     
G10  21494290.516      244239.237       -1447.570          43.000  
G30  22748070.208     -629515.304        3511.414          43.000  
G01  22486536.562     -231581.501        1239.767          43.000  
G11  21485716.977     -393443.495        2177.380          43.000  
G03  25204562.839      544391.711       -3091.683          43.000  
G05  24330805.194     -632552.136        3560.128          43.000  
G09  20545082.977      122972.585        -736.513          43.000  
G23  22772269.333      368602.517       -2132.223          43.000  
> 2018 02 16 08 23 10.0000000  0  8                     
G10  21494566.056      245687.236       -1447.849          42.000  
G30  22747402.086     -633026.335        3511.218          43.000  
G01  22486300.691     -232820.947        1239.560          42.000  
G11  21485302.701     -395620.578        2177.669          43.000  
G03  25205151.230      547483.762       -3091.911          42.000  
G05  24330127.744     -636112.186        3560.492          43.000  
G09  20545223.213      123709.451        -736.684          43.000  
G23  22772675.156      370735.070       -2132.401          43.000  
> 2018 02 16 08 23 11.0000000  0  8                     
G10  21494841.686      247135.640       -1448.634          43.000  
G30  22746734.052     -636536.997        3510.474          43.000  
G01  22486064.909     -234059.918        1238.704          43.000  
G11  21484888.426     -397797.601        2176.775          43.000  
G03  25205739.710      550576.248       -3092.779          43.000  
G05  24329450.293     -639672.291        3560.059          43.000  
G09  20545363.556      124446.839        -737.683          43.000  
G23  22773081.069      372868.075       -2133.243          42.000  
> 2018 02 16 08 23 12.0000000  0  8                     
G10  21495117.441      248584.564       -1449.222          43.000  
G30  22746066.108     -640047.214        3509.927          43.000  
G01  22485829.270     -235298.355        1238.120          43.000  
G11  21484474.186     -399974.344        2176.531          43.000  
G03  25206328.280      553669.214       -3093.205          43.000  
G05  24328772.825     -643232.421        3560.047          43.000  
G09  20545503.989      125184.780        -738.336          43.000  
G23  22773487.053      375001.576       -2133.789          43.000  
> 2018 02 16 08 23 13.0000000  0  8                     
G10  21495393.267      250034.023       -1449.626          43.000  
G30  22745398.218     -643556.947        3509.490          43.000  
G01  22485593.703     -236536.234        1237.653          42.000  
G11  21484060.054     -402150.768        2176.268          43.000  
G03  25206916.940      556762.728       -3093.771          43.000  
G05  24328095.357     -646792.535        3560.152          43.000  
G09  20545644.511      125923.301        -738.812          42.000  
G23  22773893.162      377135.610       -2134.365          43.000  
> 2018 02 16 08 23 14.0000000  0  8                     
G10  21495669.147      251483.772       -1450.221          43.000  
G30  22744730.381     -647066.452        3508.985          43.000  
G01  22485358.189     -237773.834        1237.102          43.000  
G11  21483645.885     -404327.106        2176.252          42.000  
G03  25207505.670      559856.491       -3094.252          43.000  
G05  24327417.853     -650352.907        3560.104          43.000  
G09  20545785.104      126662.120        -739.255          43.000  
G23  22774299.290      379269.860       -2134.716          43.000  
> 2018 02 16 08 23 15.0000000  0  8                     
G10  21495945.116      252934.066       -1450.361          43.000  
G30  22744062.651     -650575.477        3508.925          42.000  
G01  22485122.782     -239010.889        1236.960          42.000  
G11  21483231.771     -406503.226        2176.079          43.000  
G03  25208094.490      562950.781       -3094.389          43.000  
G05  24326740.349     -653913.294        3560.513          43.000  
G09  20545925.805      127401.523        -739.508          43.000  
G23  22774705.524      381404.625       -2134.854          43.000  
> 2018 02 16 08 23 16.0000000  0  8                     
G10  21496221.210      254384.957       -1450.955          42.000  
G30  22743395.011     -654083.952        3508.465          42.000  
G01  22484887.465     -240247.362        1236.519          43.000  
G11  21482817.745     -408678.983        2175.714          43.000  
G03  25208683.435      566045.636       -3094.826          43.000  
G05  24326062.791     -657473.653        3560.600          43.000  
G09  20546066.613      128141.510        -739.944          43.000  
G23  22775111.866      383539.905       -2135.231          43.000  
> 2018 02 16 08 23 17.0000000  0  8                     
G10  21496497.430      255836.405       -1451.585          43.000  
G30  22742727.460     -657591.899        3507.850          42.000  
G01  22484652.273     -241483.270        1235.785          43.000  
G11  21482403.792     -410854.394        2175.347          42.000  
G03  25209272.470      569141.041       -3095.543          43.000  
G05  24325385.287     -661034.005        3560.456          43.000  
G09  20546207.546      128882.081        -740.638          42.000  
G23  22775518.296      385675.702       -2135.917          42.000  
> 2018 02 16 08 23 18.0000000  0  8                     
G10  21496773.756      257288.453       -1452.449          43.000  
G30  22742060.016     -661099.297        3507.055          42.000  
G01  22484417.206     -242718.623        1235.042          42.000  
G11  21481989.891     -413029.374        2174.931          42.000  
G03  25209861.612      572236.984       -3096.161          42.000  
G05  24324707.783     -664594.365        3560.330          43.000  
G09  20546348.586      129623.226        -741.450          43.000  
G23  22775924.835      387811.969       -2136.478          42.000  
> 2018 02 16 08 23 19.0000000  0  8                     
G10  21497050.154      258741.008       -1452.728          43.000  
G30  22741392.662     -664606.257        3506.783          42.000  
G01  22484182.211     -243953.521        1234.705          42.000  
G11  21481576.027     -415204.179        2174.744          43.000  
G03  25210450.843      575333.377       -3096.592          43.000  
G05  24324030.244     -668154.826        3560.476          42.000  
G09  20546489.716      130364.817        -741.708          43.000  
G23  22776331.444      389948.622       -2136.699          43.000  
> 2018 02 16 08 23 20.0000000  0  8                     
G10  21497326.624      260194.001       -1453.274          43.000  
G30  22740725.397     -668112.811        3506.326          43.000  
G01  22483947.287     -245188.027        1234.280          42.000  
G11  21481162.234     -417378.726        2174.369          43.000  
G03  25211040.145      578430.154       -3097.006          43.000  
G05  24323352.668     -671715.459        3560.665          42.000  
G09  20546630.935      131106.822        -742.320          42.000  
G23  22776738.072      392085.594       -2137.238          43.000  
> 2018 02 16 08 23 21.0000000  0  8                     
G10  21497603.218      261647.552       -1453.617          43.000  
G30  22740058.203     -671618.860        3505.992          42.000  
G01  22483712.470     -246422.021        1233.975          42.000  
G11  21480748.513     -419552.932        2174.195          43.000  
G03  25211629.537      581527.411       -3097.292          43.000  
G05  24322675.110     -675276.147        3560.903          42.000  
G09  20546772.225      131849.294        -742.430          43.000  
G23  22777144.806      394222.947       -2137.292          43.000  
> 2018 02 16 08 23 22.0000000  0  8                     
G10  21497879.920      263101.688       -1454.273          43.000  
G30  22739391.117     -675124.360        3505.472          42.000  
G01  22483477.760     -247655.478        1233.402          43.000  
G11  21480334.863     -421726.691        2173.923          42.000  
G03  25212219.018      584625.189       -3097.766          43.000  
G05  24321997.517     -678836.879        3561.022          43.000  
G09  20546913.605      132592.317        -743.043          42.000  
G23  22777551.613      396360.730       -2137.616          43.000  
> 2018 02 16 08 23 23.0000000  0  8                     
G10  21498156.783      264556.492       -1454.867          43.000  
G30  22738724.138     -678629.271        3504.840          42.000  
G01  22483243.140     -248888.370        1232.772          42.000  
G11  21479921.266     -423900.073        2173.282          43.000  
G03  25212808.624      587723.506       -3098.312          43.000  
G05  24321319.924     -682397.607        3560.949          42.000  
G09  20547055.109      133335.877        -743.665          42.000  
G23  22777958.508      398498.975       -2138.235          42.000  
> 2018 02 16 08 23 24.0000000  0  8                     
G10  21498433.717      266011.807       -1455.457          43.000  
G30  22738057.266     -682133.707        3504.224          42.000  
G01  22483008.627     -250120.818        1232.236          43.000  
G11  21479507.741     -426073.131        2172.944          43.000  
G03  25213398.284      590822.233       -3098.790          43.000  
G05  24320642.330     -685958.465        3560.931          42.000  
G09  20547196.668      134079.839        -744.130          43.000  
G23  22778365.475      400637.516       -2138.728          43.000  
> 2018 02 16 08 23 25.0000000  0  8                     
G10  21498710.812      267467.833       -1456.091          42.000  
G30  22737390.519     -685637.509        3503.709          43.000  
G01  22482774.221     -251352.663        1231.754          43.000  
G11  21479094.324     -428245.667        2172.564          42.000  
G03  25213988.069      593921.544       -3099.360          42.000  
G05  24319964.737     -689519.292        3561.055          42.000  
G09  20547338.334      134824.383        -744.533          42.000  
G23  22778772.514      402776.501       -2138.897          42.000  
> 2018 02 16 08 23 26.0000000  0  8                     
G10  21498987.960      268924.259       -1456.586          43.000  
G30  22736723.843     -689140.945        3503.399          43.000  
G01  22482539.869     -252584.170        1231.509          43.000  
G11  21478680.959     -430417.902        2172.258          43.000  
G03  25214577.908      597021.128       -3099.536          43.000  
G05  24319287.072     -693080.363        3561.335          43.000  
G09  20547480.035      135569.208        -744.862          42.000  
G23  22779179.552      404915.658       -2139.030          43.000  
> 2018 02 16 08 23 27.0000000  0  8                     
G10  21499265.288      270381.610       -1457.646          43.000  
G30  22736057.329     -692643.562        3502.344          42.000  
G01  22482305.695     -253814.899        1230.502          42.000  
G11  21478267.738     -432589.479        2171.394          42.000  
G03  25215167.854      600121.444       -3100.608          43.000  
G05  24318609.461     -696641.225        3560.872          42.000  
G09  20547621.897      136314.760        -745.822          42.000  
G23  22779586.751      407055.419       -2139.875          43.000  
> 2018 02 16 08 23 28.0000000  0  8                     
G10  21499542.776      271839.658       -1458.185          43.000  
G30  22735390.904     -696145.540        3501.771          43.000  
G01  22482071.593     -255045.038        1230.046          43.000  
G11  21477854.606     -434760.511        2170.925          42.000  
G03  25215757.925      603222.270       -3100.888          43.000  
G05  24317931.850     -700202.081        3560.950          42.000  
G09  20547763.884      137060.827        -746.152          43.000  
G23  22779994.004      409195.571       -2140.152          43.000  
> 2018 02 16 08 23 29.0000000  0  8                     
G10  21499820.407      273298.527       -1459.102          43.000  
G30  22734724.657     -699646.781        3501.065          43.000  
G01  22481837.652     -256274.460        1229.317          43.000  
G11  21477441.600     -436930.862        2170.161          42.000  
G03  25216348.138      606323.743       -3101.682          43.000  
G05  24317254.274     -703762.808        3560.800          42.000  
G09  20547905.961      137807.540        -746.970          43.000  
G23  22780401.364      411336.217       -2140.713          43.000  
> 2018 02 16 08 23 30.0000000  0  8                     
G10  21500098.163      274757.000       -1459.922          43.000  
G30  22734058.482     -703147.478        3500.620          43.000  
G01  22481603.782     -257503.388        1228.854          42.000  
G11  21477028.700     -439100.722        2169.648          43.000  
G03  25216938.406      609425.619       -3102.015          43.000  
G05  24316576.663     -707323.616        3560.948          43.000  
G09  20548048.127      138554.650        -747.175          43.000  
G23  22780808.760      413477.131       -2140.874          43.000  
> 2018 02 16 08 23 31.0000000  0  8                     
G10  21500376.008      276218.211       -1460.313          43.000  
G30  22733392.432     -706647.565        3500.013          43.000  
G01  22481370.037     -258731.754        1228.241          43.000  
G11  21476615.890     -441270.056        2169.246          43.000  
G03  25217528.763      612527.950       -3102.353          43.000  
G05  24315899.052     -710884.448        3560.961          43.000  
G09  20548190.382      139302.225        -747.600          43.000  
G23  22781216.245      415618.358       -2141.205          43.000  
> 2018 02 16 08 23 32.0000000  0  8                     
G10  21500653.997      277679.042       -1461.301          42.000  
G30  22732726.507     -710147.103        3499.083          43.000  
G01  22481136.400     -259959.619        1227.432          43.000  
G11  21476203.169     -443438.893        2168.500          43.000  
G03  25218119.173      615630.671       -3103.101          43.000  
G05  24315221.423     -714445.359        3560.727          43.000  
G09  20548332.727      140050.198        -748.294          42.000  
G23  22781623.748      417759.829       -2141.803          43.000  
> 2018 02 16 08 23 33.0000000  0  8                     
G10  21500932.128      279140.616       -1462.103          43.000  
G30  22732060.672     -713646.024        3498.370          43.000  
G01  22480902.852     -261186.896        1226.759          43.000  
G11  21475790.556     -445607.096        2167.691          43.000  
G03  25218709.691      618733.842       -3103.568          42.000  
G05  24314543.812     -718006.265        3560.719          42.000  
G09  20548475.143      140798.638        -748.771          43.000  
G23  22782031.305      419901.595       -2142.145          42.000  
> 2018 02 16 08 23 34.0000000  0  8                     
G10  21501210.384      280602.898       -1462.693          43.000  
G30  22731394.961     -717144.310        3498.166          42.000  
G01  22480669.411     -262413.581        1226.559          42.000  
G11  21475378.085     -447774.678        2167.390          43.000  
G03  25219300.315      621837.471       -3103.727          42.000  
G05  24313866.182     -721567.157        3561.064          42.000  
G09  20548617.666      141547.548        -749.021          42.000  
G23  22782438.915      422043.651       -2142.066          43.000  
> 2018 02 16 08 23 35.0000000  0  8                     
G10  21501488.802      282066.043       -1463.424          43.000  
G30  22730729.376     -720641.937        3497.382          42.000  
G01  22480436.113     -263639.634        1225.812          43.000  
G11  21474965.757     -449941.574        2166.707          43.000  
G03  25219890.976      624941.550       -3104.161          42.000  
G05  24313188.571     -725128.005        3560.930          42.000  
G09  20548760.261      142296.931        -749.466          42.000  
G23  22782846.615      424186.016       -2142.394          43.000  
> 2018 02 16 08 23 37.0000000  0  8                     
G10  21502046.047      284994.473       -1464.664          43.000  
G30  22729398.563     -727635.364        3496.300          43.000  
G01  22479969.821     -266090.003        1224.834          42.000  
G11  21474141.441     -454273.467        2165.574          43.000  
G03  25221072.583      631150.887       -3104.753          43.000  
G05  24311833.367     -732249.709        3561.071          43.000  
G09  20549045.665      143796.956        -750.180          43.000  
G23  22783662.122      428471.448       -2142.733          43.000  
> 2018 02 16 08 23 38.0000000  0  8                     
G10  21502324.857      286459.751       -1465.689          42.000  
G30  22728733.352     -731131.196        3495.657          43.000  
G01  22479736.827     -267314.345        1224.230          43.000  
G11  21473729.471     -456438.427        2164.498          43.000  
G03  25221663.494      634256.086       -3105.192          43.000  
G05  24311155.755     -735810.586        3561.000          43.000  
G09  20549188.510      144547.552        -750.596          43.000  
G23  22784069.928      430614.449       -2142.927          43.000  
> 2018 02 16 08 23 39.0000000  0  8                     
G10  21502603.847      287925.891       -1466.347          43.000  
G30  22728068.232     -734626.419        3494.990          43.000  
G01  22479503.940     -268538.084        1223.525          42.000  
G11  21473317.626     -458602.691        2164.010          43.000  
G03  25222254.458      637361.645       -3105.648          43.000  
G05  24310478.162     -739371.442        3560.826          43.000  
G09  20549331.444      145298.555        -751.105          43.000  
G23  22784477.789      432757.653       -2143.199          43.000  
> 2018 02 16 08 23 40.0000000  0  8                     
G10  21502882.996      289392.815       -1467.082          43.000  
G30  22727403.218     -738120.991        3494.364          43.000  
G01  22479271.196     -269761.173        1222.870          43.000  
G11  21472905.923     -460766.210        2163.339          43.000  
G03  25222845.494      640467.593       -3106.009          42.000  
G05  24309800.569     -742932.252        3560.891          43.000  
G09  20549474.450      146050.000        -751.639          43.000  
G23  22784885.667      434901.088       -2143.481          43.000  
> 2018 02 16 08 23 41.0000000  0  8                     
G10  21503162.271      290860.410       -1467.866          43.000  
G30  22726738.312     -741615.083        3493.819          43.000  
G01  22479038.559     -270983.796        1222.444          43.000  
G11  21472494.346     -462929.125        2162.710          43.000  
G03  25223436.565      643573.745       -3106.299          43.000  
G05  24309122.940     -746493.135        3560.932          42.000  
G09  20549617.492      146801.698        -751.823          43.000  
G23  22785293.545      437044.566       -2143.498          43.000  
> 2018 02 16 08 23 42.0000000  0  8                     
G10  21503441.725      292329.038       -1469.207          43.000  
G30  22726073.566     -745108.309        3493.122          42.000  
G01  22478806.047     -272205.515        1221.546          42.000  
G11  21472082.948     -465091.028        2161.478          43.000  
G03  25224027.762      646680.473       -3106.757          43.000  
G05  24308445.382     -750053.722        3560.694          42.000  
G09  20549760.676      147554.058        -752.410          42.000  
G23  22785701.531      439188.472       -2143.822          43.000  
> 2018 02 16 08 23 43.0000000  0  8                     
G10  21503721.357      293798.483       -1469.450          42.000  
G30  22725408.928     -748600.964        3492.657          43.000  
G01  22478573.660     -273426.667        1221.140          43.000  
G11  21471671.692     -467252.173        2161.152          43.000  
G03  25224619.012      649787.464       -3106.926          43.000  
G05  24307767.824     -753614.310        3560.925          43.000  
G09  20549903.914      148306.743        -752.505          43.000  
G23  22786109.552      441332.473       -2143.711          43.000  
> 2018 02 16 08 23 44.0000000  0  8                     
G10  21504001.133      295268.699       -1470.625          43.000  
G30  22724744.415     -752093.066        3491.847          43.000  
G01  22478341.381     -274647.237        1220.326          43.000  
G11  21471260.597     -469412.604        2160.195          43.000  
G03  25225210.316      652894.695       -3107.366          43.000  
G05  24307090.285     -757174.882        3560.593          43.000  
G09  20550047.224      149059.773        -753.203          43.000  
G23  22786517.538      443476.571       -2144.069          43.000  
> 2018 02 16 08 23 45.0000000  0  8                     
G10  21504281.069      296739.741       -1471.215          42.000  
G30  22724080.009     -755584.560        3491.373          43.000  
G01  22478109.227     -275867.138        1219.812          43.000  
G11  21470849.628     -471572.224        2159.444          43.000  
G03  25225801.656      656002.207       -3107.447          43.000  
G05  24306412.763     -760735.373        3560.623          43.000  
G09  20550190.605      149813.176        -753.393          43.000  
G23  22786925.577      445620.815       -2144.090          43.000  
> 2018 02 16 08 23 46.0000000  0  8                     
G10  21504561.148      298211.624       -1472.582          43.000  
G30  22723415.710     -759075.403        3490.531          43.000  
G01  22477877.233     -277086.361        1218.926          43.000  
G11  21470438.837     -473730.992        2158.019          43.000  
G03  25226393.085      659110.032       -3107.977          43.000  
G05  24305735.223     -764295.742        3560.378          43.000  
G09  20550334.039      150567.004        -754.018          43.000  
G23  22787333.652      447765.218       -2144.525          43.000  
> 2018 02 16 08 23 47.0000000  0  8                     
G10  21504841.459      299684.525       -1473.338          43.000  
G30  22722751.572     -762565.567        3489.738          43.000  
G01  22477645.365     -278304.826        1218.004          42.000  
G11  21470028.225     -475888.797        2157.409          43.000  
G03  25226984.567      662218.190       -3108.405          43.000  
G05  24305057.755     -767855.933        3560.054          43.000  
G09  20550477.599      151321.272        -754.545          43.000  
G23  22787741.762      449909.815       -2144.781          43.000  
> 2018 02 16 08 23 48.0000000  0  8                     
G10  21505121.896      301158.217       -1473.929          43.000  
G30  22722087.505     -766055.197        3489.489          43.000  
G01  22477413.603     -279522.680        1217.717          42.000  
G11  21469617.791     -478045.805        2156.757          43.000  
G03  25227576.067      665326.530       -3108.313          43.000  
G05  24304380.287     -771416.076        3560.308          43.000  
G09  20550621.195      152075.858        -754.656          43.000  
G23  22788149.855      452054.455       -2144.478          43.000  
> 2018 02 16 08 23 49.0000000  0  8                     
G10  21505402.493      302632.739       -1474.798          43.000  
G30  22721423.546     -769544.242        3488.848          43.000  
G01  22477181.985     -280739.870        1216.915          42.000  
G11  21469207.447     -480201.981        2155.833          42.000  
G03  25228167.621      668435.070       -3108.521          43.000  
G05  24303702.818     -774976.115        3560.075          43.000  
G09  20550764.844      152830.786        -755.056          43.000  
G23  22788557.966      454199.178       -2144.651          42.000  
> 2018 02 16 08 23 50.0000000  0  8                     
G10  21505683.269      304108.262       -1475.916          43.000  
G30  22720759.748     -773032.543        3488.258          42.000  
G01  22476950.546     -281956.213        1216.284          43.000  
G11  21468797.335     -482357.136        2154.635          43.000  
G03  25228759.247      671543.980       -3108.705          43.000  
G05  24303025.404     -778535.867        3559.948          43.000  
G09  20550908.618      153586.233        -755.365          43.000  
G23  22788966.130      456344.145       -2144.736          43.000  
> 2018 02 16 08 23 51.0000000  0  8                     
G10  21505964.170      305584.450       -1476.534          43.000  
G30  22720096.003     -776520.567        3487.779          43.000  
G01  22476719.124     -283172.154        1215.563          43.000  
G11  21468387.366     -484511.627        2154.117          42.000  
G03  25229350.819      674652.791       -3108.794          43.000  
G05  24302347.971     -782095.780        3559.800          43.000  
G09  20551052.392      154341.737        -755.681          42.000  
G23  22789374.259      458488.894       -2144.828          42.000  
> 2018 02 16 08 23 52.0000000  0  8                     
G10  21506245.250      307061.534       -1477.622          43.000  
G30  22719432.383     -780007.992        3487.077          42.000  
G01  22476487.881     -284387.375        1214.783          43.000  
G11  21467977.540     -486665.210        2153.083          42.000  
G03  25229942.444      677761.803       -3109.235          43.000  
G05  24301670.592     -785655.527        3559.509          43.000  
G09  20551196.202      155097.621        -756.202          42.000  
G23  22789782.405      460633.721       -2144.983          43.000  
> 2018 02 16 08 23 53.0000000  0  8                     
G10  21506526.544      308539.736       -1478.670          43.000  
G30  22718768.906     -783494.611        3486.408          43.000  
G01  22476256.781     -285601.647        1213.995          43.000  
G11  21467567.928     -488817.628        2151.971          43.000  
G03  25230534.159      680871.207       -3109.425          43.000  
G05  24300993.267     -789214.880        3559.283          42.000  
G09  20551340.137      155854.090        -756.679          43.000  
G23  22790190.605      462778.851       -2145.145          43.000  
> 2018 02 16 08 23 54.0000000  0  8                     
G10  21506807.963      310018.792       -1479.544          43.000  
G30  22718105.537     -786980.659        3485.896          43.000  
G01  22476025.841     -286815.190        1213.321          43.000  
G11  21467158.513     -490969.165        2151.021          43.000  
G03  25231125.910      683980.774       -3109.560          43.000  
G05  24300315.977     -792774.055        3559.173          42.000  
G09  20551484.161      156610.912        -756.829          43.000  
G23  22790598.823      464924.032       -2145.049          43.000  
> 2018 02 16 08 23 55.0000000  0  8                     
G10  21507089.615      311498.902       -1480.306          43.000  
G30  22717442.310     -790466.089        3485.351          43.000  
G01  22475795.099     -288027.946        1212.622          43.000  
G11  21466749.295     -493119.611        2150.300          43.000  
G03  25231717.678      687090.532       -3109.597          43.000  
G05  24299638.723     -796332.994        3559.022          42.000  
G09  20551628.239      157368.141        -757.170          43.000  
G23  22791007.040      467069.332       -2145.071          42.000  
> 2018 02 16 08 23 56.0000000  0  8                     
G10  21507371.463      312979.985       -1481.636          43.000  
G30  22716779.173     -793950.902        3484.437          42.000  
G01  22475564.463     -289239.882        1211.506          43.000  
G11  21466340.290     -495269.055        2149.004          43.000  
G03  25232309.482      690200.486       -3110.068          43.000  
G05  24298961.541     -799891.650        3558.439          43.000  
G09  20551772.424      158125.794        -757.859          42.000  
G23  22791415.312      469214.747       -2145.520          42.000  
> 2018 02 16 08 23 57.0000000  0  8                     
G10  21507653.472      314462.005       -1482.526          43.000  
G30  22716116.143     -797435.134        3483.976          42.000  
G01  22475334.007     -290451.041        1210.749          42.000  
G11  21465931.465     -497417.490        2147.965          43.000  
G03  25232901.322      693310.592       -3110.219          43.000  
G05  24298284.394     -803450.073        3558.251          42.000  
G09  20551916.663      158883.832        -758.253          43.000  
G23  22791823.583      471360.234       -2145.606          42.000  
> 2018 02 16 08 23 58.0000000  0  8                     
G10  21507935.659      315944.910       -1483.288          43.000  
G30  22715453.220     -800918.813        3483.688          43.000  
G01  22475103.675     -291661.429        1210.259          43.000  
G11  21465522.801     -499564.994        2147.036          43.000  
G03  25233493.180      696420.799       -3110.041          43.000  
G05  24297607.301     -807008.275        3558.424          43.000  
G09  20552060.973      159642.222        -758.316          43.000  
G23  22792231.873      473505.761       -2145.319          43.000  
> 2018 02 16 08 23 59.0000000  0  8                     
G10  21508218.043      317428.774       -1484.324          43.000  
G30  22714790.386     -804402.012        3482.826          43.000  
G01  22474873.486     -292871.095        1209.120          42.000  
G11  21465114.333     -501711.477        2146.064          43.000  
G03  25234085.038      699531.058       -3110.442          43.000  
G05  24296930.226     -810566.266        3557.744          42.000  
G09  20552205.337      160400.923        -758.975          43.000  
G23  22792640.144      475651.295       -2145.722          42.000  
> 2018 02 16 08 24 00.0000000  0  8                     
G10  21508500.606      318913.728       -1485.187          43.000  
G30  22714127.696     -807884.518        3482.389          43.000  
G01  22474643.476     -294079.821        1208.432          43.000  
G11  21464706.079     -503856.822        2145.129          43.000  
G03  25234676.949      702641.555       -3110.430          43.000  
G05  24296253.240     -814123.861        3557.694          42.000  
G09  20552349.808      161160.137        -759.225          43.000  
G23  22793048.469      477797.015       -2145.631          43.000  
> 2018 02 16 08 24 01.0000000  0  8                     
G10  21508783.366      320399.677       -1486.312          43.000  
G30  22713465.112     -811366.437        3481.756          43.000  
G01  22474413.627     -295287.692        1207.576          43.000  
G11  21464298.040     -506001.095        2143.831          43.000  
G03  25235268.878      705752.187       -3110.557          43.000  
G05  24295576.326     -817681.109        3557.167          43.000  
G09  20552494.369      161919.776        -759.713          43.000  
G23  22793456.830      479942.829       -2145.702          43.000  
> 2018 02 16 08 24 02.0000000  0  8                     
G10  21509066.357      321886.715       -1487.426          42.000  
G30  22712802.636     -814847.653        3481.182          43.000  
G01  22474183.938     -296494.570        1206.675          43.000  
G11  21463890.215     -508144.224        2142.541          43.000  
G03  25235860.897      708863.070       -3110.774          43.000  
G05  24294899.501     -821237.901        3556.784          43.000  
G09  20552639.036      162679.962        -760.150          42.000  
G23  22793865.226      482088.887       -2145.896          43.000  
> 2018 02 16 08 24 03.0000000  0  8                     
G10  21509349.528      323374.773       -1488.444          43.000  
G30  22712140.267     -818328.337        3480.440          43.000  
G01  22473954.446     -297700.624        1205.623          43.000  
G11  21463482.605     -510286.246        2141.599          43.000  
G03  25236452.898      711974.024       -3110.988          43.000  
G05  24294222.712     -824794.404        3556.464          43.000  
G09  20552783.793      163440.537        -760.770          42.000  
G23  22794273.587      484234.999       -2146.207          43.000  
> 2018 02 16 08 24 04.0000000  0  8                     
G10  21509632.877      324863.788       -1489.132          43.000  
G30  22711478.005     -821808.520        3480.265          43.000  
G01  22473725.098     -298905.850        1205.094          42.000  
G11  21463075.191     -512427.253        2140.849          42.000  
G03  25237044.898      715085.027       -3110.729          43.000  
G05  24293546.012     -828350.566        3556.270          42.000  
G09  20552928.586      164201.472        -760.762          43.000  
G23  22794681.984      486381.143       -2145.828          43.000  
> 2018 02 16 08 24 05.0000000  0  8                     
G10  21509916.387      326353.746       -1490.330          43.000  
G30  22710815.851     -825288.206        3479.606          43.000  
G01  22473495.909     -300110.248        1204.079          43.000  
G11  21462667.974     -514567.234        2139.634          43.000  
G03  25237636.899      718196.065       -3110.952          42.000  
G05  24292869.330     -831906.422        3555.791          43.000  
G09  20553073.468      164962.805        -761.473          42.000  
G23  22795090.398      488527.342       -2146.177          43.000  
> 2018 02 16 08 24 06.0000000  0  8                     
G10  21510200.093      327844.595       -1491.151          42.000  
G30  22710153.804     -828767.419        3479.258          43.000  
G01  22473266.846     -301313.835        1203.408          43.000  
G11  21462260.900     -516706.254        2138.478          43.000  
G03  25238228.918      721307.116       -3110.887          42.000  
G05  24292192.719     -835461.978        3555.612          42.000  
G09  20553218.439      165724.478        -761.732          43.000  
G23  22795498.848      490673.563       -2145.992          42.000  
> 2018 02 16 08 24 07.0000000  0  8                     
G10  21510483.978      329336.410       -1492.079          43.000  
G30  22709491.810     -832246.197        3478.680          43.000  
G01  22473037.998     -302516.621        1202.508          43.000  
G11  21461854.058     -518844.234        2137.697          43.000  
G03  25238820.919      724418.136       -3110.869          43.000  
G05  24291516.180     -839017.241        3555.316          43.000  
G09  20553363.482      166486.475        -762.017          42.000  
G23  22795907.245      492819.781       -2146.004          43.000  
> 2018 02 16 08 24 08.0000000  0  8                     
G10  21510768.060      330829.254       -1493.267          43.000  
G30  22708829.923     -835724.432        3477.947          43.000  
G01  22472809.292     -303718.484        1201.436          43.000  
G11  21461447.430     -520981.113        2136.500          43.000  
G03  25239412.937      727529.245       -3111.137          43.000  
G05  24290839.695     -842572.073        3554.700          43.000  
G09  20553508.579      167248.939        -762.634          43.000  
G23  22796315.713      494966.142       -2146.418          43.000  
> 2018 02 16 08 24 09.0000000  0  8                     
G10  21511052.321      332323.088       -1494.243          43.000  
G30  22708168.126     -839202.162        3477.560          43.000  
G01  22472580.783     -304919.429        1200.503          43.000  
G11  21461040.999     -523116.914        2135.413          43.000  
G03  25240004.974      730640.409       -3111.108          43.000  
G05  24290163.334     -846126.499        3554.341          43.000  
G09  20553653.747      168011.846        -763.075          43.000  
G23  22796724.163      497112.595       -2146.426          43.000  
> 2018 02 16 08 24 10.0000000  0  8                     
G10  21511336.760      333817.848       -1495.410          43.000  
G30  22707506.418     -842679.408        3476.908          43.000  
G01  22472352.417     -306119.505        1199.567          43.000  
G11  21460634.747     -525251.718        2134.088          43.000  
G03  25240597.010      733751.596       -3111.246          43.000  
G05  24289487.028     -849680.525        3553.793          42.000  
G09  20553798.986      168775.153        -763.589          43.000  
G23  22797132.631      499259.128       -2146.613          43.000  
> 2018 02 16 08 24 11.0000000  0  8                     
G10  21511621.431      335313.750       -1496.137          42.000  
G30  22706844.836     -846156.067        3476.544          43.000  
G01  22472124.265     -307318.557        1198.755          43.000  
G11  21460228.745     -527385.288        2133.203          43.000  
G03  25241189.082      736862.922       -3111.118          43.000  
G05  24288810.810     -853234.038        3553.500          43.000  
G09  20553944.333      169539.012        -763.941          43.000  
G23  22797541.153      501405.883       -2146.656          43.000  
> 2018 02 16 08 24 12.0000000  0  8                     
G10  21511906.281      336810.633       -1497.202          43.000  
G30  22706183.360     -849632.254        3476.065          43.000  
G01  22471896.257     -308516.700        1197.796          43.000  
G11  21459822.940     -529517.811        2132.140          43.000  
G03  25241781.154      739974.279       -3111.297          43.000  
G05  24288134.682     -856787.111        3553.037          43.000  
G09  20554089.769      170303.309        -764.429          43.000  
G23  22797949.674      503552.737       -2146.756          43.000  
> 2018 02 16 08 24 13.0000000  0  8                     
G10  21512191.292      338308.473       -1498.236          43.000  
G30  22705521.956     -853107.993        3475.569          43.000  
G01  22471668.444     -309713.954        1196.920          42.000  
G11  21459417.331     -531649.304        2131.040          43.000  
G03  25242373.245      743085.633       -3111.324          42.000  
G05  24287458.626     -860339.772        3552.466          43.000  
G09  20554235.276      171068.019        -764.844          43.000  
G23  22798358.214      505699.689       -2146.949          43.000  
> 2018 02 16 08 24 14.0000000  0  8                     
G10  21512476.500      339807.147       -1498.996          43.000  
G30  22704860.606     -856583.396        3475.458          43.000  
G01  22471440.775     -310910.384        1196.233          43.000  
G11  21459011.883     -533779.915        2130.297          43.000  
G03  25242965.299      746196.892       -3111.040          43.000  
G05  24286782.640     -863892.105        3552.358          43.000  
G09  20554380.837      171833.069        -765.032          43.000  
G23  22798766.753      507846.644       -2146.772          43.000  
> 2018 02 16 08 24 15.0000000  0  8                     
G10  21512761.886      341306.751       -1499.882          43.000  
G30  22704199.363     -860058.390        3474.927          43.000  
G01  22471213.267     -312105.951        1195.336          43.000  
G11  21458606.613     -535909.479        2129.266          43.000  
G03  25243557.335      749308.106       -3111.047          43.000  
G05  24286106.745     -867444.046        3551.859          43.000  
G09  20554526.505      172598.524        -765.511          43.000  
G23  22799175.310      509993.684       -2146.967          43.000  
> 2018 02 16 08 24 16.0000000  0  8                     
G10  21513047.433      342807.251       -1500.899          43.000  
G30  22703538.155     -863533.031        3474.562          43.000  
G01  22470985.919     -313300.657        1194.363          43.000  
G11  21458201.540     -538038.101        2128.250          43.000  
G03  25244149.372      752419.261       -3111.020          43.000  
G05  24285430.920     -870995.593        3551.351          43.000  
G09  20554672.245      173364.359        -765.935          43.000  
G23  22799583.903      512140.782       -2147.143          43.000  
> 2018 02 16 08 24 17.0000000  0  8                     
G10  21513333.123      344308.626       -1501.784          43.000  
G30  22702877.019     -867007.324        3474.209          43.000  
G01  22470758.733     -314494.508        1193.385          42.000  
G11  21457796.664     -540165.774        2127.149          43.000  
G03  25244741.408      755530.344       -3111.059          43.000  
G05  24284755.132     -874546.772        3551.054          43.000  
G09  20554818.056      174130.584        -766.471          43.000  
G23  22799992.497      514287.931       -2147.143          43.000  
> 2018 02 16 08 24 18.0000000  0  8                     
G10  21513618.991      345811.030       -1502.659          43.000  
G30  22702215.973     -870481.094        3473.813          43.000  
G01  22470531.760     -315687.329        1192.462          43.000  
G11  21457391.966     -542292.373        2126.300          43.000  
G03  25245333.427      758641.530       -3111.034          43.000  
G05  24284079.504     -878097.376        3550.688          43.000  
G09  20554963.975      174897.372        -766.829          43.000  
G23  22800401.161      516435.343       -2147.248          43.000  
> 2018 02 16 08 24 19.0000000  0  8                     
G10  21513905.056      347314.295       -1503.475          43.000  
G30  22701554.997     -873954.551        3473.528          43.000  
G01  22470304.931     -316879.324        1191.765          43.000  
G11  21456987.447     -544418.046        2125.451          43.000  
G03  25245925.463      761752.611       -3110.732          43.000  
G05  24283403.912     -881647.601        3550.302          43.000  
G09  20555109.965      175664.517        -767.012          43.000  
G23  22800809.826      518582.808       -2147.250          43.000  
> 2018 02 16 08 24 20.0000000  0  8                     
G10  21514191.336      348818.606       -1504.521          43.000  
G30  22700894.112     -877427.505        3472.988          43.000  
G01  22470078.298     -318070.275        1190.698          43.000  
G11  21456583.143     -546542.609        2124.284          43.000  
G03  25246517.518      764863.820       -3110.988          43.000  
G05  24282728.445     -885197.262        3549.790          43.000  
G09  20555256.080      176432.269        -767.717          43.000  
G23  22801218.526      520730.556       -2147.633          42.000  
> 2018 02 16 08 24 21.0000000  0  8                     
G10  21514477.723      350323.687       -1505.304          43.000  
G30  22700233.297     -880900.209        3472.718          43.000  
G01  22469851.826     -319260.424        1189.835          43.000  
G11  21456178.999     -548666.372        2123.517          43.000  
G03  25247109.536      767974.868       -3110.760          43.000  
G05  24282053.032     -888746.570        3549.368          43.000  
G09  20555402.230      177200.348        -768.074          42.000  
G23  22801627.244      522878.325       -2147.612          42.000  
> 2018 02 16 08 24 22.0000000  0  8                     
G10  21514764.288      351829.583       -1506.078          43.000  
G30  22699572.519     -884372.615        3472.316          43.000  
G01  22469625.497     -320449.735        1188.971          42.000  
G11  21455775.016     -550789.269        2122.606          43.000  
G03  25247701.537      771085.855       -3110.885          43.000  
G05  24281377.690     -892295.471        3548.799          42.000  
G09  20555548.488      177968.840        -768.628          43.000  
G23  22802035.944      525026.210       -2147.911          43.000  
> 2018 02 16 08 24 23.0000000  0  8                     
G10  21515051.033      353336.407       -1507.212          43.000  
G30  22698911.812     -887844.640        3471.942          43.000  
G01  22469399.382     -321638.096        1188.089          42.000  
G11  21455371.230     -552911.191        2121.604          43.000  
G03  25248293.520      774196.842       -3110.844          43.000  
G05  24280702.419     -895843.900        3548.328          43.000  
G09  20555694.800      178737.831        -769.085          43.000  
G23  22802444.716      527174.283       -2148.046          42.000  
> 2018 02 16 08 24 24.0000000  0  8                     
G10  21515337.902      354843.915       -1507.660          43.000  
G30  22698251.140     -891316.513        3472.020          43.000  
G01  22469173.357     -322825.730        1187.488          42.000  
G11  21454967.587     -555032.381        2121.022          43.000  
G03  25248885.503      777307.625       -3110.542          43.000  
G05  24280027.238     -899392.043        3548.159          43.000  
G09  20555841.201      179507.107        -769.229          43.000  
G23  22802853.488      529322.355       -2147.855          42.000  
> 2018 02 16 08 24 25.0000000  0  8                     
G10  21515624.896      356352.105       -1508.516          43.000  
G30  22697590.487     -894788.213        3471.564          43.000  
G01  22468947.493     -324012.631        1186.564          43.000  
G11  21454564.068     -557152.871        2120.078          43.000  
G03  25249477.432      780418.218       -3110.515          43.000  
G05  24279352.111     -902939.900        3547.682          43.000  
G09  20555987.673      180276.707        -769.809          43.000  
G23  22803262.278      531470.452       -2148.059          43.000  
> 2018 02 16 08 24 26.0000000  0  8                     
G10  21515912.087      357861.329       -1509.228          42.000  
G30  22696929.940     -898259.428        3471.458          43.000  
G01  22468721.843     -325198.458        1185.757          43.000  
G11  21454160.747     -559272.326        2119.514          43.000  
G03  25250069.397      783528.972       -3110.383          43.000  
G05  24278677.091     -906487.113        3547.284          43.000  
G09  20556134.271      181046.945        -770.181          43.000  
G23  22803671.103      533618.918       -2148.210          43.000  
> 2018 02 16 08 24 27.0000000  0  8                     
G10  21516199.421      359371.257       -1510.076          43.000  
G30  22696269.430     -901730.433        3471.068          42.000  
G01  22468496.336     -326383.493        1184.804          43.000  
G11  21453757.550     -561391.039        2118.450          42.000  
G03  25250661.326      786639.594       -3110.383          43.000  
G05  24278002.142     -910033.994        3546.801          43.000  
G09  20556280.922      181817.563        -770.605          43.000  
G23  22804079.946      535767.481       -2148.421          43.000  
> 2018 02 16 08 24 28.0000000  0  8                     
G10  21516486.916      360882.081       -1511.262          42.000  
G30  22695608.973     -905201.078        3470.422          43.000  
G01  22468271.025     -327567.565        1183.587          43.000  
G11  21453354.514     -563508.845        2117.328          43.000  
G03  25251253.273      789750.273       -3110.734          42.000  
G05  24277327.301     -913580.359        3546.146          43.000  
G09  20556427.662      182588.751        -771.534          43.000  
G23  22804488.879      537916.333       -2149.001          43.000  
> 2018 02 16 08 24 29.0000000  0  8                     
G10  21516774.589      362393.805       -1512.073          43.000  
G30  22694948.605     -908671.333        3470.236          42.000  
G01  22468045.893     -328750.665        1182.745          43.000  
G11  21452951.675     -565625.761        2116.606          43.000  
G03  25251845.203      792861.033       -3110.764          43.000  
G05  24276652.566     -917126.185        3545.739          43.000  
G09  20556574.510      183360.497        -771.859          43.000  
G23  22804897.847      540065.493       -2149.192          43.000  
> 2018 02 16 08 24 30.0000000  0  8                     
G10  21517062.441      363906.521       -1512.855          42.000  
G30  22694288.327     -912141.101        3469.662          42.000  
G01  22467820.958     -329932.692        1181.791          42.000  
G11  21452549.014     -567741.683        2115.858          43.000  
G03  25252437.186      795971.969       -3110.746          43.000  
G05  24275977.939     -920671.360        3545.137          43.000  
G09  20556721.500      184132.952        -772.495          42.000  
G23  22805306.905      542215.090       -2149.585          42.000  
> 2018 02 16 08 24 31.0000000  0  8                     
G10  21517350.436      365419.842       -1513.475          42.000  
G30  22693628.067     -915610.767        3469.851          42.000  
G01  22467596.166     -331113.983        1181.110          42.000  
G11  21452146.479     -569857.012        2115.145          42.000  
G03  25253029.151      799082.759       -3110.502          42.000  
G05  24275303.401     -924216.238        3544.876          43.000  
G09  20556868.545      184905.761        -772.804          43.000  
G23  22805715.980      544364.780       -2149.561          42.000  
> 2018 02 16 08 24 32.0000000  0  8                     
G10  21517638.521      366933.873       -1514.390          42.000  
G30  22692967.860     -919080.192        3469.327          43.000  
G01  22467371.516     -332294.460        1180.042          42.000  
G11  21451744.086     -571971.636        2114.283          43.000  
G03  25253621.080      802193.495       -3110.702          42.000  
G05  24274628.899     -927760.758        3544.361          42.000  
G09  20557015.696      185679.012        -773.500          42.000  
G23  22806125.092      546514.664       -2149.959          42.000  
> 2018 02 16 08 24 33.0000000  0  8                     
G10  21517926.820      368448.853       -1515.526          43.000  
G30  22692307.724     -922549.186        3468.629          42.000  
G01  22467147.081     -333473.900        1178.853          42.000  
G11  21451341.890     -574085.335        2113.101          43.000  
G03  25254213.080      805304.427       -3111.182          43.000  
G05  24273954.505     -931304.644        3543.481          43.000  
G09  20557162.955      186452.956        -774.314          42.000  
G23  22806534.274      548665.012       -2150.722          43.000  
> 2018 02 16 08 24 34.0000000  0  8                     
G10  21518215.279      369964.653       -1515.699          43.000  
G30  22691647.661     -926017.853        3468.872          43.000  
G01  22466922.807     -334652.413        1178.395          43.000  
G11  21450939.802     -576198.262        2113.193          42.000  
G03  25254805.081      808415.435       -3110.755          43.000  
G05  24273280.235     -934848.054        3543.493          42.000  
G09  20557310.320      187227.478        -774.477          43.000  
G23  22806943.529      550815.693       -2150.534          42.000  
> 2018 02 16 08 24 35.0000000  0  8                     
G10  21518503.793      371480.894       -1516.309          43.000  
G30  22690987.615     -929486.511        3468.877          43.000  
G01  22466698.676     -335830.315        1177.771          42.000  
G11  21450537.802     -578310.783        2112.354          42.000  
G03  25255397.046      811526.213       -3110.446          43.000  
G05  24272605.983     -938391.288        3543.358          42.000  
G09  20557457.758      188002.272        -774.722          42.000  
G23  22807352.783      552966.410       -2150.515          43.000  
> 2018 02 16 08 24 36.0000000  0  8                     
G10  21518792.484      372997.969       -1517.503          42.000  
G30  22690327.622     -932954.818        3468.273          43.000  
G01  22466474.724     -337007.270        1176.534          43.000  
G11  21450135.928     -580422.530        2111.310          42.000  
G03  25255989.029      814637.140       -3110.907          43.000  
G05  24271931.821     -941933.997        3542.516          43.000  
G09  20557605.320      188777.703        -775.698          43.000  
G23  22807762.126      555117.542       -2151.204          43.000  
> 2018 02 16 08 24 37.0000000  0  8                     
G10  21519081.284      374515.606       -1517.682          43.000  
G30  22689667.630     -936423.018        3468.419          43.000  
G01  22466250.878     -338183.536        1176.221          43.000  
G11  21449734.179     -582533.770        2111.265          43.000  
G03  25256581.012      817747.958       -3110.475          42.000  
G05  24271257.694     -945476.453        3542.644          43.000  
G09  20557752.972      189553.510        -775.721          43.000  
G23  22808171.506      557268.848       -2151.079          43.000  
> 2018 02 16 08 24 38.0000000  0  8                     
G10  21519370.172      376033.825       -1518.329          43.000  
G30  22689007.655     -939891.092        3467.919          43.000  
G01  22466027.176     -339359.080        1175.161          43.000  
G11  21449332.537     -584644.456        2110.697          43.000  
G03  25257172.977      820858.706       -3110.702          42.000  
G05  24270583.638     -949018.613        3541.996          43.000  
G09  20557900.677      190329.738        -776.452          43.000  
G23  22808580.921      559420.354       -2151.626          42.000  
> 2018 02 16 08 24 39.0000000  0  8                     
G10  21519659.186      377552.671       -1519.180          43.000  
G30  22688347.770     -943358.945        3467.899          42.000  
G01  22465803.617     -340533.812        1174.493          43.000  
G11  21448930.984     -586754.639        2109.931          43.000  
G03  25257764.942      823969.519       -3110.717          43.000  
G05  24269909.655     -952560.390        3541.741          43.000  
G09  20558048.472      191106.496        -776.778          43.000  
G23  22808990.425      561572.189       -2151.829          42.000  
> 2018 02 16 08 24 40.0000000  0  8                     
G10  21519948.342      379072.164       -1519.758          43.000  
G30  22687687.903     -946826.602        3467.748          43.000  
G01  22465580.236     -341707.760        1173.673          42.000  
G11  21448529.538     -588864.226        2109.326          43.000  
G03  25258356.907      827080.362       -3110.725          42.000  
G05  24269235.742     -956101.822        3541.321          42.000  
G09  20558196.374      191883.767        -777.416          43.000  
G23  22809399.965      563724.337       -2152.183          43.000  
> 2018 02 16 08 24 41.0000000  0  8                     
G10  21520237.570      380592.151       -1520.287          43.000  
G30  22687028.036     -950294.170        3467.511          43.000  
G01  22465356.963     -342881.057        1172.919          42.000  
G11  21448128.182     -590973.410        2108.920          43.000  
G03  25258948.872      830191.123       -3110.701          43.000  
G05  24268561.848     -959643.040        3541.122          42.000  
G09  20558344.365      192661.430        -777.933          43.000  
G23  22809809.523      565876.702       -2152.575          43.000  
> 2018 02 16 08 24 42.0000000  0  8                     
G10  21520526.959      382112.864       -1520.568          43.000  
G30  22686368.258     -953761.462        3467.538          43.000  
G01  22465133.850     -344053.500        1172.301          43.000  
G11  21447726.916     -593081.953        2108.986          43.000  
G03  25259540.855      833302.035       -3110.595          43.000  
G05  24267888.061     -963183.839        3541.077          43.000  
G09  20558492.481      193439.691        -778.236          43.000  
G23  22810219.171      568029.468       -2152.711          43.000  
> 2018 02 16 08 24 43.0000000  0  8                     
G10  21520816.437      383634.041       -1521.415          42.000  
G30  22685708.480     -957228.618        3467.189          42.000  
G01  22464910.862     -345225.262        1171.581          43.000  
G11  21447325.738     -595190.172        2108.061          42.000  
G03  25260132.873      836412.962       -3110.828          42.000  
G05  24267214.345     -966724.354        3540.403          43.000  
G09  20558640.651      194218.416        -778.918          43.000  
G23  22810628.890      570182.515       -2153.122          43.000  
> 2018 02 16 08 24 44.0000000  0  8                     
G10  21521106.040      385155.869       -1522.005          43.000  
G30  22685048.755     -960695.522        3466.890          42.000  
G01  22464688.036     -346396.218        1170.743          43.000  
G11  21446924.650     -597297.836        2107.534          42.000  
G03  25260724.874      839524.007       -3110.984          43.000  
G05  24266540.683     -970264.535        3540.144          43.000  
G09  20558788.964      194997.705        -779.398          43.000  
G23  22811038.662      572335.976       -2153.407          43.000  
> 2018 02 16 08 24 45.0000000  0  8                     
G10  21521395.769      386678.393       -1522.890          43.000  
G30  22684389.085     -964162.115        3466.426          43.000  
G01  22464465.370     -347566.302        1169.693          43.000  
G11  21446523.687     -599404.932        2106.772          43.000  
G03  25261316.928      842635.281       -3111.349          42.000  
G05  24265867.092     -973804.275        3539.558          43.000  
G09  20558937.402      195777.658        -780.269          43.000  
G23  22811448.542      574489.937       -2154.203          43.000  
> 2018 02 16 08 24 46.0000000  0  8                     
G10  21521685.622      388201.627       -1523.254          43.000  
G30  22683729.450     -967628.394        3466.243          43.000  
G01  22464242.901     -348735.543        1168.921          43.000  
G11  21446122.831     -601511.403        2106.694          43.000  
G03  25261909.019      845746.772       -3111.472          42.000  
G05  24265193.573     -977343.603        3539.291          42.000  
G09  20559085.930      196558.259        -780.768          43.000  
G23  22811858.493      576644.384       -2154.553          43.000  
> 2018 02 16 08 24 47.0000000  0  8                     
G10  21521975.619      389725.586       -1524.151          43.000  
G30  22683069.904     -971094.241        3465.992          43.000  
G01  22464020.592     -349903.830        1168.080          43.000  
G11  21445722.065     -603617.356        2105.830          43.000  
G03  25262501.180      848858.618       -3111.677          42.000  
G05  24264520.143     -980882.420        3538.904          42.000  
G09  20559234.618      197339.630        -781.454          43.000  
G23  22812268.605      578799.452       -2155.023          43.000  
> 2018 02 16 08 24 48.0000000  0  8                     
G10  21522265.686      391249.981       -1524.636          43.000  
G30  22682410.394     -974559.984        3465.728          43.000  
G01  22463798.409     -351071.499        1167.379          43.000  
G11  21445321.388     -605722.981        2105.473          42.000  
G03  25263093.359      851970.502       -3111.844          43.000  
G05  24263846.767     -984421.057        3538.615          43.000  
G09  20559383.395      198121.445        -782.031          43.000  
G23  22812678.752      580954.821       -2155.441          42.000  
> 2018 02 16 08 24 49.0000000  0  8                     
G10  21522555.897      392774.862       -1524.891          43.000  
G30  22681750.920     -978025.594        3465.815          43.000  
G01  22463576.314     -352238.548        1167.103          43.000  
G11  21444920.746     -607828.280        2105.461          43.000  
G03  25263685.557      855082.464       -3111.671          43.000  
G05  24263173.426     -987959.502        3538.659          43.000  
G09  20559532.244      198903.726        -782.159          43.000  
G23  22813088.972      583110.533       -2155.514          43.000  
> 2018 02 16 08 24 50.0000000  0  8                     
G10  21522846.144      394300.248       -1525.324          43.000  
G30  22681091.464     -981491.028        3465.331          43.000  
G01  22463354.363     -353404.915        1166.123          43.000  
G11  21444520.230     -609933.183        2105.275          43.000  
G03  25264277.772      858194.543       -3112.039          43.000  
G05  24262500.103     -991497.731        3538.195          42.000  
G09  20559681.200      199686.540        -783.052          42.000  
G23  22813499.262      585266.629       -2156.208          43.000  
> 2018 02 16 08 24 51.0000000  0  8                     
G10  21523136.480      395825.971       -1525.873          43.000  
G30  22680432.043     -984956.370        3465.382          43.000  
G01  22463132.519     -354570.702        1165.517          43.000  
G11  21444119.714     -612037.983        2104.576          43.000  
G03  25264870.005      861306.719       -3112.221          43.000  
G05  24261826.817     -995035.819        3538.008          43.000  
G09  20559830.246      200469.789        -783.502          43.000  
G23  22813909.606      587423.048       -2156.533          43.000  
> 2018 02 16 08 24 52.0000000  0  8                     
G10  21523426.958      397352.338       -1526.572          43.000  
G30  22679772.676     -988421.374        3464.951          43.000  
G01  22462910.836     -355735.694        1164.680          42.000  
G11  21443719.287     -614142.295        2104.160          43.000  
G03  25265462.292      864419.174       -3112.442          43.000  
G05  24261153.583     -998573.578        3537.803          43.000  
G09  20559979.416      201253.697        -784.105          43.000  
G23  22814320.058      589580.023       -2157.174          43.000  
> 2018 02 16 08 24 53.0000000  0  8                     
G10  21523717.491      398879.228       -1527.384          43.000  
G30  22679113.363     -991886.132        3464.312          43.000  
G01  22462689.278     -356899.996        1163.637          43.000  
G11  21443318.913     -616246.251        2103.395          43.000  
G03  25266054.614      867531.875       -3113.230          43.000  
G05  24260480.439    -1002111.075        3537.065          43.000  
G09  20560128.694      202038.198        -785.108          43.000  
G23  22814730.617      591737.452       -2157.929          43.000  
> 2018 02 16 08 24 55.0000000  0  8                     
G10  21524298.860      401934.293       -1528.000          43.000  
G30  22677794.790     -998815.154        3464.295          43.000  
G01  22462246.502     -359226.807        1162.824          43.000  
G11  21442518.310     -620453.452        2103.392          42.000  
G03  25267239.348      873757.743       -3113.166          43.000  
G05  24259134.187    -1009185.649        3537.148          42.000  
G09  20560427.554      203608.701        -785.810          43.000  
G23  22815551.966      596053.519       -2158.486          43.000  
> 2018 02 16 08 24 56.0000000  0  8                     
G10  21524589.660      403462.495       -1528.596          43.000  
G30  22677135.566    -1002279.329        3463.903          43.000  
G01  22462025.301     -360389.246        1161.938          42.000  
G11  21442118.079     -622556.684        2102.960          43.000  
G03  25267831.796      876871.024       -3113.618          42.000  
G05  24258461.132    -1012722.665        3536.783          42.000  
G09  20560577.135      204394.775        -786.444          43.000  
G23  22815962.757      598212.231       -2159.065          43.000  
> 2018 02 16 08 24 57.0000000  0  8                     
G10  21524880.586      404991.316       -1528.827          43.000  
G30  22676476.431    -1005743.130        3463.938          43.000  
G01  22461804.226     -361550.930        1161.697          43.000  
G11  21441717.938     -624659.500        2102.944          43.000  
G03  25268424.314      879984.709       -3113.566          42.000  
G05  24257788.114    -1016259.373        3536.855          43.000  
G09  20560726.860      205181.558        -786.782          43.000  
G23  22816373.673      600371.554       -2159.352          42.000  
> 2018 02 16 08 24 58.0000000  0  8                     
G10  21525171.583      406520.576       -1529.160          43.000  
G30  22675817.350    -1009206.741        3463.653          43.000  
G01  22461583.275     -362712.024        1160.957          43.000  
G11  21441317.851     -626762.029        2102.952          43.000  
G03  25269016.851      883098.597       -3113.878          43.000  
G05  24257115.130    -1019795.977        3536.660          43.000  
G09  20560876.709      205968.849        -787.416          43.000  
G23  22816784.679      602531.294       -2159.827          43.000  
> 2018 02 16 08 24 59.0000000  0  8                     
G10  21525462.651      408050.139       -1529.861          42.000  
G30  22675158.269    -1012670.181        3463.282          43.000  
G01  22461362.432     -363872.608        1160.289          43.000  
G11  21440917.763     -628864.560        2102.271          43.000  
G03  25269609.460      886212.688       -3114.188          43.000  
G05  24256442.147    -1023332.528        3536.447          43.000  
G09  20561026.631      206756.614        -788.040          43.000  
G23  22817195.738      604691.428       -2160.371          43.000  
> 2018 02 16 08 25 00.0000000  0  8                     
G10  21525753.809      409580.145       -1530.345          43.000  
G30  22674499.260    -1016133.389        3463.059          43.000  
G01  22461141.696     -365032.583        1159.543          43.000  
G11  21440517.694     -630966.834        2102.001          43.000  
G03  25270202.104      889327.064       -3114.637          43.000  
G05  24255769.200    -1026868.950        3536.170          42.000  
G09  20561176.659      207544.929        -788.632          43.000  
G23  22817606.886      606852.034       -2160.929          43.000  
> 2018 02 16 08 25 01.0000000  0  8                     
G10  21526044.931      411110.095       -1529.592          43.000  
G30  22673840.196    -1019596.831        3464.004          43.000  
G01  22460920.978     -366192.482        1160.293          43.000  
G11  21440117.624     -633069.387        2103.223          43.000  
G03  25270794.712      892441.228       -3113.667          43.000  
G05  24255096.163    -1030405.787        3537.531          43.000  
G09  20561326.669      208333.290        -788.071          43.000  
G23  22818018.034      609012.609       -2159.965          43.000  
> 2018 02 16 08 25 02.0000000  0  8                     
G10  21526336.071      412639.916       -1530.665          43.000  
G30  22673181.044    -1023060.800        3463.974          43.000  
G01  22460700.224     -367352.593        1159.985          43.000  
G11  21439717.519     -635171.892        2099.690          43.000  
G03  25271387.213      895554.915       -3113.620          43.000  
G05  24254422.983    -1033943.282        3537.540          43.000  
G09  20561476.644      209121.425        -788.288          43.000  
G23  22818429.111      611172.889       -2160.338          43.000  
