     3.03           OBSERVATION DATA    M: Mixed            RINEX VERSION / TYPE
RTKCONV 2.4.3 b34                       20250227 094613 UTC PGM / RUN BY / DATE 
format: RINEX                                               COMMENT             
log: E:\Nguyends_doa\RX\RX2\RinexObservables_20180216_082057COMMENT             
                                                            MARKER NAME         
                                                            MARKER NUMBER       
                                                            MARKER TYPE         
                                                            OBSERVER / AGENCY   
                                                            REC # / TYPE / VERS 
                                                            ANT # / TYPE        
        0.0000        0.0000        0.0000                  APPROX POSITION XYZ 
        0.0000        0.0000        0.0000                  ANTENNA: DELTA H/E/N
G    4 C1C L1C D1C S1C                                      SYS / # / OBS TYPES 
  2018    02    16    08    20   58.0000000     GPS         TIME OF FIRST OBS   
  2018    02    16    08    24   46.0000000     GPS         TIME OF LAST OBS    
G L1C                                                       SYS / PHASE SHIFT   
  0                                                         GLONASS SLOT / FRQ #
 C1C    0.000 C1P    0.000 C2C    0.000 C2P    0.000        GLONASS COD/PHS/BIS 
                                                            END OF HEADER       
> 2018 02 16 08 20 58.0000000  0  8                     
G01  22425107.650      -62677.5271       1362.382          53.000  
G11  21447423.660     -108565.4561       2288.206          53.000  
G05  24326419.618     -160594.0891       3615.882          53.000  
G03  25034306.252      136998.0161      -3027.955          53.000  
G23  22626129.709       96979.4481      -2060.905          53.000  
G09  20434039.025       29466.5041       -640.480          53.000  
G10  21365814.635       61688.1471      -1322.800          53.000  
G30  22742670.225     -167160.7561       3597.281          53.000  
> 2018 02 16 08 20 59.0000000  0  8                     
G01  22424848.459      -64039.599        1361.907          53.000  
G11  21446988.317     -110853.311        2287.712          53.000  
G05  24325731.553     -164209.938        3615.896          53.000  
G03  25034882.492      140026.238       -3028.355          52.000  
G23  22626521.934       99040.632       -2061.365          53.000  
G09  20434160.963       30107.314        -641.049          53.000  
G10  21366066.410       63011.188       -1323.190          53.000  
G30  22741985.735     -170757.838        3596.979          53.000  
> 2018 02 16 08 21 00.0000000  0  8                     
G01  22424589.376      -65401.059        1361.240          53.000  
G11  21446553.028     -113140.864        2287.418          53.000  
G05  24325043.524     -167825.701        3615.754          52.000  
G03  25035458.822      143054.977       -3028.940          52.000  
G23  22626914.284      101102.401       -2061.991          53.000  
G09  20434283.044       30748.755        -641.668          53.000  
G10  21366318.274       64334.780       -1323.775          52.000  
G30  22741301.315     -174354.499        3596.535          52.000  
> 2018 02 16 08 21 01.0000000  0  8                     
G01  22424330.401      -66761.911        1360.653          53.000  
G11  21446117.810     -115428.124        2287.183          53.000  
G05  24324355.478     -171441.388        3615.753          53.000  
G03  25036035.241      146084.248       -3029.447          53.000  
G23  22627306.759      103164.755       -2062.536          52.000  
G09  20434405.269       31390.842        -642.304          53.000  
G10  21366570.245       65658.938       -1324.335          53.000  
G30  22740616.968     -177950.715        3596.097          53.000  
> 2018 02 16 08 21 02.0000000  0  8                     
G01  22424071.550      -68122.173        1360.139          53.000  
G11  21445682.628     -117715.037        2287.297          53.000  
G05  24323667.431     -175057.018        3615.806          53.000  
G03  25036611.802      149114.039       -3029.893          52.000  
G23  22627699.306      105227.678       -2063.003          53.000  
G09  20434527.600       32033.544        -642.786          53.000  
G10  21366822.305       66983.642       -1324.761          53.000  
G30  22739932.709     -181546.498        3595.717          52.000  
> 2018 02 16 08 21 03.0000000  0  8                     
G01  22423812.753      -69481.991        1359.426          52.000  
G11  21445247.428     -120001.943        2286.550          53.000  
G05  24322979.366     -178672.733        3615.586          52.000  
G03  25037188.436      152144.222       -3030.574          53.000  
G23  22628091.942      107291.032       -2063.779          53.000  
G09  20434650.021       32676.733        -643.627          53.000  
G10  21367074.473       68308.739       -1325.466          53.000  
G30  22739248.522     -185141.975        3595.111          53.000  
> 2018 02 16 08 21 04.0000000  0  8                     
G01  22423554.045      -70841.298        1359.237          53.000  
G11  21444812.281     -122288.609        2286.597          53.000  
G05  24322291.337     -182288.466        3615.855          53.000  
G03  25037765.141      155174.882       -3030.783          53.000  
G23  22628484.703      109354.879       -2063.989          53.000  
G09  20434772.495       33320.486        -643.988          53.000  
G10  21367326.730       69634.323       -1325.703          53.000  
G30  22738564.389     -188737.058        3594.977          53.000  
> 2018 02 16 08 21 05.0000000  0  8                     
G01  22423295.498      -72200.019        1358.824          53.000  
G11  21444377.224     -124574.980        2286.565          53.000  
G05  24321603.291     -185904.171        3616.062          53.000  
G03  25038341.953      158206.076       -3031.097          53.000  
G23  22628877.553      111419.276       -2064.304          53.000  
G09  20434895.076       33964.826        -644.279          53.000  
G10  21367579.112       70960.470       -1326.034          53.000  
G30  22737880.362     -192331.680        3594.717          53.000  
> 2018 02 16 08 21 06.0000000  0  8                     
G01  22423037.059      -73558.079        1357.826          53.000  
G11  21443942.221     -126860.887        2286.088          53.000  
G05  24320915.244     -189519.753        3615.616          53.000  
G03  25038918.908      161237.913       -3032.059          53.000  
G23  22629270.529      113484.313       -2065.232          53.000  
G09  20435017.801       34609.879        -645.289          53.000  
G10  21367831.619       72287.269       -1327.026          53.000  
G30  22737196.461     -195925.727        3593.840          53.000  
> 2018 02 16 08 21 07.0000000  0  8                     
G01  22422778.744      -74915.624        1357.435          53.000  
G11  21443507.235     -129146.668        2285.731          53.000  
G05  24320227.215     -193135.364        3615.673          53.000  
G03  25039495.970      164270.244       -3032.455          53.000  
G23  22629663.576      115549.838       -2065.576          53.000  
G09  20435140.650       35255.475        -645.653          53.000  
G10  21368084.162       73614.570       -1327.307          53.000  
G30  22736512.596     -199519.358        3593.667          53.000  
> 2018 02 16 08 21 08.0000000  0  8                     
G01  22422520.501      -76272.686        1356.959          53.000  
G11  21443072.303     -131432.188        2285.463          53.000  
G05  24319539.168     -196751.052        3615.935          53.000  
G03  25040073.086      167303.052       -3033.062          52.000  
G23  22630056.694      117615.817       -2066.066          53.000  
G09  20435263.625       35901.596        -646.258          53.000  
G10  21368336.830       74942.369       -1327.889          53.000  
G30  22735828.820     -203112.554        3593.042          53.000  
> 2018 02 16 08 21 09.0000000  0  8                     
G01  22422262.347      -77629.339        1356.533          53.000  
G11  21442637.407     -133717.527        2285.142          53.000  
G05  24318851.122     -200366.867        3615.964          53.000  
G03  25040650.273      170336.245       -3033.358          53.000  
G23  22630449.920      119682.167       -2066.505          53.000  
G09  20435386.671       36548.157        -646.850          53.000  
G10  21368589.587       76270.593       -1328.426          53.000  
G30  22735145.115     -206705.409        3592.577          53.000  
> 2018 02 16 08 21 10.0000000  0  8                     
G01  22422004.265      -78985.459        1355.930          53.000  
G11  21442202.600     -136002.505        2285.032          53.000  
G05  24318163.057     -203982.720        3615.936          53.000  
G03  25041227.568      173369.972       -3033.966          53.000  
G23  22630843.217      121749.006       -2067.061          53.000  
G09  20435509.806       37195.272        -647.443          53.000  
G10  21368842.452       77599.369       -1329.123          53.000  
G30  22734461.518     -210297.778        3592.102          53.000  
> 2018 02 16 08 21 11.0000000  0  8                     
G01  22421746.308      -80341.133        1355.499          53.000  
G11  21441767.811     -138287.363        2284.736          53.000  
G05  24317474.975     -207598.680        3616.082          53.000  
G03  25041804.952      176404.135       -3034.350          53.000  
G23  22631236.586      123816.232       -2067.395          53.000  
G09  20435633.049       37842.842        -647.765          53.000  
G10  21369095.406       78928.611       -1329.395          53.000  
G30  22733777.939     -213889.751        3591.771          53.000  
> 2018 02 16 08 21 12.0000000  0  8                     
G01  22421488.440      -81696.386        1355.172          53.000  
G11  21441333.040     -140571.970        2284.619          53.000  
G05  24316786.874     -211214.783        3616.342          53.000  
G03  25042382.407      179438.719       -3034.640          53.000  
G23  22631630.044      125883.825       -2067.644          53.000  
G09  20435756.345       38490.863        -648.124          53.000  
G10  21369348.431       80258.326       -1329.728          53.000  
G30  22733094.466     -217481.316        3591.455          53.000  
> 2018 02 16 08 21 13.0000000  0  8                     
G01  22421230.661      -83051.101        1354.565          53.000  
G11  21440898.358     -142856.210        2284.188          53.000  
G05  24316098.774     -214830.910        3616.318          53.000  
G03  25042959.952      182473.840       -3035.264          53.000  
G23  22632023.573      127951.886       -2068.175          53.000  
G09  20435879.749       39139.434        -648.724          53.000  
G10  21369601.582       81588.636       -1330.504          53.000  
G30  22732411.119     -221072.364        3590.907          53.000  
> 2018 02 16 08 21 14.0000000  0  8                     
G01  22420972.954      -84405.247        1353.860          53.000  
G11  21440463.783     -145139.999        2283.696          53.000  
G05  24315410.638     -218447.022        3616.084          52.000  
G03  25043537.639      185509.532       -3036.007          53.000  
G23  22632417.192      130020.442       -2068.814          53.000  
G09  20436003.295       39788.589        -649.498          52.000  
G10  21369854.857       82919.555       -1331.388          53.000  
G30  22731727.861     -224662.847        3590.164          53.000  
> 2018 02 16 08 21 15.0000000  0  8                     
G01  22420715.336      -85758.908        1353.573          53.000  
G11  21440029.244     -147423.559        2283.624          53.000  
G05  24314722.520     -222063.235        3616.499          53.000  
G03  25044115.416      188545.690       -3036.118          53.000  
G23  22632810.900      132089.386       -2068.892          53.000  
G09  20436126.913       40438.211        -649.539          53.000  
G10  21370108.222       84251.041       -1331.480          53.000  
G30  22731044.711     -228252.854        3590.033          53.000  
> 2018 02 16 08 21 16.0000000  0  8                     
G01  22420457.862      -87111.926        1352.620          53.000  
G11  21439594.777     -149706.586        2282.700          53.000  
G05  24314034.401     -225679.365        3616.081          53.000  
G03  25044693.300      191582.505       -3037.234          53.000  
G23  22633204.716      134158.887       -2069.826          53.000  
G09  20436250.656       41088.506        -650.700          53.000  
G10  21370361.730       85583.245       -1332.616          53.000  
G30  22730361.685     -231842.181        3588.868          53.000  
> 2018 02 16 08 21 17.0000000  0  8                     
G01  22420200.441      -88464.655        1352.361          53.000  
G11  21439160.345     -151989.456        2282.570          53.000  
G05  24313346.230     -229295.774        3616.311          53.000  
G03  25045271.238      194619.577       -3037.421          53.000  
G23  22633598.585      136228.556       -2069.975          53.000  
G09  20436374.435       41739.055        -650.880          53.000  
G10  21370615.291       86915.818       -1332.932          53.000  
G30  22729678.695     -235431.230        3588.727          53.000  
> 2018 02 16 08 21 18.0000000  0  8                     
G01  22419943.234      -89816.327        1351.417          53.000  
G11  21438726.128     -154271.334        2281.727          53.000  
G05  24312658.129     -232911.704        3615.942          53.000  
G03  25045849.408      197657.696       -3038.376          53.000  
G23  22633992.615      138299.159       -2070.766          53.000  
G09  20436498.428       42390.649        -651.805          53.000  
G10  21370869.085       88249.527       -1334.166          53.000  
G30  22728995.920     -239019.194        3587.730          53.000  
> 2018 02 16 08 21 19.0000000  0  8                     
G01  22419686.206      -91167.037        1350.407          53.000  
G11  21438292.054     -156552.409        2280.844          53.000  
G05  24311970.118     -236527.248        3615.525          53.000  
G03  25046427.721      200696.751       -3039.340          53.000  
G23  22634386.787      140370.589       -2071.656          53.000  
G09  20436622.600       43043.181        -652.809          53.000  
G10  21371123.111       89584.329       -1335.085          53.000  
G30  22728313.341     -242606.163        3586.666          53.000  
> 2018 02 16 08 21 20.0000000  0  8                     
G01  22419429.285      -92517.139        1349.922          53.000  
G11  21437858.069     -158832.944        2280.395          52.000  
G05  24311282.107     -240142.753        3615.578          53.000  
G03  25047006.142      203736.380       -3039.784          52.000  
G23  22634781.067      142442.476       -2072.012          52.000  
G09  20436746.879       43696.288        -653.287          53.000  
G10  21371377.226       90919.842       -1335.701          53.000  
G30  22727630.870     -246192.493        3586.098          52.000  
> 2018 02 16 08 21 21.0000000  0  8                     
G01  22419172.525      -93866.417        1349.014          53.000  
G11  21437424.244     -161112.723        2279.514          53.000  
G05  24310594.150     -243758.016        3615.260          53.000  
G03  25047584.705      206776.794       -3040.698          53.000  
G23  22635175.455      144515.018       -2072.780          53.000  
G09  20436871.337       44350.178        -654.189          53.000  
G10  21371631.538       92256.288       -1336.768          53.000  
G30  22726948.577     -249777.967        3585.169          53.000  
> 2018 02 16 08 21 22.0000000  0  8                     
G01  22418915.854      -95215.271        1348.843          53.000  
G11  21436990.492     -163392.106        2279.399          53.000  
G05  24309906.157     -247373.440        3615.685          53.000  
G03  25048163.357      209817.569       -3040.724          53.000  
G23  22635569.895      146587.789       -2072.634          53.000  
G09  20436995.848       45004.419        -654.182          53.000  
G10  21371885.940       93593.244       -1337.137          53.000  
G30  22726266.373     -253362.983        3584.976          53.000  
> 2018 02 16 08 21 23.0000000  0  8                     
G01  22418659.255      -96563.778        1348.223          53.000  
G11  21436556.775     -165671.210        2278.911          53.000  
G05  24309218.110     -250989.093        3615.736          53.000  
G03  25048742.046      212858.639       -3041.251          53.000  
G23  22635964.372      148660.724       -2073.055          53.000  
G09  20437120.377       45658.960        -654.641          53.000  
G10  21372140.448       94930.745       -1337.677          53.000  
G30  22725584.259     -256947.609        3584.365          53.000  
> 2018 02 16 08 21 25.0000000  0  8                     
G01  22418146.396      -99258.759        1346.640          53.000  
G11  21435689.788     -170227.428        2277.343          53.000  
G05  24307842.070     -258220.102        3615.285          53.000  
G03  25049899.780      218942.573       -3042.675          53.000  
G23  22636753.575      152807.955       -2074.202          53.000  
G09  20437369.847       46969.845        -656.070          53.000  
G10  21372649.947       97608.158       -1339.612          53.000  
G30  22724220.406     -264114.705        3582.697          53.000  
> 2018 02 16 08 21 26.0000000  0  8                     
G01  22417890.155     -100605.190        1346.368          53.000  
G11  21435256.482     -172504.452        2276.815          53.000  
G05  24307154.095     -261835.410        3615.461          53.000  
G03  25050478.825      221985.460       -3042.936          53.000  
G23  22637148.284      154882.271       -2074.300          53.000  
G09  20437494.769       47626.228        -656.487          53.000  
G10  21372904.938       98948.118       -1340.366          53.000  
G30  22723538.720     -267697.122        3582.280          53.000  
> 2018 02 16 08 21 27.0000000  0  8                     
G01  22417634.038     -101951.101        1345.931          53.000  
G11  21434823.265     -174780.953        2276.534          53.000  
G05  24306466.120     -265450.792        3615.671          53.000  
G03  25051057.943      225028.746       -3043.218          53.000  
G23  22637543.064      156956.834       -2074.432          53.000  
G09  20437619.763       48283.011        -656.744          53.000  
G10  21373160.037      100288.810       -1340.688          53.000  
G30  22722857.124     -271278.991        3581.837          53.000  
> 2018 02 16 08 21 28.0000000  0  8                     
G01  22417378.046     -103296.336        1345.162          53.000  
G11  21434390.192     -177056.750        2275.756          53.000  
G05  24305778.144     -269066.075        3615.509          53.000  
G03  25051637.167      228072.574       -3043.802          53.000  
G23  22637937.916      159031.786       -2074.868          53.000  
G09  20437744.846       48940.350        -657.326          53.000  
G10  21373415.313      101630.320       -1341.557          53.000  
G30  22722175.653     -274860.147        3581.108          53.000  
> 2018 02 16 08 21 29.0000000  0  8                     
G01  22417122.162     -104641.091        1344.577          53.000  
G11  21433957.225     -179332.001        2275.005          53.000  
G05  24305090.133     -272681.455        3615.446          53.000  
G03  25052216.427      231116.746       -3044.345          53.000  
G23  22638332.804      161106.921       -2075.207          53.000  
G09  20437869.983       49598.061        -657.958          53.000  
G10  21373670.715      102972.488       -1342.465          53.000  
G30  22721494.290     -278440.775        3580.365          53.000  
> 2018 02 16 08 21 30.0000000  0  8                     
G01  22416866.420     -105985.047        1343.615          53.000  
G11  21433524.420     -181606.406        2273.899          53.000  
G05  24304402.194     -276296.619        3615.071          53.000  
G03  25052795.848      234161.537       -3045.040          53.000  
G23  22638727.781      163182.524       -2075.760          53.000  
G09  20437995.245       50256.407        -658.572          53.000  
G10  21373926.296      104315.565       -1343.690          53.000  
G30  22720813.069     -282020.588        3579.502          53.000  
> 2018 02 16 08 21 31.0000000  0  8                     
G01  22416610.786     -107328.477        1343.507          53.000  
G11  21433091.739     -183880.187        2273.830          53.000  
G05  24303714.254     -279911.840        3615.540          53.000  
G03  25053375.305      237206.682       -3044.998          53.000  
G23  22639122.793      165258.321       -2075.566          52.000  
G09  20438120.596       50915.149        -658.650          52.000  
G10  21374182.020      105659.442       -1343.811          53.000  
G30  22720131.955     -285599.837        3579.270          53.000  
> 2018 02 16 08 21 32.0000000  0  8                     
G01  22416355.206     -108671.555        1343.058          53.000  
G11  21432659.112     -186153.555        2273.404          53.000  
G05  24303026.261     -283527.297        3615.771          53.000  
G03  25053954.797      240251.967       -3045.175          53.000  
G23  22639517.806      167334.095       -2075.537          53.000  
G09  20438246.001       51574.055        -658.764          53.000  
G10  21374437.868      107003.809       -1344.371          53.000  
G30  22719450.913     -289178.723        3578.891          53.000  
> 2018 02 16 08 21 33.0000000  0  8                     
G01  22416099.696     -110014.218        1342.644          52.000  
G11  21432226.610     -188426.377        2272.813          53.000  
G05  24302338.250     -287142.901        3615.918          53.000  
G03  25054534.325      243297.459       -3045.368          53.000  
G23  22639912.801      169409.922       -2075.597          53.000  
G09  20438371.459       52233.233        -659.067          53.000  
G10  21374693.806      108348.801       -1345.021          53.000  
G30  22718769.961     -292757.167        3578.444          53.000  
> 2018 02 16 08 21 34.0000000  0  8                     
G01  22415844.330     -111356.116        1341.542          53.000  
G11  21431794.287     -190698.349        2271.262          53.000  
G05  24301650.275     -290758.326        3615.378          53.000  
G03  25055113.979      246343.471       -3046.283          53.000  
G23  22640307.885      171486.109       -2076.337          52.000  
G09  20438497.025       52892.969        -660.016          52.000  
G10  21374949.941      109694.694       -1346.749          53.000  
G30  22718089.151     -296334.843        3577.299          52.000  
> 2018 02 16 08 21 35.0000000  0  8                     
G01  22415589.089     -112697.449        1341.073          53.000  
G11  21431362.089     -192969.601        2270.967          53.000  
G05  24300962.300     -294373.760        3615.438          53.000  
G03  25055693.668      249389.787       -3046.457          53.000  
G23  22640703.005      173562.445       -2076.419          53.000  
G09  20438622.626       53553.079        -660.285          53.000  
G10  21375206.201      111041.416       -1347.019          53.000  
G30  22717408.448     -299911.949        3576.815          53.000  
> 2018 02 16 08 21 36.0000000  0  8                     
G01  22415333.919     -114038.327        1340.615          53.000  
G11  21430929.998     -195240.283        2270.389          53.000  
G05  24300274.289     -297989.321        3615.569          53.000  
G03  25056273.410      252436.272       -3046.620          53.000  
G23  22641098.124      175638.792       -2076.410          53.000  
G09  20438748.281       54213.421        -660.532          53.000  
G10  21375462.585      112388.768       -1347.695          53.000  
G30  22716727.835     -303488.615        3576.375          53.000  
> 2018 02 16 08 21 37.0000000  0  8                     
G01  22415078.875     -115378.558        1340.020          52.000  
G11  21430498.050     -197510.162        2269.671          53.000  
G05  24299586.296     -301604.799        3615.523          53.000  
G03  25056853.206      255483.104       -3046.876          53.000  
G23  22641493.262      177715.336       -2076.501          53.000  
G09  20438874.025       54874.196        -660.875          53.000  
G10  21375719.131      113736.961       -1348.439          53.000  
G30  22716047.329     -307064.645        3575.835          53.000  
> 2018 02 16 08 21 38.0000000  0  8                     
G01  22414823.955     -116718.163        1339.285          53.000  
G11  21430066.245     -199779.293        2268.494          53.000  
G05  24298898.303     -305220.242        3615.584          53.000  
G03  25057433.056      258530.239       -3047.383          53.000  
G23  22641888.453      179792.029       -2076.890          53.000  
G09  20438999.841       55535.353        -661.490          53.000  
G10  21375975.819      115085.939       -1349.815          53.000  
G30  22715366.948     -310640.081        3575.179          53.000  
> 2018 02 16 08 21 39.0000000  0  8                     
G01  22414569.179     -118057.049        1338.668          53.000  
G11  21429634.619     -202047.487        2267.952          53.000  
G05  24298210.345     -308835.517        3615.334          53.000  
G03  25058012.977      261577.741       -3047.526          53.000  
G23  22642283.681      181868.944       -2076.890          53.000  
G09  20439125.746       56196.981        -661.716          53.000  
G10  21376232.704      116435.915       -1350.232          53.000  
G30  22714686.710     -314214.825        3574.545          53.000  
> 2018 02 16 08 21 40.0000000  0  8                     
G01  22414314.510     -119395.323        1338.081          53.000  
G11  21429203.136     -204314.921        2267.226          53.000  
G05  24297522.388     -312450.748        3615.293          53.000  
G03  25058592.952      264625.487       -3047.725          53.000  
G23  22642678.925      183945.959       -2076.923          53.000  
G09  20439251.723       56858.958        -661.970          53.000  
G10  21376489.732      117786.671       -1350.923          53.000  
G30  22714006.561     -317789.011        3574.057          53.000  
> 2018 02 16 08 21 41.0000000  0  8                     
G01  22414059.983     -120732.873        1337.378          53.000  
G11  21428771.849     -206581.443        2266.323          53.000  
G05  24296834.448     -316065.834        3615.236          53.000  
G03  25059172.981      267673.567       -3048.020          53.000  
G23  22643074.206      186023.168       -2077.092          53.000  
G09  20439377.771       57521.395        -662.457          53.000  
G10  21376746.957      119138.366       -1351.931          53.000  
G30  22713326.520     -321362.526        3573.390          53.000  
> 2018 02 16 08 21 42.0000000  0  8                     
G01  22413805.600     -122069.781        1336.628          53.000  
G11  21428340.670     -208847.178        2265.165          53.000  
G05  24296146.545     -319680.837        3615.047          53.000  
G03  25059753.063      270721.871       -3048.331          53.000  
G23  22643469.505      188100.467       -2077.241          53.000  
G09  20439503.890       58184.178        -662.823          53.000  
G10  21377004.342      120490.849       -1353.074          53.000  
G30  22712646.622     -324935.474        3572.758          53.000  
> 2018 02 16 08 21 43.0000000  0  8                     
G01  22413551.306     -123406.068        1336.218          53.000  
G11  21427909.687     -211112.025        2264.767          53.000  
G05  24295458.641     -323295.778        3615.128          53.000  
G03  25060333.163      273770.364       -3048.349          53.000  
G23  22643864.821      190177.827       -2077.169          53.000  
G09  20439630.064       58847.292        -663.053          53.000  
G10  21377261.871      121844.244       -1353.485          53.000  
G30  22711966.813     -328507.879        3572.334          53.000  
> 2018 02 16 08 21 44.0000000  0  8                     
G01  22413297.137     -124741.729        1335.423          53.000  
G11  21427478.864     -213376.073        2263.772          53.000  
G05  24294770.737     -326910.656        3614.937          53.000  
G03  25060913.298      276819.015       -3048.654          53.000  
G23  22644260.137      192255.224       -2077.342          53.000  
G09  20439756.326       59510.721        -663.473          53.000  
G10  21377519.578      123198.439       -1354.451          53.000  
G30  22711287.111     -332079.761        3571.700          53.000  
> 2018 02 16 08 21 45.0000000  0  8                     
G01  22413043.146     -126076.476        1334.414          53.000  
G11  21427048.239     -215639.008        2262.603          53.000  
G05  24294082.905     -330525.175        3614.380          53.000  
G03  25061493.524      279868.097       -3049.175          53.000  
G23  22644655.507      194332.936       -2077.729          53.000  
G09  20439882.696       60174.746        -664.163          53.000  
G10  21377777.481      124553.755       -1355.678          53.000  
G30  22710607.552     -335650.840        3570.920          53.000  
> 2018 02 16 08 21 46.0000000  0  8                     
G01  22412789.263     -127410.726        1334.216          53.000  
G11  21426617.738     -217901.259        2261.754          53.000  
G05  24293395.072     -334139.744        3614.739          52.000  
G03  25062073.749      282917.180       -3048.915          52.000  
G23  22645050.860      196410.530       -2077.370          52.000  
G09  20440009.101       60838.948        -664.156          53.000  
G10  21378035.510      125909.713       -1356.400          53.000  
G30  22709928.082     -339221.528        3570.657          52.000  
> 2018 02 16 08 21 47.0000000  0  8                     
G01  22412535.505     -128744.157        1332.935          53.000  
G11  21426187.452     -220162.431        2260.623          53.000  
G05  24292707.294     -337754.062        3614.099          53.000  
G03  25062654.009      285966.536       -3049.613          52.000  
G23  22645446.247      198488.302       -2077.962          52.000  
G09  20440135.578       61503.604        -664.999          53.000  
G10  21378293.753      127266.752       -1357.577          53.000  
G30  22709248.738     -342791.559        3569.586          53.000  
> 2018 02 16 08 21 48.0000000  0  8                     
G01  22412281.944     -130076.647        1332.186          52.000  
G11  21425757.399     -222422.440        2259.691          52.000  
G05  24292019.569     -341367.974        3613.868          53.000  
G03  25063234.359      289016.291       -3049.799          53.000  
G23  22645841.689      200566.370       -2078.041          53.000  
G09  20440262.162       62168.861        -665.379          53.000  
G10  21378552.193      128624.926       -1358.522          53.000  
G30  22708569.554     -346360.794        3569.015          53.000  
> 2018 02 16 08 21 49.0000000  0  8                     
G01  22412028.436     -131408.712        1331.924          53.000  
G11  21425327.434     -224681.831        2259.195          53.000  
G05  24291331.826     -344982.014        3614.201          53.000  
G03  25063814.674      292065.887       -3049.417          53.000  
G23  22646237.095      202644.199       -2077.637          53.000  
G09  20440388.764       62834.177        -665.239          53.000  
G10  21378810.776      129983.695       -1358.984          53.000  
G30  22707890.388     -349929.774        3568.959          53.000  
> 2018 02 16 08 21 50.0000000  0  8                     
G01  22411775.125     -132739.995        1330.772          53.000  
G11  21424897.666     -226940.266        2257.587          53.000  
G05  24290644.136     -348595.814        3613.625          53.000  
G03  25064395.024      295115.672       -3049.950          53.000  
G23  22646632.518      204722.131       -2078.074          53.000  
G09  20440515.456       63499.905        -665.980          53.000  
G10  21379069.501      131343.390       -1360.504          53.000  
G30  22707211.365     -353498.152        3567.989          53.000  
> 2018 02 16 08 21 51.0000000  0  8                     
G01  22411521.939     -134070.515        1330.144          53.000  
G11  21424468.095     -229197.628        2256.986          53.000  
G05  24289956.501     -352209.382        3613.456          53.000  
G03  25064975.410      298165.604       -3049.997          53.000  
G23  22647027.942      206800.142       -2078.036          53.000  
G09  20440642.201       64166.021        -666.293          53.000  
G10  21379328.459      132704.113       -1361.128          53.000  
G30  22706532.432     -357065.968        3567.535          53.000  
> 2018 02 16 08 21 52.0000000  0  8                     
G01  22411268.931     -135400.075        1329.151          53.000  
G11  21424038.756     -231453.823        2255.744          53.000  
G05  24289268.936     -355822.530        3612.993          53.000  
G03  25065555.849      301215.854       -3050.357          53.000  
G23  22647423.419      208878.405       -2078.333          53.000  
G09  20440769.071       64832.700        -666.869          53.000  
G10  21379587.614      134065.965       -1362.327          53.000  
G30  22705853.623     -360633.040        3566.748          53.000  
> 2018 02 16 08 21 53.0000000  0  8                     
G01  22411016.031     -136729.083        1328.885          53.000  
G11  21423609.560     -233709.263        2255.255          53.000  
G05  24288581.390     -359435.659        3613.273          53.000  
G03  25066136.271      304265.990       -3049.916          53.000  
G23  22647818.861      210956.504       -2077.850          53.000  
G09  20440895.959       65499.534        -666.699          53.000  
G10  21379846.893      135428.527       -1362.711          53.000  
G30  22705174.886     -364199.794        3566.766          53.000  
> 2018 02 16 08 21 54.0000000  0  8                     
G01  22410763.291     -138057.263        1327.916          53.000  
G11  21423180.578     -235963.711        2253.849          53.000  
G05  24287893.879     -363048.487        3612.811          53.000  
G03  25066716.728      307316.276       -3050.204          53.000  
G23  22648214.338      213034.706       -2078.093          53.000  
G09  20441022.936       66166.790        -667.282          53.000  
G10  21380106.351      136792.029       -1363.962          53.000  
G30  22704496.256     -367765.965        3566.018          53.000  
> 2018 02 16 08 21 55.0000000  0  8                     
G01  22410510.695     -139384.689        1327.043          53.000  
G11  21422751.757     -238217.096        2253.014          53.000  
G05  24287206.440     -366661.092        3612.533          53.000  
G03  25067297.186      310366.611       -3050.300          53.000  
G23  22648609.815      215112.927       -2078.220          53.000  
G09  20441149.967       66834.385        -667.669          53.000  
G10  21380366.006      138156.544       -1364.896          53.000  
G30  22703817.734     -371331.653        3565.494          53.000  
> 2018 02 16 08 21 56.0000000  0  8                     
G01  22410258.241     -140711.370        1326.458          53.000  
G11  21422323.133     -240469.548        2252.176          53.000  
G05  24286519.037     -370273.469        3612.435          53.000  
G03  25067877.643      313416.972       -3050.190          53.000  
G23  22649005.292      217191.145       -2078.037          53.000  
G09  20441277.087       67502.309        -667.879          53.000  
G10  21380625.822      139521.937       -1365.614          53.000  
G30  22703139.301     -374896.868        3565.161          53.000  
> 2018 02 16 08 21 57.0000000  0  8                     
G01  22410005.949     -142037.120        1325.319          53.000  
G11  21421894.723     -242720.861        2250.766          53.000  
G05  24285831.705     -373885.427        3611.730          53.000  
G03  25068458.154      316467.528       -3050.689          53.000  
G23  22649400.787      219269.542       -2078.437          53.000  
G09  20441404.279       68170.741        -668.716          53.000  
G10  21380885.852      140888.404       -1366.964          53.000  
G30  22702460.975     -378461.451        3564.234          53.000  
> 2018 02 16 08 21 58.0000000  0  8                     
G01  22409753.799     -143362.143        1324.866          53.000  
G11  21421466.474     -244971.300        2249.974          53.000  
G05  24285144.408     -377497.183        3611.835          53.000  
G03  25069038.647      319518.045       -3050.306          53.000  
G23  22649796.300      221347.900       -2078.116          53.000  
G09  20441531.542       68839.458        -668.668          53.000  
G10  21381146.042      142255.705       -1367.685          53.000  
G30  22701782.738     -382025.624        3564.182          53.000  
> 2018 02 16 08 21 59.0000000  0  8                     
G01  22409501.774     -144686.424        1323.740          53.000  
G11  21421038.422     -247220.710        2248.863          53.000  
G05  24284457.166     -381108.707        3611.246          53.000  
G03  25069619.140      322568.528       -3050.623          53.000  
G23  22650191.795      223426.234       -2078.480          53.000  
G09  20441658.841       69508.479        -669.341          53.000  
G10  21381406.412      143623.953       -1368.814          53.000  
G30  22701104.591     -385589.385        3563.413          53.000  
> 2018 02 16 08 22 00.0000000  0  8                     
G01  22409249.982     -146009.710        1322.855          53.000  
G11  21420610.602     -249468.948        2247.759          53.000  
G05  24283770.012     -384719.740        3610.836          53.000  
G03  25070199.687      325619.219       -3050.727          53.000  
G23  22650587.326      225504.786       -2078.581          53.000  
G09  20441786.265       70178.055        -669.761          53.000  
G10  21381666.996      144993.312       -1369.814          53.000  
G30  22700426.551     -389152.493        3562.868          53.000  
> 2018 02 16 08 22 01.0000000  0  8                     
G01  22408998.350     -147331.988        1321.715          52.000  
G11  21420182.996     -251716.004        2246.422          53.000  
G05  24283082.931     -388330.272        3610.217          53.000  
G03  25070780.251      328670.106       -3051.021          53.000  
G23  22650982.911      227583.566       -2078.941          52.000  
G09  20441913.778       70848.190        -670.446          53.000  
G10  21381927.794      146363.804       -1371.068          53.000  
G30  22699748.636     -392714.957        3562.106          53.000  
> 2018 02 16 08 22 02.0000000  0  8                     
G01  22408746.951     -148653.097        1320.975          53.000  
G11  21419755.640     -253961.750        2245.301          53.000  
G05  24282395.992     -391940.134        3609.946          52.000  
G03  25071360.869      331721.338       -3050.933          53.000  
G23  22651378.567      229662.731       -2078.907          53.000  
G09  20442041.453       71519.044        -670.754          53.000  
G10  21382188.825      147735.544       -1372.047          52.000  
G30  22699070.864     -396276.626        3561.678          53.000  
> 2018 02 16 08 22 05.0000000  0  8                     
G01  22407993.593     -152612.021        1318.728          53.000  
G11  21418474.664     -260693.425        2242.810          53.000  
G05  24280335.479     -402768.292        3609.253          53.000  
G03  25073102.635      340874.373       -3050.608          53.000  
G23  22652565.445      235899.891       -2078.754          53.000  
G09  20442424.743       73533.269        -671.564          53.000  
G10  21382972.918      151855.909       -1374.453          53.000  
G30  22697037.959     -406959.667        3560.767          53.000  
> 2018 02 16 08 22 06.0000000  0  8                     
G01  22407742.730     -153930.301        1318.035          53.000  
G11  21418047.969     -262935.696        2241.845          53.000  
G05  24279648.701     -406377.289        3608.968          53.000  
G03  25073683.163      343925.018       -3050.470          53.000  
G23  22652961.029      237978.726       -2078.704          53.000  
G09  20442552.614       74205.128        -671.881          53.000  
G10  21383234.556      153230.873       -1375.308          53.000  
G30  22696360.419     -410520.171        3560.469          53.000  
> 2018 02 16 08 22 07.0000000  0  8                     
G01  22407492.063     -155247.583        1316.930          53.000  
G11  21417621.507     -265176.775        2240.684          53.000  
G05  24278962.030     -409985.780        3608.392          53.000  
G03  25074263.692      346975.771       -3050.687          53.000  
G23  22653356.649      240057.766       -2078.999          53.000  
G09  20442680.556       74877.520        -672.540          53.000  
G10  21383496.409      154606.961       -1376.501          53.000  
G30  22695682.968     -414080.135        3559.833          53.000  
> 2018 02 16 08 22 09.0000000  0  8                     
G01  22406991.176     -157879.697        1315.519          53.000  
G11  21416769.119     -269656.156        2239.027          53.000  
G05  24277588.885     -417201.734        3607.867          53.000  
G03  25075424.750      353077.051       -3050.303          53.000  
G23  22654147.926      244215.933       -2078.870          53.000  
G09  20442936.673       76223.375        -673.030          52.000  
G10  21384020.596      157361.733       -1377.966          53.000  
G30  22694328.282     -421199.021        3559.359          53.000  
> 2018 02 16 08 22 10.0000000  0  8                     
G01  22406740.956     -159194.619        1314.611          53.000  
G11  21416343.157     -271894.597        2238.059          53.000  
G05  24276902.393     -420809.297        3607.501          52.000  
G03  25076005.207      356127.466       -3050.290          53.000  
G23  22654543.564      246294.968       -2078.929          52.000  
G09  20443064.794       76896.748        -673.459          53.000  
G10  21384282.932      158740.311       -1378.939          53.000  
G30  22693651.010     -424758.065        3558.992          53.000  
> 2018 02 16 08 22 11.0000000  0  8                     
G01  22406490.915     -160508.587        1313.691          53.000  
G11  21415917.392     -274131.945        2237.083          53.000  
G05  24276215.990     -424416.370        3607.034          53.000  
G03  25076585.700      359177.925       -3050.259          53.000  
G23  22654939.237      248374.187       -2079.075          52.000  
G09  20443193.040       77570.620        -673.913          53.000  
G10  21384545.463      160119.917       -1379.894          53.000  
G30  22692973.828     -428316.657        3558.598          53.000  
> 2018 02 16 08 22 12.0000000  0  8                     
G01  22406241.035     -161821.704        1312.730          53.000  
G11  21415491.823     -276368.363        2235.906          53.000  
G05  24275529.677     -428023.055        3606.479          53.000  
G03  25077166.176      362228.321       -3050.368          53.000  
G23  22655334.893      250453.485       -2079.330          53.000  
G09  20443321.339       78244.893        -674.478          53.000  
G10  21384808.174      161500.401       -1380.935          53.000  
G30  22692296.717     -431874.909        3558.084          53.000  
> 2018 02 16 08 22 13.0000000  0  8                     
G01  22405991.333     -163133.933        1311.849          53.000  
G11  21415066.416     -278603.846        2235.025          53.000  
G05  24274843.435     -431629.329        3606.109          53.000  
G03  25077746.633      365278.675       -3050.297          53.000  
G23  22655730.585      252532.897       -2079.433          53.000  
G09  20443449.728       78919.599        -674.885          53.000  
G10  21385071.045      162881.788       -1381.796          53.000  
G30  22691619.678     -435432.813        3557.788          53.000  
> 2018 02 16 08 22 14.0000000  0  8                     
G01  22405741.739     -164445.587        1311.372          52.000  
G11  21414641.151     -280838.724        2234.695          53.000  
G05  24274157.193     -435235.485        3606.195          53.000  
G03  25078327.019      368328.680       -3049.714          53.000  
G23  22656126.259      254612.127       -2079.133          53.000  
G09  20443578.153       79594.432        -674.886          53.000  
G10  21385334.041      164263.742       -1382.070          53.000  
G30  22690942.638     -438990.679        3557.969          53.000  
> 2018 02 16 08 22 15.0000000  0  8                     
G01  22405492.287     -165756.406        1310.245          53.000  
G11  21414216.029     -283072.706        2233.376          53.000  
G05  24273471.040     -438841.265        3605.483          53.000  
G03  25078907.405      371378.604       -3049.995          53.000  
G23  22656521.915      256691.441       -2079.508          53.000  
G09  20443706.649       80269.659        -675.546          53.000  
G10  21385597.180      165646.564       -1383.408          53.000  
G30  22690265.652     -442548.252        3557.290          53.000  
> 2018 02 16 08 22 16.0000000  0  8                     
G01  22405243.032     -167066.289        1309.309          52.000  
G11  21413791.086     -285305.717        2232.399          53.000  
G05  24272784.977     -442446.562        3604.945          52.000  
G03  25079487.790      374428.539       -3050.068          53.000  
G23  22656917.642      258770.951       -2079.721          53.000  
G09  20443835.234       80945.390        -676.125          53.000  
G10  21385860.498      167030.322       -1384.360          53.000  
G30  22689588.738     -446105.446        3556.899          53.000  
> 2018 02 16 08 22 17.0000000  0  8                     
G01  22404993.991     -168375.032        1308.289          53.000  
G11  21413366.375     -287537.604        2231.426          53.000  
G05  24272099.021     -446051.174        3604.360          53.000  
G03  25080068.212      377478.686       -3050.146          52.000  
G23  22657313.441      260850.864       -2080.001          53.000  
G09  20443963.963       81621.821        -676.663          53.000  
G10  21386124.013      168415.183       -1385.321          53.000  
G30  22688911.931     -449662.072        3556.466          53.000  
> 2018 02 16 08 22 18.0000000  0  8                     
G01  22404745.147     -169682.748        1306.928          53.000  
G11  21412941.860     -289768.474        2230.200          53.000  
G05  24271413.190     -449655.217        3603.471          53.000  
G03  25080648.669      380528.941       -3050.597          53.000  
G23  22657709.293      262931.080       -2080.602          53.000  
G09  20444092.798       82298.852        -677.561          53.000  
G10  21386387.742      169801.051       -1386.550          53.000  
G30  22688235.213     -453218.245        3555.679          53.000  
> 2018 02 16 08 22 19.0000000  0  8                     
G01  22404496.500     -170989.393        1306.416          53.000  
G11  21412517.542     -291998.287        2229.524          52.000  
G05  24270727.466     -453258.630        3603.367          53.000  
G03  25081229.145      383579.351       -3050.211          53.000  
G23  22658105.217      265011.668       -2080.497          53.000  
G09  20444221.759       82976.546        -677.753          53.000  
G10  21386651.649      171187.954       -1387.170          53.000  
G30  22687558.585     -456773.923        3555.718          53.000  
> 2018 02 16 08 22 20.0000000  0  8                     
G01  22404247.995     -172295.327        1305.975          53.000  
G11  21412093.350     -294227.430        2229.177          53.000  
G05  24270041.814     -456861.791        3603.445          53.000  
G03  25081809.566      386629.552       -3049.706          53.000  
G23  22658501.141      267092.255       -2080.194          53.000  
G09  20444350.774       83654.526        -677.728          53.000  
G10  21386915.682      172575.536       -1387.513          53.000  
G30  22686881.992     -460329.486        3555.904          53.000  
> 2018 02 16 08 22 21.0000000  0  8                     
G01  22403999.598     -173600.639        1305.214          53.000  
G11  21411669.282     -296455.983        2228.452          53.000  
G05  24269356.180     -460464.766        3603.055          53.000  
G03  25082389.952      389679.473       -3049.587          53.000  
G23  22658897.047      269172.788       -2080.299          53.000  
G09  20444479.842       84332.731        -678.118          53.000  
G10  21387179.840      173963.697       -1388.233          53.000  
G30  22686205.399     -463885.017        3555.712          53.000  
> 2018 02 16 08 22 22.0000000  0  8                     
G01  22403751.380     -174905.080        1304.173          53.000  
G11  21411245.340     -298683.758        2227.999          53.000  
G05  24268670.634     -464067.321        3602.537          53.000  
G03  25082970.338      392729.357       -3049.654          53.000  
G23  22659292.989      271253.511       -2080.557          53.000  
G09  20444608.981       85011.404        -678.733          53.000  
G10  21387444.158      175352.661       -1388.965          53.000  
G30  22685528.860     -467440.278        3555.341          53.000  
> 2018 02 16 08 22 23.0000000  0  8                     
G01  22403503.340     -176208.616        1303.288          53.000  
G11  21410821.558     -300910.705        2226.706          53.000  
G05  24267985.161     -467669.414        3602.061          53.000  
G03  25083550.706      395779.259       -3049.711          53.000  
G23  22659689.002      273334.489       -2080.903          53.000  
G09  20444738.228       85690.597        -679.265          53.000  
G10  21387708.620      176742.461       -1390.073          53.000  
G30  22684852.375     -470995.235        3555.008          53.000  
> 2018 02 16 08 22 24.0000000  0  8                     
G01  22403255.461     -177511.150        1302.052          53.000  
G11  21410397.973     -303136.737        2225.559          53.000  
G05  24267299.812     -471270.946        3601.276          53.000  
G03  25084131.128      398829.274       -3050.043          53.000  
G23  22660085.051      275415.819       -2081.464          53.000  
G09  20444867.581       86370.406        -680.060          53.000  
G10  21387973.278      178133.193       -1391.183          53.000  
G30  22684175.961     -474549.801        3554.425          53.000  
> 2018 02 16 08 22 25.0000000  0  8                     
G01  22403007.778     -178812.801        1301.746          53.000  
G11  21409974.512     -305361.999        2225.372          52.000  
G05  24266614.535     -474872.033        3601.371          53.000  
G03  25084711.531      401879.301       -3049.521          53.000  
G23  22660481.172      277497.411       -2081.188          53.000  
G09  20444997.043       87050.738        -680.069          53.000  
G10  21388238.079      179524.725       -1391.389          53.000  
G30  22683499.601     -478104.086        3554.682          53.000  
> 2018 02 16 08 22 26.0000000  0  8                     
G01  22402760.185     -180113.939        1300.871          53.000  
G11  21409551.142     -307586.866        2224.935          53.000  
G05  24265929.294     -478473.051        3600.967          53.000  
G03  25085291.846      404928.976       -3049.532          52.000  
G23  22660877.257      279578.901       -2081.449          53.000  
G09  20445126.539       87731.216        -680.566          53.000  
G10  21388502.969      180916.689       -1392.029          53.000  
G30  22682823.204     -481658.471        3554.416          53.000  
> 2018 02 16 08 22 27.0000000  0  8                     
G01  22402512.752     -181414.208        1299.924          53.000  
G11  21409127.896     -309811.042        2223.799          53.000  
G05  24265244.124     -482073.635        3600.444          53.000  
G03  25085872.196      407978.671       -3049.651          53.000  
G23  22661273.413      281660.667       -2081.819          53.000  
G09  20445256.125       88412.216        -681.178          53.000  
G10  21388767.985      182309.401       -1393.078          53.000  
G30  22682146.880     -485212.597        3554.066          53.000  
> 2018 02 16 08 22 28.0000000  0  8                     
G01  22402265.499     -182713.631        1299.117          53.000  
G11  21408704.775     -312034.509        2223.147          53.000  
G05  24264559.026     -485673.812        3600.082          53.000  
G03  25086452.528      411028.370       -3049.604          53.000  
G23  22661669.605      283742.700       -2082.072          53.000  
G09  20445385.819       89093.721        -681.654          53.000  
G10  21389033.161      183702.873       -1393.760          53.000  
G30  22681470.609     -488766.493        3553.900          53.000  
> 2018 02 16 08 22 29.0000000  0  8                     
G01  22402018.388     -184012.096        1298.211          53.000  
G11  21408281.816     -314257.189        2222.455          53.000  
G05  24263874.017     -489273.473        3599.643          53.000  
G03  25087032.878      414078.200       -3049.682          53.000  
G23  22662065.886      285825.128       -2082.396          53.000  
G09  20445515.619       89775.850        -682.197          53.000  
G10  21389298.480      185097.186       -1394.465          53.000  
G30  22680794.373     -492320.037        3553.583          53.000  
> 2018 02 16 08 22 30.0000000  0  8                     
G01  22401771.456     -185309.874        1297.452          52.000  
G11  21407858.981     -316479.341        2222.271          53.000  
G05  24263189.062     -492872.879        3599.308          53.000  
G03  25087613.210      417127.902       -3049.581          53.000  
G23  22662462.203      287907.703       -2082.633          53.000  
G09  20445645.509       90458.347        -682.612          53.000  
G10  21389563.925      186492.088       -1394.933          53.000  
G30  22680118.156     -495873.508        3553.468          53.000  
> 2018 02 16 08 22 31.0000000  0  8                     
G01  22401524.596     -186607.064        1296.891          52.000  
G11  21407436.182     -318701.158        2221.571          53.000  
G05  24262504.160     -496472.136        3599.198          53.000  
G03  25088193.525      420177.404       -3049.359          53.000  
G23  22662858.502      289990.342       -2082.669          53.000  
G09  20445775.435       91141.133        -682.903          52.000  
G10  21389829.441      187887.424       -1395.594          53.000  
G30  22679441.956     -499426.994        3553.504          53.000  
> 2018 02 16 08 22 32.0000000  0  8                     
G01  22401277.914     -187903.388        1296.049          53.000  
G11  21407013.508     -320922.297        2220.858          53.000  
G05  24261819.329     -500070.965        3598.790          53.000  
G03  25088773.857      423226.998       -3049.495          53.000  
G23  22663254.873      292073.341       -2083.059          53.000  
G09  20445905.468       91824.487        -683.475          53.000  
G10  21390095.099      189283.517       -1396.343          53.000  
G30  22678765.810     -502980.220        3553.275          53.000  
> 2018 02 16 08 22 33.0000000  0  8                     
G01  22401031.375     -189198.977        1295.654          53.000  
G11  21406590.942     -323142.930        2220.759          53.000  
G05  24261134.535     -503669.494        3598.860          53.000  
G03  25089354.172      426276.558       -3049.098          53.000  
G23  22663651.297      294156.584       -2082.944          53.000  
G09  20446035.590       92508.293        -683.590          53.000  
G10  21390360.865      190680.201       -1396.601          53.000  
G30  22678089.682     -506533.306        3553.459          53.000  
> 2018 02 16 08 22 34.0000000  0  8                     
G01  22400784.961     -190493.922        1294.537          53.000  
G11  21406168.464     -325363.115        2220.274          53.000  
G05  24260449.794     -507267.810        3598.116          53.000  
G03  25089934.450      429326.025       -3049.525          53.000  
G23  22664047.775      296240.004       -2083.594          53.000  
G09  20446165.802       93192.469        -684.451          53.000  
G10  21390626.739      192077.415       -1397.386          53.000  
G30  22677413.572     -510086.347        3552.927          53.000  
> 2018 02 16 08 22 35.0000000  0  8                     
G01  22400538.672     -191788.162        1294.011          53.000  
G11  21405746.041     -327582.932        2219.583          53.000  
G05  24259765.124     -510865.869        3598.016          53.000  
G03  25090514.747      432375.469       -3049.336          53.000  
G23  22664444.289      298323.684       -2083.723          53.000  
G09  20446296.067       93877.094        -684.755          53.000  
G10  21390892.719      193475.149       -1397.967          53.000  
G30  22676737.480     -513639.269        3552.959          53.000  
> 2018 02 16 08 22 36.0000000  0  8                     
G01  22400292.562     -193081.466        1292.916          53.000  
G11  21405323.742     -329802.045        2218.736          53.000  
G05  24259080.526     -514463.427        3597.335          53.000  
G03  25091095.097      435425.144       -3049.793          53.000  
G23  22664840.892      300407.862       -2084.358          53.000  
G09  20446426.493       94562.405        -685.626          53.000  
G10  21391158.842      194873.687       -1398.885          53.000  
G30  22676061.441     -517191.841        3552.456          53.000  
> 2018 02 16 08 22 37.0000000  0  8                     
G01  22400046.613     -194373.963        1292.129          53.000  
G11  21404901.568     -332020.619        2218.297          53.000  
G05  24258395.000     -518060.627        3597.060          53.000  
G03  25091675.447      438474.934       -3049.800          53.000  
G23  22665237.566      302492.439       -2084.723          53.000  
G09  20446557.008       95248.283        -686.101          53.000  
G10  21391425.109      196272.884       -1399.480          53.000  
G30  22675385.456     -520744.181        3552.252          53.000  
> 2018 02 16 08 22 38.0000000  0  8                     
G01  22399800.807     -195665.732        1291.555          53.000  
G11  21404479.484     -334238.703        2218.459          53.000  
G05  24257711.509     -521657.532        3596.921          53.000  
G03  25092255.815      441524.792       -3049.735          53.000  
G23  22665634.330      304577.353       -2084.956          53.000  
G09  20446687.613       95934.674        -686.505          53.000  
G10  21391691.482      197672.689       -1399.775          53.000  
G30  22674709.507     -524296.361        3552.254          53.000  
> 2018 02 16 08 22 39.0000000  0  8                     
G01  22399555.125     -196956.722        1290.846          53.000  
G11  21404057.471     -336456.402        2217.506          53.000  
G05  24257027.108     -525254.100        3596.696          53.000  
G03  25092836.219      444574.785       -3049.770          53.000  
G23  22666031.165      306662.671       -2085.256          53.000  
G09  20446818.343       96621.631        -687.006          53.000  
G10  21391957.963      199073.054       -1400.609          53.000  
G30  22674033.593     -527848.323        3552.158          53.000  
> 2018 02 16 08 22 40.0000000  0  8                     
G01  22399309.587     -198247.130        1289.953          53.000  
G11  21403635.512     -338673.801        2216.987          53.000  
G05  24256342.724     -528850.532        3596.210          53.000  
G03  25093416.605      447624.736       -3050.119          53.000  
G23  22666428.036      308748.220       -2085.836          53.000  
G09  20446949.126       97308.970        -687.672          53.000  
G10  21392224.515      200473.866       -1401.218          53.000  
G30  22673357.679     -531400.250        3551.759          53.000  
> 2018 02 16 08 22 41.0000000  0  8                     
G01  22399064.156     -199536.841        1289.295          53.000  
G11  21403213.643     -340890.808        2216.674          53.000  
G05  24255658.394     -532446.715        3596.005          53.000  
G03  25093997.008      450674.778       -3050.167          53.000  
G23  22666824.961      310834.129       -2086.139          53.000  
G09  20447080.017       97996.820        -688.151          53.000  
G10  21392491.192      201875.219       -1401.731          53.000  
G30  22672681.801     -534952.023        3551.637          53.000  
> 2018 02 16 08 22 42.0000000  0  8                     
G01  22398818.904     -200825.659        1288.226          53.000  
G11  21402791.862     -343107.185        2216.378          53.000  
G05  24254974.153     -536042.449        3595.385          53.000  
G03  25094577.466      453725.143       -3050.714          53.000  
G23  22667222.011      312920.613       -2086.889          53.000  
G09  20447211.050       98685.393        -689.069          53.000  
G10  21392758.013      203277.325       -1402.396          53.000  
G30  22672005.977     -538503.428        3551.066          53.000  
> 2018 02 16 08 22 43.0000000  0  8                     
G01  22398573.759     -202113.914        1288.084          53.000  
G11  21402370.117     -345323.460        2216.108          53.000  
G05  24254289.949     -539638.069        3595.711          53.000  
G03  25095157.941      456775.502       -3050.253          53.000  
G23  22667619.078      315007.370       -2086.808          53.000  
G09  20447342.173       99374.363        -689.055          53.000  
G10  21393024.886      204679.768       -1402.616          53.000  
G30  22671330.170     -542054.798        3551.464          53.000  
> 2018 02 16 08 22 44.0000000  0  8                     
G01  22398328.739     -203401.585        1287.411          53.000  
G11  21401948.444     -347539.455        2215.757          53.000  
G05  24253605.726     -543233.557        3595.459          53.000  
G03  25095738.416      459825.915       -3050.413          53.000  
G23  22668016.217      317094.423       -2087.187          53.000  
G09  20447473.367      100063.769        -689.596          53.000  
G10  21393291.850      206082.655       -1403.145          53.000  
G30  22670654.364     -545606.084        3551.246          53.000  
> 2018 02 16 08 22 45.0000000  0  8                     
G01  22398083.826     -204688.601        1286.741          53.000  
G11  21401526.825     -349755.131        2215.531          53.000  
G05  24252921.575     -546828.840        3595.231          53.000  
G03  25096318.909      462876.474       -3050.563          53.000  
G23  22668413.463      319181.875       -2087.579          53.000  
G09  20447604.651      100753.696        -690.111          53.000  
G10  21393558.902      207486.042       -1403.579          53.000  
G30  22669978.611     -549157.211        3551.109          53.000  
> 2018 02 16 08 22 46.0000000  0  8                     
G01  22397839.056     -205974.931        1286.276          53.000  
G11  21401105.259     -351970.399        2215.788          53.000  
G05  24252237.477     -550423.893        3595.192          53.000  
G03  25096899.456      465927.231       -3050.589          53.000  
G23  22668810.781      321269.768       -2087.857          53.000  
G09  20447736.042      101444.182        -690.482          53.000  
G10  21393826.044      208889.986       -1403.769          53.000  
G30  22669302.894     -552708.130        3551.042          53.000  
> 2018 02 16 08 22 47.0000000  0  8                     
G01  22397594.358     -207260.850        1285.358          53.000  
G11  21400683.675     -354185.763        2214.835          53.000  
G05  24251553.343     -554019.001        3594.775          53.000  
G03  25097480.002      468977.927       -3051.039          53.000  
G23  22669208.117      323357.842       -2088.507          53.000  
G09  20447867.487      102134.958        -691.243          53.000  
G10  21394093.240      210294.109       -1404.657          53.000  
G30  22668627.159     -556259.118        3550.658          53.000  
> 2018 02 16 08 22 48.0000000  0  8                     
G01  22397349.766     -208546.160        1285.521          53.000  
G11  21400262.180     -356400.834        2215.323          53.000  
G05  24250869.246     -557613.951        3595.383          53.000  
G03  25098060.567      472028.793       -3050.475          53.000  
G23  22669605.560      325446.319       -2088.173          52.000  
G09  20447999.038      102826.250        -691.056          53.000  
G10  21394360.507      211698.700       -1404.345          53.000  
G30  22667951.460     -559809.941        3551.218          53.000  
> 2018 02 16 08 22 49.0000000  0  8                     
G01  22397105.264     -209830.975        1284.698          52.000  
G11  21399840.686     -358615.786        2214.955          53.000  
G05  24250185.130     -561208.876        3595.026          53.000  
G03  25098641.132      475079.730       -3050.876          53.000  
G23  22670003.038      327535.094       -2088.799          53.000  
G09  20448130.662      103517.938        -691.795          53.000  
G10  21394627.863      213103.628       -1404.981          53.000  
G30  22667275.779     -563360.718        3550.877          53.000  
> 2018 02 16 08 22 51.0000000  0  8                     
G01  22396616.690     -212398.504        1283.250          53.000  
G11  21398997.893     -363044.694        2214.236          53.000  
G05  24248817.096     -568398.025        3594.488          52.000  
G03  25099802.475      481182.536       -3051.558          53.000  
G23  22670798.299      331714.226       -2089.931          53.000  
G09  20448394.248      104903.179        -693.072          53.000  
G10  21395162.879      215915.122       -1406.123          53.000  
G30  22665924.559     -570461.429        3550.250          53.000  
> 2018 02 16 08 22 52.0000000  0  8                     
G01  22396372.563     -213681.376        1282.747          52.000  
G11  21398576.560     -365258.856        2214.132          53.000  
G05  24248133.087     -571992.411        3594.586          53.000  
G03  25100383.201      484234.284       -3051.658          53.000  
G23  22671196.046      333804.452       -2090.242          52.000  
G09  20448526.192      105596.598        -693.652          53.000  
G10  21395430.504      217321.513       -1406.678          52.000  
G30  22665249.020     -574011.488        3549.982          53.000  
> 2018 02 16 08 22 53.0000000  0  8                     
G01  22396128.579     -214963.478        1281.851          53.000  
G11  21398155.297     -367472.613        2213.628          53.000  
G05  24247449.133     -575586.502        3594.018          53.000  
G03  25100963.997      487286.481       -3052.282          53.000  
G23  22671593.917      335895.317       -2091.035          52.000  
G09  20448658.280      106290.727        -694.350          53.000  
G10  21395698.271      218728.533       -1407.225          52.000  
G30  22664573.536     -577561.167        3549.616          52.000  
> 2018 02 16 08 22 54.0000000  0  8                     
G01  22395884.721     -216244.982        1281.329          53.000  
G11  21397734.089     -369686.062        2213.858          53.000  
G05  24246765.232     -579180.479        3594.015          53.000  
G03  25101544.884      490338.963       -3052.515          53.000  
G23  22671991.896      337986.656       -2091.447          53.000  
G09  20448790.493      106985.417        -694.854          53.000  
G10  21395966.110      220136.040       -1407.443          53.000  
G30  22663898.104     -581110.609        3549.457          53.000  
> 2018 02 16 08 22 55.0000000  0  8                     
G01  22395640.970     -217525.859        1280.825          53.000  
G11  21397312.880     -371899.440        2213.368          53.000  
G05  24246081.348     -582774.312        3594.065          53.000  
G03  25102125.805      493391.778       -3052.710          53.000  
G23  22672389.947      340078.509       -2091.824          53.000  
G09  20448922.795      107680.689        -695.262          53.000  
G10  21396234.038      221543.957       -1407.920          53.000  
G30  22663222.727     -584659.775        3549.297          53.000  
> 2018 02 16 08 22 56.0000000  0  8                     
G01  22395397.325     -218806.297        1280.199          53.000  
G11  21396891.707     -374112.709        2213.114          53.000  
G05  24245397.465     -586368.184        3593.888          53.000  
G03  25102706.763      496444.770       -3053.103          53.000  
G23  22672788.104      342170.707       -2092.379          53.000  
G09  20449055.169      108376.386        -695.926          53.000  
G10  21396502.020      222952.200       -1408.412          53.000  
G30  22662547.349     -588208.831        3548.979          53.000  
> 2018 02 16 08 22 57.0000000  0  8                     
G01  22395153.735     -220086.231        1279.860          53.000  
G11  21396470.570     -376325.842        2213.219          53.000  
G05  24244713.582     -589962.042        3594.007          53.000  
G03  25103287.792      499498.016       -3053.186          53.000  
G23  22673186.315      344263.322       -2092.642          53.000  
G09  20449187.668      109072.563        -696.228          53.000  
G10  21396770.073      224360.830       -1408.628          53.000  
G30  22661872.025     -591757.702        3548.955          53.000  
> 2018 02 16 08 22 58.0000000  0  8                     
G01  22394910.269     -221365.661        1279.054          53.000  
G11  21396049.487     -378538.752        2213.100          53.000  
G05  24244029.681     -593555.893        3593.702          53.000  
G03  25103868.839      502551.540       -3053.801          53.000  
G23  22673584.616      346356.362       -2093.373          53.000  
G09  20449320.220      109769.232        -697.048          53.000  
G10  21397038.198      225769.858       -1409.218          53.000  
G30  22661196.737     -595306.366        3548.394          53.000  
> 2018 02 16 08 22 59.0000000  0  8                     
G01  22394666.893     -222644.677        1279.191          52.000  
G11  21395628.350     -380751.782        2213.240          53.000  
G05  24243345.780     -597149.824        3594.338          53.000  
G03  25104449.958      505605.271       -3053.492          53.000  
G23  22673982.970      348449.748       -2093.175          52.000  
G09  20449452.898      110466.309        -696.887          53.000  
G10  21397306.358      227179.131       -1409.056          52.000  
G30  22660521.484     -598854.905        3548.848          52.000  
> 2018 02 16 08 23 00.0000000  0  8                     
G01  22394423.553     -223923.445        1278.618          52.000  
G11  21395207.212     -382964.897        2213.061          53.000  
G05  24242661.825     -600744.006        3594.284          53.000  
G03  25105031.076      508659.054       -3053.838          53.000  
G23  22674381.360      350543.322       -2093.689          52.000  
G09  20449585.593      111163.637        -697.499          53.000  
G10  21397574.554      228588.547       -1409.512          53.000  
G30  22659846.196     -602403.461        3548.545          52.000  
> 2018 02 16 08 23 02.0000000  0  8                     
G01  22393937.194     -226479.227        1277.395          53.000  
G11  21394365.081     -387390.360        2212.943          53.000  
G05  24241293.969     -607932.130        3594.055          53.000  
G03  25106193.546      514767.877       -3054.743          53.000  
G23  22675178.443      354732.075       -2094.819          53.000  
G09  20449851.323      112560.070        -698.714          53.000  
G10  21398111.250      231408.848       -1410.479          53.000  
G30  22658495.852     -609499.554        3547.771          53.000  
> 2018 02 16 08 23 03.0000000  0  8                     
G01  22393694.211     -227756.111        1276.862          53.000  
G11  21393944.087     -389602.725        2212.381          53.000  
G05  24240610.086     -611525.943        3593.962          53.000  
G03  25106774.932      517823.082       -3055.183          53.000  
G23  22675577.173      356827.397       -2095.366          53.000  
G09  20449984.376      113259.314        -699.262          53.000  
G10  21398379.750      232819.818       -1410.929          53.000  
G30  22657820.796     -613046.932        3547.416          53.000  
> 2018 02 16 08 23 04.0000000  0  8                     
G01  22393451.335     -229032.481        1276.075          53.000  
G11  21393523.128     -391814.893        2211.941          53.000  
G05  24239926.202     -615119.763        3593.734          53.000  
G03  25107356.390      520878.672       -3055.830          53.000  
G23  22675975.991      358923.194       -2096.092          53.000  
G09  20450117.554      113959.093        -700.083          53.000  
G10  21398648.322      234231.234       -1411.649          53.000  
G30  22657145.812     -616594.000        3546.869          53.000  
> 2018 02 16 08 23 05.0000000  0  8                     
G01  22393208.549     -230308.363        1275.669          53.000  
G11  21393102.188     -394026.892        2211.900          53.000  
G05  24239242.319     -618713.615        3593.918          53.000  
G03  25107937.938      523934.644       -3056.135          53.000  
G23  22676374.899      361019.447       -2096.445          53.000  
G09  20450250.821      114659.386        -700.527          53.000  
G10  21398916.982      235643.067       -1412.038          53.000  
G30  22656470.881     -620140.766        3546.652          53.000  
> 2018 02 16 08 23 06.0000000  0  8                     
G01  22392965.834     -231583.838        1275.270          53.000  
G11  21392681.301     -396238.746        2212.225          53.000  
G05  24238558.400     -622307.578        3594.048          53.000  
G03  25108519.538      526990.925       -3056.416          53.000  
G23  22676773.879      363116.080       -2096.832          53.000  
G09  20450384.142      115360.107        -700.952          53.000  
G10  21399185.732      237055.244       -1412.322          53.000  
G30  22655796.021     -623687.298        3546.415          53.000  
> 2018 02 16 08 23 07.0000000  0  8                     
G01  22392723.190     -232858.879        1274.737          53.000  
G11  21392260.396     -398450.628        2211.660          53.000  
G05  24237874.463     -625901.629        3594.024          53.000  
G03  25109101.193      530047.562       -3056.913          53.000  
G23  22677172.948      365213.118       -2097.332          53.000  
G09  20450517.570      116061.294        -701.534          53.000  
G10  21399454.518      238467.759       -1412.770          53.000  
G30  22655121.180     -627233.551        3546.032          53.000  
> 2018 02 16 08 23 08.0000000  0  8                     
G01  22392480.654     -234133.413        1274.288          53.000  
G11  21391839.527     -400662.285        2211.485          53.000  
G05  24237190.527     -629495.701        3594.068          53.000  
G03  25109682.955      533104.627       -3057.266          53.000  
G23  22677572.070      367310.639       -2097.752          53.000  
G09  20450651.105      116763.014        -702.006          53.000  
G10  21399723.394      239880.720       -1413.165          52.000  
G30  22654446.428     -630779.439        3545.728          53.000  
> 2018 02 16 08 23 09.0000000  0  8                     
G01  22392238.189     -235407.660        1273.853          53.000  
G11  21391418.658     -402873.946        2211.341          53.000  
G05  24236506.554     -633090.019        3594.184          53.000  
G03  25110264.734      536161.923       -3057.746          53.000  
G23  22677971.264      369408.425       -2098.291          53.000  
G09  20450784.694      117465.052        -702.509          53.000  
G10  21399992.322      241293.940       -1413.695          53.000  
G30  22653771.711     -634325.175        3545.537          53.000  
> 2018 02 16 08 23 10.0000000  0  8                     
G01  22391995.796     -236681.428        1273.567          53.000  
G11  21390997.842     -405085.356        2211.737          53.000  
G05  24235822.563     -636684.391        3594.424          53.000  
G03  25110846.586      539219.644       -3057.862          53.000  
G23  22678370.530      371506.655       -2098.426          53.000  
G09  20450918.390      118167.601        -702.734          53.000  
G10  21400261.323      242707.602       -1413.867          53.000  
G30  22653097.066     -637870.528        3545.205          53.000  
> 2018 02 16 08 23 11.0000000  0  8                     
G01  22391753.492     -237954.710        1273.287          53.000  
G11  21390577.045     -407296.689        2211.397          53.000  
G05  24235138.555     -640278.821        3594.684          53.000  
G03  25111428.526      542277.815       -3058.153          53.000  
G23  22678769.902      373605.344       -2098.659          53.000  
G09  20451052.175      118870.667        -703.045          53.000  
G10  21400530.412      244121.696       -1414.061          53.000  
G30  22652422.475     -641415.503        3545.016          53.000  
> 2018 02 16 08 23 12.0000000  0  8                     
G01  22391511.295     -239227.445        1272.479          53.000  
G11  21390156.301     -409507.726        2210.876          53.000  
G05  24234454.547     -643873.243        3594.440          53.000  
G03  25112010.592      545336.491       -3058.899          53.000  
G23  22679169.364      375704.548       -2099.441          53.000  
G09  20451186.086      119574.305        -703.892          53.000  
G10  21400799.609      245536.317       -1414.826          53.000  
G30  22651747.991     -644960.019        3544.307          53.000  
> 2018 02 16 08 23 13.0000000  0  8                     
G01  22391269.188     -240499.763        1272.057          53.000  
G11  21389735.575     -411718.598        2210.736          53.000  
G05  24233770.538     -647467.795        3594.569          53.000  
G03  25112592.711      548395.560       -3059.315          53.000  
G23  22679568.916      377804.133       -2099.820          53.000  
G09  20451320.068      120278.389        -704.335          53.000  
G10  21401068.877      246951.348       -1415.275          53.000  
G30  22651073.560     -648504.191        3543.962          53.000  
> 2018 02 16 08 23 14.0000000  0  8                     
G01  22391027.152     -241771.675        1271.653          53.000  
G11  21389314.902     -413929.242        2210.750          53.000  
G05  24233086.494     -651062.489        3594.730          53.000  
G03  25113174.901      551455.005       -3059.653          53.000  
G23  22679968.539      379904.080       -2100.177          53.000  
G09  20451454.139      120982.900        -704.737          53.000  
G10  21401338.217      248366.773       -1415.693          53.000  
G30  22650399.183     -652048.020        3543.619          53.000  
> 2018 02 16 08 23 15.0000000  0  8                     
G01  22390785.205     -243043.156        1271.566          53.000  
G11  21388894.247     -416139.792        2210.694          53.000  
G05  24232402.432     -654657.294        3595.098          53.000  
G03  25113757.199      554514.877       -3059.786          53.000  
G23  22680368.215      382004.419       -2100.247          53.000  
G09  20451588.318      121687.877        -704.905          53.000  
G10  21401607.628      249782.641       -1415.719          53.000  
G30  22649724.878     -655591.459        3543.524          53.000  
> 2018 02 16 08 23 16.0000000  0  8                     
G01  22390543.295     -244314.318        1271.070          53.000  
G11  21388473.611     -418350.246        2210.426          53.000  
G05  24231718.335     -658252.346        3595.243          53.000  
G03  25114339.533      557575.041       -3060.249          53.000  
G23  22680767.945      384105.015       -2100.671          53.000  
G09  20451722.532      122393.180        -705.395          53.000  
G10  21401877.111      251198.839       -1416.297          53.000  
G30  22649050.626     -659134.626        3543.066          53.000  
> 2018 02 16 08 23 17.0000000  0  8                     
G01  22390301.509     -245584.969        1270.287          53.000  
G11  21388053.045     -420560.390        2209.907          53.000  
G05  24231034.201     -661847.439        3594.990          53.000  
G03  25114921.956      560635.704       -3061.027          53.000  
G23  22681167.765      386206.063       -2101.385          53.000  
G09  20451856.835      123099.009        -706.162          52.000  
G10  21402146.701      252615.556       -1417.074          53.000  
G30  22648376.463     -662677.309        3542.376          53.000  
> 2018 02 16 08 23 18.0000000  0  8                     
G01  22390059.759     -246855.302        1270.306          53.000  
G11  21387632.498     -422770.347        2210.173          53.000  
G05  24230350.032     -665442.774        3595.581          53.000  
G03  25115504.432      563696.674       -3060.993          53.000  
G23  22681567.620      388307.358       -2101.283          53.000  
G09  20451991.210      123805.169        -706.170          53.000  
G10  21402416.363      254032.619       -1417.155          53.000  
G30  22647702.372     -666219.688        3542.335          53.000  
> 2018 02 16 08 23 19.0000000  0  8                     
G01  22389818.152     -248125.052        1269.851          53.000  
G11  21387212.004     -424979.999        2209.793          53.000  
G05  24229665.863     -669038.091        3595.697          53.000  
G03  25116087.016      566758.212       -3061.439          53.000  
G23  22681967.582      390409.160       -2101.660          53.000  
G09  20452125.693      124511.913        -706.639          53.000  
G10  21402686.149      255450.321       -1417.542          53.000  
G30  22647028.389     -669761.500        3541.892          53.000  
> 2018 02 16 08 23 20.0000000  0  8                     
G01  22389576.598     -249394.382        1269.310          53.000  
G11  21386791.564     -427189.387        2209.459          53.000  
G05  24228981.676     -672633.551        3595.749          53.000  
G03  25116669.689      569820.158       -3061.926          53.000  
G23  22682367.598      392511.293       -2102.111          53.000  
G09  20452260.264      125219.078        -707.148          53.000  
G10  21402956.025      256868.486       -1418.155          53.000  
G30  22646354.476     -673302.886        3541.368          53.000  
> 2018 02 16 08 23 21.0000000  0  8                     
G01  22389335.116     -250663.419        1268.899          53.000  
G11  21386371.159     -429398.627        2209.188          53.000  
G05  24228297.418     -676229.284        3595.907          53.000  
G03  25117252.416      572882.378       -3062.341          53.000  
G23  22682767.650      394613.614       -2102.393          53.000  
G09  20452394.872      125926.527        -707.554          53.000  
G10  21403225.972      258286.999       -1418.672          53.000  
G30  22645680.618     -676843.977        3540.961          53.000  
> 2018 02 16 08 23 22.0000000  0  8                     
G01  22389093.706     -251932.081        1268.511          53.000  
G11  21385950.808     -431607.592        2209.013          53.000  
G05  24227613.123     -679825.211        3596.051          53.000  
G03  25117835.214      575944.952       -3062.702          53.000  
G23  22683167.755      396716.200       -2102.659          53.000  
G09  20452529.568      126634.338        -707.958          53.000  
G10  21403495.973      259705.933       -1419.225          53.000  
G30  22645006.848     -680384.676        3540.547          53.000  
> 2018 02 16 08 23 23.0000000  0  8                     
G01  22388852.367     -253200.286        1268.033          53.000  
G11  21385530.511     -433816.290        2208.548          53.000  
G05  24226928.811     -683421.254        3596.138          53.000  
G03  25118418.084      579007.959       -3063.171          53.000  
G23  22683567.932      398819.122       -2103.040          53.000  
G09  20452664.337      127342.581        -708.399          53.000  
G10  21403766.099      261125.428       -1419.658          53.000  
G30  22644333.168     -683924.900        3540.054          53.000  
> 2018 02 16 08 23 24.0000000  0  8                     
G01  22388611.153     -254467.898        1267.318          53.000  
G11  21385110.303     -436024.501        2207.932          53.000  
G05  24226244.499     -687017.275        3595.983          53.000  
G03  25119001.078      582071.529       -3063.883          53.000  
G23  22683968.198      400922.497       -2103.629          53.000  
G09  20452799.230      128051.392        -709.137          53.000  
G10  21404036.350      262545.582       -1420.500          53.000  
G30  22643659.613     -687464.499        3539.250          53.000  
> 2018 02 16 08 23 25.0000000  0  8                     
G01  22388370.046     -255734.976        1266.660          53.000  
G11  21384690.167     -438232.277        2207.439          53.000  
G05  24225560.187     -690613.342        3595.932          53.000  
G03  25119584.145      585135.589       -3064.442          53.000  
G23  22684368.518      403026.245       -2104.038          53.000  
G09  20452934.195      128760.687        -709.653          53.000  
G10  21404306.709      263966.361       -1421.183          53.000  
G30  22642986.165     -691003.545        3538.654          53.000  
> 2018 02 16 08 23 26.0000000  0  8                     
G01  22388129.047     -257001.404        1266.381          53.000  
G11  21384270.173     -440439.433        2207.126          53.000  
G05  24224875.893     -694209.333        3596.246          53.000  
G03  25120167.318      588200.255       -3064.690          53.000  
G23  22684768.944      405130.489       -2104.188          53.000  
G09  20453069.302      129470.592        -709.900          53.000  
G10  21404577.210      265387.877       -1421.808          53.000  
G30  22642312.825     -694541.896        3538.291          53.000  
> 2018 02 16 08 23 27.0000000  0  8                     
G01  22387888.137     -258267.422        1266.056          53.000  
G11  21383850.197     -442646.294        2206.921          53.000  
G05  24224191.563     -697805.486        3596.452          53.000  
G03  25120750.581      591265.278       -3064.950          53.000  
G23  22685169.407      407234.958       -2104.343          53.000  
G09  20453204.463      130180.854        -710.221          53.000  
G10  21404847.836      266809.931       -1422.029          53.000  
G30  22641639.592     -698079.801        3537.937          53.000  
> 2018 02 16 08 23 29.0000000  0  8                     
G01  22387406.549     -260798.224        1265.093          53.000  
G11  21383010.514     -447058.928        2206.048          53.000  
G05  24222822.831     -704998.309        3596.657          53.000  
G03  25121917.285      597396.342       -3065.785          53.000  
G23  22685970.458      411444.518       -2104.911          53.000  
G09  20453474.983      131602.394        -711.035          53.000  
G10  21405389.339      269655.610       -1423.264          53.000  
G30  22640293.375     -705154.254        3536.813          53.000  
> 2018 02 16 08 23 30.0000000  0  8                     
G01  22387165.835     -262063.092        1264.540          53.000  
G11  21382590.753     -449264.726        2205.425          53.000  
G05  24222138.394     -708595.057        3596.685          53.000  
G03  25122500.709      600462.276       -3066.223          53.000  
G23  22686371.010      413549.492       -2105.181          53.000  
G09  20453610.305      132313.569        -711.464          53.000  
G10  21405660.233      271079.141       -1424.161          53.000  
G30  22639620.374     -708690.891        3536.286          53.000  
> 2018 02 16 08 23 31.0000000  0  8                     
G01  22386925.246     -263327.434        1264.018          53.000  
G11  21382171.099     -451470.033        2205.014          53.000  
G05  24221453.939     -712191.866        3596.774          53.000  
G03  25123084.222      603528.635       -3066.636          53.000  
G23  22686771.633      415654.742       -2105.441          53.000  
G09  20453745.734      133025.170        -711.856          53.000  
G10  21405931.235      272503.377       -1424.588          53.000  
G30  22638947.498     -712226.955        3535.715          53.000  
> 2018 02 16 08 23 32.0000000  0  8                     
G01  22386684.729     -264591.251        1263.486          53.000  
G11  21381751.534     -453674.814        2204.491          53.000  
G05  24220769.484     -715788.726        3596.831          53.000  
G03  25123667.806      606595.404       -3067.034          53.000  
G23  22687172.292      417760.256       -2105.713          53.000  
G09  20453881.217      133737.193        -712.276          53.000  
G10  21406202.380      273928.258       -1425.225          53.000  
G30  22638274.712     -715762.451        3535.143          53.000  
> 2018 02 16 08 23 33.0000000  0  8                     
G01  22386444.355     -265854.465        1262.723          53.000  
G11  21381332.095     -455878.963        2203.679          53.000  
G05  24220085.029     -719385.570        3596.682          53.000  
G03  25124251.480      609662.640       -3067.658          53.000  
G23  22687573.023      419866.084       -2106.151          53.000  
G09  20454016.789      134449.695        -712.906          53.000  
G10  21406473.685      275353.892       -1426.157          53.000  
G30  22637602.068     -719297.307        3534.349          53.000  
> 2018 02 16 08 23 34.0000000  0  8                     
G01  22386204.070     -267117.038        1262.413          53.000  
G11  21380912.798     -458082.431        2203.191          53.000  
G05  24219400.592     -722982.351        3596.908          53.000  
G03  25124835.243      612730.372       -3067.819          53.000  
G23  22687973.825      421972.255       -2106.173          53.000  
G09  20454152.469      135162.709        -713.108          53.000  
G10  21406745.115      276780.292       -1426.888          53.000  
G30  22636929.532     -722831.483        3533.975          53.000  
> 2018 02 16 08 23 35.0000000  0  8                     
G01  22385963.875     -268379.358        1262.150          53.000  
G11  21380493.537     -460285.595        2202.985          52.000  
G05  24218716.083     -726579.464        3597.211          52.000  
G03  25125419.024      615798.194       -3067.954          53.000  
G23  22688374.610      424078.356       -2106.124          52.000  
G09  20454288.166      135875.831        -713.256          53.000  
G10  21407016.653      278207.160       -1427.069          53.000  
G30  22636257.067     -726365.372        3533.656          52.000  
> 2018 02 16 08 23 36.0000000  0  8                     
G01  22385723.733     -269641.311        1261.878          53.000  
G11  21380074.384     -462488.343        2202.676          53.000  
G05  24218031.539     -730176.792        3597.502          53.000  
G03  25126002.859      618866.196       -3068.019          53.000  
G23  22688775.376      426184.482       -2106.041          52.000  
G09  20454423.917      136589.161        -713.356          53.000  
G10  21407288.280      279634.527       -1427.472          53.000  
G30  22635584.655     -729898.865        3533.353          53.000  
> 2018 02 16 08 23 37.0000000  0  8                     
G01  22385483.717     -270902.605        1260.904          53.000  
G11  21379655.337     -464690.360        2201.597          53.000  
G05  24217346.994     -733774.046        3597.146          53.000  
G03  25126586.765      621934.655       -3068.756          53.000  
G23  22689176.214      428290.911       -2106.665          53.000  
G09  20454559.757      137302.980        -714.137          53.000  
G10  21407560.050      281062.723       -1428.644          53.000  
G30  22634912.387     -733431.678        3532.407          53.000  
> 2018 02 16 08 23 38.0000000  0  8                     
G01  22385243.771     -272163.397        1260.703          53.000  
G11  21379236.416     -466891.782        2201.060          53.000  
G05  24216662.450     -737371.380        3597.549          53.000  
G03  25127170.724      625003.400       -3068.732          53.000  
G23  22689577.088      430397.459       -2106.445          53.000  
G09  20454695.669      138017.124        -714.137          53.000  
G10  21407831.927      282491.551       -1429.204          53.000  
G30  22634240.226     -736963.962        3532.141          53.000  
> 2018 02 16 08 23 39.0000000  0  8                     
G01  22385003.969     -273423.587        1260.028          53.000  
G11  21378817.637     -469092.493        2200.520          53.000  
G05  24215977.888     -740968.692        3597.451          53.000  
G03  25127754.773      628072.511       -3069.175          52.000  
G23  22689977.997      432504.212       -2106.711          53.000  
G09  20454831.652      138731.673        -714.606          53.000  
G10  21408103.983      283921.234       -1429.840          53.000  
G30  22633568.190     -740495.639        3531.479          53.000  
> 2018 02 16 08 23 40.0000000  0  8                     
G01  22384764.274     -274683.107        1259.501          53.000  
G11  21378399.002     -471292.433        2199.940          53.000  
G05  24215293.379     -744565.913        3597.463          53.000  
G03  25128338.894      631142.030       -3069.456          53.000  
G23  22690378.942      434611.220       -2106.862          53.000  
G09  20454967.707      139446.690        -715.007          53.000  
G10  21408376.182      285351.744       -1430.563          53.000  
G30  22632896.243     -744026.637        3530.939          53.000  
> 2018 02 16 08 23 41.0000000  0  8                     
G01  22384524.722     -275942.043        1258.655          53.000  
G11  21377980.491     -473491.665        2198.919          53.000  
G05  24214608.853     -748163.128        3597.218          53.000  
G03  25128923.050      634211.853       -3069.952          53.000  
G23  22690779.923      436718.374       -2107.227          53.000  
G09  20455103.851      140162.071        -715.560          53.000  
G10  21408648.542      286783.009       -1431.601          53.000  
G30  22632224.421     -747557.052        3530.121          53.000  
> 2018 02 16 08 23 42.0000000  0  8                     
G01  22384285.259     -277200.407        1258.302          52.000  
G11  21377562.124     -475690.209        2198.163          53.000  
G05  24213924.326     -751760.349        3597.428          53.000  
G03  25129507.278      637281.948       -3070.033          53.000  
G23  22691180.922      438825.645       -2107.156          53.000  
G09  20455240.049      140877.792        -715.696          52.000  
G10  21408921.044      288214.993       -1432.440          53.000  
G30  22631552.707     -751086.906        3529.769          53.000  
> 2018 02 16 08 23 43.0000000  0  8                     
G01  22384045.868     -278458.425        1257.945          53.000  
G11  21377143.864     -477888.227        2197.957          53.000  
G05  24213239.746     -755357.805        3597.695          53.000  
G03  25130091.505      640352.065       -3069.976          52.000  
G23  22691581.903      440932.781       -2106.955          53.000  
G09  20455376.265      141593.612        -715.735          52.000  
G10  21409193.654      289647.576       -1432.678          53.000  
G30  22630881.064     -754616.436        3529.471          52.000  
> 2018 02 16 08 23 44.0000000  0  8                     
G01  22383806.602     -279715.781        1257.083          53.000  
G11  21376725.764     -480085.450        2196.947          53.000  
G05  24212555.184     -758955.167        3597.350          53.000  
G03  25130675.805      643422.507       -3070.574          53.000  
G23  22691982.901      443040.089       -2107.349          53.000  
G09  20455512.552      142309.847        -716.431          53.000  
G10  21409466.443      291080.993       -1433.760          53.000  
G30  22630209.528     -758145.331        3528.610          53.000  
> 2018 02 16 08 23 45.0000000  0  8                     
G01  22383567.425     -280972.654        1256.803          53.000  
G11  21376307.754     -482282.030        2196.476          53.000  
G05  24211870.621     -762552.623        3597.695          53.000  
G03  25131260.104      646493.059       -3070.416          53.000  
G23  22692383.900      445147.364       -2107.066          53.000  
G09  20455648.892      143026.287        -716.357          53.000  
G10  21409739.356      292515.077       -1434.185          53.000  
G30  22629538.082     -761673.785        3528.400          53.000  
> 2018 02 16 08 23 46.0000000  0  8                     
G01  22383328.391     -282228.844        1255.965          53.000  
G11  21375889.905     -484477.783        2195.197          53.000  
G05  24211186.077     -766149.966        3597.431          53.000  
G03  25131844.474      649563.907       -3070.854          53.000  
G23  22692784.935      447254.789       -2107.334          53.000  
G09  20455785.304      143743.132        -716.893          53.000  
G10  21410012.413      293949.981       -1435.394          53.000  
G30  22628866.760     -765201.609        3527.645          53.000  
> 2018 02 16 08 23 47.0000000  0  8                     
G01  22383089.428     -283484.504        1255.401          53.000  
G11  21375472.217     -486672.770        2194.769          53.000  
G05  24210501.515     -769747.347        3597.427          53.000  
G03  25132428.863      652634.874       -3070.982          53.000  
G23  22693185.951      449362.198       -2107.384          53.000  
G09  20455921.752      144460.214        -717.161          53.000  
G10  21410285.612      295385.696       -1435.968          53.000  
G30  22628195.528     -768728.964        3527.139          53.000  
> 2018 02 16 08 23 48.0000000  0  8                     
G01  22382850.591     -284739.637        1255.088          53.000  
G11  21375054.653     -488867.063        2194.223          53.000  
G05  24209816.935     -773344.769        3597.669          53.000  
G03  25133013.269      655705.936       -3070.922          53.000  
G23  22693586.986      451469.564       -2107.134          53.000  
G09  20456058.254      145177.521        -717.239          53.000  
G10  21410558.955      296822.110       -1436.545          53.000  
G30  22627524.368     -772255.868        3526.876          53.000  
> 2018 02 16 08 23 49.0000000  0  8                     
G01  22382611.932     -285993.837        1254.031          53.000  
G11  21374637.322     -491060.247        2192.968          53.000  
G05  24209132.426     -776941.819        3597.174          53.000  
G03  25133597.765      658777.469       -3071.450          53.000  
G23  22693988.074      453577.271       -2107.558          53.000  
G09  20456194.862      145895.438        -717.923          53.000  
G10  21410832.494      298259.624       -1437.771          53.000  
G30  22626853.404     -775781.928        3525.948          53.000  
> 2018 02 16 08 23 50.0000000  0  8                     
G01  22382373.381     -287247.461        1253.583          53.000  
G11  21374220.099     -493252.683        2191.974          53.000  
G05  24208447.935     -780538.856        3597.271          53.000  
G03  25134182.261      661849.104       -3071.466          53.000  
G23  22694389.162      455684.958       -2107.447          53.000  
G09  20456331.525      146613.606        -718.051          53.000  
G10  21411106.193      299697.865       -1438.630          53.000  
G30  22626182.511     -779307.511        3525.595          53.000  
> 2018 02 16 08 23 51.0000000  0  8                     
G01  22382134.972     -288500.305        1252.761          53.000  
G11  21373803.089     -495444.073        2191.267          53.000  
G05  24207763.480     -784135.671        3596.976          53.000  
G03  25134766.828      664921.011       -3071.750          53.000  
G23  22694790.268      457792.800       -2107.630          53.000  
G09  20456468.276      147332.213        -718.533          53.000  
G10  21411380.090      301137.151       -1439.410          53.000  
G30  22625511.744     -782832.430        3524.868          53.000  
> 2018 02 16 08 23 52.0000000  0  8                     
G01  22381896.653     -289752.627        1252.116          53.000  
G11  21373386.205     -497634.757        2190.475          53.000  
G05  24207079.025     -787732.526        3596.968          53.000  
G03  25135351.413      667992.915       -3071.816          53.000  
G23  22695191.338      459900.527       -2107.573          53.000  
G09  20456605.064      148050.990        -718.794          53.000  
G10  21411654.111      302577.127       -1440.171          53.000  
G30  22624841.030     -786356.958        3524.415          53.000  
> 2018 02 16 08 23 53.0000000  0  8                     
G01  22381658.459     -291004.313        1251.465          53.000  
G11  21372969.499     -499824.594        2189.562          53.000  
G05  24206394.588     -791329.293        3596.838          53.000  
G03  25135935.998      671064.906       -3071.932          53.000  
G23  22695592.426      462008.239       -2107.583          53.000  
G09  20456741.887      148770.042        -719.081          53.000  
G10  21411928.258      304017.918       -1441.058          53.000  
G30  22624170.424     -789880.992        3523.900          53.000  
> 2018 02 16 08 23 54.0000000  0  8                     
G01  22381420.462     -292255.050        1250.642          53.000  
G11  21372552.990     -502013.316        2188.274          53.000  
G05  24205710.222     -794925.661        3596.551          53.000  
G03  25136520.655      674137.275       -3072.162          53.000  
G23  22695993.568      464116.234       -2107.739          53.000  
G09  20456878.817      149489.670        -719.478          53.000  
G10  21412202.637      305459.786       -1442.233          53.000  
G30  22623499.978     -793404.235        3523.250          53.000  
> 2018 02 16 08 23 55.0000000  0  8                     
G01  22381182.553     -293505.207        1249.417          53.000  
G11  21372136.660     -504201.171        2187.192          53.000  
G05  24205025.874     -798521.998        3595.955          53.000  
G03  25137105.311      677209.630       -3072.684          53.000  
G23  22696394.692      466224.125       -2108.230          53.000  
G09  20457015.819      150209.499        -720.286          53.000  
G10  21412477.159      306902.483       -1443.450          53.000  
G30  22622829.604     -796927.074        3522.279          53.000  
> 2018 02 16 08 23 56.0000000  0  8                     
G01  22380944.788     -294754.612        1249.102          53.000  
G11  21371720.526     -506388.073        2186.539          53.000  
G05  24204341.544     -802118.123        3596.083          53.000  
G03  25137689.986      680282.124       -3072.495          53.000  
G23  22696795.815      468332.074       -2107.888          53.000  
G09  20457152.856      150929.688        -720.291          53.000  
G10  21412751.859      308346.100       -1443.966          53.000  
G30  22622159.337     -800449.343        3522.042          53.000  
> 2018 02 16 08 23 57.0000000  0  8                     
G01  22380707.166     -296003.275        1248.204          53.000  
G11  21371304.553     -508574.020        2185.426          53.000  
G05  24203657.268     -805714.050        3595.722          53.000  
G03  25138274.678      683354.718       -3072.717          53.000  
G23  22697196.939      470440.055       -2108.073          53.000  
G09  20457289.965      151650.217        -720.798          53.000  
G10  21413026.756      309790.617       -1445.038          53.000  
G30  22621489.177     -803971.083        3521.374          53.000  
> 2018 02 16 08 23 58.0000000  0  8                     
G01  22380469.722     -297251.076        1247.529          53.000  
G11  21370888.777     -510758.934        2184.281          53.000  
G05  24202973.045     -809309.654        3595.601          53.000  
G03  25138859.424      686427.517       -3072.738          53.000  
G23  22697598.117      472548.178       -2108.034          53.000  
G09  20457427.146      152371.198        -721.044          53.000  
G10  21413301.832      311236.113       -1446.020          53.000  
G30  22620819.142     -807492.178        3520.951          53.000  
> 2018 02 16 08 23 59.0000000  0  8                     
G01  22380232.440     -298498.043        1246.632          53.000  
G11  21370473.215     -512942.709        2183.433          53.000  
G05  24202288.894     -812904.953        3595.210          53.000  
G03  25139444.188      689500.472       -3072.934          53.000  
G23  22697999.294      474656.400       -2108.179          53.000  
G09  20457564.416      153092.597        -721.519          53.000  
G10  21413577.086      312682.681       -1446.893          52.000  
G30  22620149.215     -811012.675        3520.292          53.000  
> 2018 02 16 08 24 00.0000000  0  8                     
G01  22379995.246     -299744.469        1245.972          53.000  
G11  21370057.796     -515125.756        2182.532          53.000  
G05  24201604.725     -816500.244        3595.108          53.000  
G03  25140028.934      692573.268       -3072.880          53.000  
G23  22698400.436      476764.422       -2108.096          53.000  
G09  20457701.721      153814.112        -721.751          53.000  
G10  21413852.501      314129.932       -1447.732          53.000  
G30  22619479.341     -814532.881        3519.876          53.000  
> 2018 02 16 08 24 01.0000000  0  8                     
G01  22379758.178     -300990.327        1245.586          53.000  
G11  21369642.519     -517308.026        2181.917          53.000  
G05  24200920.573     -820095.489        3595.208          52.000  
G03  25140613.644      695645.913       -3072.565          52.000  
G23  22698801.524      478872.258       -2107.753          53.000  
G09  20457839.045      154535.760        -721.676          53.000  
G10  21414128.060      315577.892       -1448.274          53.000  
G30  22618809.520     -818052.789        3519.771          53.000  
> 2018 02 16 08 24 02.0000000  0  8                     
G01  22379521.270     -302235.292        1244.307          53.000  
G11  21369227.440     -519489.242        2180.200          53.000  
G05  24200236.494     -823690.369        3594.455          53.000  
G03  25141198.372      698718.711       -3073.093          53.000  
G23  22699202.666      480980.222       -2108.234          53.000  
G09  20457976.440      155257.867        -722.547          53.000  
G10  21414403.779      317026.848       -1449.851          53.000  
G30  22618139.825     -821572.086        3518.769          53.000  
> 2018 02 16 08 24 03.0000000  0  8                     
G01  22379284.488     -303479.582        1244.113          53.000  
G11  21368812.557     -521669.497        2180.024          53.000  
G05  24199552.467     -827285.094        3594.779          53.000  
G03  25141783.100      701791.428       -3072.527          53.000  
G23  22699603.772      483088.093       -2107.664          53.000  
G09  20458113.888      155980.198        -722.285          53.000  
G10  21414679.659      318476.669       -1450.042          53.000  
G30  22617470.183     -825091.014        3518.889          53.000  
> 2018 02 16 08 24 04.0000000  0  8                     
G01  22379047.884     -304723.053        1243.450          53.000  
G11  21368397.853     -523848.747        2179.172          53.000  
G05  24198868.477     -830879.514        3594.652          53.000  
G03  25142367.846      704864.189       -3072.398          53.000  
G23  22700004.895      485196.001       -2107.536          53.000  
G09  20458251.408      156702.900        -722.482          53.000  
G10  21414955.753      319927.442       -1450.841          53.000  
G30  22616800.649     -828609.438        3518.580          53.000  
> 2018 02 16 08 24 05.0000000  0  8                     
G01  22378811.441     -305965.585        1242.110          53.000  
G11  21367983.345     -526026.867        2177.641          53.000  
G05  24198184.558     -834473.505        3593.817          53.000  
G03  25142952.592      707937.095       -3072.938          52.000  
G23  22700406.055      487304.064       -2108.084          53.000  
G09  20458389.035      157426.084        -723.360          53.000  
G10  21415232.026      321379.263       -1452.292          53.000  
G30  22616131.222     -832127.254        3517.568          53.000  
> 2018 02 16 08 24 06.0000000  0  8                     
G01  22378575.123     -307207.412        1241.725          53.000  
G11  21367569.034     -528204.127        2176.823          53.000  
G05  24197500.675     -838067.298        3593.918          53.000  
G03  25143537.320      711009.901       -3072.530          53.000  
G23  22700807.197      489412.043       -2107.684          53.000  
G09  20458526.716      158149.519        -723.351          53.000  
G10  21415508.460      322831.875       -1452.893          53.000  
G30  22615461.884     -835644.710        3517.510          53.000  
> 2018 02 16 08 24 07.0000000  0  8                     
G01  22378338.966     -308448.474        1240.714          53.000  
G11  21367154.919     -530380.385        2175.884          53.000  
G05  24196816.845     -841660.837        3593.461          53.000  
G03  25144122.048      714082.646       -3072.670          53.000  
G23  22701208.321      491519.989       -2107.849          53.000  
G09  20458664.433      158873.245        -723.845          53.000  
G10  21415785.054      324285.414       -1453.944          53.000  
G30  22614792.618     -839161.772        3516.894          53.000  
> 2018 02 16 08 24 08.0000000  0  8                     
G01  22378102.970     -309688.708        1239.808          53.000  
G11  21366740.983     -532555.631        2174.803          53.000  
G05  24196133.069     -845254.040        3593.028          53.000  
G03  25144706.776      717155.384       -3072.743          53.000  
G23  22701609.462      493627.971       -2108.016          53.000  
G09  20458802.221      159597.334        -724.245          53.000  
G10  21416061.827      325739.878       -1454.892          53.000  
G30  22614123.423     -842678.383        3516.392          53.000  
> 2018 02 16 08 24 09.0000000  0  8                     
G01  22377867.153     -310928.020        1239.069          53.000  
G11  21366327.244     -534729.793        2173.878          53.000  
G05  24195449.382     -848846.822        3592.790          53.000  
G03  25145291.504      720228.188       -3072.588          53.000  
G23  22702010.622      495736.068       -2107.930          53.000  
G09  20458940.098      160321.877        -724.517          53.000  
G10  21416338.797      327195.349       -1455.709          53.000  
G30  22613454.335     -846194.468        3516.097          53.000  
> 2018 02 16 08 24 10.0000000  0  8                     
G01  22377631.442     -312166.558        1238.184          53.000  
G11  21365913.683     -536903.065        2172.705          53.000  
G05  24194765.749     -852439.321        3592.400          53.000  
G03  25145876.232      723300.909       -3072.632          53.000  
G23  22702411.781      497844.134       -2107.999          53.000  
G09  20459078.047      161046.722        -724.946          53.000  
G10  21416615.910      328651.643       -1456.720          53.000  
G30  22612785.319     -849710.183        3515.578          53.000  
> 2018 02 16 08 24 11.0000000  0  8                     
G01  22377395.929     -313404.287        1237.369          53.000  
G11  21365500.337     -539075.314        2171.831          53.000  
G05  24194082.170     -856031.503        3592.049          53.000  
G03  25146460.942      726373.560       -3072.582          53.000  
G23  22702812.941      499952.210       -2108.059          53.000  
G09  20459216.050      161771.905        -725.334          53.000  
G10  21416893.202      330108.879       -1457.652          53.000  
G30  22612116.374     -853225.518        3515.186          53.000  
> 2018 02 16 08 24 12.0000000  0  8                     
G01  22377160.576     -314640.977        1236.315          53.000  
G11  21365087.187     -541246.386        2170.656          53.000  
G05  24193398.715     -859623.132        3591.517          53.000  
G03  25147045.670      729446.364       -3072.749          53.000  
G23  22703214.118      502060.515       -2108.245          53.000  
G09  20459354.159      162497.647        -725.870          53.000  
G10  21417170.708      331567.208       -1458.702          53.000  
G30  22611447.536     -856740.250        3514.563          53.000  
> 2018 02 16 08 24 13.0000000  0  8                     
G01  22376925.437     -315876.733        1235.363          53.000  
G11  21364674.252     -543416.384        2169.532          53.000  
G05  24192715.332     -863214.304        3590.994          53.000  
G03  25147630.416      732519.204       -3072.792          52.000  
G23  22703615.349      504168.957       -2108.424          53.000  
G09  20459492.358      163223.856        -726.389          53.000  
G10  21417448.410      333026.538       -1459.726          53.000  
G30  22610778.806     -860254.499        3514.068          53.000  
> 2018 02 16 08 24 14.0000000  0  8                     
G01  22376690.424     -317111.714        1234.641          53.000  
G11  21364261.460     -545585.546        2168.790          53.000  
G05  24192032.021     -866805.186        3590.804          53.000  
G03  25148215.144      735591.914       -3072.565          53.000  
G23  22704016.580      506277.370       -2108.352          53.000  
G09  20459630.593      163950.356        -726.554          53.000  
G10  21417726.255      334486.654       -1460.431          53.000  
G30  22610110.112     -863768.445        3513.887          53.000  
> 2018 02 16 08 24 15.0000000  0  8                     
G01  22376455.536     -318346.023        1234.007          53.000  
G11  21363848.864     -547753.849        2167.968          53.000  
G05  24191348.745     -870395.866        3590.601          53.000  
G03  25148799.819      738664.390       -3072.339          53.000  
G23  22704417.776      508385.661       -2108.214          53.000  
G09  20459768.881      164677.068        -726.785          53.000  
G10  21418004.244      335947.529       -1461.195          53.000  
G30  22609441.471     -867282.190        3513.669          53.000  
> 2018 02 16 08 24 16.0000000  0  8                     
G01  22376220.862     -319579.277        1232.862          53.000  
G11  21363436.465     -549921.012        2166.684          53.000  
G05  24190665.559     -873985.965        3589.903          53.000  
G03  25149384.529      741736.000       -3072.587          53.000  
G23  22704819.025      510494.210       -2108.536          53.000  
G09  20459907.277      165404.356        -727.441          52.000  
G10  21418282.465      337409.484       -1462.382          52.000  
G30  22608772.937     -870795.376        3513.042          53.000  
> 2018 02 16 08 24 17.0000000  0  8                     
G01  22375986.313     -320811.837        1232.187          53.000  
G11  21363024.209     -552087.399        2165.957          53.000  
G05  24189982.426     -877575.837        3589.728          53.000  
G03  25149969.185      744809.378       -3072.312          53.000  
G23  22705220.238      512602.666       -2108.420          53.000  
G09  20460045.726      166131.874        -727.657          53.000  
G10  21418560.792      338872.147       -1463.027          53.000  
G30  22608104.439     -874308.367        3512.875          53.000  
> 2018 02 16 08 24 18.0000000  0  8                     
G01  22375751.925     -322043.505        1231.162          53.000  
G11  21362612.131     -554252.841        2164.904          53.000  
G05  24189299.365     -881165.286        3589.211          53.000  
G03  25150553.824      747881.719       -3072.382          53.000  
G23  22705621.505      514711.229       -2108.628          53.000  
G09  20460184.247      166859.814        -728.155          53.000  
G10  21418839.299      340335.712       -1464.058          53.000  
G30  22607436.012     -877820.984        3512.402          53.000  
> 2018 02 16 08 24 19.0000000  0  8                     
G01  22375517.734     -323274.201        1230.359          53.000  
G11  21362200.268     -556417.217        2164.014          53.000  
G05  24188616.411     -884754.223        3588.835          52.000  
G03  25151138.481      750954.102       -3072.233          52.000  
G23  22706022.771      516819.991       -2108.698          53.000  
G09  20460322.857      167588.269        -728.534          53.000  
G10  21419118.002      341800.270       -1464.904          53.000  
G30  22606767.693     -881333.149        3512.098          53.000  
> 2018 02 16 08 24 20.0000000  0  8                     
G01  22375283.667     -324504.108        1229.591          53.000  
G11  21361788.566     -558580.740        2163.166          53.000  
G05  24187933.510     -888342.833        3588.547          52.000  
G03  25151723.137      754026.343       -3072.096          53.000  
G23  22706424.056      518928.776       -2108.720          53.000  
G09  20460461.520      168317.056        -728.890          53.000  
G10  21419396.848      343265.627       -1465.709          53.000  
G30  22606099.392     -884845.061        3511.857          53.000  
> 2018 02 16 08 24 21.0000000  0  8                     
G01  22375049.744     -325733.411        1228.999          53.000  
G11  21361376.971     -560743.646        2162.578          53.000  
G05  24187250.646     -891931.290        3588.387          53.000  
G03  25152307.704      757098.254       -3071.729          53.000  
G23  22706825.323      521037.401       -2108.547          53.000  
G09  20460600.238      169045.990        -728.982          53.000  
G10  21419675.802      344731.556       -1466.221          53.000  
G30  22605431.108     -888356.913        3511.831          53.000  
> 2018 02 16 08 24 22.0000000  0  8                     
G01  22374816.053     -326961.523        1227.552          53.000  
G11  21360965.626     -562905.352        2161.190          53.000  
G05  24186567.924     -895519.009        3587.362          53.000  
G03  25152892.325      760170.422       -3072.277          53.000  
G23  22707226.661      523146.470       -2109.276          53.000  
G09  20460739.080      169775.670        -730.012          53.000  
G10  21419954.969      346198.640       -1467.484          53.000  
G30  22604762.932     -891868.128        3510.920          53.000  
> 2018 02 16 08 24 23.0000000  0  8                     
G01  22374582.540     -328188.656        1226.911          53.000  
G11  21360554.459     -565066.044        2160.445          53.000  
G05  24185885.309     -899106.204        3587.178          53.000  
G03  25153476.946      763242.638       -3071.974          52.000  
G23  22707628.071      525255.777       -2109.171          53.000  
G09  20460878.029      170505.889        -730.231          53.000  
G10  21420234.334      347666.691       -1468.264          53.000  
G30  22604094.845     -895378.924        3510.837          52.000  
> 2018 02 16 08 24 24.0000000  0  8                     
G01  22374349.135     -329415.191        1225.808          53.000  
G11  21360143.400     -567226.136        2159.348          53.000  
G05  24185202.713     -902693.252        3586.537          53.000  
G03  25154061.513      766314.525       -3072.169          53.000  
G23  22708029.427      527364.954       -2109.577          53.000  
G09  20461017.015      171236.270        -730.894          53.000  
G10  21420513.805      349135.311       -1469.366          53.000  
G30  22603426.757     -898889.693        3510.340          53.000  
> 2018 02 16 08 24 25.0000000  0  8                     
G01  22374115.891     -330640.906        1226.575          53.000  
G11  21359732.502     -569385.441        2160.058          53.000  
G05  24184520.205     -906279.913        3587.651          53.000  
G03  25154646.045      769386.307       -3070.548          53.000  
G23  22708430.801      529474.234       -2108.076          53.000  
G09  20461156.089      171967.050        -729.822          53.000  
G10  21420793.438      350604.688       -1468.543          53.000  
G30  22602758.742     -902400.212        3511.629          53.000  
> 2018 02 16 08 24 26.0000000  0  8                     
G01  22373882.468     -331867.605        1226.589          53.000  
G11  21359321.408     -571545.770        2160.337          53.000  
G05  24183837.394     -909868.017        3588.179          53.000  
G03  25155230.237      772456.179       -3069.536          53.000  
G23  22708831.853      531581.822       -2107.341          53.000  
G09  20461294.878      172696.413        -729.261          53.000  
G10  21421072.855      352073.030       -1468.331          53.000  
G30  22602090.405     -905912.302        3512.275          53.000  
> 2018 02 16 08 24 27.0000000  0  8                     
G01  22373649.206     -333093.421        1225.362          53.000  
G11  21358910.474     -573705.264        2158.995          53.000  
G05  24183154.690     -913455.675        3587.401          53.000  
G03  25155814.411      775526.026       -3069.872          53.000  
G23  22709232.959      533689.610       -2107.908          53.000  
G09  20461433.756      173426.256        -730.113          53.000  
G10  21421352.416      353542.186       -1469.616          53.000  
G30  22601422.139     -909424.090        3511.604          53.000  
> 2018 02 16 08 24 28.0000000  0  8                     
G01  22373416.158     -334318.148        1224.578          53.000  
G11  21358499.754     -575863.721        2158.292          53.000  
G05  24182472.112     -917042.685        3587.076          53.000  
G03  25156398.621      778596.051       -3069.738          53.000  
G23  22709634.137      535797.807       -2108.003          53.000  
G09  20461572.759      174156.781        -730.471          53.000  
G10  21421632.174      355012.358       -1470.332          53.000  
G30  22600753.963     -912935.381        3511.430          53.000  
> 2018 02 16 08 24 29.0000000  0  8                     
G01  22373183.235     -335542.094        1223.790          53.000  
G11  21358089.142     -578021.485        2157.624          53.000  
G05  24181789.569     -920629.352        3586.703          53.000  
G03  25156982.795      781665.955       -3069.607          53.000  
G23  22710035.350      537906.121       -2108.150          53.000  
G09  20461711.852      174887.692        -730.872          53.000  
G10  21421912.074      356483.227       -1470.999          53.000  
G30  22600085.822     -916446.489        3511.271          53.000  
> 2018 02 16 08 24 30.0000000  0  8                     
G01  22372950.473     -336765.234        1222.651          53.000  
G11  21357678.673     -580178.528        2156.834          53.000  
G05  24181107.133     -924215.651        3586.043          53.000  
G03  25157566.951      784735.781       -3069.868          53.000  
G23  22710436.581      540014.597       -2108.638          53.000  
G09  20461851.034      175619.024        -731.599          53.000  
G10  21422192.117      357954.826       -1471.915          53.000  
G30  22599417.717     -919957.383        3510.723          53.000  
> 2018 02 16 08 24 31.0000000  0  8                     
G01  22372717.890     -337987.555        1222.192          53.000  
G11  21357268.346     -582334.870        2155.957          53.000  
G05  24180424.768     -927801.567        3586.010          52.000  
G03  25158151.107      787805.545       -3069.439          53.000  
G23  22710837.830      542123.261       -2108.442          53.000  
G09  20461990.287      176350.799        -731.653          53.000  
G10  21422472.286      359427.119       -1472.514          53.000  
G30  22598749.648     -923468.056        3510.734          53.000  
> 2018 02 16 08 24 32.0000000  0  8                     
G01  22372485.396     -339209.300        1221.524          53.000  
G11  21356858.073     -584490.764        2155.670          53.000  
G05  24179742.404     -931387.339        3585.776          52.000  
G03  25158735.210      790875.019       -3069.251          53.000  
G23  22711239.097      544231.887       -2108.532          52.000  
G09  20462129.576      177082.793        -732.026          53.000  
G10  21422752.544      360899.893       -1472.996          53.000  
G30  22598081.579     -926978.755        3510.781          53.000  
> 2018 02 16 08 24 33.0000000  0  8                     
G01  22372253.081     -340430.115        1220.571          53.000  
G11  21356447.961     -586645.855        2154.876          53.000  
G05  24179060.147     -934972.614        3585.238          53.000  
G03  25159319.330      793944.565       -3069.363          53.000  
G23  22711640.417      546340.844       -2108.904          53.000  
G09  20462268.990      177815.355        -732.636          53.000  
G10  21423032.944      362373.490       -1473.810          53.000  
G30  22597413.581     -930489.125        3510.413          52.000  
> 2018 02 16 08 24 34.0000000  0  8                     
G01  22372020.909     -341650.150        1219.626          53.000  
G11  21356037.992     -588800.299        2154.409          53.000  
G05  24178377.961     -938557.542        3584.738          53.000  
G03  25159903.433      797014.052       -3069.494          53.000  
G23  22712041.791      548450.002       -2109.264          53.000  
G09  20462408.476      178548.357        -733.253          53.000  
G10  21423313.488      363847.769       -1474.476          53.000  
G30  22596745.601     -933999.314        3510.081          53.000  
> 2018 02 16 08 24 35.0000000  0  8                     
G01  22371788.879     -342869.562        1219.095          53.000  
G11  21355628.113     -590954.332        2153.735          53.000  
G05  24177695.811     -942142.282        3584.659          53.000  
G03  25160487.518      800083.328       -3069.186          53.000  
G23  22712443.147      550559.221       -2109.223          53.000  
G09  20462548.015      179281.646        -733.429          53.000  
G10  21423594.121      365322.503       -1475.043          53.000  
G30  22596077.639     -937509.482        3510.194          53.000  
> 2018 02 16 08 24 36.0000000  0  8                     
G01  22371556.957     -344088.288        1218.520          53.000  
G11  21355218.305     -593107.846        2153.296          53.000  
G05  24177013.697     -945726.758        3584.455          53.000  
G03  25161071.549      803152.484       -3068.991          53.000  
G23  22712844.557      552668.585       -2109.307          53.000  
G09  20462687.625      180015.303        -733.702          53.000  
G10  21423874.861      366797.807       -1475.531          53.000  
G30  22595409.713     -941019.555        3510.172          53.000  
> 2018 02 16 08 24 37.0000000  0  8                     
G01  22371325.214     -345306.181        1217.516          53.000  
G11  21354808.622     -595260.710        2152.532          53.000  
G05  24176331.672     -949310.846        3583.938          53.000  
G03  25161655.598      806221.668       -3069.186          53.000  
G23  22713246.002      554778.252       -2109.780          53.000  
G09  20462827.343      180749.484        -734.424          53.000  
G10  21424155.726      368273.812       -1476.363          53.000  
G30  22594741.805     -944529.394        3509.754          53.000  
> 2018 02 16 08 24 38.0000000  0  8                     
G01  22371093.614     -346523.240        1216.848          53.000  
G11  21354399.064     -597412.918        2152.454          53.000  
G05  24175649.719     -952894.519        3583.688          53.000  
G03  25162239.665      809290.911       -3069.094          53.000  
G23  22713647.519      556888.249       -2109.965          53.000  
G09  20462967.168      181484.202        -734.800          53.000  
G10  21424436.753      369750.520       -1476.616          53.000  
G30  22594073.950     -948038.982        3509.660          53.000  
> 2018 02 16 08 24 40.0000000  0  8                     
G01  22370630.788     -348955.409        1215.670          53.000  
G11  21353580.198     -601716.176        2151.335          53.000  
G05  24174285.901     -960061.224        3583.345          53.000  
G03  25163407.745      815429.070       -3068.779          53.000  
G23  22714450.660      561108.742       -2110.198          53.000  
G09  20463246.997      182954.737        -735.396          53.000  
G10  21424999.019      372705.366       -1477.748          53.000  
G30  22592738.294     -955057.977        3509.718          53.000  
> 2018 02 16 08 24 41.0000000  0  8                     
G01  22370399.581     -350170.444        1214.826          53.000  
G11  21353170.890     -603867.092        2150.785          53.000  
G05  24173604.091     -963644.173        3582.953          53.000  
G03  25163991.758      818498.101       -3068.904          53.000  
G23  22714852.284      563219.358       -2110.601          53.000  
G09  20463387.055      183690.664        -736.035          53.000  
G10  21425280.313      374183.622       -1478.414          53.000  
G30  22592070.511     -958567.281        3509.357          53.000  
> 2018 02 16 08 24 42.0000000  0  8                     
G01  22370168.552     -351384.503        1214.038          53.000  
G11  21352761.725     -606017.251        2150.671          53.000  
G05  24172922.388     -967226.578        3582.591          53.000  
G03  25164575.825      821567.396       -3068.953          53.000  
G23  22715254.034      565330.518       -2110.959          53.000  
G09  20463527.219      184427.311        -736.559          53.000  
G10  21425561.804      375662.719       -1478.841          53.000  
G30  22591402.781     -962076.185        3509.155          53.000  
> 2018 02 16 08 24 43.0000000  0  8                     
G01  22369937.595     -352598.078        1213.447          53.000  
G11  21352352.578     -608167.288        2149.937          53.000  
G05  24172240.684     -970808.933        3582.433          53.000  
G03  25165159.856      824636.494       -3068.875          53.000  
G23  22715655.801      567441.750       -2111.133          53.000  
G09  20463667.438      185164.208        -736.886          53.000  
G10  21425843.313      377142.074       -1479.460          53.000  
G30  22590735.034     -965585.167        3509.150          53.000  
> 2018 02 16 08 24 44.0000000  0  8                     
G01  22369706.852     -353810.669        1212.528          53.000  
G11  21351943.592     -610316.587        2149.271          53.000  
G05  24171559.088     -974390.739        3581.943          53.000  
G03  25165743.959      827705.909       -3069.153          53.000  
G23  22716057.657      569553.578       -2111.694          53.000  
G09  20463807.799      185901.869        -737.595          53.000  
G10  21426124.982      378622.264       -1480.175          53.000  
G30  22590067.358     -969093.709        3508.747          53.000  
> 2018 02 16 08 24 45.0000000  0  8                     
G01  22369476.145     -355022.975        1212.188          53.000  
G11  21351534.588     -612465.901        2149.303          52.000  
G05  24170877.492     -977972.700        3582.086          53.000  
G03  25166327.972      830774.963       -3068.853          53.000  
G23  22716459.514      571665.315       -2111.671          53.000  
G09  20463948.196      186639.606        -737.761          53.000  
G10  21426406.687      380102.575       -1480.380          53.000  
G30  22589399.646     -972602.519        3508.979          53.000  
> 2018 02 16 08 24 46.0000000  0  8                     
G01  22369245.599     -356234.526        1211.484          53.000  
G11  21351125.673     -614614.691        2149.264          53.000  
G05  24170195.932     -981554.338        3581.786          53.000  
G03  25166912.021      833844.145       -3068.956          53.000  
G23  22716861.460      573777.455       -2112.056          53.000  
G09  20464088.682      187377.893        -738.273          53.000  
G10  21426688.518      381583.496       -1480.696          53.000  
G30  22588731.988     -976111.106        3508.773          53.000  
