     2.11           O                   G                   RINEX VERSION / TYPE
WALKEGNOS           ISMB                  20180216  082108  PGM / RUN BY / DATE 
                                                            COMMENT             
                                                            MARKER NAME         
1                                                           MARKER NUMBER       
NavSAS              ISMB / POLITO                           OBSERVER / AGENCY   
1                                    NVSFW ver              REC # / TYPE / VERS 
1                   PATCH                                   ANT # / TYPE        
        0.0000        0.0000        0.0000                  APPROX POSITION XYZ 
        0.0000        0.0000        0.0000                  ANTENNA: DELTA H/E/N
     1     0                                                WAVELENGTH FACT L1/2
     4    L1    C1    D1    S1                              # / TYPES OF OBSERV 
     1.000                                                  INTERVAL            
  2018    02    16     8    21    8.0000000     GPS         TIME OF FIRST OBS   
                                                            END OF HEADER       
 18  2 16  8 21  8.0000000  2  1
            *** FROM NOW ON KINEMATIC DATA! ***             COMMENT             
 18  2 16  8 21  8.0000000  0  8G10G30G01G11G03G05G09G23            -0.000889725
     74264.511    21461945.619       -1354.760          43.000  
   -201925.884    22829437.823        3566.249          43.000  
    -76069.708    22516129.379        1330.143          43.000  
   -125624.925    21536681.217        2258.687          43.000  
    171909.659    25133681.839       -3059.822          43.000  
   -199836.371    24413148.243        3589.114          43.000  
     37785.942    20528872.503        -672.971          42.000  
    113186.722    22723665.465       -2092.841          43.000  
 18  2 16  8 21  9.0000000  0  8G10G30G01G11G03G05G09G23            -0.000889556
     75619.842    21462203.540       -1355.554          43.000  
   -205491.626    22828759.283        3565.500          43.000  
    -77399.253    22515876.372        1329.351          43.000  
   -127883.148    21536251.503        2258.009          42.000  
    174969.969    25134264.137       -3060.641          43.000  
   -203425.071    24412465.325        3588.725          43.000  
     38459.622    20529000.695        -673.991          43.000  
    115280.191    22724063.802       -2093.731          43.000  
 18  2 16  8 21 10.0000000  0  8G10G30G01G11G03G05G09G23            -0.000889388
     76975.986    21462461.623       -1356.381          43.000  
   -209056.616    22828080.885        3564.772          43.000  
    -78727.992    22515623.561        1328.570          43.000  
   -130140.758    21535821.913        2257.754          43.000  
    178031.061    25134846.667       -3061.232          43.000  
   -207013.565    24411782.478        3588.751          43.000  
     39134.105    20529129.084        -674.703          43.000  
    117374.399    22724462.281       -2094.343          43.000  
 18  2 16  8 21 11.0000000  0  8G10G30G01G11G03G05G09G23            -0.000889220
     78332.673    21462719.776       -1356.757          43.000  
   -212621.147    22827402.577        3564.351          43.000  
    -80056.232    22515370.785        1328.084          43.000  
   -132398.177    21535392.324        2257.361          43.000  
    181092.662    25135429.269       -3061.763          43.000  
   -210602.077    24411099.595        3588.697          43.000  
     39809.112    20529257.509        -675.079          43.000  
    119469.060    22724860.885       -2094.762          43.000  
 18  2 16  8 21 12.0000000  0  8G10G30G01G11G03G05G09G23            -0.000889051
     79689.979    21462978.109       -1357.544          43.000  
   -216185.118    22826724.358        3563.591          43.000  
    -81383.895    22515118.135        1327.399          42.000  
   -134655.186    21534962.842        2256.805          43.000  
    184154.849    25136011.959       -3062.531          42.000  
   -214190.586    24410416.748        3588.545          42.000  
     40484.724    20529386.077        -675.852          43.000  
    121564.255    22725259.561       -2095.512          43.000  
 18  2 16  8 21 13.0000000  0  8G10G30G01G11G03G05G09G23            -0.000888882
     81047.987    21463236.513       -1358.190          43.000  
   -219748.477    22826046.247        3563.233          43.000  
    -82710.913    22514865.646        1326.855          42.000  
   -136911.732    21534533.378        2256.552          43.000  
    187217.656    25136594.811       -3062.917          42.000  
   -217779.021    24409733.920        3588.675          43.000  
     41160.992    20529514.787        -676.293          43.000  
    123660.008    22725658.380       -2095.868          43.000  
 18  2 16  8 21 14.0000000  0  8G10G30G01G11G03G05G09G23            -0.000888715
     82406.535    21463495.006       -1358.949          43.000  
   -223311.333    22825368.278        3562.654          43.000  
    -84037.427    22514613.228        1326.289          43.000  
   -139167.893    21534104.039        2256.124          43.000  
    190280.977    25137177.735       -3063.640          43.000  
   -221367.498    24409051.091        3588.476          43.000  
     41837.778    20529643.587        -677.027          43.000  
    125756.193    22726057.305       -2096.434          43.000  
 18  2 16  8 21 15.0000000  0  8G10G30G01G11G03G05G09G23            -0.000888547
     83765.923    21463753.696       -1359.623          43.000  
   -226873.436    22824690.417        3561.873          43.000  
    -85363.193    22514360.935        1325.495          43.000  
   -141423.548    21533674.772        2255.440          43.000  
    193345.040    25137760.819       -3064.328          43.000  
   -224955.804    24408368.244        3588.307          43.000  
     42515.300    20529772.548        -677.608          43.000  
    127853.033    22726456.321       -2096.968          43.000  
 18  2 16  8 21 16.0000000  0  8G10G30G01G11G03G05G09G23            -0.000888379
     85125.731    21464012.439       -1360.024          43.000  
   -230435.162    22824012.663        3561.538          43.000  
    -86688.611    22514108.714        1325.390          43.000  
   -143678.972    21533245.576        2255.352          43.000  
    196409.447    25138343.974       -3064.485          43.000  
   -228544.342    24407685.433        3588.781          43.000  
     43193.205    20529901.562        -678.043          42.000  
    129950.145    22726855.390       -2097.266          43.000  
 18  2 16  8 21 17.0000000  0  8G10G30G01G11G03G05G09G23            -0.000888211
     86486.225    21464271.326       -1361.168          43.000  
   -233996.286    22823334.998        3560.490          43.000  
    -88013.410    22513856.636        1324.129          43.000  
   -145933.916    21532816.505        2254.284          43.000  
    199474.447    25138927.201       -3065.619          43.000  
   -232132.820    24407002.550        3588.078          43.000  
     43871.677    20530030.648        -679.124          43.000  
    132047.731    22727254.548       -2098.146          43.000  
 18  2 16  8 21 18.0000000  0  8G10G30G01G11G03G05G09G23            -0.000888044
     87847.442    21464530.373       -1361.628          42.000  
   -237556.736    22822657.458        3560.276          43.000  
    -89337.578    22513604.647        1324.065          43.000  
   -148188.295    21532387.487        2254.387          43.000  
    202540.075    25139510.571       -3065.762          43.000  
   -235721.245    24406319.721        3588.562          43.000  
     44550.780    20530159.877        -679.277          43.000  
    134145.843    22727653.813       -2098.204          43.000  
 18  2 16  8 21 19.0000000  0  8G10G30G01G11G03G05G09G23            -0.000887877
     89209.307    21464789.527       -1362.169          42.000  
   -241116.642    22821980.008        3559.554          43.000  
    -90661.211    22513352.783        1323.182          43.000  
   -150442.298    21531958.541        2253.736          42.000  
    205606.198    25140094.031       -3066.432          42.000  
   -239309.722    24405636.838        3588.408          43.000  
     45230.377    20530289.177        -679.943          43.000  
    136244.336    22728053.150       -2098.711          42.000  
 18  2 16  8 21 20.0000000  0  8G10G30G01G11G03G05G09G23            -0.000887708
     90571.928    21465048.843       -1362.612          43.000  
   -244675.864    22821302.736        3559.110          43.000  
    -91984.212    22513101.026        1323.009          43.000  
   -152695.716    21531529.685        2253.336          43.000  
    208672.935    25140677.633       -3066.733          43.000  
   -242898.116    24404953.992        3588.602          43.000  
     45910.594    20530418.620        -680.258          43.000  
    138343.337    22728452.541       -2098.994          43.000  
 18  2 16  8 21 21.0000000  0  8G10G30G01G11G03G05G09G23            -0.000887541
     91935.198    21465308.283       -1363.442          42.000  
   -248234.515    22820625.518        3558.402          43.000  
    -93306.670    22512849.377        1322.311          43.000  
   -154948.687    21531100.971        2252.861          43.000  
    211740.163    25141261.325       -3067.305          43.000  
   -246486.558    24404271.145        3588.521          43.000  
     46591.298    20530548.135        -680.860          43.000  
    140442.689    22728852.056       -2099.393          43.000  
 18  2 16  8 21 22.0000000  0  8G10G30G01G11G03G05G09G23            -0.000887374
     93299.073    21465567.795       -1364.421          42.000  
   -251792.618    22819948.425        3557.710          43.000  
    -94628.604    22512597.799        1321.582          43.000  
   -157201.147    21530672.329        2252.115          43.000  
    214807.864    25141845.105       -3067.942          43.000  
   -250075.066    24403588.262        3588.469          43.000  
     47272.463    20530677.793        -681.445          42.000  
    142542.387    22729251.626       -2099.928          43.000  
 18  2 16  8 21 23.0000000  0  8G10G30G01G11G03G05G09G23            -0.000887207
     94663.799    21465827.467       -1364.797          43.000  
   -255350.008    22819271.439        3557.145          42.000  
    -95949.880    22512346.328        1321.019          42.000  
   -159453.021    21530243.830        2251.765          43.000  
    217876.160    25142428.994       -3068.421          43.000  
   -253663.484    24402905.415        3588.515          43.000  
     47954.232    20530807.540        -681.844          43.000  
    144642.550    22729651.248       -2100.250          43.000  
 18  2 16  8 21 24.0000000  0  8G10G30G01G11G03G05G09G23            -0.000887040
     96029.301    21466087.301       -1365.818          43.000  
   -258906.720    22818594.632        3556.387          43.000  
    -97270.520    22512095.000        1320.433          42.000  
   -161704.274    21529815.438        2251.051          42.000  
    220945.037    25143012.989       -3069.104          42.000  
   -257251.842    24402222.568        3588.394          43.000  
     48636.579    20530937.394        -682.585          42.000  
    146743.145    22730051.032       -2100.739          43.000  
 18  2 16  8 21 25.0000000  0  8G10G30G01G11G03G05G09G23            -0.000886873
     97395.367    21466347.242       -1366.334          43.000  
   -262462.962    22817917.914        3556.026          43.000  
    -98590.713    22511843.780        1319.963          43.000  
   -163955.092    21529387.135        2250.676          43.000  
    224014.241    25143597.056       -3069.310          43.000  
   -260840.347    24401539.686        3588.610          43.000  
     49319.263    20531067.302        -682.749          43.000  
    148843.927    22730450.798       -2100.846          43.000  
 18  2 16  8 21 26.0000000  0  8G10G30G01G11G03G05G09G23            -0.000886701
     98762.061    21466607.325       -1367.086          43.000  
   -266018.634    22817241.286        3555.485          43.000  
    -99910.405    22511592.613        1319.642          43.000  
   -166205.376    21528958.922        2250.035          43.000  
    227083.871    25144181.194       -3069.664          43.000  
   -264428.915    24400856.803        3588.660          42.000  
     50002.383    20531197.317        -683.196          43.000  
    150944.984    22730850.617       -2101.011          43.000  
 18  2 16  8 21 27.0000000  0  8G10G30G01G11G03G05G09G23            -0.000886534
    100129.523    21466867.534       -1367.862          43.000  
   -269573.744    22816564.747        3554.724          43.000  
   -101229.549    22511341.589        1318.771          43.000  
   -168455.115    21528530.780        2249.388          43.000  
    230153.921    25144765.386       -3070.309          42.000  
   -268017.534    24400173.921        3588.553          43.000  
     50685.936    20531327.385        -683.899          43.000  
    153046.311    22731250.472       -2101.551          43.000  
 18  2 16  8 21 28.0000000  0  8G10G30G01G11G03G05G09G23            -0.000886369
    101497.827    21467127.921       -1368.491          43.000  
   -273128.104    22815888.333        3554.177          43.000  
   -102547.990    22511090.690        1318.245          43.000  
   -170704.111    21528102.817        2248.831          43.000  
    233224.545    25145349.703       -3070.704          43.000  
   -271606.022    24399491.056        3588.607          43.000  
     51370.063    20531457.561        -684.228          42.000  
    155148.058    22731650.417       -2101.728          43.000  
 18  2 16  8 21 29.0000000  0  8G10G30G01G11G03G05G09G23            -0.000886202
    102866.824    21467388.416       -1369.274          43.000  
   -276681.904    22815212.062        3553.647          43.000  
   -103865.921    22510839.916        1317.816          43.000  
   -172952.537    21527674.961        2248.188          43.000  
    236295.547    25145934.110       -3071.104          42.000  
   -275194.571    24398808.173        3588.673          43.000  
     52054.605    20531587.826        -684.713          43.000  
    157250.025    22732050.397       -2101.960          43.000  
 18  2 16  8 21 30.0000000  0  8G10G30G01G11G03G05G09G23            -0.000886037
    104236.478    21467649.053       -1370.322          43.000  
   -280235.145    22814535.916        3552.964          43.000  
   -105183.297    22510589.231        1317.002          43.000  
   -175200.367    21527247.195        2247.233          43.000  
    239366.906    25146518.570       -3071.549          43.000  
   -278783.165    24398125.291        3588.507          43.000  
     52739.529    20531718.163        -685.172          43.000  
    159352.196    22732450.395       -2102.285          43.000  
 18  2 16  8 21 31.0000000  0  8G10G30G01G11G03G05G09G23            -0.000885871
    105606.838    21467909.798       -1370.394          43.000  
   -283787.900    22813859.859        3552.668          42.000  
   -106500.240    22510338.601        1316.906          43.000  
   -177447.654    21526819.535        2247.192          43.000  
    242438.555    25147103.065       -3071.687          43.000  
   -282371.888    24397442.390        3588.935          42.000  
     53424.761    20531848.553        -685.201          42.000  
    161454.490    22732850.447       -2102.142          43.000  
 18  2 16  8 21 32.0000000  0  8G10G30G01G11G03G05G09G23            -0.000885705
    106978.148    21468170.740       -1371.631          43.000  
   -287339.845    22813183.928        3551.581          43.000  
   -107816.382    22510088.148        1315.805          43.000  
   -179694.090    21526392.055        2246.122          43.000  
    245510.770    25147687.686       -3072.433          43.000  
   -285960.408    24396759.526        3588.430          43.000  
     54110.601    20531979.051        -685.997          42.000  
    163557.200    22733250.570       -2102.803          43.000  
 18  2 16  8 21 33.0000000  0  8G10G30G01G11G03G05G09G23            -0.000885541
    108350.417    21468431.842       -1372.639          43.000  
   -290891.007    22812508.157        3550.875          43.000  
   -109131.760    22509837.839        1315.026          42.000  
   -181939.629    21525964.753        2245.264          42.000  
    248583.549    25148272.414       -3072.983          43.000  
   -289548.730    24396076.679        3588.298          43.000  
     54797.064    20532109.691        -686.598          43.000  
    165660.312    22733650.765       -2103.187          43.000  
 18  2 16  8 21 34.0000000  0  8G10G30G01G11G03G05G09G23            -0.000885375
    109723.625    21468693.158       -1373.767          43.000  
   -294441.364    22811832.565        3550.080          42.000  
   -110446.338    22509587.691        1314.381          42.000  
   -184184.284    21525537.630        2244.190          43.000  
    251656.877    25148857.232       -3073.466          43.000  
   -293136.836    24395393.868        3588.178          43.000  
     55484.125    20532240.474        -687.252          43.000  
    167763.818    22734051.049       -2103.566          43.000  
 18  2 16  8 21 35.0000000  0  8G10G30G01G11G03G05G09G23            -0.000885210
    111097.752    21468954.636       -1374.310          43.000  
   -297991.067    22811157.080        3549.379          42.000  
   -111760.268    22509337.649        1313.686          42.000  
   -186428.130    21525110.631        2243.627          43.000  
    254730.602    25149442.103       -3073.938          43.000  
   -296724.861    24394711.075        3587.933          43.000  
     56171.631    20532371.293        -687.655          43.000  
    169867.554    22734451.404       -2103.786          43.000  
 18  2 16  8 21 38.0000000  0  8G10G30G01G11G03G05G09G23            -0.000884716
    115225.195    21469740.033       -1377.189          43.000  
   -308636.278    22809131.376        3547.554          42.000  
   -115698.053    22508588.294        1311.680          43.000  
   -193154.898    21523830.548        2240.996          43.000  
    263953.972    25151197.270       -3074.901          43.000  
   -307488.410    24392662.820        3587.748          43.000  
     58236.828    20532764.287        -688.943          43.000  
    176180.064    22735652.560       -2104.354          43.000  
 18  2 16  8 21 39.0000000  0  8G10G30G01G11G03G05G09G23            -0.000884551
    116602.942    21470002.189       -1378.098          43.000  
   -312183.253    22808456.409        3546.566          43.000  
   -117009.181    22508338.807        1310.741          43.000  
   -195395.321    21523404.193        2239.986          43.000  
    267029.244    25151782.480       -3075.468          43.000  
   -311075.930    24391980.116        3587.366          43.000  
     58926.229    20532895.481        -689.638          43.000  
    178284.750    22736053.076       -2104.838          43.000  
 18  2 16  8 21 40.0000000  0  8G10G30G01G11G03G05G09G23            -0.000884387
    117981.686    21470264.560       -1378.908          43.000  
   -315729.458    22807781.586        3546.141          43.000  
   -118319.465    22508089.462        1310.089          43.000  
   -197634.777    21522978.053        2239.321          43.000  
    270104.971    25152367.798       -3075.639          43.000  
   -314663.183    24391297.466        3587.393          43.000  
     59616.194    20533026.747        -689.970          43.000  
    180389.746    22736453.664       -2104.846          43.000  
 18  2 16  8 21 41.0000000  0  8G10G30G01G11G03G05G09G23            -0.000884223
    119361.310    21470527.092       -1379.912          43.000  
   -319275.036    22807106.869        3545.341          43.000  
   -119629.084    22507840.243        1309.338          43.000  
   -199873.363    21522552.038        2238.272          43.000  
    273180.982    25152953.151       -3076.065          43.000  
   -318250.334    24390614.869        3587.247          43.000  
     60306.560    20533158.102        -690.512          43.000  
    182494.880    22736854.252       -2105.041          43.000  
 18  2 16  8 21 42.0000000  0  8G10G30G01G11G03G05G09G23            -0.000884059
    120741.680    21470789.767       -1380.819          43.000  
   -322820.107    22806432.296        3545.029          43.000  
   -120938.118    22507591.131        1308.948          43.000  
   -202111.218    21522126.201        2237.417          43.000  
    276257.169    25153538.541       -3076.053          43.000  
   -321837.459    24389932.237        3587.401          43.000  
     60997.226    20533289.529        -690.606          43.000  
    184600.069    22737254.857       -2104.957          43.000  
 18  2 16  8 21 43.0000000  0  8G10G30G01G11G03G05G09G23            -0.000883893
    122123.129    21471052.638       -1381.896          43.000  
   -326364.455    22805757.794        3543.973          42.000  
   -122246.340    22507342.180        1307.820          43.000  
   -204348.011    21521700.561        2236.391          43.000  
    279333.719    25154123.983       -3076.770          42.000  
   -325424.340    24389249.694        3586.766          43.000  
     61688.391    20533421.045        -691.385          43.000  
    186705.483    22737655.499       -2105.459          43.000  
 18  2 16  8 21 44.0000000  0  8G10G30G01G11G03G05G09G23            -0.000883729
    123505.429    21471315.670       -1382.363          42.000  
   -329908.219    22805083.453        3543.723          43.000  
   -123553.893    22507093.372        1307.529          43.000  
   -206583.955    21521275.064        2235.946          43.000  
    282410.477    25154709.480       -3076.577          43.000  
   -329011.107    24388567.168        3587.036          43.000  
     62379.935    20533552.650        -691.442          43.000  
    188810.989    22738056.158       -2105.219          43.000  
 18  2 16  8 21 45.0000000  0  8G10G30G01G11G03G05G09G23            -0.000883568
    124888.770    21471578.898       -1383.802          42.000  
   -333451.277    22804409.237        3542.666          43.000  
   -124860.620    22506844.706        1306.290          43.000  
   -208818.852    21520849.781        2234.369          43.000  
    285487.586    25155295.030       -3077.325          42.000  
   -332597.610    24387884.661        3586.404          43.000  
     63071.975    20533684.345        -692.323          43.000  
    190916.723    22738456.871       -2105.822          43.000  
 18  2 16  8 21 46.0000000  0  8G10G30G01G11G03G05G09G23            -0.000883405
    126273.087    21471842.323       -1384.549          43.000  
   -336993.612    22803735.163        3542.538          42.000  
   -126166.507    22506596.202        1306.026          43.000  
   -211052.753    21520424.677        2233.606          43.000  
    288565.028    25155880.651       -3077.059          42.000  
   -336183.812    24387202.225        3586.543          43.000  
     63764.551    20533816.165        -692.423          42.000  
    193022.681    22738857.619       -2105.541          43.000  
 18  2 16  8 21 47.0000000  0  8G10G30G01G11G03G05G09G23            -0.000883241
    127658.535    21472105.963       -1385.955          43.000  
   -340535.238    22803061.215        3541.278          42.000  
   -127471.534    22506347.858        1304.584          43.000  
   -213285.522    21519999.787        2232.265          43.000  
    291642.787    25156466.326       -3077.966          43.000  
   -339769.731    24386519.861        3585.773          43.000  
     64457.598    20533948.056        -693.303          43.000  
    195128.860    22739258.421       -2106.343          42.000  
 18  2 16  8 21 48.0000000  0  8G10G30G01G11G03G05G09G23            -0.000883076
    129044.956    21472369.799       -1386.731          43.000  
   -344076.216    22802387.410        3540.797          43.000  
   -128775.771    22506099.657        1303.993          43.000  
   -215517.279    21519575.112        2231.503          43.000  
    294720.793    25157052.037       -3077.955          43.000  
   -343355.384    24385837.532        3585.657          43.000  
     65151.118    20534080.019        -693.658          43.000  
    197235.180    22739659.242       -2106.287          42.000  
 18  2 16  8 21 49.0000000  0  8G10G30G01G11G03G05G09G23            -0.000882913
    130432.347    21472633.832       -1387.964          43.000  
   -347616.582    22801713.677        3540.019          43.000  
   -130079.225    22505851.617        1303.045          43.000  
   -217748.052    21519150.598        2230.286          43.000  
    297798.998    25157637.784       -3078.273          43.000  
   -346940.811    24385155.239        3585.267          43.000  
     65845.039    20534212.071        -694.099          43.000  
    199341.615    22740060.079       -2106.503          43.000  
 18  2 16  8 21 50.0000000  0  8G10G30G01G11G03G05G09G23            -0.000882751
    131820.618    21472898.025       -1388.734          43.000  
   -351156.389    22801040.068        3539.860          42.000  
   -131381.932    22505603.720        1302.598          43.000  
   -219977.910    21518726.244        2229.370          43.000  
    300877.372    25158223.584       -3078.192          42.000  
   -350526.028    24384472.982        3585.373          42.000  
     66539.349    20534344.177        -694.191          43.000  
    201448.131    22740460.935       -2106.254          42.000  
 18  2 16  8 21 51.0000000  0  8G10G30G01G11G03G05G09G23            -0.000882591
    133209.911    21473162.398       -1389.733          42.000  
   -354695.624    22800366.567        3538.826          42.000  
   -132683.885    22505355.966        1301.632          42.000  
   -222206.697    21518302.123        2228.319          43.000  
    303955.870    25158809.420       -3078.620          43.000  
   -354111.029    24383790.779        3584.797          43.000  
     67234.033    20534476.372        -694.930          43.000  
    203554.715    22740861.791       -2106.717          43.000  
 18  2 16  8 21 52.0000000  0  8G10G30G01G11G03G05G09G23            -0.000882420
    134600.206    21473426.966       -1390.554          42.000  
   -358234.252    22799693.173        3538.443          43.000  
   -133984.985    22505108.391        1300.838          42.000  
   -224434.444    21517878.198        2227.450          43.000  
    307034.570    25159395.309       -3078.608          43.000  
   -357695.730    24383108.646        3584.763          43.000  
     67929.162    20534608.674        -695.154          43.000  
    205661.430    22741262.665       -2106.635          43.000  
 18  2 16  8 21 53.0000000  0  8G10G30G01G11G03G05G09G23            -0.000882257
    135991.564    21473691.714       -1391.749          42.000  
   -361772.218    22799019.939        3537.801          43.000  
   -135285.204    22504860.959        1299.897          43.000  
   -226661.098    21517454.470        2226.258          43.000  
    310113.497    25159981.217       -3078.860          43.000  
   -361280.067    24382426.568        3584.297          43.000  
     68624.788    20534741.065        -695.698          43.000  
    207768.313    22741663.592       -2106.846          43.000  
 18  2 16  8 21 54.0000000  0  8G10G30G01G11G03G05G09G23            -0.000882085
    137383.840    21473956.676       -1392.907          43.000  
   -365309.612    22798346.777        3537.111          43.000  
   -136584.604    22504613.723        1298.902          43.000  
   -228886.760    21517030.920        2224.809          43.000  
    313192.561    25160567.124       -3079.171          43.000  
   -364864.120    24381744.525        3583.912          42.000  
     69320.825    20534873.528        -696.261          43.000  
    209875.297    22742064.555       -2107.067          43.000  
 18  2 16  8 21 55.0000000  0  8G10G30G01G11G03G05G09G23            -0.000881921
    138777.394    21474221.834       -1393.754          43.000  
   -368846.253    22797673.759        3536.547          43.000  
   -137882.994    22504366.666        1298.132          43.000  
   -231111.117    21516607.657        2224.252          42.000  
    316271.936    25161153.139       -3079.182          43.000  
   -368447.674    24381062.608        3583.534          42.000  
     70017.457    20535006.081        -696.602          43.000  
    211982.554    22742465.536       -2107.102          43.000  
 18  2 16  8 21 56.0000000  0  8G10G30G01G11G03G05G09G23            -0.000881757
    140171.862    21474487.171       -1394.870          43.000  
   -372382.403    22797000.847        3535.901          43.000  
   -139180.593    22504119.752        1297.121          43.000  
   -233334.494    21516184.554        2222.929          43.000  
    319351.366    25161739.118       -3079.465          43.000  
   -372030.978    24380380.726        3583.073          43.000  
     70714.450    20535138.723        -697.110          43.000  
    214089.843    22742866.535       -2107.247          43.000  
 18  2 16  8 21 57.0000000  0  8G10G30G01G11G03G05G09G23            -0.000881592
    141567.505    21474752.758       -1396.102          43.000  
   -375917.802    22796328.078        3535.111          42.000  
   -140477.174    22503873.034        1296.194          43.000  
   -235556.624    21515761.702        2221.650          43.000  
    322431.104    25162325.168       -3079.808          43.000  
   -375613.767    24379698.951        3582.656          43.000  
     71412.055    20535271.472        -697.733          43.000  
    216197.421    22743267.605       -2107.587          43.000  
 18  2 16  8 21 58.0000000  0  8G10G30G01G11G03G05G09G23            -0.000881428
    142964.071    21475018.524       -1397.254          42.000  
   -379452.715    22795655.417        3534.683          43.000  
   -141772.933    22503626.477        1295.376          43.000  
   -237777.806    21515339.028        2220.487          43.000  
    325510.878    25162911.236       -3079.772          43.000  
   -379196.252    24379017.230        3582.266          43.000  
     72110.033    20535404.274        -698.119          43.000  
    218305.037    22743668.675       -2107.586          43.000  
 18  2 16  8 21 59.0000000  0  8G10G30G01G11G03G05G09G23            -0.000881265
    144361.704    21475284.487       -1398.256          43.000  
   -382987.095    22794982.844        3534.037          43.000  
   -143067.829    22503380.063        1294.308          43.000  
   -239997.825    21514916.568        2219.427          43.000  
    328590.759    25163497.322       -3080.151          43.000  
   -382778.395    24378335.580        3581.810          43.000  
     72808.447    20535537.148        -698.750          43.000  
    220412.758    22744069.781       -2107.874          43.000  
 18  2 16  8 22  0.0000000  0  8G10G30G01G11G03G05G09G23            -0.000881102
    145760.347    21475550.646       -1399.059          43.000  
   -386520.919    22794310.362        3533.659          43.000  
   -144361.842    22503133.810        1293.738          43.000  
   -242216.794    21514494.323        2218.613          43.000  
    331670.714    25164083.408       -3079.872          43.000  
   -386360.156    24377654.002        3581.718          43.000  
     73507.301    20535670.165        -699.013          43.000  
    222520.585    22744470.887       -2107.696          43.000  
 18  2 16  8 22  1.0000000  0  8G10G30G01G11G03G05G09G23            -0.000880939
    147160.086    21475817.020       -1400.235          43.000  
   -390054.132    22793638.004        3532.971          43.000  
   -145654.863    22502887.718        1292.541          43.000  
   -244434.587    21514072.293        2217.294          43.000  
    334750.856    25164669.548       -3080.130          43.000  
   -389941.437    24376972.495        3581.101          43.000  
     74206.692    20535803.254        -699.604          43.000  
    224628.634    22744872.029       -2108.172          43.000  
 18  2 16  8 22  2.0000000  0  8G10G30G01G11G03G05G09G23            -0.000880776
    148560.776    21476083.572       -1401.440          43.000  
   -393586.857    22792965.771        3532.386          43.000  
   -146947.030    22502641.823        1291.690          43.000  
   -246651.390    21513650.477        2215.952          43.000  
    337831.045    25165255.688       -3080.278          43.000  
   -393522.341    24376291.078        3580.508          43.000  
     74906.492    20535936.378        -700.137          43.000  
    226736.736    22745273.188       -2108.265          43.000  
 18  2 16  8 22  3.0000000  0  8G10G30G01G11G03G05G09G23            -0.000880613
    149962.554    21476350.321       -1402.086          43.000  
   -397119.034    22792293.610        3532.156          43.000  
   -148238.264    22502396.088        1291.163          43.000  
   -248867.021    21513228.839        2215.454          43.000  
    340911.320    25165841.845       -3080.041          43.000  
   -397102.820    24375609.714        3580.505          43.000  
     75606.770    20536069.627        -700.211          43.000  
    228844.995    22745674.383       -2108.089          43.000  
 18  2 16  8 22  4.0000000  0  8G10G30G01G11G03G05G09G23            -0.000880450
    151365.253    21476617.230       -1403.215          43.000  
   -400650.807    22791621.520        3531.585          43.000  
   -149528.656    22502150.532        1289.988          43.000  
   -251081.665    21512807.398        2214.135          43.000  
    343991.582    25166427.985       -3080.289          43.000  
   -400682.974    24374928.458        3579.988          43.000  
     76307.420    20536202.966        -700.798          43.000  
    230953.288    22746075.561       -2108.303          43.000  
 18  2 16  8 22  5.0000000  0  8G10G30G01G11G03G05G09G23            -0.000880286
    152768.959    21476884.336       -1404.083          43.000  
   -404182.075    22790949.538        3531.245          43.000  
   -150818.134    22501905.136        1289.236          43.000  
   -253295.239    21512386.190        2213.175          43.000  
    347071.893    25167014.143       -3080.119          42.000  
   -404262.677    24374247.255        3579.621          43.000  
     77008.535    20536336.376        -701.094          43.000  
    233061.718    22746476.774       -2108.268          43.000  
 18  2 16  8 22  6.0000000  0  8G10G30G01G11G03G05G09G23            -0.000880124
    154173.711    21477151.657       -1405.366          43.000  
   -407712.793    22790277.663        3530.519          43.000  
   -152106.623    22501659.938        1288.044          43.000  
   -255507.731    21511965.177        2211.870          43.000  
    350152.322    25167600.318       -3080.412          43.000  
   -407841.894    24373566.159        3579.007          43.000  
     77710.181    20536469.911        -701.850          43.000  
    235170.327    22746878.005       -2108.583          43.000  
 18  2 16  8 22  7.0000000  0  8G10G30G01G11G03G05G09G23            -0.000879962
    155579.430    21477419.138       -1406.099          43.000  
   -411243.120    22789605.859        3530.244          43.000  
   -153394.269    22501414.900        1287.364          43.000  
   -257719.170    21511544.344        2211.113          43.000  
    353232.717    25168186.493       -3080.331          43.000  
   -411420.748    24372885.117        3578.829          43.000  
     78412.210    20536603.464        -702.117          43.000  
    237279.012    22747279.272       -2108.542          43.000  
 18  2 16  8 22  8.0000000  0  8G10G30G01G11G03G05G09G23            -0.000879799
    156986.141    21477686.834       -1406.993          43.000  
   -414772.971    22788934.180        3529.886          43.000  
   -154680.979    22501170.041        1286.493          43.000  
   -259929.568    21511123.725        2210.060          43.000  
    356313.151    25168772.705       -3080.152          43.000  
   -414999.144    24372204.165        3578.439          43.000  
     79114.714    20536737.143        -702.453          43.000  
    239387.837    22747680.574       -2108.625          43.000  
 18  2 16  8 22  9.0000000  0  8G10G30G01G11G03G05G09G23            -0.000879637
    158393.715    21477954.673       -1408.044          42.000  
   -418302.492    22788262.519        3529.333          43.000  
   -155966.873    22500925.342        1285.458          43.000  
   -262139.040    21510703.267        2208.947          43.000  
    359393.513    25169358.880       -3080.412          43.000  
   -418577.191    24371523.283        3577.806          43.000  
     79817.580    20536870.892        -703.115          43.000  
    241496.698    22748081.877       -2108.994          42.000  
 18  2 16  8 22 10.0000000  0  8G10G30G01G11G03G05G09G23            -0.000879475
    159802.414    21478222.744       -1408.785          43.000  
   -421831.411    22787591.001        3529.077          43.000  
   -157251.670    22500680.858        1284.726          43.000  
   -264347.359    21510283.059        2208.127          43.000  
    362474.048    25169945.091       -3080.182          43.000  
   -422154.629    24370842.527        3577.593          43.000  
     80521.075    20537004.767        -703.398          43.000  
    243605.849    22748483.251       -2108.855          43.000  
 18  2 16  8 22 11.0000000  0  8G10G30G01G11G03G05G09G23            -0.000879312
    161212.038    21478490.976       -1409.913          43.000  
   -425359.984    22786919.519        3528.486          43.000  
   -158535.611    22500436.517        1283.554          42.000  
   -266554.691    21509862.994        2207.013          43.000  
    365554.522    25170531.302       -3080.351          43.000  
   -425731.683    24370161.825        3576.966          42.000  
     81224.971    20537138.695        -704.073          43.000  
    245715.094    22748884.625       -2109.179          43.000  
 18  2 16  8 22 12.0000000  0  8G10G30G01G11G03G05G09G23            -0.000879150
    162622.657    21478759.422       -1411.234          43.000  
   -428888.101    22786248.162        3527.720          43.000  
   -159818.601    22500192.373        1282.323          43.000  
   -268760.977    21509443.161        2205.613          43.000  
    368635.061    25171117.496       -3080.716          43.000  
   -429308.232    24369481.229        3576.126          43.000  
     81929.369    20537272.731        -704.766          43.000  
    247824.529    22749286.053       -2109.663          43.000  
 18  2 16  8 22 13.0000000  0  8G10G30G01G11G03G05G09G23            -0.000878988
    164034.334    21479028.047       -1412.103          43.000  
   -432415.728    22785576.877        3527.532          43.000  
   -161100.547    22499948.443        1281.510          43.000  
   -270966.169    21509023.525        2204.727          43.000  
    371715.698    25171703.725       -3080.605          43.000  
   -432884.218    24368800.741        3575.748          43.000  
     82634.367    20537406.891        -705.257          43.000  
    249934.226    22749687.516       -2109.763          43.000  
 18  2 16  8 22 14.0000000  0  8G10G30G01G11G03G05G09G23            -0.000878826
    165446.891    21479296.851       -1412.873          43.000  
   -435942.989    22784905.680        3527.192          43.000  
   -162381.598    22499704.656        1280.640          43.000  
   -273170.448    21508604.068        2203.885          43.000  
    374796.300    25172289.972       -3080.506          43.000  
   -436459.776    24368120.342        3575.427          43.000  
     83339.798    20537541.159        -705.596          43.000  
    252044.041    22750088.979       -2109.739          42.000  
 18  2 16  8 22 15.0000000  0  8G10G30G01G11G03G05G09G23            -0.000878664
    166860.431    21479565.816       -1414.029          43.000  
   -439469.829    22784234.556        3526.554          43.000  
   -163661.689    22499461.065        1279.627          43.000  
   -275373.712    21508184.807        2202.811          42.000  
    377876.955    25172876.218       -3080.709          43.000  
   -440034.834    24367440.069        3574.839          43.000  
     84045.744    20537675.481        -706.118          43.000  
    254154.085    22750490.532       -2110.065          42.000  
 18  2 16  8 22 16.0000000  0  8G10G30G01G11G03G05G09G23            -0.000878503
    168274.892    21479834.995       -1414.990          43.000  
   -442996.333    22783563.467        3526.328          42.000  
   -164940.872    22499217.635        1278.675          43.000  
   -277576.019    21507765.725        2201.797          43.000  
    380957.583    25173462.430       -3080.611          42.000  
   -443609.432    24366759.848        3574.362          43.000  
     84752.177    20537809.891        -706.673          43.000  
    256264.305    22750892.102       -2110.353          42.000  
 18  2 16  8 22 17.0000000  0  8G10G30G01G11G03G05G09G23            -0.000878341
    169690.303    21480104.334       -1415.828          43.000  
   -446522.401    22782892.485        3525.943          43.000  
   -166219.056    22498974.420        1277.664          43.000  
   -279777.355    21507346.839        2200.981          42.000  
    384038.284    25174048.677       -3080.619          43.000  
   -447183.498    24366079.736        3573.917          43.000  
     85459.165    20537944.427        -707.159          43.000  
    258374.764    22751293.727       -2110.442          43.000  
 18  2 16  8 22 18.0000000  0  8G10G30G01G11G03G05G09G23            -0.000878180
    171106.483    21480373.817       -1416.144          43.000  
   -450048.262    22782221.521        3526.047          43.000  
   -167496.463    22498731.348        1277.143          43.000  
   -281977.903    21506928.096        2200.501          43.000  
    387118.858    25174634.888       -3080.259          43.000  
   -450757.220    24365399.658        3573.835          42.000  
     86166.518    20538079.053        -707.355          43.000  
    260485.296    22751695.351       -2110.302          43.000  
 18  2 16  8 22 19.0000000  0  8G10G30G01G11G03G05G09G23            -0.000878017
    172523.545    21480643.478       -1417.394          43.000  
   -453573.780    22781550.646        3525.480          43.000  
   -168772.951    22498488.454        1276.137          43.000  
   -284177.558    21506509.532        2199.226          43.000  
    390199.420    25175221.099       -3080.442          43.000  
   -454330.482    24364719.706        3573.176          43.000  
     86874.364    20538213.767        -708.060          43.000  
    262596.045    22752097.029       -2110.810          42.000  
 18  2 16  8 22 20.0000000  0  8G10G30G01G11G03G05G09G23            -0.000877856
    173941.292    21480913.265       -1418.174          43.000  
   -457099.181    22780879.790        3525.245          43.000  
   -170048.732    22498245.686        1275.360          42.000  
   -286376.553    21506091.094        2198.624          43.000  
    393279.773    25175807.274       -3080.257          43.000  
   -457903.484    24364039.808        3572.945          43.000  
     87582.499    20538348.517        -708.328          43.000  
    264706.782    22752498.688       -2110.714          42.000  
 18  2 16  8 22 21.0000000  0  8G10G30G01G11G03G05G09G23            -0.000877696
    175359.954    21481183.230       -1419.352          43.000  
   -460624.202    22780209.004        3524.520          43.000  
   -171323.534    22498003.114        1274.114          43.000  
   -288574.595    21505672.815        2197.387          43.000  
    396360.210    25176393.468       -3080.703          43.000  
   -461475.943    24363359.999        3571.966          43.000  
     88291.216    20538483.357        -709.261          43.000  
    266817.835    22752900.384       -2111.471          43.000  
 18  2 16  8 22 22.0000000  0  8G10G30G01G11G03G05G09G23            -0.000877534
    176779.535    21481453.374       -1419.836          43.000  
   -464148.861    22779538.308        3524.601          43.000  
   -172597.361    22497760.702        1273.360          42.000  
   -290771.743    21505254.734        2196.976          43.000  
    399440.709    25176979.679       -3080.464          43.000  
   -465047.890    24362680.261        3571.767          42.000  
     89000.494    20538618.304        -709.485          43.000  
    268929.163    22753302.169       -2111.383          43.000  
 18  2 16  8 22 23.0000000  0  8G10G30G01G11G03G05G09G23            -0.000877372
    178199.840    21481723.643       -1420.431          43.000  
   -467673.304    22778867.630        3524.632          43.000  
   -173870.394    22497518.452        1272.910          43.000  
   -292968.187    21504836.760        2196.278          43.000  
    402521.118    25177565.872       -3080.120          43.000  
   -468619.468    24362000.613        3571.621          43.000  
     89710.201    20538753.358        -709.685          43.000  
    271040.659    22753703.972       -2111.400          43.000  
 18  2 16  8 22 24.0000000  0  8G10G30G01G11G03G05G09G23            -0.000877210
    179621.149    21481994.109       -1421.700          43.000  
   -471197.290    22778197.006        3523.870          43.000  
   -175142.344    22497276.434        1271.471          43.000  
   -295163.643    21504418.982        2195.049          42.000  
    405601.718    25178152.083       -3080.666          43.000  
   -472190.415    24361321.090        3570.686          43.000  
     90420.594    20538888.555        -710.624          43.000  
    273152.568    22754105.864       -2112.022          43.000  
 18  2 16  8 22 25.0000000  0  8G10G30G01G11G03G05G09G23            -0.000877050
    181043.208    21482264.735       -1422.262          43.000  
   -474721.049    22777526.489        3523.759          42.000  
   -176413.471    22497034.541        1270.900          43.000  
   -297358.367    21504001.329        2194.341          43.000  
    408682.266    25178738.294       -3080.400          43.000  
   -475760.988    24360641.656        3570.552          43.000  
     91131.446    20539023.859        -710.953          43.000  
    275264.677    22754507.774       -2112.005          42.000  
 18  2 16  8 22 26.0000000  0  8G10G30G01G11G03G05G09G23            -0.000876889
    182466.002    21482535.486       -1422.784          42.000  
   -478244.620    22776855.954        3523.808          43.000  
   -177683.776    22496792.809        1270.057          43.000  
   -299552.421    21503583.819        2194.229          43.000  
    411762.762    25179324.506       -3080.164          43.000  
   -479331.179    24359962.276        3570.245          43.000  
     91842.752    20539159.217        -711.320          42.000  
    277376.993    22754909.774       -2112.159          43.000  
 18  2 16  8 22 27.0000000  0  8G10G30G01G11G03G05G09G23            -0.000876729
    183889.513    21482806.399       -1424.115          43.000  
   -481767.943    22776185.490        3523.116          43.000  
   -178953.255    22496551.256        1268.922          43.000  
   -301745.794    21503166.435        2192.773          42.000  
    414843.258    25179910.699       -3080.651          43.000  
   -482900.960    24359282.931        3569.451          42.000  
     92554.554    20539294.664        -712.264          42.000  
    279489.556    22755311.773       -2112.797          43.000  
 18  2 16  8 22 28.0000000  0  8G10G30G01G11G03G05G09G23            -0.000876573
    185313.881    21483077.454       -1424.588          43.000  
   -485290.944    22775515.098        3523.197          43.000  
   -180221.780    22496309.863        1268.316          43.000  
   -303938.375    21502749.193        2192.418          43.000  
    417923.855    25180496.910       -3080.381          43.000  
   -486470.251    24358603.729        3569.377          43.000  
     93266.941    20539430.272        -712.332          43.000  
    281602.483    22755713.844       -2112.781          43.000  
 18  2 16  8 22 29.0000000  0  8G10G30G01G11G03G05G09G23            -0.000876411
    186739.105    21483348.634       -1425.519          43.000  
   -488813.570    22774844.777        3522.528          43.000  
   -181489.337    22496068.631        1267.148          43.000  
   -306130.135    21502332.112        2191.366          43.000  
    421004.603    25181083.175       -3080.786          43.000  
   -490038.983    24357924.635        3568.512          43.000  
     93979.991    20539565.952        -713.264          43.000  
    283715.833    22756116.004       -2113.499          43.000  
 18  2 16  8 22 30.0000000  0  8G10G30G01G11G03G05G09G23            -0.000876250
    188165.135    21483619.993       -1425.943          43.000  
   -492335.912    22774174.474        3522.426          43.000  
   -182755.997    22495827.578        1266.562          43.000  
   -308321.166    21501915.192        2191.309          43.000  
    424085.429    25181669.440       -3080.629          43.000  
   -493607.271    24357245.594        3568.298          43.000  
     94693.613    20539701.739        -713.557          43.000  
    285829.530    22756518.236       -2113.619          43.000  
 18  2 16  8 22 31.0000000  0  8G10G30G01G11G03G05G09G23            -0.000876090
    189591.852    21483891.477       -1427.089          43.000  
   -495858.023    22773504.243        3522.109          43.000  
   -184021.800    22495586.721        1265.573          43.000  
   -310511.596    21501498.362        2190.164          43.000  
    427166.316    25182255.686       -3080.872          43.000  
   -497175.147    24356566.643        3567.805          43.000  
     95407.775    20539837.615        -714.246          43.000  
    287943.558    22756920.521       -2114.182          43.000  
 18  2 16  8 22 32.0000000  0  8G10G30G01G11G03G05G09G23            -0.000875927
    191019.092    21484163.068       -1427.533          43.000  
   -499380.088    22772834.030        3522.078          43.000  
   -185286.972    22495345.990        1264.912          43.000  
   -312701.587    21501081.602        2189.667          43.000  
    430247.059    25182841.933       -3080.690          43.000  
   -500742.815    24355887.727        3567.518          43.000  
     96122.286    20539973.598        -714.671          43.000  
    290057.706    22757322.824       -2114.273          43.000  
 18  2 16  8 22 33.0000000  0  8G10G30G01G11G03G05G09G23            -0.000875767
    192447.214    21484434.838       -1428.481          42.000  
   -502901.734    22772163.888        3521.509          43.000  
   -186551.109    22495105.437        1263.711          43.000  
   -314890.783    21500665.022        2188.933          43.000  
    433328.060    25183428.216       -3081.024          43.000  
   -504309.910    24355208.937        3567.008          42.000  
     96837.528    20540109.688        -715.421          43.000  
    292172.384    22757725.235       -2114.786          43.000  
 18  2 16  8 22 34.0000000  0  8G10G30G01G11G03G05G09G23            -0.000875605
    193876.188    21484706.769       -1429.145          43.000  
   -506423.025    22771493.799        3521.197          43.000  
   -187814.308    22494865.063        1262.827          43.000  
   -317079.212    21500248.584        2188.553          43.000  
    436409.277    25184014.534       -3081.222          43.000  
   -507876.472    24354530.236        3566.367          43.000  
     97553.467    20540245.904        -716.200          43.000  
    294287.557    22758127.752       -2115.274          43.000  
 18  2 16  8 22 35.0000000  0  8G10G30G01G11G03G05G09G23            -0.000875444
    195305.795    21484978.789       -1430.062          43.000  
   -509944.068    22770823.782        3520.851          43.000  
   -189076.680    22494624.850        1261.981          43.000  
   -319267.157    21499832.218        2187.496          43.000  
    439490.586    25184600.871       -3081.374          43.000  
   -511442.657    24353851.624        3565.920          43.000  
     98269.959    20540382.227        -716.862          43.000  
    296403.112    22758530.324       -2115.807          43.000  
 18  2 16  8 22 36.0000000  0  8G10G30G01G11G03G05G09G23            -0.000875284
    196736.043    21485250.952       -1430.551          43.000  
   -513464.925    22770153.766        3520.734          43.000  
   -190338.259    22494384.797        1261.144          43.000  
   -321454.560    21499415.995        2187.107          43.000  
    442571.981    25185187.243       -3081.466          43.000  
   -515008.501    24353173.065        3565.624          43.000  
     98986.987    20540518.692        -717.286          43.000  
    298519.003    22758932.930       -2116.023          43.000  
 18  2 16  8 22 37.0000000  0  8G10G30G01G11G03G05G09G23            -0.000875123
    198166.994    21485523.258       -1431.173          42.000  
   -516985.506    22769483.820        3520.522          42.000  
   -191599.005    22494144.888        1260.463          43.000  
   -323641.370    21498999.843        2186.630          43.000  
    445653.525    25185773.633       -3081.441          43.000  
   -518573.948    24352494.596        3565.406          43.000  
     99704.620    20540655.230        -717.766          43.000  
    300635.334    22759335.645       -2116.362          43.000  
 18  2 16  8 22 38.0000000  0  8G10G30G01G11G03G05G09G23            -0.000874962
    199598.643    21485795.690       -1431.667          43.000  
   -520505.856    22768813.946        3520.405          43.000  
   -192858.933    22493905.139        1259.646          43.000  
   -325827.623    21498583.817        2186.644          42.000  
    448735.229    25186360.058       -3081.622          43.000  
   -522139.019    24351816.163        3565.091          43.000  
    100422.850    20540791.910        -718.400          42.000  
    302752.089    22759738.448       -2116.803          43.000  
 18  2 16  8 22 39.0000000  0  8G10G30G01G11G03G05G09G23            -0.000874801
    201030.837    21486068.228       -1432.544          43.000  
   -524025.971    22768144.090        3519.911          42.000  
   -194118.090    22493665.533        1258.774          42.000  
   -328013.486    21498167.862        2185.580          42.000  
    451817.063    25186946.502       -3081.966          42.000  
   -525703.737    24351137.819        3564.498          42.000  
    101141.649    20540928.715        -719.128          42.000  
    304869.247    22760141.341       -2117.320          43.000  
 18  2 16  8 22 40.0000000  0  8G10G30G01G11G03G05G09G23            -0.000874640
    202463.748    21486340.909       -1433.219          43.000  
   -527545.820    22767474.288        3519.859          42.000  
   -195376.406    22493426.071        1257.949          43.000  
   -330198.785    21497752.014        2185.020          43.000  
    454899.100    25187532.981       -3082.156          43.000  
   -529268.079    24350459.547        3564.170          43.000  
    101861.068    20541065.627        -719.637          43.000  
    306986.876    22760544.305       -2117.692          43.000  
 18  2 16  8 22 41.0000000  0  8G10G30G01G11G03G05G09G23            -0.000874478
    203897.155    21486613.644       -1433.678          42.000  
   -531065.542    22766804.521        3519.765          43.000  
   -196634.065    22493186.751        1257.400          43.000  
   -332383.748    21497336.237        2184.891          43.000  
    457981.188    25188119.514       -3082.031          42.000  
   -532832.205    24349781.328        3563.000          43.000  
    102580.973    20541202.629        -720.010          43.000  
    309104.841    22760947.341       -2117.977          43.000  
 18  2 16  8 22 42.0000000  0  8G10G30G01G11G03G05G09G23            -0.000874319
    205331.111    21486886.522       -1433.754          43.000  
   -534585.094    22766134.790        3519.782          43.000  
   -197891.030    22492947.556        1256.826          42.000  
   -334568.265    21496920.532        2185.063          43.000  
    461063.399    25188706.029       -3081.903          43.000  
   -536396.099    24349103.145        3564.083          43.000  
    103301.398    20541339.720        -720.374          42.000  
    311223.183    22761350.431       -2118.230          42.000  
 18  2 16  8 22 43.0000000  0  8G10G30G01G11G03G05G09G23            -0.000874159
    206765.529    21487159.471       -1434.797          42.000  
   -538104.471    22765465.059        3519.112          43.000  
   -199147.307    22492708.504        1255.858          43.000  
   -336752.555    21496504.899        2183.781          42.000  
    464145.757    25189292.597       -3082.617          42.000  
   -539959.729    24348425.016        3563.376          43.000  
    104022.358    20541476.919        -721.350          42.000  
    313341.920    22761753.627       -2119.053          43.000  
 18  2 16  8 22 44.0000000  0  8G10G30G01G11G03G05G09G23            -0.000873999
    208200.573    21487432.546       -1435.397          42.000  
   -541623.613    22764795.400        3519.004          43.000  
   -200402.818    22492469.578        1255.128          43.000  
   -338936.404    21496089.337        2183.552          43.000  
    467228.317    25189879.183       -3082.652          43.000  
   -543523.069    24347746.922        3563.242          42.000  
    104743.913    20541614.224        -721.829          43.000  
    315461.130    22762156.895       -2119.468          43.000  
 18  2 16  8 22 45.0000000  0  8G10G30G01G11G03G05G09G23            -0.000873836
    209636.193    21487705.727       -1435.584          43.000  
   -545142.509    22764125.794        3519.125          43.000  
   -201657.616    22492230.794        1254.806          42.000  
   -341119.842    21495673.828        2183.517          43.000  
    470311.106    25190465.806       -3082.557          42.000  
   -547086.119    24347068.882        3563.252          43.000  
    105466.079    20541751.655        -722.204          43.000  
    317580.813    22762560.253       -2119.649          43.000  
 18  2 16  8 22 46.0000000  0  8G10G30G01G11G03G05G09G23            -0.000873680
    211072.322    21487979.016       -1436.076          43.000  
   -548661.238    22763456.206        3518.736          43.000  
   -202911.749    22491992.153        1253.951          43.000  
   -343302.926    21495258.409        2183.477          43.000  
    473394.059    25191052.481       -3083.031          43.000  
   -550648.983    24346390.878        3562.864          43.000  
    106188.741    20541889.175        -722.804          43.000  
    319700.891    22762963.682       -2120.148          43.000  
 18  2 16  8 22 47.0000000  0  8G10G30G01G11G03G05G09G23            -0.000873517
    212508.816    21488252.376       -1436.860          43.000  
   -552179.852    22762786.653        3518.384          43.000  
   -204165.302    22491753.619        1253.114          43.000  
   -345485.906    21494842.990        2182.326          43.000  
    476477.121    25191639.157       -3083.327          43.000  
   -554211.725    24345712.927        3562.550          43.000  
    106911.882    20542026.802        -723.446          43.000  
    321821.331    22763367.200       -2120.740          43.000  
 18  2 16  8 22 48.0000000  0  8G10G30G01G11G03G05G09G23            -0.000873358
    213945.896    21488525.862       -1437.204          43.000  
   -555698.183    22762117.137        3518.269          43.000  
   -205418.115    22491515.229        1252.557          43.000  
   -347668.499    21494427.661        2182.445          43.000  
    479560.476    25192225.904       -3083.413          42.000  
   -557774.179    24345035.012        3562.399          43.000  
    107635.674    20542164.519        -723.998          43.000  
    323942.302    22763770.790       -2121.104          43.000  
 18  2 16  8 22 49.0000000  0  8G10G30G01G11G03G05G09G23            -0.000873200
    215383.498    21488799.454       -1437.851          43.000  
   -559216.288    22761447.674        3517.975          42.000  
   -206670.251    22491276.981        1251.789          43.000  
   -349850.777    21494012.385        2182.034          43.000  
    482644.088    25192812.723       -3083.778          43.000  
   -561336.428    24344357.168        3562.117          43.000  
    108360.040    20542302.360        -724.705          43.000  
    326063.756    22764174.487       -2121.706          43.000  
 18  2 16  8 22 50.0000000  0  8G10G30G01G11G03G05G09G23            -0.000873050
    216821.858    21489073.154       -1438.343          42.000  
   -562733.930    22760778.300        3517.607          42.000  
   -207921.510    22491038.876        1250.954          43.000  
   -352032.461    21493597.216        2182.080          43.000  
    485728.183    25193399.578       -3084.168          43.000  
   -564898.258    24343679.379        3561.735          42.000  
    109085.205    20542440.345        -725.485          43.000  
    328185.904    22764578.309       -2122.271          43.000  
 18  2 16  8 22 51.0000000  0  8G10G30G01G11G03G05G09G23            -0.000872890
    218260.531    21489346.908       -1438.646          43.000  
   -566251.466    22760108.927        3517.711          42.000  
   -209172.247    22490800.897        1250.680          43.000  
   -354214.130    21493182.065        2181.323          43.000  
    488812.429    25193986.504       -3084.115          43.000  
   -568460.046    24343001.589        3561.935          43.000  
    109810.812    20542578.455        -725.633          43.000  
    330308.412    22764982.238       -2122.392          43.000  
 18  2 16  8 22 52.0000000  0  8G10G30G01G11G03G05G09G23            -0.000872732
    219699.609    21489620.768       -1439.204          43.000  
   -569768.835    22759439.607        3517.480          43.000  
   -210422.435    22490562.989        1250.162          43.000  
   -356395.617    21492766.949        2181.487          43.000  
    491896.868    25194573.465       -3084.283          43.000  
   -572021.739    24342323.817        3561.888          43.000  
    110536.912    20542716.636        -726.096          43.000  
    332431.346    22765386.221       -2122.964          43.000  
 18  2 16  8 22 53.0000000  0  8G10G30G01G11G03G05G09G23            -0.000872573
    221139.057    21489894.701       -1439.472          43.000  
   -573286.087    22758770.287        3517.383          43.000  
   -211672.102    22490325.170        1249.522          43.000  
   -358576.946    21492351.852        2181.342          42.000  
    494981.489    25195160.463       -3084.528          43.000  
   -575583.409    24341646.062        3561.833          42.000  
    111263.470    20542854.888        -726.489          43.000  
    334554.624    22765790.257       -2123.290          42.000  
 18  2 16  8 22 54.0000000  0  8G10G30G01G11G03G05G09G23            -0.000872415
    222579.016    21490168.704       -1439.880          43.000  
   -576803.074    22758101.038        3517.002          43.000  
   -212921.165    22490087.476        1248.946          43.000  
   -360757.957    21491936.826        2181.581          43.000  
    498066.417    25195747.496       -3084.897          43.000  
   -579144.924    24340968.326        3561.484          43.000  
    111990.616    20542993.248        -727.268          43.000  
    336678.424    22766194.383       -2123.889          43.000  
 18  2 16  8 22 55.0000000  0  8G10G30G01G11G03G05G09G23            -0.000872258
    224019.555    21490442.833       -1440.994          43.000  
   -580319.626    22757431.843        3516.253          43.000  
   -214169.424    22489849.943        1247.746          42.000  
   -362938.701    21491521.836        2180.181          43.000  
    501151.856    25196334.636       -3085.783          43.000  
   -582706.143    24340290.643        3560.931          43.000  
    112718.508    20543131.751        -728.376          43.000  
    338802.894    22766598.670       -2124.922          43.000  
 18  2 16  8 22 56.0000000  0  8G10G30G01G11G03G05G09G23            -0.000872099
    225460.869    21490717.122       -1441.333          43.000  
   -583835.606    22756762.773        3516.113          43.000  
   -215416.792    22489612.571        1247.378          42.000  
   -365118.905    21491106.953        2180.282          43.000  
    504237.919    25196921.884       -3086.007          43.000  
   -586266.948    24339613.050        3561.048          43.000  
    113447.271    20543270.415        -728.762          43.000  
    340928.158    22767003.082       -2125.260          43.000  
 18  2 16  8 22 57.0000000  0  8G10G30G01G11G03G05G09G23            -0.000871940
    226902.545    21490991.465       -1441.567          43.000  
   -587351.427    22756093.739        3516.047          43.000  
   -216663.668    22489375.306        1246.877          43.000  
   -367298.986    21490692.106        2180.221          42.000  
    507324.222    25197509.185       -3086.241          43.000  
   -589827.757    24338935.439        3561.054          42.000  
    114176.503    20543409.186        -729.177          42.000  
    343053.818    22767407.565       -2125.557          43.000  
 18  2 16  8 22 58.0000000  0  8G10G30G01G11G03G05G09G23            -0.000871783
    228344.635    21491265.880       -1442.344          43.000  
   -590867.038    22755424.741        3515.380          43.000  
   -217910.045    22489138.131        1246.049          42.000  
   -369478.840    21490277.276        2180.060          43.000  
    510410.794    25198096.522       -3086.857          43.000  
   -593388.549    24338257.828        3560.665          43.000  
    114906.226    20543548.028        -730.087          43.000  
    345179.922    22767812.155       -2126.441          43.000  
 18  2 16  8 23  1.0000000  0  8G10G30G01G11G03G05G09G23            -0.000871310
    232673.531    21492089.660       -1443.450          43.000  
   -601412.030    22753418.085        3514.656          43.000  
   -221645.693    22488427.265        1244.608          43.000  
   -376017.552    21489033.003        2179.365          43.000  
    519672.831    25199858.997       -3087.789          42.000  
   -604070.429    24336225.065        3560.573          43.000  
    117098.872    20543965.270        -731.564          43.000  
    351561.309    22769026.480       -2127.701          43.000  
 18  2 16  8 23  2.0000000  0  8G10G30G01G11G03G05G09G23            -0.000871152
    234117.526    21492364.432       -1444.070          43.000  
   -604926.313    22752749.337        3514.143          43.000  
   -222889.702    22488190.536        1243.755          43.000  
   -378196.539    21488618.352        2179.334          43.000  
    522761.047    25200446.656       -3088.480          43.000  
   -607630.880    24335547.544        3560.445          43.000  
    117830.976    20544104.576        -732.363          43.000  
    353689.539    22769431.464       -2128.423          43.000  
 18  2 16  8 23  3.0000000  0  8G10G30G01G11G03G05G09G23            -0.000870995
    235562.016    21492639.311       -1444.598          42.000  
   -608440.178    22752080.678        3513.759          42.000  
   -224133.064    22487953.933        1243.105          43.000  
   -380375.389    21488203.737        2178.714          43.000  
    525849.757    25201034.404       -3088.786          43.000  
   -611191.175    24334870.057        3560.330          43.000  
    118563.728    20544244.008        -732.839          42.000  
    355818.371    22769836.555       -2128.940          42.000  
 18  2 16  8 23  4.0000000  0  8G10G30G01G11G03G05G09G23            -0.000870837
    237007.042    21492914.297       -1445.234          43.000  
   -611953.640    22751412.091        3513.343          42.000  
   -225375.831    22487717.454        1242.527          43.000  
   -382553.950    21487789.194        2178.436          43.000  
    528938.963    25201622.277       -3089.319          43.000  
   -614751.388    24334192.571        3560.261          43.000  
    119297.124    20544383.565        -733.592          42.000  
    357947.783    22770241.771       -2129.575          42.000  
 18  2 16  8 23  5.0000000  0  8G10G30G01G11G03G05G09G23            -0.000870679
    238452.476    21493189.355       -1445.391          43.000  
   -615466.796    22750743.575        3513.262          43.000  
   -226618.113    22487481.047        1242.366          43.000  
   -384732.344    21487374.650        2178.568          43.000  
    532028.538    25202210.203       -3089.490          43.000  
   -618311.635    24333515.085        3560.603          43.000  
    120031.015    20544523.230        -733.854          42.000  
    360077.641    22770647.076       -2129.818          43.000  
 18  2 16  8 23  6.0000000  0  8G10G30G01G11G03G05G09G23            -0.000870521
    239898.357    21493464.502       -1445.808          42.000  
   -618979.619    22750075.095        3512.803          42.000  
   -227859.883    22487244.765        1241.803          43.000  
   -386910.499    21486960.142        2178.762          43.000  
    535118.522    25202798.201       -3089.942          43.000  
   -621871.889    24332837.581        3560.515          43.000  
    120765.448    20544663.001        -734.505          43.000  
    362207.979    22771052.488       -2130.330          42.000  
 18  2 16  8 23  7.0000000  0  8G10G30G01G11G03G05G09G23            -0.000870364
    241344.876    21493739.757       -1446.785          42.000  
   -622491.879    22749406.704        3512.113          43.000  
   -229100.921    22487008.590        1240.846          43.000  
   -389088.378    21486545.706        2177.712          43.000  
    538209.159    25203386.324       -3090.828          43.000  
   -625431.939    24332160.149        3560.065          43.000  
    121500.640    20544802.880        -735.590          43.000  
    364339.025    22771458.026       -2131.342          43.000  
 18  2 16  8 23  8.0000000  0  8G10G30G01G11G03G05G09G23            -0.000870207
    242791.838    21494015.101       -1446.945          43.000  
   -626003.768    22748738.438        3512.017          42.000  
   -230341.453    22486772.522        1240.569          43.000  
   -391266.034    21486131.323        2177.819          43.000  
    541300.223    25203974.537       -3090.957          43.000  
   -628992.008    24331482.680        3560.293          43.000  
    122236.359    20544942.866        -735.832          43.000  
    366470.550    22771863.652       -2131.603          43.000  
 18  2 16  8 23  9.0000000  0  8G10G30G01G11G03G05G09G23            -0.000870051
    244239.237    21494290.516       -1447.570          43.000  
   -629515.304    22748070.208        3511.414          43.000  
   -231581.501    22486536.562        1239.767          43.000  
   -393443.495    21485716.977        2177.380          43.000  
    544391.711    25204562.839       -3091.683          43.000  
   -632552.136    24330805.194        3560.128          43.000  
    122972.585    20545082.977        -736.513          43.000  
    368602.517    22772269.333       -2132.223          43.000  
 18  2 16  8 23 10.0000000  0  8G10G30G01G11G03G05G09G23            -0.000869894
    245687.236    21494566.056       -1447.849          42.000  
   -633026.335    22747402.086        3511.218          43.000  
   -232820.947    22486300.691        1239.560          42.000  
   -395620.578    21485302.701        2177.669          43.000  
    547483.762    25205151.230       -3091.911          42.000  
   -636112.186    24330127.744        3560.492          43.000  
    123709.451    20545223.213        -736.684          43.000  
    370735.070    22772675.156       -2132.401          43.000  
 18  2 16  8 23 11.0000000  0  8G10G30G01G11G03G05G09G23            -0.000869737
    247135.640    21494841.686       -1448.634          43.000  
   -636536.997    22746734.052        3510.474          43.000  
   -234059.918    22486064.909        1238.704          43.000  
   -397797.601    21484888.426        2176.775          43.000  
    550576.248    25205739.710       -3092.779          43.000  
   -639672.291    24329450.293        3560.059          43.000  
    124446.839    20545363.556        -737.683          43.000  
    372868.075    22773081.069       -2133.243          42.000  
 18  2 16  8 23 12.0000000  0  8G10G30G01G11G03G05G09G23            -0.000869581
    248584.564    21495117.441       -1449.222          43.000  
   -640047.214    22746066.108        3509.927          43.000  
   -235298.355    22485829.270        1238.120          43.000  
   -399974.344    21484474.186        2176.531          43.000  
    553669.214    25206328.280       -3093.205          43.000  
   -643232.421    24328772.825        3560.047          43.000  
    125184.780    20545503.989        -738.336          43.000  
    375001.576    22773487.053       -2133.789          43.000  
 18  2 16  8 23 13.0000000  0  8G10G30G01G11G03G05G09G23            -0.000869424
    250034.023    21495393.267       -1449.626          43.000  
   -643556.947    22745398.218        3509.490          43.000  
   -236536.234    22485593.703        1237.653          42.000  
   -402150.768    21484060.054        2176.268          43.000  
    556762.728    25206916.940       -3093.771          43.000  
   -646792.535    24328095.357        3560.152          43.000  
    125923.301    20545644.511        -738.812          42.000  
    377135.610    22773893.162       -2134.365          43.000  
 18  2 16  8 23 14.0000000  0  8G10G30G01G11G03G05G09G23            -0.000869269
    251483.772    21495669.147       -1450.221          43.000  
   -647066.452    22744730.381        3508.985          43.000  
   -237773.834    22485358.189        1237.102          43.000  
   -404327.106    21483645.885        2176.252          42.000  
    559856.491    25207505.670       -3094.252          43.000  
   -650352.907    24327417.853        3560.104          43.000  
    126662.120    20545785.104        -739.255          43.000  
    379269.860    22774299.290       -2134.716          43.000  
 18  2 16  8 23 15.0000000  0  8G10G30G01G11G03G05G09G23            -0.000869112
    252934.066    21495945.116       -1450.361          43.000  
   -650575.477    22744062.651        3508.925          42.000  
   -239010.889    22485122.782        1236.960          42.000  
   -406503.226    21483231.771        2176.079          43.000  
    562950.781    25208094.490       -3094.389          43.000  
   -653913.294    24326740.349        3560.513          43.000  
    127401.523    20545925.805        -739.508          43.000  
    381404.625    22774705.524       -2134.854          43.000  
 18  2 16  8 23 16.0000000  0  8G10G30G01G11G03G05G09G23            -0.000868954
    254384.957    21496221.210       -1450.955          42.000  
   -654083.952    22743395.011        3508.465          42.000  
   -240247.362    22484887.465        1236.519          43.000  
   -408678.983    21482817.745        2175.714          43.000  
    566045.636    25208683.435       -3094.826          43.000  
   -657473.653    24326062.791        3560.600          43.000  
    128141.510    20546066.613        -739.944          43.000  
    383539.905    22775111.866       -2135.231          43.000  
 18  2 16  8 23 17.0000000  0  8G10G30G01G11G03G05G09G23            -0.000868798
    255836.405    21496497.430       -1451.585          43.000  
   -657591.899    22742727.460        3507.850          42.000  
   -241483.270    22484652.273        1235.785          43.000  
   -410854.394    21482403.792        2175.347          42.000  
    569141.041    25209272.470       -3095.543          43.000  
   -661034.005    24325385.287        3560.456          43.000  
    128882.081    20546207.546        -740.638          42.000  
    385675.702    22775518.296       -2135.917          42.000  
 18  2 16  8 23 18.0000000  0  8G10G30G01G11G03G05G09G23            -0.000868642
    257288.453    21496773.756       -1452.449          43.000  
   -661099.297    22742060.016        3507.055          42.000  
   -242718.623    22484417.206        1235.042          42.000  
   -413029.374    21481989.891        2174.931          42.000  
    572236.984    25209861.612       -3096.161          42.000  
   -664594.365    24324707.783        3560.330          43.000  
    129623.226    20546348.586        -741.450          43.000  
    387811.969    22775924.835       -2136.478          42.000  
 18  2 16  8 23 19.0000000  0  8G10G30G01G11G03G05G09G23            -0.000868487
    258741.008    21497050.154       -1452.728          43.000  
   -664606.257    22741392.662        3506.783          42.000  
   -243953.521    22484182.211        1234.705          42.000  
   -415204.179    21481576.027        2174.744          43.000  
    575333.377    25210450.843       -3096.592          43.000  
   -668154.826    24324030.244        3560.476          42.000  
    130364.817    20546489.716        -741.708          43.000  
    389948.622    22776331.444       -2136.699          43.000  
 18  2 16  8 23 20.0000000  0  8G10G30G01G11G03G05G09G23            -0.000868331
    260194.001    21497326.624       -1453.274          43.000  
   -668112.811    22740725.397        3506.326          43.000  
   -245188.027    22483947.287        1234.280          42.000  
   -417378.726    21481162.234        2174.369          43.000  
    578430.154    25211040.145       -3097.006          43.000  
   -671715.459    24323352.668        3560.665          42.000  
    131106.822    20546630.935        -742.320          42.000  
    392085.594    22776738.072       -2137.238          43.000  
 18  2 16  8 23 21.0000000  0  8G10G30G01G11G03G05G09G23            -0.000868174
    261647.552    21497603.218       -1453.617          43.000  
   -671618.860    22740058.203        3505.992          42.000  
   -246422.021    22483712.470        1233.975          42.000  
   -419552.932    21480748.513        2174.195          43.000  
    581527.411    25211629.537       -3097.292          43.000  
   -675276.147    24322675.110        3560.903          42.000  
    131849.294    20546772.225        -742.430          43.000  
    394222.947    22777144.806       -2137.292          43.000  
 18  2 16  8 23 22.0000000  0  8G10G30G01G11G03G05G09G23            -0.000868018
    263101.688    21497879.920       -1454.273          43.000  
   -675124.360    22739391.117        3505.472          42.000  
   -247655.478    22483477.760        1233.402          43.000  
   -421726.691    21480334.863        2173.923          42.000  
    584625.189    25212219.018       -3097.766          43.000  
   -678836.879    24321997.517        3561.022          43.000  
    132592.317    20546913.605        -743.043          42.000  
    396360.730    22777551.613       -2137.616          43.000  
 18  2 16  8 23 23.0000000  0  8G10G30G01G11G03G05G09G23            -0.000867862
    264556.492    21498156.783       -1454.867          43.000  
   -678629.271    22738724.138        3504.840          42.000  
   -248888.370    22483243.140        1232.772          42.000  
   -423900.073    21479921.266        2173.282          43.000  
    587723.506    25212808.624       -3098.312          43.000  
   -682397.607    24321319.924        3560.949          42.000  
    133335.877    20547055.109        -743.665          42.000  
    398498.975    22777958.508       -2138.235          42.000  
 18  2 16  8 23 24.0000000  0  8G10G30G01G11G03G05G09G23            -0.000867707
    266011.807    21498433.717       -1455.457          43.000  
   -682133.707    22738057.266        3504.224          42.000  
   -250120.818    22483008.627        1232.236          43.000  
   -426073.131    21479507.741        2172.944          43.000  
    590822.233    25213398.284       -3098.790          43.000  
   -685958.465    24320642.330        3560.931          42.000  
    134079.839    20547196.668        -744.130          43.000  
    400637.516    22778365.475       -2138.728          43.000  
 18  2 16  8 23 25.0000000  0  8G10G30G01G11G03G05G09G23            -0.000867551
    267467.833    21498710.812       -1456.091          42.000  
   -685637.509    22737390.519        3503.709          43.000  
   -251352.663    22482774.221        1231.754          43.000  
   -428245.667    21479094.324        2172.564          42.000  
    593921.544    25213988.069       -3099.360          42.000  
   -689519.292    24319964.737        3561.055          42.000  
    134824.383    20547338.334        -744.533          42.000  
    402776.501    22778772.514       -2138.897          42.000  
 18  2 16  8 23 26.0000000  0  8G10G30G01G11G03G05G09G23            -0.000867395
    268924.259    21498987.960       -1456.586          43.000  
   -689140.945    22736723.843        3503.399          43.000  
   -252584.170    22482539.869        1231.509          43.000  
   -430417.902    21478680.959        2172.258          43.000  
    597021.128    25214577.908       -3099.536          43.000  
   -693080.363    24319287.072        3561.335          43.000  
    135569.208    20547480.035        -744.862          42.000  
    404915.658    22779179.552       -2139.030          43.000  
 18  2 16  8 23 27.0000000  0  8G10G30G01G11G03G05G09G23            -0.000867240
    270381.610    21499265.288       -1457.646          43.000  
   -692643.562    22736057.329        3502.344          42.000  
   -253814.899    22482305.695        1230.502          42.000  
   -432589.479    21478267.738        2171.394          42.000  
    600121.444    25215167.854       -3100.608          43.000  
   -696641.225    24318609.461        3560.872          42.000  
    136314.760    20547621.897        -745.822          42.000  
    407055.419    22779586.751       -2139.875          43.000  
 18  2 16  8 23 28.0000000  0  8G10G30G01G11G03G05G09G23            -0.000867085
    271839.658    21499542.776       -1458.185          43.000  
   -696145.540    22735390.904        3501.771          43.000  
   -255045.038    22482071.593        1230.046          43.000  
   -434760.511    21477854.606        2170.925          42.000  
    603222.270    25215757.925       -3100.888          43.000  
   -700202.081    24317931.850        3560.950          42.000  
    137060.827    20547763.884        -746.152          43.000  
    409195.571    22779994.004       -2140.152          43.000  
 18  2 16  8 23 29.0000000  0  8G10G30G01G11G03G05G09G23            -0.000866929
    273298.527    21499820.407       -1459.102          43.000  
   -699646.781    22734724.657        3501.065          43.000  
   -256274.460    22481837.652        1229.317          43.000  
   -436930.862    21477441.600        2170.161          42.000  
    606323.743    25216348.138       -3101.682          43.000  
   -703762.808    24317254.274        3560.800          42.000  
    137807.540    20547905.961        -746.970          43.000  
    411336.217    22780401.364       -2140.713          43.000  
 18  2 16  8 23 30.0000000  0  8G10G30G01G11G03G05G09G23            -0.000866775
    274757.000    21500098.163       -1459.922          43.000  
   -703147.478    22734058.482        3500.620          43.000  
   -257503.388    22481603.782        1228.854          42.000  
   -439100.722    21477028.700        2169.648          43.000  
    609425.619    25216938.406       -3102.015          43.000  
   -707323.616    24316576.663        3560.948          43.000  
    138554.650    20548048.127        -747.175          43.000  
    413477.131    22780808.760       -2140.874          43.000  
 18  2 16  8 23 31.0000000  0  8G10G30G01G11G03G05G09G23            -0.000866619
    276218.211    21500376.008       -1460.313          43.000  
   -706647.565    22733392.432        3500.013          43.000  
   -258731.754    22481370.037        1228.241          43.000  
   -441270.056    21476615.890        2169.246          43.000  
    612527.950    25217528.763       -3102.353          43.000  
   -710884.448    24315899.052        3560.961          43.000  
    139302.225    20548190.382        -747.600          43.000  
    415618.358    22781216.245       -2141.205          43.000  
 18  2 16  8 23 32.0000000  0  8G10G30G01G11G03G05G09G23            -0.000866463
    277679.042    21500653.997       -1461.301          42.000  
   -710147.103    22732726.507        3499.083          43.000  
   -259959.619    22481136.400        1227.432          43.000  
   -443438.893    21476203.169        2168.500          43.000  
    615630.671    25218119.173       -3103.101          43.000  
   -714445.359    24315221.423        3560.727          43.000  
    140050.198    20548332.727        -748.294          42.000  
    417759.829    22781623.748       -2141.803          43.000  
 18  2 16  8 23 33.0000000  0  8G10G30G01G11G03G05G09G23            -0.000866310
    279140.616    21500932.128       -1462.103          43.000  
   -713646.024    22732060.672        3498.370          43.000  
   -261186.896    22480902.852        1226.759          43.000  
   -445607.096    21475790.556        2167.691          43.000  
    618733.842    25218709.691       -3103.568          42.000  
   -718006.265    24314543.812        3560.719          42.000  
    140798.638    20548475.143        -748.771          43.000  
    419901.595    22782031.305       -2142.145          42.000  
 18  2 16  8 23 34.0000000  0  8G10G30G01G11G03G05G09G23            -0.000866148
    280602.898    21501210.384       -1462.693          43.000  
   -717144.310    22731394.961        3498.166          42.000  
   -262413.581    22480669.411        1226.559          42.000  
   -447774.678    21475378.085        2167.390          43.000  
    621837.471    25219300.315       -3103.727          42.000  
   -721567.157    24313866.182        3561.064          42.000  
    141547.548    20548617.666        -749.021          42.000  
    422043.651    22782438.915       -2142.066          43.000  
 18  2 16  8 23 35.0000000  0  8G10G30G01G11G03G05G09G23            -0.000865994
    282066.043    21501488.802       -1463.424          43.000  
   -720641.937    22730729.376        3497.382          42.000  
   -263639.634    22480436.113        1225.812          43.000  
   -449941.574    21474965.757        2166.707          43.000  
    624941.550    25219890.976       -3104.161          42.000  
   -725128.005    24313188.571        3560.930          42.000  
    142296.931    20548760.261        -749.466          42.000  
    424186.016    22782846.615       -2142.394          43.000  
 18  2 16  8 23 37.0000000  0  8G10G30G01G11G03G05G09G23            -0.000865688
    284994.473    21502046.047       -1464.664          43.000  
   -727635.364    22729398.563        3496.300          43.000  
   -266090.003    22479969.821        1224.834          42.000  
   -454273.467    21474141.441        2165.574          43.000  
    631150.887    25221072.583       -3104.753          43.000  
   -732249.709    24311833.367        3561.071          43.000  
    143796.956    20549045.665        -750.180          43.000  
    428471.448    22783662.122       -2142.733          43.000  
 18  2 16  8 23 38.0000000  0  8G10G30G01G11G03G05G09G23            -0.000865535
    286459.751    21502324.857       -1465.689          42.000  
   -731131.196    22728733.352        3495.657          43.000  
   -267314.345    22479736.827        1224.230          43.000  
   -456438.427    21473729.471        2164.498          43.000  
    634256.086    25221663.494       -3105.192          43.000  
   -735810.586    24311155.755        3561.000          43.000  
    144547.552    20549188.510        -750.596          43.000  
    430614.449    22784069.928       -2142.927          43.000  
 18  2 16  8 23 39.0000000  0  8G10G30G01G11G03G05G09G23            -0.000865382
    287925.891    21502603.847       -1466.347          43.000  
   -734626.419    22728068.232        3494.990          43.000  
   -268538.084    22479503.940        1223.525          42.000  
   -458602.691    21473317.626        2164.010          43.000  
    637361.645    25222254.458       -3105.648          43.000  
   -739371.442    24310478.162        3560.826          43.000  
    145298.555    20549331.444        -751.105          43.000  
    432757.653    22784477.789       -2143.199          43.000  
 18  2 16  8 23 40.0000000  0  8G10G30G01G11G03G05G09G23            -0.000865228
    289392.815    21502882.996       -1467.082          43.000  
   -738120.991    22727403.218        3494.364          43.000  
   -269761.173    22479271.196        1222.870          43.000  
   -460766.210    21472905.923        2163.339          43.000  
    640467.593    25222845.494       -3106.009          42.000  
   -742932.252    24309800.569        3560.891          43.000  
    146050.000    20549474.450        -751.639          43.000  
    434901.088    22784885.667       -2143.481          43.000  
 18  2 16  8 23 41.0000000  0  8G10G30G01G11G03G05G09G23            -0.000865075
    290860.410    21503162.271       -1467.866          43.000  
   -741615.083    22726738.312        3493.819          43.000  
   -270983.796    22479038.559        1222.444          43.000  
   -462929.125    21472494.346        2162.710          43.000  
    643573.745    25223436.565       -3106.299          43.000  
   -746493.135    24309122.940        3560.932          42.000  
    146801.698    20549617.492        -751.823          43.000  
    437044.566    22785293.545       -2143.498          43.000  
 18  2 16  8 23 42.0000000  0  8G10G30G01G11G03G05G09G23            -0.000864921
    292329.038    21503441.725       -1469.207          43.000  
   -745108.309    22726073.566        3493.122          42.000  
   -272205.515    22478806.047        1221.546          42.000  
   -465091.028    21472082.948        2161.478          43.000  
    646680.473    25224027.762       -3106.757          43.000  
   -750053.722    24308445.382        3560.694          42.000  
    147554.058    20549760.676        -752.410          42.000  
    439188.472    22785701.531       -2143.822          43.000  
 18  2 16  8 23 43.0000000  0  8G10G30G01G11G03G05G09G23            -0.000864769
    293798.483    21503721.357       -1469.450          42.000  
   -748600.964    22725408.928        3492.657          43.000  
   -273426.667    22478573.660        1221.140          43.000  
   -467252.173    21471671.692        2161.152          43.000  
    649787.464    25224619.012       -3106.926          43.000  
   -753614.310    24307767.824        3560.925          43.000  
    148306.743    20549903.914        -752.505          43.000  
    441332.473    22786109.552       -2143.711          43.000  
 18  2 16  8 23 44.0000000  0  8G10G30G01G11G03G05G09G23            -0.000864616
    295268.699    21504001.133       -1470.625          43.000  
   -752093.066    22724744.415        3491.847          43.000  
   -274647.237    22478341.381        1220.326          43.000  
   -469412.604    21471260.597        2160.195          43.000  
    652894.695    25225210.316       -3107.366          43.000  
   -757174.882    24307090.285        3560.593          43.000  
    149059.773    20550047.224        -753.203          43.000  
    443476.571    22786517.538       -2144.069          43.000  
 18  2 16  8 23 45.0000000  0  8G10G30G01G11G03G05G09G23            -0.000864462
    296739.741    21504281.069       -1471.215          42.000  
   -755584.560    22724080.009        3491.373          43.000  
   -275867.138    22478109.227        1219.812          43.000  
   -471572.224    21470849.628        2159.444          43.000  
    656002.207    25225801.656       -3107.447          43.000  
   -760735.373    24306412.763        3560.623          43.000  
    149813.176    20550190.605        -753.393          43.000  
    445620.815    22786925.577       -2144.090          43.000  
 18  2 16  8 23 46.0000000  0  8G10G30G01G11G03G05G09G23            -0.000864309
    298211.624    21504561.148       -1472.582          43.000  
   -759075.403    22723415.710        3490.531          43.000  
   -277086.361    22477877.233        1218.926          43.000  
   -473730.992    21470438.837        2158.019          43.000  
    659110.032    25226393.085       -3107.977          43.000  
   -764295.742    24305735.223        3560.378          43.000  
    150567.004    20550334.039        -754.018          43.000  
    447765.218    22787333.652       -2144.525          43.000  
 18  2 16  8 23 47.0000000  0  8G10G30G01G11G03G05G09G23            -0.000864159
    299684.525    21504841.459       -1473.338          43.000  
   -762565.567    22722751.572        3489.738          43.000  
   -278304.826    22477645.365        1218.004          42.000  
   -475888.797    21470028.225        2157.409          43.000  
    662218.190    25226984.567       -3108.405          43.000  
   -767855.933    24305057.755        3560.054          43.000  
    151321.272    20550477.599        -754.545          43.000  
    449909.815    22787741.762       -2144.781          43.000  
 18  2 16  8 23 48.0000000  0  8G10G30G01G11G03G05G09G23            -0.000864005
    301158.217    21505121.896       -1473.929          43.000  
   -766055.197    22722087.505        3489.489          43.000  
   -279522.680    22477413.603        1217.717          42.000  
   -478045.805    21469617.791        2156.757          43.000  
    665326.530    25227576.067       -3108.313          43.000  
   -771416.076    24304380.287        3560.308          43.000  
    152075.858    20550621.195        -754.656          43.000  
    452054.455    22788149.855       -2144.478          43.000  
 18  2 16  8 23 49.0000000  0  8G10G30G01G11G03G05G09G23            -0.000863851
    302632.739    21505402.493       -1474.798          43.000  
   -769544.242    22721423.546        3488.848          43.000  
   -280739.870    22477181.985        1216.915          42.000  
   -480201.981    21469207.447        2155.833          42.000  
    668435.070    25228167.621       -3108.521          43.000  
   -774976.115    24303702.818        3560.075          43.000  
    152830.786    20550764.844        -755.056          43.000  
    454199.178    22788557.966       -2144.651          42.000  
 18  2 16  8 23 50.0000000  0  8G10G30G01G11G03G05G09G23            -0.000863701
    304108.262    21505683.269       -1475.916          43.000  
   -773032.543    22720759.748        3488.258          42.000  
   -281956.213    22476950.546        1216.284          43.000  
   -482357.136    21468797.335        2154.635          43.000  
    671543.980    25228759.247       -3108.705          43.000  
   -778535.867    24303025.404        3559.948          43.000  
    153586.233    20550908.618        -755.365          43.000  
    456344.145    22788966.130       -2144.736          43.000  
 18  2 16  8 23 51.0000000  0  8G10G30G01G11G03G05G09G23            -0.000863546
    305584.450    21505964.170       -1476.534          43.000  
   -776520.567    22720096.003        3487.779          43.000  
   -283172.154    22476719.124        1215.563          43.000  
   -484511.627    21468387.366        2154.117          42.000  
    674652.791    25229350.819       -3108.794          43.000  
   -782095.780    24302347.971        3559.800          43.000  
    154341.737    20551052.392        -755.681          42.000  
    458488.894    22789374.259       -2144.828          42.000  
 18  2 16  8 23 52.0000000  0  8G10G30G01G11G03G05G09G23            -0.000863394
    307061.534    21506245.250       -1477.622          43.000  
   -780007.992    22719432.383        3487.077          42.000  
   -284387.375    22476487.881        1214.783          43.000  
   -486665.210    21467977.540        2153.083          42.000  
    677761.803    25229942.444       -3109.235          43.000  
   -785655.527    24301670.592        3559.509          43.000  
    155097.621    20551196.202        -756.202          42.000  
    460633.721    22789782.405       -2144.983          43.000  
 18  2 16  8 23 53.0000000  0  8G10G30G01G11G03G05G09G23            -0.000863242
    308539.736    21506526.544       -1478.670          43.000  
   -783494.611    22718768.906        3486.408          43.000  
   -285601.647    22476256.781        1213.995          43.000  
   -488817.628    21467567.928        2151.971          43.000  
    680871.207    25230534.159       -3109.425          43.000  
   -789214.880    24300993.267        3559.283          42.000  
    155854.090    20551340.137        -756.679          43.000  
    462778.851    22790190.605       -2145.145          43.000  
 18  2 16  8 23 54.0000000  0  8G10G30G01G11G03G05G09G23            -0.000863087
    310018.792    21506807.963       -1479.544          43.000  
   -786980.659    22718105.537        3485.896          43.000  
   -286815.190    22476025.841        1213.321          43.000  
   -490969.165    21467158.513        2151.021          43.000  
    683980.774    25231125.910       -3109.560          43.000  
   -792774.055    24300315.977        3559.173          42.000  
    156610.912    20551484.161        -756.829          43.000  
    464924.032    22790598.823       -2145.049          43.000  
 18  2 16  8 23 55.0000000  0  8G10G30G01G11G03G05G09G23            -0.000862925
    311498.902    21507089.615       -1480.306          43.000  
   -790466.089    22717442.310        3485.351          43.000  
   -288027.946    22475795.099        1212.622          43.000  
   -493119.611    21466749.295        2150.300          43.000  
    687090.532    25231717.678       -3109.597          43.000  
   -796332.994    24299638.723        3559.022          42.000  
    157368.141    20551628.239        -757.170          43.000  
    467069.332    22791007.040       -2145.071          42.000  
 18  2 16  8 23 56.0000000  0  8G10G30G01G11G03G05G09G23            -0.000862771
    312979.985    21507371.463       -1481.636          43.000  
   -793950.902    22716779.173        3484.437          42.000  
   -289239.882    22475564.463        1211.506          43.000  
   -495269.055    21466340.290        2149.004          43.000  
    690200.486    25232309.482       -3110.068          43.000  
   -799891.650    24298961.541        3558.439          43.000  
    158125.794    20551772.424        -757.859          42.000  
    469214.747    22791415.312       -2145.520          42.000  
 18  2 16  8 23 57.0000000  0  8G10G30G01G11G03G05G09G23            -0.000862618
    314462.005    21507653.472       -1482.526          43.000  
   -797435.134    22716116.143        3483.976          42.000  
   -290451.041    22475334.007        1210.749          42.000  
   -497417.490    21465931.465        2147.965          43.000  
    693310.592    25232901.322       -3110.219          43.000  
   -803450.073    24298284.394        3558.251          42.000  
    158883.832    20551916.663        -758.253          43.000  
    471360.234    22791823.583       -2145.606          42.000  
 18  2 16  8 23 58.0000000  0  8G10G30G01G11G03G05G09G23            -0.000862465
    315944.910    21507935.659       -1483.288          43.000  
   -800918.813    22715453.220        3483.688          43.000  
   -291661.429    22475103.675        1210.259          43.000  
   -499564.994    21465522.801        2147.036          43.000  
    696420.799    25233493.180       -3110.041          43.000  
   -807008.275    24297607.301        3558.424          43.000  
    159642.222    20552060.973        -758.316          43.000  
    473505.761    22792231.873       -2145.319          43.000  
 18  2 16  8 23 59.0000000  0  8G10G30G01G11G03G05G09G23            -0.000862313
    317428.774    21508218.043       -1484.324          43.000  
   -804402.012    22714790.386        3482.826          43.000  
   -292871.095    22474873.486        1209.120          42.000  
   -501711.477    21465114.333        2146.064          43.000  
    699531.058    25234085.038       -3110.442          43.000  
   -810566.266    24296930.226        3557.744          42.000  
    160400.923    20552205.337        -758.975          43.000  
    475651.295    22792640.144       -2145.722          42.000  
 18  2 16  8 24  0.0000000  0  8G10G30G01G11G03G05G09G23            -0.000862161
    318913.728    21508500.606       -1485.187          43.000  
   -807884.518    22714127.696        3482.389          43.000  
   -294079.821    22474643.476        1208.432          43.000  
   -503856.822    21464706.079        2145.129          43.000  
    702641.555    25234676.949       -3110.430          43.000  
   -814123.861    24296253.240        3557.694          42.000  
    161160.137    20552349.808        -759.225          43.000  
    477797.015    22793048.469       -2145.631          43.000  
 18  2 16  8 24  1.0000000  0  8G10G30G01G11G03G05G09G23            -0.000862006
    320399.677    21508783.366       -1486.312          43.000  
   -811366.437    22713465.112        3481.756          43.000  
   -295287.692    22474413.627        1207.576          43.000  
   -506001.095    21464298.040        2143.831          43.000  
    705752.187    25235268.878       -3110.557          43.000  
   -817681.109    24295576.326        3557.167          43.000  
    161919.776    20552494.369        -759.713          43.000  
    479942.829    22793456.830       -2145.702          43.000  
 18  2 16  8 24  2.0000000  0  8G10G30G01G11G03G05G09G23            -0.000861854
    321886.715    21509066.357       -1487.426          42.000  
   -814847.653    22712802.636        3481.182          43.000  
   -296494.570    22474183.938        1206.675          43.000  
   -508144.224    21463890.215        2142.541          43.000  
    708863.070    25235860.897       -3110.774          43.000  
   -821237.901    24294899.501        3556.784          43.000  
    162679.962    20552639.036        -760.150          42.000  
    482088.887    22793865.226       -2145.896          43.000  
 18  2 16  8 24  3.0000000  0  8G10G30G01G11G03G05G09G23            -0.000861702
    323374.773    21509349.528       -1488.444          43.000  
   -818328.337    22712140.267        3480.440          43.000  
   -297700.624    22473954.446        1205.623          43.000  
   -510286.246    21463482.605        2141.599          43.000  
    711974.024    25236452.898       -3110.988          43.000  
   -824794.404    24294222.712        3556.464          43.000  
    163440.537    20552783.793        -760.770          42.000  
    484234.999    22794273.587       -2146.207          43.000  
 18  2 16  8 24  4.0000000  0  8G10G30G01G11G03G05G09G23            -0.000861549
    324863.788    21509632.877       -1489.132          43.000  
   -821808.520    22711478.005        3480.265          43.000  
   -298905.850    22473725.098        1205.094          42.000  
   -512427.253    21463075.191        2140.849          42.000  
    715085.027    25237044.898       -3110.729          43.000  
   -828350.566    24293546.012        3556.270          42.000  
    164201.472    20552928.586        -760.762          43.000  
    486381.143    22794681.984       -2145.828          43.000  
 18  2 16  8 24  5.0000000  0  8G10G30G01G11G03G05G09G23            -0.000861396
    326353.746    21509916.387       -1490.330          43.000  
   -825288.206    22710815.851        3479.606          43.000  
   -300110.248    22473495.909        1204.079          43.000  
   -514567.234    21462667.974        2139.634          43.000  
    718196.065    25237636.899       -3110.952          42.000  
   -831906.422    24292869.330        3555.791          43.000  
    164962.805    20553073.468        -761.473          42.000  
    488527.342    22795090.398       -2146.177          43.000  
 18  2 16  8 24  6.0000000  0  8G10G30G01G11G03G05G09G23            -0.000861243
    327844.595    21510200.093       -1491.151          42.000  
   -828767.419    22710153.804        3479.258          43.000  
   -301313.835    22473266.846        1203.408          43.000  
   -516706.254    21462260.900        2138.478          43.000  
    721307.116    25238228.918       -3110.887          42.000  
   -835461.978    24292192.719        3555.612          42.000  
    165724.478    20553218.439        -761.732          43.000  
    490673.563    22795498.848       -2145.992          42.000  
 18  2 16  8 24  7.0000000  0  8G10G30G01G11G03G05G09G23            -0.000861091
    329336.410    21510483.978       -1492.079          43.000  
   -832246.197    22709491.810        3478.680          43.000  
   -302516.621    22473037.998        1202.508          43.000  
   -518844.234    21461854.058        2137.697          43.000  
    724418.136    25238820.919       -3110.869          43.000  
   -839017.241    24291516.180        3555.316          43.000  
    166486.475    20553363.482        -762.017          42.000  
    492819.781    22795907.245       -2146.004          43.000  
 18  2 16  8 24  8.0000000  0  8G10G30G01G11G03G05G09G23            -0.000860939
    330829.254    21510768.060       -1493.267          43.000  
   -835724.432    22708829.923        3477.947          43.000  
   -303718.484    22472809.292        1201.436          43.000  
   -520981.113    21461447.430        2136.500          43.000  
    727529.245    25239412.937       -3111.137          43.000  
   -842572.073    24290839.695        3554.700          43.000  
    167248.939    20553508.579        -762.634          43.000  
    494966.142    22796315.713       -2146.418          43.000  
 18  2 16  8 24  9.0000000  0  8G10G30G01G11G03G05G09G23            -0.000860787
    332323.088    21511052.321       -1494.243          43.000  
   -839202.162    22708168.126        3477.560          43.000  
   -304919.429    22472580.783        1200.503          43.000  
   -523116.914    21461040.999        2135.413          43.000  
    730640.409    25240004.974       -3111.108          43.000  
   -846126.499    24290163.334        3554.341          43.000  
    168011.846    20553653.747        -763.075          43.000  
    497112.595    22796724.163       -2146.426          43.000  
 18  2 16  8 24 10.0000000  0  8G10G30G01G11G03G05G09G23            -0.000860635
    333817.848    21511336.760       -1495.410          43.000  
   -842679.408    22707506.418        3476.908          43.000  
   -306119.505    22472352.417        1199.567          43.000  
   -525251.718    21460634.747        2134.088          43.000  
    733751.596    25240597.010       -3111.246          43.000  
   -849680.525    24289487.028        3553.793          42.000  
    168775.153    20553798.986        -763.589          43.000  
    499259.128    22797132.631       -2146.613          43.000  
 18  2 16  8 24 11.0000000  0  8G10G30G01G11G03G05G09G23            -0.000860482
    335313.750    21511621.431       -1496.137          42.000  
   -846156.067    22706844.836        3476.544          43.000  
   -307318.557    22472124.265        1198.755          43.000  
   -527385.288    21460228.745        2133.203          43.000  
    736862.922    25241189.082       -3111.118          43.000  
   -853234.038    24288810.810        3553.500          43.000  
    169539.012    20553944.333        -763.941          43.000  
    501405.883    22797541.153       -2146.656          43.000  
 18  2 16  8 24 12.0000000  0  8G10G30G01G11G03G05G09G23            -0.000860330
    336810.633    21511906.281       -1497.202          43.000  
   -849632.254    22706183.360        3476.065          43.000  
   -308516.700    22471896.257        1197.796          43.000  
   -529517.811    21459822.940        2132.140          43.000  
    739974.279    25241781.154       -3111.297          43.000  
   -856787.111    24288134.682        3553.037          43.000  
    170303.309    20554089.769        -764.429          43.000  
    503552.737    22797949.674       -2146.756          43.000  
 18  2 16  8 24 13.0000000  0  8G10G30G01G11G03G05G09G23            -0.000860178
    338308.473    21512191.292       -1498.236          43.000  
   -853107.993    22705521.956        3475.569          43.000  
   -309713.954    22471668.444        1196.920          42.000  
   -531649.304    21459417.331        2131.040          43.000  
    743085.633    25242373.245       -3111.324          42.000  
   -860339.772    24287458.626        3552.466          43.000  
    171068.019    20554235.276        -764.844          43.000  
    505699.689    22798358.214       -2146.949          43.000  
 18  2 16  8 24 14.0000000  0  8G10G30G01G11G03G05G09G23            -0.000860026
    339807.147    21512476.500       -1498.996          43.000  
   -856583.396    22704860.606        3475.458          43.000  
   -310910.384    22471440.775        1196.233          43.000  
   -533779.915    21459011.883        2130.297          43.000  
    746196.892    25242965.299       -3111.040          43.000  
   -863892.105    24286782.640        3552.358          43.000  
    171833.069    20554380.837        -765.032          43.000  
    507846.644    22798766.753       -2146.772          43.000  
 18  2 16  8 24 15.0000000  0  8G10G30G01G11G03G05G09G23            -0.000859874
    341306.751    21512761.886       -1499.882          43.000  
   -860058.390    22704199.363        3474.927          43.000  
   -312105.951    22471213.267        1195.336          43.000  
   -535909.479    21458606.613        2129.266          43.000  
    749308.106    25243557.335       -3111.047          43.000  
   -867444.046    24286106.745        3551.859          43.000  
    172598.524    20554526.505        -765.511          43.000  
    509993.684    22799175.310       -2146.967          43.000  
 18  2 16  8 24 16.0000000  0  8G10G30G01G11G03G05G09G23            -0.000859723
    342807.251    21513047.433       -1500.899          43.000  
   -863533.031    22703538.155        3474.562          43.000  
   -313300.657    22470985.919        1194.363          43.000  
   -538038.101    21458201.540        2128.250          43.000  
    752419.261    25244149.372       -3111.020          43.000  
   -870995.593    24285430.920        3551.351          43.000  
    173364.359    20554672.245        -765.935          43.000  
    512140.782    22799583.903       -2147.143          43.000  
 18  2 16  8 24 17.0000000  0  8G10G30G01G11G03G05G09G23            -0.000859571
    344308.626    21513333.123       -1501.784          43.000  
   -867007.324    22702877.019        3474.209          43.000  
   -314494.508    22470758.733        1193.385          42.000  
   -540165.774    21457796.664        2127.149          43.000  
    755530.344    25244741.408       -3111.059          43.000  
   -874546.772    24284755.132        3551.054          43.000  
    174130.584    20554818.056        -766.471          43.000  
    514287.931    22799992.497       -2147.143          43.000  
 18  2 16  8 24 18.0000000  0  8G10G30G01G11G03G05G09G23            -0.000859419
    345811.030    21513618.991       -1502.659          43.000  
   -870481.094    22702215.973        3473.813          43.000  
   -315687.329    22470531.760        1192.462          43.000  
   -542292.373    21457391.966        2126.300          43.000  
    758641.530    25245333.427       -3111.034          43.000  
   -878097.376    24284079.504        3550.688          43.000  
    174897.372    20554963.975        -766.829          43.000  
    516435.343    22800401.161       -2147.248          43.000  
 18  2 16  8 24 19.0000000  0  8G10G30G01G11G03G05G09G23            -0.000859266
    347314.295    21513905.056       -1503.475          43.000  
   -873954.551    22701554.997        3473.528          43.000  
   -316879.324    22470304.931        1191.765          43.000  
   -544418.046    21456987.447        2125.451          43.000  
    761752.611    25245925.463       -3110.732          43.000  
   -881647.601    24283403.912        3550.302          43.000  
    175664.517    20555109.965        -767.012          43.000  
    518582.808    22800809.826       -2147.250          43.000  
 18  2 16  8 24 20.0000000  0  8G10G30G01G11G03G05G09G23            -0.000859116
    348818.606    21514191.336       -1504.521          43.000  
   -877427.505    22700894.112        3472.988          43.000  
   -318070.275    22470078.298        1190.698          43.000  
   -546542.609    21456583.143        2124.284          43.000  
    764863.820    25246517.518       -3110.988          43.000  
   -885197.262    24282728.445        3549.790          43.000  
    176432.269    20555256.080        -767.717          43.000  
    520730.556    22801218.526       -2147.633          42.000  
 18  2 16  8 24 21.0000000  0  8G10G30G01G11G03G05G09G23            -0.000858965
    350323.687    21514477.723       -1505.304          43.000  
   -880900.209    22700233.297        3472.718          43.000  
   -319260.424    22469851.826        1189.835          43.000  
   -548666.372    21456178.999        2123.517          43.000  
    767974.868    25247109.536       -3110.760          43.000  
   -888746.570    24282053.032        3549.368          43.000  
    177200.348    20555402.230        -768.074          42.000  
    522878.325    22801627.244       -2147.612          42.000  
 18  2 16  8 24 22.0000000  0  8G10G30G01G11G03G05G09G23            -0.000858813
    351829.583    21514764.288       -1506.078          43.000  
   -884372.615    22699572.519        3472.316          43.000  
   -320449.735    22469625.497        1188.971          42.000  
   -550789.269    21455775.016        2122.606          43.000  
    771085.855    25247701.537       -3110.885          43.000  
   -892295.471    24281377.690        3548.799          42.000  
    177968.840    20555548.488        -768.628          43.000  
    525026.210    22802035.944       -2147.911          43.000  
 18  2 16  8 24 23.0000000  0  8G10G30G01G11G03G05G09G23            -0.000858663
    353336.407    21515051.033       -1507.212          43.000  
   -887844.640    22698911.812        3471.942          43.000  
   -321638.096    22469399.382        1188.089          42.000  
   -552911.191    21455371.230        2121.604          43.000  
    774196.842    25248293.520       -3110.844          43.000  
   -895843.900    24280702.419        3548.328          43.000  
    178737.831    20555694.800        -769.085          43.000  
    527174.283    22802444.716       -2148.046          42.000  
 18  2 16  8 24 24.0000000  0  8G10G30G01G11G03G05G09G23            -0.000858510
    354843.915    21515337.902       -1507.660          43.000  
   -891316.513    22698251.140        3472.020          43.000  
   -322825.730    22469173.357        1187.488          42.000  
   -555032.381    21454967.587        2121.022          43.000  
    777307.625    25248885.503       -3110.542          43.000  
   -899392.043    24280027.238        3548.159          43.000  
    179507.107    20555841.201        -769.229          43.000  
    529322.355    22802853.488       -2147.855          42.000  
 18  2 16  8 24 25.0000000  0  8G10G30G01G11G03G05G09G23            -0.000858360
    356352.105    21515624.896       -1508.516          43.000  
   -894788.213    22697590.487        3471.564          43.000  
   -324012.631    22468947.493        1186.564          43.000  
   -557152.871    21454564.068        2120.078          43.000  
    780418.218    25249477.432       -3110.515          43.000  
   -902939.900    24279352.111        3547.682          43.000  
    180276.707    20555987.673        -769.809          43.000  
    531470.452    22803262.278       -2148.059          43.000  
 18  2 16  8 24 26.0000000  0  8G10G30G01G11G03G05G09G23            -0.000858209
    357861.329    21515912.087       -1509.228          42.000  
   -898259.428    22696929.940        3471.458          43.000  
   -325198.458    22468721.843        1185.757          43.000  
   -559272.326    21454160.747        2119.514          43.000  
    783528.972    25250069.397       -3110.383          43.000  
   -906487.113    24278677.091        3547.284          43.000  
    181046.945    20556134.271        -770.181          43.000  
    533618.918    22803671.103       -2148.210          43.000  
 18  2 16  8 24 27.0000000  0  8G10G30G01G11G03G05G09G23            -0.000858059
    359371.257    21516199.421       -1510.076          43.000  
   -901730.433    22696269.430        3471.068          42.000  
   -326383.493    22468496.336        1184.804          43.000  
   -561391.039    21453757.550        2118.450          42.000  
    786639.594    25250661.326       -3110.383          43.000  
   -910033.994    24278002.142        3546.801          43.000  
    181817.563    20556280.922        -770.605          43.000  
    535767.481    22804079.946       -2148.421          43.000  
 18  2 16  8 24 28.0000000  0  8G10G30G01G11G03G05G09G23            -0.000857906
    360882.081    21516486.916       -1511.262          42.000  
   -905201.078    22695608.973        3470.422          43.000  
   -327567.565    22468271.025        1183.587          43.000  
   -563508.845    21453354.514        2117.328          43.000  
    789750.273    25251253.273       -3110.734          42.000  
   -913580.359    24277327.301        3546.146          43.000  
    182588.751    20556427.662        -771.534          43.000  
    537916.333    22804488.879       -2149.001          43.000  
 18  2 16  8 24 29.0000000  0  8G10G30G01G11G03G05G09G23            -0.000857755
    362393.805    21516774.589       -1512.073          43.000  
   -908671.333    22694948.605        3470.236          42.000  
   -328750.665    22468045.893        1182.745          43.000  
   -565625.761    21452951.675        2116.606          43.000  
    792861.033    25251845.203       -3110.764          43.000  
   -917126.185    24276652.566        3545.739          43.000  
    183360.497    20556574.510        -771.859          43.000  
    540065.493    22804897.847       -2149.192          43.000  
 18  2 16  8 24 30.0000000  0  8G10G30G01G11G03G05G09G23            -0.000857605
    363906.521    21517062.441       -1512.855          42.000  
   -912141.101    22694288.327        3469.662          42.000  
   -329932.692    22467820.958        1181.791          42.000  
   -567741.683    21452549.014        2115.858          43.000  
    795971.969    25252437.186       -3110.746          43.000  
   -920671.360    24275977.939        3545.137          43.000  
    184132.952    20556721.500        -772.495          42.000  
    542215.090    22805306.905       -2149.585          42.000  
 18  2 16  8 24 31.0000000  0  8G10G30G01G11G03G05G09G23            -0.000857454
    365419.842    21517350.436       -1513.475          42.000  
   -915610.767    22693628.067        3469.851          42.000  
   -331113.983    22467596.166        1181.110          42.000  
   -569857.012    21452146.479        2115.145          42.000  
    799082.759    25253029.151       -3110.502          42.000  
   -924216.238    24275303.401        3544.876          43.000  
    184905.761    20556868.545        -772.804          43.000  
    544364.780    22805715.980       -2149.561          42.000  
 18  2 16  8 24 32.0000000  0  8G10G30G01G11G03G05G09G23            -0.000857303
    366933.873    21517638.521       -1514.390          42.000  
   -919080.192    22692967.860        3469.327          43.000  
   -332294.460    22467371.516        1180.042          42.000  
   -571971.636    21451744.086        2114.283          43.000  
    802193.495    25253621.080       -3110.702          42.000  
   -927760.758    24274628.899        3544.361          42.000  
    185679.012    20557015.696        -773.500          42.000  
    546514.664    22806125.092       -2149.959          42.000  
 18  2 16  8 24 33.0000000  0  8G10G30G01G11G03G05G09G23            -0.000857159
    368448.853    21517926.820       -1515.526          43.000  
   -922549.186    22692307.724        3468.629          42.000  
   -333473.900    22467147.081        1178.853          42.000  
   -574085.335    21451341.890        2113.101          43.000  
    805304.427    25254213.080       -3111.182          43.000  
   -931304.644    24273954.505        3543.481          43.000  
    186452.956    20557162.955        -774.314          42.000  
    548665.012    22806534.274       -2150.722          43.000  
 18  2 16  8 24 34.0000000  0  8G10G30G01G11G03G05G09G23            -0.000857010
    369964.653    21518215.279       -1515.699          43.000  
   -926017.853    22691647.661        3468.872          43.000  
   -334652.413    22466922.807        1178.395          43.000  
   -576198.262    21450939.802        2113.193          42.000  
    808415.435    25254805.081       -3110.755          43.000  
   -934848.054    24273280.235        3543.493          42.000  
    187227.478    20557310.320        -774.477          43.000  
    550815.693    22806943.529       -2150.534          42.000  
 18  2 16  8 24 35.0000000  0  8G10G30G01G11G03G05G09G23            -0.000856857
    371480.894    21518503.793       -1516.309          43.000  
   -929486.511    22690987.615        3468.877          43.000  
   -335830.315    22466698.676        1177.771          42.000  
   -578310.783    21450537.802        2112.354          42.000  
    811526.213    25255397.046       -3110.446          43.000  
   -938391.288    24272605.983        3543.358          42.000  
    188002.272    20557457.758        -774.722          42.000  
    552966.410    22807352.783       -2150.515          43.000  
 18  2 16  8 24 36.0000000  0  8G10G30G01G11G03G05G09G23            -0.000856705
    372997.969    21518792.484       -1517.503          42.000  
   -932954.818    22690327.622        3468.273          43.000  
   -337007.270    22466474.724        1176.534          43.000  
   -580422.530    21450135.928        2111.310          42.000  
    814637.140    25255989.029       -3110.907          43.000  
   -941933.997    24271931.821        3542.516          43.000  
    188777.703    20557605.320        -775.698          43.000  
    555117.542    22807762.126       -2151.204          43.000  
 18  2 16  8 24 37.0000000  0  8G10G30G01G11G03G05G09G23            -0.000856554
    374515.606    21519081.284       -1517.682          43.000  
   -936423.018    22689667.630        3468.419          43.000  
   -338183.536    22466250.878        1176.221          43.000  
   -582533.770    21449734.179        2111.265          43.000  
    817747.958    25256581.012       -3110.475          42.000  
   -945476.453    24271257.694        3542.644          43.000  
    189553.510    20557752.972        -775.721          43.000  
    557268.848    22808171.506       -2151.079          43.000  
 18  2 16  8 24 38.0000000  0  8G10G30G01G11G03G05G09G23            -0.000856402
    376033.825    21519370.172       -1518.329          43.000  
   -939891.092    22689007.655        3467.919          43.000  
   -339359.080    22466027.176        1175.161          43.000  
   -584644.456    21449332.537        2110.697          43.000  
    820858.706    25257172.977       -3110.702          42.000  
   -949018.613    24270583.638        3541.996          43.000  
    190329.738    20557900.677        -776.452          43.000  
    559420.354    22808580.921       -2151.626          42.000  
 18  2 16  8 24 39.0000000  0  8G10G30G01G11G03G05G09G23            -0.000856251
    377552.671    21519659.186       -1519.180          43.000  
   -943358.945    22688347.770        3467.899          42.000  
   -340533.812    22465803.617        1174.493          43.000  
   -586754.639    21448930.984        2109.931          43.000  
    823969.519    25257764.942       -3110.717          43.000  
   -952560.390    24269909.655        3541.741          43.000  
    191106.496    20558048.472        -776.778          43.000  
    561572.189    22808990.425       -2151.829          42.000  
 18  2 16  8 24 40.0000000  0  8G10G30G01G11G03G05G09G23            -0.000856101
    379072.164    21519948.342       -1519.758          43.000  
   -946826.602    22687687.903        3467.748          43.000  
   -341707.760    22465580.236        1173.673          42.000  
   -588864.226    21448529.538        2109.326          43.000  
    827080.362    25258356.907       -3110.725          42.000  
   -956101.822    24269235.742        3541.321          42.000  
    191883.767    20558196.374        -777.416          43.000  
    563724.337    22809399.965       -2152.183          43.000  
 18  2 16  8 24 41.0000000  0  8G10G30G01G11G03G05G09G23            -0.000855950
    380592.151    21520237.570       -1520.287          43.000  
   -950294.170    22687028.036        3467.511          43.000  
   -342881.057    22465356.963        1172.919          42.000  
   -590973.410    21448128.182        2108.920          43.000  
    830191.123    25258948.872       -3110.701          43.000  
   -959643.040    24268561.848        3541.122          42.000  
    192661.430    20558344.365        -777.933          43.000  
    565876.702    22809809.523       -2152.575          43.000  
 18  2 16  8 24 42.0000000  0  8G10G30G01G11G03G05G09G23            -0.000855799
    382112.864    21520526.959       -1520.568          43.000  
   -953761.462    22686368.258        3467.538          43.000  
   -344053.500    22465133.850        1172.301          43.000  
   -593081.953    21447726.916        2108.986          43.000  
    833302.035    25259540.855       -3110.595          43.000  
   -963183.839    24267888.061        3541.077          43.000  
    193439.691    20558492.481        -778.236          43.000  
    568029.468    22810219.171       -2152.711          43.000  
 18  2 16  8 24 43.0000000  0  8G10G30G01G11G03G05G09G23            -0.000855648
    383634.041    21520816.437       -1521.415          42.000  
   -957228.618    22685708.480        3467.189          42.000  
   -345225.262    22464910.862        1171.581          43.000  
   -595190.172    21447325.738        2108.061          42.000  
    836412.962    25260132.873       -3110.828          42.000  
   -966724.354    24267214.345        3540.403          43.000  
    194218.416    20558640.651        -778.918          43.000  
    570182.515    22810628.890       -2153.122          43.000  
 18  2 16  8 24 44.0000000  0  8G10G30G01G11G03G05G09G23            -0.000855497
    385155.869    21521106.040       -1522.005          43.000  
   -960695.522    22685048.755        3466.890          42.000  
   -346396.218    22464688.036        1170.743          43.000  
   -597297.836    21446924.650        2107.534          42.000  
    839524.007    25260724.874       -3110.984          43.000  
   -970264.535    24266540.683        3540.144          43.000  
    194997.705    20558788.964        -779.398          43.000  
    572335.976    22811038.662       -2153.407          43.000  
 18  2 16  8 24 45.0000000  0  8G10G30G01G11G03G05G09G23            -0.000855346
    386678.393    21521395.769       -1522.890          43.000  
   -964162.115    22684389.085        3466.426          43.000  
   -347566.302    22464465.370        1169.693          43.000  
   -599404.932    21446523.687        2106.772          43.000  
    842635.281    25261316.928       -3111.349          42.000  
   -973804.275    24265867.092        3539.558          43.000  
    195777.658    20558937.402        -780.269          43.000  
    574489.937    22811448.542       -2154.203          43.000  
 18  2 16  8 24 46.0000000  0  8G10G30G01G11G03G05G09G23            -0.000855196
    388201.627    21521685.622       -1523.254          43.000  
   -967628.394    22683729.450        3466.243          43.000  
   -348735.543    22464242.901        1168.921          43.000  
   -601511.403    21446122.831        2106.694          43.000  
    845746.772    25261909.019       -3111.472          42.000  
   -977343.603    24265193.573        3539.291          42.000  
    196558.259    20559085.930        -780.768          43.000  
    576644.384    22811858.493       -2154.553          43.000  
 18  2 16  8 24 47.0000000  0  8G10G30G01G11G03G05G09G23            -0.000855044
    389725.586    21521975.619       -1524.151          43.000  
   -971094.241    22683069.904        3465.992          43.000  
   -349903.830    22464020.592        1168.080          43.000  
   -603617.356    21445722.065        2105.830          43.000  
    848858.618    25262501.180       -3111.677          42.000  
   -980882.420    24264520.143        3538.904          42.000  
    197339.630    20559234.618        -781.454          43.000  
    578799.452    22812268.605       -2155.023          43.000  
 18  2 16  8 24 48.0000000  0  8G10G30G01G11G03G05G09G23            -0.000854894
    391249.981    21522265.686       -1524.636          43.000  
   -974559.984    22682410.394        3465.728          43.000  
   -351071.499    22463798.409        1167.379          43.000  
   -605722.981    21445321.388        2105.473          42.000  
    851970.502    25263093.359       -3111.844          43.000  
   -984421.057    24263846.767        3538.615          43.000  
    198121.445    20559383.395        -782.031          43.000  
    580954.821    22812678.752       -2155.441          42.000  
 18  2 16  8 24 49.0000000  0  8G10G30G01G11G03G05G09G23            -0.000854745
    392774.862    21522555.897       -1524.891          43.000  
   -978025.594    22681750.920        3465.815          43.000  
   -352238.548    22463576.314        1167.103          43.000  
   -607828.280    21444920.746        2105.461          43.000  
    855082.464    25263685.557       -3111.671          43.000  
   -987959.502    24263173.426        3538.659          43.000  
    198903.726    20559532.244        -782.159          43.000  
    583110.533    22813088.972       -2155.514          43.000  
 18  2 16  8 24 50.0000000  0  8G10G30G01G11G03G05G09G23            -0.000854593
    394300.248    21522846.144       -1525.324          43.000  
   -981491.028    22681091.464        3465.331          43.000  
   -353404.915    22463354.363        1166.123          43.000  
   -609933.183    21444520.230        2105.275          43.000  
    858194.543    25264277.772       -3112.039          43.000  
   -991497.731    24262500.103        3538.195          42.000  
    199686.540    20559681.200        -783.052          42.000  
    585266.629    22813499.262       -2156.208          43.000  
 18  2 16  8 24 51.0000000  0  8G10G30G01G11G03G05G09G23            -0.000854445
    395825.971    21523136.480       -1525.873          43.000  
   -984956.370    22680432.043        3465.382          43.000  
   -354570.702    22463132.519        1165.517          43.000  
   -612037.983    21444119.714        2104.576          43.000  
    861306.719    25264870.005       -3112.221          43.000  
   -995035.819    24261826.817        3538.008          43.000  
    200469.789    20559830.246        -783.502          43.000  
    587423.048    22813909.606       -2156.533          43.000  
 18  2 16  8 24 52.0000000  0  8G10G30G01G11G03G05G09G23            -0.000854296
    397352.338    21523426.958       -1526.572          43.000  
   -988421.374    22679772.676        3464.951          43.000  
   -355735.694    22462910.836        1164.680          42.000  
   -614142.295    21443719.287        2104.160          43.000  
    864419.174    25265462.292       -3112.442          43.000  
   -998573.578    24261153.583        3537.803          43.000  
    201253.697    20559979.416        -784.105          43.000  
    589580.023    22814320.058       -2157.174          43.000  
 18  2 16  8 24 53.0000000  0  8G10G30G01G11G03G05G09G23            -0.000854147
    398879.228    21523717.491       -1527.384          43.000  
   -991886.132    22679113.363        3464.312          43.000  
   -356899.996    22462689.278        1163.637          43.000  
   -616246.251    21443318.913        2103.395          43.000  
    867531.875    25266054.614       -3113.230          43.000  
  -1002111.075    24260480.439        3537.065          43.000  
    202038.198    20560128.694        -785.108          43.000  
    591737.452    22814730.617       -2157.929          43.000  
 18  2 16  8 24 55.0000000  0  8G10G30G01G11G03G05G09G23            -0.000853852
    401934.293    21524298.860       -1528.000          43.000  
   -998815.154    22677794.790        3464.295          43.000  
   -359226.807    22462246.502        1162.824          43.000  
   -620453.452    21442518.310        2103.392          42.000  
    873757.743    25267239.348       -3113.166          43.000  
  -1009185.649    24259134.187        3537.148          42.000  
    203608.701    20560427.554        -785.810          43.000  
    596053.519    22815551.966       -2158.486          43.000  
 18  2 16  8 24 56.0000000  0  8G10G30G01G11G03G05G09G23            -0.000853703
    403462.495    21524589.660       -1528.596          43.000  
  -1002279.329    22677135.566        3463.903          43.000  
   -360389.246    22462025.301        1161.938          42.000  
   -622556.684    21442118.079        2102.960          43.000  
    876871.024    25267831.796       -3113.618          42.000  
  -1012722.665    24258461.132        3536.783          42.000  
    204394.775    20560577.135        -786.444          43.000  
    598212.231    22815962.757       -2159.065          43.000  
 18  2 16  8 24 57.0000000  0  8G10G30G01G11G03G05G09G23            -0.000853555
    404991.316    21524880.586       -1528.827          43.000  
  -1005743.130    22676476.431        3463.938          43.000  
   -361550.930    22461804.226        1161.697          43.000  
   -624659.500    21441717.938        2102.944          43.000  
    879984.709    25268424.314       -3113.566          42.000  
  -1016259.373    24257788.114        3536.855          43.000  
    205181.558    20560726.860        -786.782          43.000  
    600371.554    22816373.673       -2159.352          42.000  
 18  2 16  8 24 58.0000000  0  8G10G30G01G11G03G05G09G23            -0.000853406
    406520.576    21525171.583       -1529.160          43.000  
  -1009206.741    22675817.350        3463.653          43.000  
   -362712.024    22461583.275        1160.957          43.000  
   -626762.029    21441317.851        2102.952          43.000  
    883098.597    25269016.851       -3113.878          43.000  
  -1019795.977    24257115.130        3536.660          43.000  
    205968.849    20560876.709        -787.416          43.000  
    602531.294    22816784.679       -2159.827          43.000  
 18  2 16  8 24 59.0000000  0  8G10G30G01G11G03G05G09G23            -0.000853258
    408050.139    21525462.651       -1529.861          42.000  
  -1012670.181    22675158.269        3463.282          43.000  
   -363872.608    22461362.432        1160.289          43.000  
   -628864.560    21440917.763        2102.271          43.000  
    886212.688    25269609.460       -3114.188          43.000  
  -1023332.528    24256442.147        3536.447          43.000  
    206756.614    20561026.631        -788.040          43.000  
    604691.428    22817195.738       -2160.371          43.000  
 18  2 16  8 25  0.0000000  0  8G10G30G01G11G03G05G09G23            -0.000853109
    409580.145    21525753.809       -1530.345          43.000  
  -1016133.389    22674499.260        3463.059          43.000  
   -365032.583    22461141.696        1159.543          43.000  
   -630966.834    21440517.694        2102.001          43.000  
    889327.064    25270202.104       -3114.637          43.000  
  -1026868.950    24255769.200        3536.170          42.000  
    207544.929    20561176.659        -788.632          43.000  
    606852.034    22817606.886       -2160.929          43.000  
 18  2 16  8 25  1.0000000  0  8G10G30G01G11G03G05G09G23            -0.000852961
    411110.095    21526044.931       -1529.592          43.000  
  -1019596.831    22673840.196        3464.004          43.000  
   -366192.482    22460920.978        1160.293          43.000  
   -633069.387    21440117.624        2103.223          43.000  
    892441.228    25270794.712       -3113.667          43.000  
  -1030405.787    24255096.163        3537.531          43.000  
    208333.290    20561326.669        -788.071          43.000  
    609012.609    22818018.034       -2159.965          43.000  
 18  2 16  8 25  2.0000000  0  8G10G30G01G11G03G05G09G23            -0.000852811
    412639.916    21526336.071       -1530.665          43.000  
  -1023060.800    22673181.044        3463.974          43.000  
   -367352.593    22460700.224        1159.985          43.000  
   -635171.892    21439717.519        2099.690          43.000  
    895554.915    25271387.213       -3113.620          43.000  
  -1033943.282    24254422.983        3537.540          43.000  
    209121.425    20561476.644        -788.288          43.000  
    611172.889    22818429.111       -2160.338          43.000  
                            4  1
            *** END OF RINEX FILE***                        COMMENT
