     2.11           OBSERVATION DATA    M (MIXED)           RINEX VERSION / TYPE
NetR9 5.01          Receiver Operator   14-FEB-23 10:23:22  PGM / RUN BY / DATE
TQBL                                                        MARKER NAME
TQBL                                                        MARKER NUMBER
TQBL                TQBL                                    OBSERVER / AGENCY   
5034K69681          Trimble NetR9       5.01                REC # / TYPE / VERS
                    TRM59900.00     NONE                    ANT # / TYPE
 -1626343.5660  5730606.2916  2271881.4271                  APPROX POSITION XYZ
        0.0000        0.0000        0.0000                  ANTENNA: DELTA H/E/N
     1     1                                                WAVELENGTH FACT L1/2
    17    C1    L1    S1    P1    C2    L2    S2    P2    C5# / TYPES OF OBSERV
          L5    S5    C7    L7    S7    C8    L8    S8      # / TYPES OF OBSERV
     1.000                                                  INTERVAL
  2023     2    14    10    23   22.0000000     GPS         TIME OF FIRST OBS
L2C CARRIER PHASE MEASUREMENTS: PHASE SHIFTS REMOVED        COMMENT             
L2C PHASE MATCHES L2 P PHASE                                COMMENT             
GLONASS C/A & P PHASE MATCH: PHASE SHIFTS REMOVED           COMMENT             
GIOVE-A if present is mapped to satellite ID 51             COMMENT             
GIOVE-B if present is mapped to satellite ID 52             COMMENT             
                                                            END OF HEADER       
 23  2 14 10 23 22.0000000  0 21G30G17G19G 7G 1G14G 3G 6R20E33E 1E26 0.000000000
                                E31R22R11R21R10R 9R 5S27S37
  21959325.023 8 115397030.20018        45.000                    21959344.895 8
  89919836.08459        45.800    21959344.70349  21959348.359 9  86173121.39219
        50.300

  21780383.492 8 114456687.68818        45.300                    21780403.211 7
  89187110.41959        47.200    21780403.19949


  22422285.211 7 117829908.91917        43.000
  91815604.02458        32.300    22422306.99648


  23624796.891 5 124149162.46615        37.800                    23624814.832 5
  96739665.53858        32.100    23624815.16848


  23249751.945 5 122178251.72815        37.600                    23249779.102 6
  95203956.52256        22.600    23249779.77346  23249782.734 7  91237032.90117
        44.700

  20361133.258 8 106998477.61718        47.900                    20361150.086 9
  83375507.78159        43.100    20361150.00049  20361157.684 9  79901489.43819
        55.700

  22440179.125 7 117923932.10117        41.800                    22440203.098 7
  91888876.26859        41.300    22440202.63749  22440208.395 9  88060091.25319
        48.000

  21379791.953 8 112351565.63918        45.900                    21379813.070 8
  87546759.71559        49.800    21379812.71549  21379817.379 9  83898996.14519
        51.400

  21997001.078 5 117627904.59515        37.300    21997001.316 5  21997024.797 5
  91488420.64315        37.600    21997024.129 5


  23644651.063 9 124253479.77819        48.700
                                                  23644670.031 9  92786673.27719
        51.600    23644665.387 9  95207184.03719        52.700    23644667.750 9
  93997037.76719        58.500
  23974337.984 9 125985996.48719        49.800
                                                  23974357.266 9  94080529.05619
        50.700    23974352.859 9  96534785.18219        52.700    23974355.160 9
  95307656.72919        57.800
  26241140.180 7 137898121.51617        41.400
                                                  26241166.848 7 102975955.67317
        43.400    26241161.406 7 105662269.90617        43.900    26241164.395 9
 104319121.89819        49.700
  24491485.477 9 128703627.03319        48.900
                                                  24491508.512 9  96109845.64619
        48.800    24491503.871 9  98617058.93419        49.700    24491506.184 9
  97363474.89919        55.800
  22437694.758 7 119773932.12617        42.500    22437694.613 7  22437714.906 6
  93157508.89217        41.200    22437715.148 7


  20932894.063 9 111859047.54319        49.600    20932893.465 9  20932911.883 8
  87001475.15918        46.300    20932911.789 8


  20547114.094 9 109951755.56219        52.400    20547112.770 9  20547131.418 8
  85518031.48018        47.200    20547131.859 8


  19277938.539 8 102762260.62218        46.600    19277937.402 8



  21606454.094 8 115377239.75718        45.900    21606453.180 7  21606468.262 7
  89737864.36717        43.900    21606468.504 7


  24234305.953 5 129546330.05715        35.400    24234305.332 3  24234334.227 4
 100758296.88913        33.500    24234334.289 3


  38724136.391 6 203496710.11816        39.900



  36742888.906 7 193085199.38217        41.700



 23  2 14 10 23 23.0000000  0 21G30G17G19G 7G 1G14G 3G 6R20E33E 1E26 0.000000000
                                E31R22R11R21R10R 9R 5S27S37
  21959798.555 8 115399518.848 8        45.300                    21959818.160 8
  89921775.28949        45.900    21959818.13349  21959821.789 9  86174979.797 9
        49.900

  21780398.266 8 114456765.953 8        45.200                    21780418.051 7
  89187171.41449        47.200    21780418.28549


  22422076.422 7 117828813.733 7        43.000
  91814750.63148        32.600    22422098.69548


  23625454.359 5 124152620.936 5        37.300                    23625473.191 5
  96742360.45148        32.300    23625473.19548


  23250417.945 5 122181747.746 5        37.700                    23250444.473 6
  95206680.69246        23.000    23250444.89846  23250448.035 7  91239643.557 7
        44.600

  20361002.898 8 106997793.154 8        47.500                    20361020.367 9
  83374974.43849        43.200    20361020.23049  20361027.738 9  79900978.316 9
        55.700

  22440174.094 7 117923908.157 7        41.900                    22440198.289 7
  91888857.60749        41.500    22440197.88349  22440203.582 9  88060073.370 9
        48.400

  21379423.352 8 112349627.982 8        46.000                    21379444.234 8
  87545249.86249        49.500    21379443.82049  21379448.539 9  83897549.193 9
        51.300

  21997556.703 5 117630870.721 5        36.900    21997556.238 5  21997578.730 5
  91490727.624 5        37.400    21997578.586 5


  23644832.102 9 124254431.334 9        48.400
                                                  23644851.285 9  92787383.855 9
        51.500    23644846.688 9  95207913.152 9        52.900    23644848.957 9
  93997757.614 9        58.500
  23974468.508 9 125986682.144 9        49.400
                                                  23974488.055 9  94081041.076 9
        50.800    23974483.508 9  96535310.555 9        52.600    23974485.777 9
  95308175.427 9        57.800
  26241610.422 7 137900590.828 7        41.300
                                                  26241636.891 7 102977799.638 7
        43.100    26241631.453 7 105664161.978 7        44.000    26241634.422 9
 104320989.919 9        49.600
  24491142.180 9 128701823.192 9        48.800
                                                  24491165.086 9  96108498.627 9
        48.800    24491160.539 9  98615676.778 9        50.000    24491162.902 9
  97362110.312 9        55.800
  22437335.297 7 119772011.296 7        43.100    22437334.801 7  22437355.203 6
  93156014.916 6        40.700    22437355.211 6


  20932302.289 9 111855882.839 9        49.400    20932301.574 9  20932319.914 8
  86999013.726 8        45.800    20932319.547 8


  20547178.617 9 109952100.823 9        52.100    20547177.762 9  20547196.645 8
  85518300.015 8        47.200    20547196.832 8


  19278100.930 8 102763128.080 8        46.500    19278099.441 8



  21607155.109 8 115380983.077 8        45.800    21607154.898 7  21607170.336 8
  89740775.832 7        43.700    21607170.059 7


  24233999.555 5 129544689.621 5        35.800    24233998.816 3  24234027.023 4
 100757020.982 3        33.700    24234027.254 3


  38724138.297 6 203496720.069 6        40.100



  36742890.234 7 193085203.833 7        41.800



 23  2 14 10 23 24.0000000  0 21G30G17G19G 7G 1G14G 3G 6R20E33E 1E26 0.000000000
                                E31R22R11R21R10R 9R 5S27S37
  21960272.211 8 115402007.881 8        45.000                    21960291.832 8
  89923714.79449        45.900    21960291.70749  21960295.484 9  86176838.490 9
        50.200

  21780412.977 8 114456844.242 8        45.400                    21780432.711 7
  89187232.42049        47.200    21780432.94549


  22421868.219 7 117827718.634 7        43.200
  91813897.31248        32.100    22421890.19148


  23626112.844 5 124156079.508 5        37.100                    23626131.840 5
  96745055.44548        30.800    23626131.59448


  23251082.453 5 122185243.920 5        37.900                    23251109.586 6
  95209404.98646        22.500    23251110.16846  23251113.418 7  91242254.338 7
        44.900

  20360873.227 8 106997109.188 8        47.500                    20360889.773 9
  83374441.47449        43.100    20360889.92249  20360897.492 9  79900467.565 9
        55.700

  22440169.641 7 117923884.838 7        41.700                    22440194.094 7
  91888839.43749        41.600    22440193.59849  22440199.297 9  88060055.957 9
        48.000

  21379055.070 8 112347690.827 8        45.900                    21379075.777 8
  87543740.38849        49.600    21379075.38749  21379080.051 9  83896102.618 9
        51.400

  21998111.273 5 117633836.861 5        36.400    21998111.395 5  21998134.559 5
  91493034.629 5        37.200    21998133.969 5


  23645013.367 9 124255383.217 9        48.800
                                                  23645032.426 9  92788094.679 9
        51.700    23645027.785 9  95208642.517 9        52.400    23645030.137 9
  93998477.707 9        58.500
  23974599.086 9 125987368.200 9        49.500
                                                  23974618.715 9  94081553.390 9
        50.900    23974613.934 9  96535836.242 9        52.700    23974616.363 9
  95308694.424 9        57.900
  26242080.047 7 137903060.206 7        41.500
                                                  26242106.609 7 102979643.650 7
        43.000    26242101.215 7 105666054.089 7        44.000    26242104.242 9
 104322857.981 9        49.700
  24490799.078 9 128700019.574 9        49.000
                                                  24490822.008 9  96107151.784 9
        49.100    24490817.504 9  98614294.796 9        49.800    24490819.805 9
  97360745.895 9        55.800
  22436975.367 7 119770090.959 7        43.200    22436975.105 7  22436994.961 7
  93154521.321 7        41.300    22436995.484 7


  20931709.594 9 111852718.698 9        49.500    20931709.234 9  20931727.188 8
  86996552.740 8        46.100    20931727.180 8


  20547243.422 9 109952446.506 9        51.900    20547241.980 9  20547261.008 8
  85518568.880 8        47.100    20547261.309 8


  19278263.641 8 102763996.442 8        46.700    19278262.270 8



  21607856.406 8 115384726.826 8        46.000    21607855.375 7  21607870.992 8
  89743687.640 7        43.400    21607870.969 7


  24233693.617 5 129543049.612 5        36.200    24233692.406 3  24233721.004 4
 100755745.400 3        33.400    24233720.793 3


  38724140.063 6 203496730.003 6        39.900



  36742891.078 7 193085208.299 7        41.900



 23  2 14 10 23 25.0000000  0 21G30G17G19G 7G 1G14G 3G 6R20E33E 1E26 0.000000000
                                E31R22R11R21R10R 9R 5S27S37
  21960745.750 8 115404497.186 8        45.200                    21960765.840 8
  89925654.51649        45.800    21960765.41849  21960769.195 9  86178697.392 9
        49.900

  21780428.555 8 114456922.456 8        45.300                    21780447.961 7
  89187293.37149        47.300    21780448.05949


  22421660.711 7 117826623.558 7        43.200
  91813044.02248        32.200    22421681.81348


  23626770.633 5 124159537.978 5        37.300                    23626789.766 5
  96747750.35548        31.800    23626789.66848


  23251747.773 5 122188740.170 5        37.900                    23251775.289 6
  95212129.33546        22.900    23251775.61346  23251778.922 7  91244865.175 7
        44.700

  20360743.141 8 106996425.628 8        47.400                    20360759.598 9
  83373908.83449        43.200    20360759.79749  20360767.250 9  79899957.118 9
        56.100

  22440165.102 7 117923862.105 7        41.500                    22440189.816 7
  91888821.71849        41.600    22440189.55949  22440195.258 9  88060038.980 9
        48.000

  21378685.914 8 112345754.157 8        45.900                    21378707.441 8
  87542231.30149        49.500    21378707.06649  21378711.844 9  83894656.406 9
        51.300

  21998665.570 5 117636802.944 5        36.600    21998666.398 5  21998688.535 5
  91495341.575 5        37.300    21998688.465 5


  23645194.508 9 124256335.340 9        48.500
                                                  23645213.535 9  92788805.682 9
        51.600    23645208.801 9  95209372.068 9        52.300    23645211.227 9
  93999197.980 9        58.600
  23974729.781 9 125988054.558 9        49.900
                                                  23974749.305 9  94082065.933 9
        50.700    23974744.523 9  96536362.147 9        52.700    23974746.977 9
  95309213.648 9        57.800
  26242550.188 7 137905529.562 7        41.600
                                                  26242576.371 7 102981487.649 7
        43.200    26242570.887 7 105667946.193 7        43.900    26242573.938 9
 104324726.029 9        49.700
  24490455.695 9 128698216.117 9        49.000
                                                  24490478.910 9  96105805.054 9
        49.100    24490474.176 9  98612912.932 9        49.600    24490476.566 9
  97359381.602 9        55.800
  22436616.398 7 119768171.001 7        43.200    22436615.785 7  22436635.844 7
  93153028.016 6        40.800    22436636.281 6


  20931117.570 9 111849555.036 9        49.800    20931117.094 9  20931134.871 8
  86994092.128 8        46.300    20931135.195 8


  20547307.672 9 109952792.578 9        51.900    20547306.582 9  20547325.043 8
  85518838.043 8        47.100    20547325.625 8


  19278427.453 8 102764865.608 8        46.500    19278425.730 8



  21608558.297 8 115388470.980 8        45.900    21608555.977 7  21608571.680 8
  89746599.755 7        43.500    21608571.637 7


  24233386.523 5 129541409.800 5        35.500    24233385.551 3  24233413.957 4
 100754469.972 3        33.300    24233414.031 3


  38724143.266 6 203496739.916 6        40.100



  36742893.500 7 193085212.754 7        41.900



 23  2 14 10 23 26.0000000  0 21G30G17G19G 7G 1G14G 3G 6R20E33E 1E26 0.000000000
                                E31R22R11R21R10R 9R 5S27S37
  21961219.977 8 115406986.767 8        45.100                    21961239.488 8
  89927594.44949        45.900    21961239.28949  21961243.066 9  86180556.491 9
        50.100

  21780442.898 8 114457000.637 8        45.400                    21780462.973 7
  89187354.29349        47.300    21780462.74249


  22421451.758 7 117825528.526 7        43.000
  91812190.75848        32.000    22421473.43048


  23627429.109 5 124162996.449 5        37.700                    23627447.523 5
  96750445.26248        32.000    23627447.63748


  23252413.367 5 122192236.433 5        37.900                    23252440.383 6
  95214853.69646        23.000    23252440.82446  23252444.191 7  91247476.020 7
        44.700

  20360612.672 8 106995742.533 8        47.600                    20360629.477 9
  83373376.55749        43.100    20360629.66049  20360637.230 9  79899447.019 9
        56.000

  22440160.844 7 117923839.893 7        41.800                    22440185.328 7
  91888804.41549        41.400    22440185.27749  22440190.918 9  88060022.391 9
        48.300

  21378317.781 8 112343817.943 8        45.800                    21378338.852 8
  87540722.56749        49.700    21378338.52049  21378343.180 9  83893210.537 9
        51.500

  21999221.344 5 117639768.918 5        36.900    21999220.527 4  21999242.738 5
  91497648.446 5        37.900    21999242.703 5


  23645375.766 9 124257287.752 9        48.300
                                                  23645394.844 9  92789516.898 9
        51.400    23645390.250 9  95210101.835 9        51.800    23645392.559 9
  93999918.478 9        58.500
  23974860.398 9 125988741.281 9        50.400
                                                  23974879.754 9  94082578.749 9
        50.900    23974875.160 9  96536888.342 9        52.300    23974877.480 9
  95309733.154 9        57.800
  26243020.023 7 137907998.934 7        41.700
                                                  26243046.328 7 102983331.658 7
        42.800    26243040.844 7 105669838.307 7        43.800    26243043.938 9
 104326594.094 9        49.500
  24490112.680 9 128696412.828 9        49.100
                                                  24490135.637 9  96104458.449 9
        49.400    24490130.949 9  98611531.195 9        49.700    24490133.418 9
  97358017.427 9        55.800
  22436255.945 7 119766251.471 7        42.600    22436255.684 7  22436275.730 7
  93151535.049 6        40.500    22436276.324 6


  20930525.953 9 111846391.878 9        50.000    20930526.180 9  20930544.168 8
  86991631.910 8        46.400    20930544.215 8


  20547372.250 9 109953139.005 9        51.500    20547371.629 9  20547389.707 8
  85519107.490 8        47.000    20547390.793 8


  19278589.953 8 102765735.619 8        46.700    19278588.699 8



  21609259.414 8 115392215.511 8        46.000    21609258.031 7  21609273.422 8
  89749512.167 7        43.500    21609273.391 7


  24233078.891 5 129539770.381 5        35.000    24233078.152 3  24233107.188 4
 100753194.863 4        34.200    24233107.141 4


  38724143.922 6 203496749.881 6        40.100



  36742895.766 7 193085217.159 7        41.900



 23  2 14 10 23 27.0000000  0 21G30G17G19G 7G 1G14G 3G 6R20E33E 1E26 0.000000000
                                E31R22R11R21R10R 9R 5S27S37
  21961693.711 7 115409476.721 7        44.700                    21961713.336 8
  89929534.67349        45.800    21961713.27349  21961716.816 9  86182415.873 9
        49.800

  21780458.086 8 114457078.848 8        45.400                    21780477.879 7
  89187415.23749        47.300    21780477.74249


  22421243.156 7 117824433.622 7        43.200
  91811337.59248        33.000    22421265.14848


  23628087.703 5 124166454.931 5        37.400                    23628105.988 5
  96753140.17448        31.500    23628105.86748


  23253078.234 5 122195732.901 5        37.400                    23253105.066 6
  95217578.21346        22.800    23253105.61746  23253108.984 7  91250087.017 7
        44.700

  20360482.820 8 106995059.921 8        47.400                    20360499.875 9
  83372844.65949        43.200    20360499.87549  20360507.445 9  79898937.283 9
        55.600

  22440156.664 7 117923818.355 7        41.600                    22440181.387 7
  91888787.62749        41.600    22440180.98049  22440186.855 9  88060006.308 9
        48.200

  21377949.664 8 112341882.246 8        45.900                    21377970.168 8
  87539214.23149        49.800    21377969.62149  21377974.637 9  83891765.052 9
        51.300

  21999775.859 5 117642734.910 5        36.900    21999775.277 4  21999797.805 5
  91499955.330 5        37.600    21999797.648 5


  23645557.156 9 124258240.523 9        48.400
                                                  23645576.141 9  92790228.383 9
        51.500    23645571.500 9  95210831.882 9        52.300    23645573.848 9
  94000639.241 9        58.500
  23974991.281 9 125989428.388 9        50.400
                                                  23975010.660 9  94083091.848 9
        50.600    23975006.063 9  96537414.826 9        52.400    23975008.461 9
  95310252.949 9        57.800
  26243489.984 7 137910468.370 7        41.800
                                                  26243516.285 7 102985175.714 7
        43.300    26243511.125 7 105671730.468 7        44.100    26243513.910 9
 104328462.201 9        49.500
  24489769.570 9 128694609.787 9        49.200
                                                  24489792.441 9  96103112.024 9
        48.900    24489787.848 9  98610149.653 9        50.200    24489790.199 9
  97356653.448 9        55.800
  22435896.875 7 119764332.425 7        42.700    22435896.496 7  22435916.297 7
  93150042.466 6        40.800    22435916.855 6


  20929934.164 9 111843229.270 9        50.100    20929933.449 9  20929951.672 8
  86989172.115 8        46.300    20929951.824 8


  20547437.664 9 109953485.885 9        52.000    20547436.457 9  20547454.348 8
  85519377.284 8        47.300    20547455.793 8


  19278753.734 8 102766606.505 8        47.000    19278752.129 8



  21609959.664 8 115395960.481 8        46.100    21609959.219 7  21609974.895 8
  89752424.926 7        43.200    21609974.793 7


  24232772.438 5 129538131.312 5        35.500    24232771.109 3  24232800.156 4
 100751920.019 3        33.500    24232800.004 3


  38724145.734 6 203496759.854 6        40.400



  36742890.641 7 193085221.621 7        42.000



 23  2 14 10 23 28.0000000  0 21G30G17G19G 7G 1G14G 3G 6R20E33E 1E26 0.000000000
                                E31R22R11R21R10R 9R 5S27S37
  21962167.391 7 115411966.927 7        44.700                    21962186.988 8
  89931475.09549        46.000    21962186.70349  21962190.539 9  86184275.441 9
        49.900

  21780472.820 8 114457156.976 8        45.400                    21780492.676 7
  89187476.11949        47.300    21780492.58649


  22421034.789 7 117823338.709 7        42.900
  91810484.42148        32.500    22421056.61748


  23628745.023 5 124169913.342 5        36.800                    23628764.156 5
  96755835.04448        32.200    23628764.00048


  23253744.047 5 122199229.371 5        37.700                    23253770.625 6
  95220302.74146        22.300    23253771.32046  23253774.980 7  91252698.012 7
        44.600

  20360353.234 8 106994377.724 8        47.500                    20360370.195 9
  83372313.07649        43.200    20360369.96149  20360377.648 9  79898427.851 9
        55.700

  22440152.500 7 117923797.418 7        41.600                    22440177.457 7
  91888771.31249        41.200    22440177.34449  22440182.984 9  88059990.670 9
        48.200

  21377581.414 8 112339947.012 8        46.000                    21377601.664 9
  87537706.25849        49.700    21377601.32049  21377606.102 9  83890319.915 9
        51.300

  22000330.391 5 117645700.879 5        37.400    22000329.457 5  22000351.918 5
  91502262.194 5        37.500    22000351.996 5


  23645738.336 8 124259193.534 8        47.900
                                                  23645757.598 9  92790940.042 9
        51.500    23645752.859 9  95211562.112 9        52.500    23645755.258 9
  94001360.186 9        58.500
  23975121.945 9 125990115.811 9        50.500
                                                  23975141.355 9  94083605.185 9
        51.000    23975136.668 9  96537941.556 9        52.500    23975139.129 9
  95310772.979 9        57.800
  26243959.992 7 137912937.754 7        41.300
                                                  26243986.090 7 102987019.734 7
        43.400    26243980.840 7 105673622.593 7        43.900    26243983.723 9
 104330330.276 9        49.600
  24489426.414 9 128692806.863 9        48.800
                                                  24489449.469 9  96101765.694 9
        48.900    24489444.734 9  98608768.197 9        50.300    24489447.098 9
  97355289.555 9        55.800
  22435537.242 7 119762413.789 7        43.300    22435536.746 7  22435556.391 7
  93148550.196 6        40.900    22435557.121 6


  20929341.813 9 111840067.114 9        50.000    20929341.215 9  20929359.969 8
  86986712.666 8        46.400    20929359.445 8


  20547502.500 9 109953833.157 9        52.100    20547501.527 9  20547519.707 8
  85519647.386 8        47.300    20547520.598 8


  19278916.438 8 102767478.175 8        46.500    19278915.891 8



  21610661.227 8 115399705.864 8        46.600    21610660.195 7  21610675.680 8
  89755338.002 7        43.100    21610675.613 7


  24232466.820 5 129536492.557 5        35.700    24232464.789 4  24232493.340 4
 100750645.412 4        34.200    24232493.750 4


  38724147.547 6 203496769.810 6        40.200



  36742903.516 7 193085226.050 7        41.700



 23  2 14 10 23 29.0000000  0 21G30G17G19G 7G 1G14G 3G 6R20E33E 1E26 0.000000000
                                E31R22R11R21R10R 9R 5S27S37
  21962641.758 7 115414457.478 7        44.900                    21962661.215 8
  89933415.78449        45.900    21962660.97349  21962664.629 9  86186135.270 9
        50.000

  21780487.844 8 114457235.104 8        45.500                    21780507.793 7
  89187537.00249        47.200    21780507.58249


  22420826.102 7 117822243.878 7        43.000
  91809631.31448        32.300    22420848.48848


  23629403.391 5 124173371.790 5        36.600                    23629422.184 5
  96758529.94048        31.400    23629422.05548


  23254409.766 5 122202726.013 5        37.800                    23254436.301 6
  95223027.39146        23.600    23254436.91846  23254440.520 7  91255309.140 7
        44.700

  20360223.438 8 106993696.003 8        47.600                    20360240.477 9
  83371781.87049        43.200    20360240.54349  20360248.172 9  79897918.779 9
        55.700

  22440149.133 7 117923777.051 7        41.700                    22440173.613 7
  91888755.43949        41.400    22440173.48849  22440178.895 9  88059975.458 9
        48.100

  21377212.789 8 112338012.282 8        45.900                    21377233.871 9
  87536198.68349        49.700    21377233.44149  21377238.164 9  83888875.149 9
        51.300

  22000885.922 5 117648666.758 5        36.700    22000884.754 5  22000907.211 5
  91504568.987 5        37.200    22000907.141 5


  23645919.930 9 124260146.838 9        48.100
                                                  23645938.953 9  92791651.923 9
        51.400    23645934.359 9  95212292.563 9        52.600    23645936.676 9
  94002081.355 9        58.500
  23975252.969 9 125990803.625 9        50.400
                                                  23975272.297 9  94084118.813 9
        50.900    23975267.891 9  96538468.583 9        52.500    23975270.098 9
  95311293.306 9        57.800
  26244429.953 7 137915407.230 7        41.500
                                                  26244456.262 7 102988863.814 7
        43.600    26244450.820 7 105675514.785 7        44.200    26244453.840 9
 104332198.412 9        49.600
  24489083.266 9 128691004.184 9        48.900
                                                  24489106.398 9  96100419.546 9
        48.300    24489101.711 9  98607386.931 9        50.100    24489104.078 9
  97353925.845 9        55.800
  22435178.125 7 119760495.610 7        42.800    22435177.863 7  22435197.801 6
  93147058.276 6        40.600    22435198.242 6


  20928750.117 9 111836905.537 9        50.000    20928749.758 9  20928768.207 8
  86984253.674 8        46.300    20928767.938 8


  20547567.281 9 109954180.800 9        52.300    20547565.723 9  20547583.957 8
  85519917.776 8        47.400    20547584.691 8


  19279080.828 8 102768350.716 8        46.600    19279079.926 8



  21611363.102 8 115403451.684 8        46.200    21611361.367 7  21611376.988 8
  89758251.422 7        43.200    21611376.777 7


  24232158.563 5 129534854.068 5        35.200    24232157.707 3  24232186.336 4
 100749371.013 4        34.400    24232186.523 4


  38724150.344 6 203496779.777 6        39.700



  36742898.156 7 193085230.507 7        42.100



 23  2 14 10 23 30.0000000  0 21G30G17G19G 7G 1G14G 3G 6R20E33E 1E26 0.000000000
                                E31R22R11R21R10R 9R 5S27S37
  21963115.758 7 115416948.365 7        44.900                    21963135.035 8
  89935356.73349        45.800    21963135.00049  21963138.602 9  86187995.348 9
        50.100

  21780502.438 8 114457313.216 8        45.300                    21780522.242 7
  89187597.87149        47.300    21780522.24249


  22420617.719 7 117821149.093 7        42.800
  91808778.23748        32.400    22420640.14148


  23630061.750 5 124176830.227 5        37.200                    23630080.176 5
  96761224.82048        31.500    23630079.84048


  23255074.969 5 122206222.676 5        37.900                    23255101.777 6
  95225752.05546        22.200    23255102.21146  23255105.758 7  91257920.278 7
        44.800

  20360093.734 8 106993014.756 8        47.900                    20360110.637 9
  83371251.02449        43.400    20360110.71549  20360118.227 9  79897410.059 9
        55.700

  22440145.383 7 117923757.289 7        41.500                    22440169.559 7
  91888740.04449        41.300    22440169.34049  22440174.980 9  88059960.702 9
        48.100

  21376845.266 8 112336078.039 8        46.000                    21376865.660 9
  87534691.48149        49.800    21376865.34449  21376870.008 9  83887430.752 9
        51.300

  22001440.445 5 117651632.631 5        37.100    22001438.691 4  22001461.391 5
  91506875.777 5        37.300    22001461.387 5


  23646101.414 9 124261100.444 9        48.200
                                                  23646120.363 9  92792364.035 9
        51.500    23646115.719 9  95213023.246 9        52.500    23646118.059 9
  94002802.750 9        58.600
  23975383.836 9 125991491.774 9        49.900
                                                  23975403.281 9  94084632.695 9
        51.100    23975398.730 9  96538995.869 9        52.100    23975401.031 9
  95311813.889 9        57.800
  26244899.914 7 137917876.688 7        41.400
                                                  26244926.211 7 102990707.888 7
        43.600    26244920.910 7 105677406.964 7        44.400    26244923.734 9
 104334066.535 9        49.600
  24488740.188 9 128689201.675 9        49.000
                                                  24488763.371 9  96099073.522 9
        48.600    24488758.730 9  98606005.793 9        50.400    24488761.129 9
  97352562.268 9        55.900
  22434818.078 7 119758577.863 7        42.900    22434818.051 7  22434838.188 6
  93145566.688 6        40.800    22434838.188 6


  20928159.305 9 111833744.472 9        50.100    20928158.473 9  20928176.695 8
  86981795.079 8        46.400    20928176.609 8


  20547632.203 9 109954528.872 9        51.900    20547631.465 9  20547650.254 8
  85520188.503 8        47.400    20547650.672 8


  19279245.055 8 102769224.117 8        46.800    19279243.449 8



  21612064.750 8 115407197.980 8        46.000    21612063.484 7  21612079.313 8
  89761165.205 7        43.500    21612079.074 7


  24231852.281 4 129533216.048 4        34.800    24231851.426 3  24231880.430 4
 100748096.980 4        34.700    24231880.570 4


  38724152.031 6 203496789.710 6        40.000



  36742901.344 7 193085234.946 7        41.800



 23  2 14 10 23 31.0000000  0 21G30G17G19G 7G 1G14G 3G 6R20E33E 1E26 0.000000000
                                E31R22R11R21R10R 9R 5S27S37
  21963589.195 7 115419439.514 7        44.900                    21963609.031 8
  89937297.88849        45.700    21963608.77749  21963612.551 9  86189855.618 9
        49.900

  21780517.641 8 114457391.276 8        45.400                    21780537.430 7
  89187658.69749        47.200    21780537.52749


  22420409.617 7 117820054.352 7        43.200
  91807925.19848        32.700    22420431.61748


  23630719.000 5 124180288.575 5        36.900                    23630738.469 5
  96763919.63548        31.500    23630738.27748


  23255739.563 5 122209719.454 5        37.900                    23255767.090 6
  95228476.81746        22.200    23255767.68446  23255771.402 8  91260531.507 8
        45.100

  20359964.227 9 106992333.946 9        48.200                    20359980.906 9
  83370720.52749        43.200    20359980.68449  20359988.371 9  79896901.667 9
        55.600

  22440141.281 7 117923738.097 7        41.700                    22440166.371 7
  91888725.08449        41.300    22440166.10249  22440171.684 9  88059946.367 9
        48.200

  21376477.297 8 112334144.248 8        45.800                    21376497.738 8
  87533184.63049        49.800    21376497.33249  21376502.055 9  83885986.687 9
        51.400

  22001994.531 5 117654598.481 5        36.700    22001993.012 5  22002015.418 6
  91509182.548 5        37.200    22002015.789 5


  23646282.891 9 124262054.335 9        48.200
                                                  23646301.938 9  92793076.355 9
        51.700    23646297.203 9  95213754.150 9        52.200    23646299.566 9
  94003524.364 9        58.600
  23975514.883 9 125992180.268 9        49.900
                                                  23975534.109 9  94085146.831 9
        51.100    23975529.609 9  96539523.417 9        52.000    23975531.973 9
  95312334.732 9        57.900
  26245369.828 7 137920346.176 7        41.500
                                                  26245396.168 7 102992551.986 7
        43.300    26245390.680 7 105679299.167 7        43.700    26245393.680 9
 104335934.689 9        49.500
  24488397.297 9 128687399.342 9        48.600
                                                  24488420.465 9  96097727.629 9
        48.700    24488415.918 9  98604624.792 9        50.200    24488418.191 9
  97351198.820 9        55.800
  22434458.727 7 119756660.524 7        42.900    22434459.168 7  22434479.234 7
  93144075.421 6        40.900    22434479.340 6


  20927567.414 9 111830583.902 9        50.000    20927567.523 9  20927586.027 8
  86979336.857 8        46.500    20927585.637 8


  20547697.305 9 109954877.336 9        51.900    20547696.449 9  20547714.785 8
  85520459.527 8        47.400    20547715.516 8


  19279408.719 8 102770098.365 8        47.000    19279407.582 8



  21612765.148 8 115410944.652 8        46.000    21612765.410 7  21612781.074 8
  89764079.282 7        43.300    21612780.770 7


  24231544.750 5 129531578.300 5        35.200    24231545.184 3  24231575.027 5
 100746823.161 4        34.700    24231574.813 4


  38724154.000 6 203496799.601 6        40.200



  36742894.203 7 193085239.354 7        42.100



 23  2 14 10 23 32.0000000  0 21G30G17G19G 7G 1G14G 3G 6R20E33E 1E26 0.000000000
                                E31R22R11R21R10R 9R 5S27S37
  21964063.383 7 115421931.002 7        44.700                    21964083.359 8
  89939239.30349        45.900    21964083.29349  21964087.012 9  86191716.144 9
        50.000

  21780531.781 8 114457469.329 8        45.300                    21780551.641 7
  89187719.52149        47.300    21780551.74249


  22420201.203 7 117818959.701 7        43.000
  91807072.22848        33.100    22420223.16848


  23631377.594 5 124183746.972 5        36.600                    23631396.551 5
  96766614.49448        31.500    23631396.52748


  23256405.813 5 122213216.304 5        37.700                    23256432.504 6
  95231201.63546        22.500    23256432.89546  23256436.555 8  91263142.786 8
        45.000

  20359834.602 8 106991653.591 8        47.800                    20359851.621 9
  83370190.37849        43.300    20359851.49649  20359859.242 9  79896393.609 9
        55.700

  22440137.875 7 117923719.476 7        41.900                    22440162.789 7
  91888710.57249        41.400    22440162.59849  22440168.238 9  88059932.460 9
        48.100

  21376109.070 8 112332210.973 8        46.000                    21376129.781 8
  87531678.18749        49.700    21376129.32049  21376133.922 9  83884543.015 9
        51.400

  22002549.633 5 117657564.215 5        37.000    22002547.996 5  22002570.875 5
  91511489.229 5        37.300    22002570.816 5


  23646464.305 9 124263008.520 9        48.300
                                                  23646483.609 9  92793788.898 9
        51.700    23646478.777 9  95214485.279 9        52.100    23646481.195 9
  94004246.198 9        58.500
  23975645.922 9 125992869.135 9        50.400
                                                  23975665.180 9  94085661.247 9
        51.000    23975660.633 9  96540051.246 9        51.600    23975663.004 9
  95312855.858 9        57.800
  26245839.742 7 137922815.681 7        41.500
                                                  26245866.129 7 102994396.094 7
        43.300    26245860.594 7 105681191.386 7        43.800    26245863.563 9
 104337802.852 9        49.600
  24488054.422 9 128685597.196 9        49.000
                                                  24488077.469 9  96096381.881 9
        48.800    24488072.828 9  98603243.936 9        50.200    24488075.207 9
  97349835.516 9        55.800
  22434100.523 7 119754743.665 7        42.600    22434098.852 7  22434118.816 7
  93142584.527 6        40.700    22434119.371 6


  20926976.281 9 111827423.846 9        50.200    20926976.039 9  20926994.328 8
  86976879.042 8        46.000    20926994.195 8


  20547762.688 9 109955226.247 9        52.100    20547761.363 9  20547779.848 8
  85520730.905 8        47.300    20547780.625 8


  19279572.375 8 102770973.485 8        47.000    19279570.535 8



  21613467.484 8 115414691.735 8        46.200    21613466.688 7  21613482.426 7
  89766993.674 7        43.600    21613482.332 7


  24231238.367 4 129529940.940 4        34.900    24231238.566 4  24231268.332 4
 100745549.641 4        34.600    24231268.102 4


  38724155.875 6 203496809.518 6        40.300



  36742900.078 7 193085243.804 7        42.000



 23  2 14 10 23 33.0000000  0 21G30G17G19G 7G 1G14G 3G 6R20E33E 1E26 0.000000000
                                E31R22R11R21R10R 9R 5S27S37
  21964537.875 8 115424422.845 8        45.400                    21964557.168 8
  89941180.99949        45.800    21964557.13349  21964560.906 9  86193576.935 9
        50.000

  21780546.836 8 114457547.400 8        45.200                    21780566.504 7
  89187780.36049        47.300    21780566.73449


  22419993.461 7 117817865.152 7        42.900
  91806219.34648        33.200    22420015.07848


  23632035.500 5 124187205.345 5        36.300                    23632054.543 5
  96769309.32748        31.000    23632054.51648


  23257070.578 5 122216713.313 5        37.100                    23257097.891 6
  95233926.58146        23.000    23257098.39546  23257102.230 7  91265754.190 7
        44.800

  20359705.375 8 106990973.743 8        47.500                    20359721.926 9
  83369660.63349        43.400    20359721.61349  20359729.355 9  79895885.934 9
        55.900

  22440134.758 7 117923701.553 7        41.700                    22440159.109 7
  91888696.61149        41.400    22440158.81349  22440164.453 9  88059919.081 9
        48.200

  21375741.289 8 112330278.205 8        46.100                    21375762.180 8
  87530172.13849        49.800    21375761.86349  21375766.465 9  83883099.717 9
        51.500

  22003103.984 5 117660530.019 5        36.500    22003102.699 5  22003124.813 5
  91513795.960 5        37.700    22003125.301 5


  23646645.977 9 124263963.035 9        48.400
                                                  23646665.262 9  92794501.686 9
        51.500    23646660.527 9  95215216.662 9        52.000    23646662.875 9
  94004968.282 9        58.500
  23975777.109 9 125993558.383 9        49.500
                                                  23975796.465 9  94086175.943 9
        51.000    23975791.965 9  96540579.374 9        51.700    23975794.328 9
  95313377.272 9        57.800
  26246309.586 7 137925285.262 7        41.300
                                                  26246335.930 7 102996240.262 7
        43.000    26246330.539 7 105683083.657 7        43.900    26246333.484 9
 104339671.068 9        49.600
  24487711.430 9 128683795.292 9        49.000
                                                  24487734.609 9  96095036.310 9
        48.800    24487730.012 9  98601863.256 9        50.300    24487732.355 9
  97348472.392 9        55.800
  22433742.156 7 119752827.244 7        42.700    22433740.602 7  22433760.645 7
  93141093.976 6        40.900    22433760.926 6


  20926385.469 9 111824264.328 9        50.000    20926384.637 9  20926403.047 8
  86974421.651 8        46.200    20926402.852 8


  20547827.977 9 109955575.614 9        52.300    20547825.945 9  20547844.953 8
  85521002.636 8        47.400    20547845.496 8


  19279736.586 8 102771849.494 8        47.100    19279735.566 8



  21614169.813 8 115418439.293 8        45.900    21614168.547 7  21614183.781 8
  89769908.443 7        43.600    21614184.121 7


  24230933.539 5 129528303.956 5        36.500    24230932.566 4  24230962.090 4
 100744276.419 4        34.900    24230961.898 4


  38724157.578 6 203496819.476 6        40.100



  36742900.813 7 193085248.269 7        41.800



 23  2 14 10 23 34.0000000  0 21G30G17G19G 7G 1G14G 3G 6R20E33E 1E26 0.000000000
                                E31R22R11R21R10R 9R 5S27S37
  21965012.336 8 115426915.194 8        45.600                    21965031.805 8
  89943123.09149        46.000    21965031.45749  21965035.469 9  86195438.104 9
        50.700

  21780561.891 8 114457625.651 8        45.200                    21780581.758 7
  89187841.33249        47.300    21780581.86349


  22419784.758 7 117816770.833 7        42.900
  91805366.63548        32.600    22419806.76248


  23632694.055 5 124190663.947 5        36.800                    23632712.598 5
  96772004.33948        31.100    23632712.60948


  23257736.727 5 122220210.650 5        37.300                    23257763.148 6
  95236651.78246        22.800    23257763.85946  23257767.637 8  91268365.834 8
        45.000

  20359576.508 8 106990294.540 8        47.600                    20359593.234 9
  83369131.38749        43.200    20359593.40649  20359600.914 9  79895378.738 9
        55.600

  22440131.063 7 117923684.424 7        41.800                    22440155.988 7
  91888683.26449        41.800    22440155.41049  22440161.168 9  88059906.291 9
        48.000

  21375373.750 8 112328346.144 8        46.000                    21375394.699 8
  87528666.63549        49.700    21375394.31349  21375398.914 9  83881656.944 9
        51.600

  22003658.672 5 117663495.927 5        37.000    22003658.207 5  22003680.254 5
  91516102.780 5        37.400    22003680.270 5


  23646827.773 9 124264918.053 9        48.700
                                                  23646846.848 9  92795214.847 9
        51.500    23646842.156 9  95215948.427 9        52.000    23646844.543 9
  94005690.746 9        58.500
  23975908.383 9 125994248.190 9        49.000
                                                  23975927.598 9  94086691.063 9
        50.700    23975922.957 9  96541107.932 9        51.500    23975925.363 9
  95313899.108 9        57.800
  26246779.398 7 137927755.059 7        41.100
                                                  26246806.020 7 102998084.587 7
        42.400    26246800.676 7 105684976.102 7        44.100    26246803.566 9
 104341539.457 9        49.500
  24487368.695 9 128681993.783 9        49.200
                                                  24487391.844 9  96093691.032 9
        48.600    24487387.156 9  98600482.891 9        50.300    24487389.559 9
  97347109.574 9        55.800
  22433383.875 7 119750911.494 7        42.900    22433381.734 7  22433401.828 7
  93139603.954 6        40.700    22433402.199 6


  20925793.680 9 111821105.547 9        49.900    20925793.082 9  20925811.117 8
  86971964.822 8        46.300    20925811.270 8


  20547893.188 9 109955925.553 9        51.900    20547892.098 9  20547910.547 8
  85521274.814 8        47.900    20547911.320 8


  19279901.773 8 102772726.530 8        46.800    19279900.402 8



  21614871.813 8 115422187.463 8        45.700    21614870.898 7  21614886.734 8
  89772823.690 7        43.500    21614886.320 7


  24230627.813 5 129526667.504 5        35.800    24230627.543 4  24230656.430 5
 100743003.610 5        35.100    24230656.453 5


  38724158.688 6 203496829.622 6        40.200



  36742900.750 7 193085252.954 7        42.200



 23  2 14 10 23 35.0000000  0 21G30G17G19G 7G 1G14G 3G 6R20E33E 1E26 0.000000000
                                E31R22R11R21R10R 9R 5S27S37
  21965486.086 8 115429407.973 8        45.100                    21965506.418 8
  89945065.51349        45.800    21965506.05949  21965509.891 9  86197299.596 9
        50.000

  21780577.156 8 114457703.998 8        45.400                    21780596.961 8
  89187902.38749        47.300    21780596.73449


  22419577.180 7 117815676.695 7        43.100
  91804514.06848        33.400    22419598.81348


  23633352.508 5 124194122.634 5        36.400                    23633371.055 5
  96774699.41848        30.900    23633370.87548


  23258401.906 5 122223708.162 5        37.500                    23258428.512 6
  95239377.11146        23.900    23258429.35946  23258433.020 7  91270977.605 7
        44.900

  20359447.188 8 106989615.932 8        47.500                    20359463.945 9
  83368602.61049        43.300    20359463.78949  20359471.535 9  79894871.993 9
        55.600

  22440128.789 7 117923668.013 7        41.800                    22440152.734 7
  91888670.47449        41.700    22440152.16449  22440157.922 9  88059894.032 9
        48.200

  21375006.328 8 112326414.710 8        46.000                    21375026.816 8
  87527161.62849        49.800    21375026.42249  21375031.141 9  83880214.643 9
        51.300

  22004213.625 5 117666461.971 5        36.300    22004212.105 5  22004234.332 5
  91518409.701 5        36.900    22004234.383 5


  23647009.602 9 124265873.499 9        48.800
                                                  23647028.563 9  92795928.327 9
        51.500    23647023.824 9  95216680.523 9        52.400    23647026.262 9
  94006413.533 9        58.500
  23976039.688 9 125994938.494 9        49.000
                                                  23976059.250 9  94087206.551 9
        50.900    23976054.516 9  96541636.868 9        51.700    23976056.957 9
  95314421.319 9        57.800
  26247249.664 7 137930225.011 7        41.400
                                                  26247276.242 7 102999929.026 7
        42.800    26247270.711 7 105686868.657 7        44.100    26247273.625 9
 104343407.955 9        49.800
  24487026.031 9 128680192.599 9        49.100
                                                  24487048.941 9  96092346.003 9
        48.300    24487044.207 9  98599102.769 9        50.400    24487046.684 9
  97345746.992 9        55.700
  22433023.734 7 119748996.317 7        43.100    22433023.121 7  22433043.633 7
  93138114.375 7        41.100    22433043.516 7


  20925202.789 9 111817947.443 9        50.200    20925201.957 9  20925220.879 8
  86969508.521 8        46.300    20925220.598 8


  20547959.133 9 109956276.029 9        52.200    20547957.457 9  20547976.035 8
  85521547.404 8        47.700    20547976.578 8


  19280066.289 8 102773604.533 8        47.000    19280064.684 8



  21615573.859 8 115425936.215 8        46.000    21615572.594 7  21615588.184 8
  89775739.387 7        43.600    21615587.902 7


  24230321.648 5 129525031.562 5        35.900    24230321.145 4  24230350.090 4
 100741731.203 4        34.500    24230349.930 4


  38724161.219 6 203496839.883 6        40.400



  36742906.828 7 193085257.757 7        42.000



 23  2 14 10 23 36.0000000  0 21G30G17G19G 7G 1G14G 3G 6R20E33E 1E26 0.000000000
                                E31R22R11R21R10R 9R 5S27S37
  21965960.906 7 115431901.125 7        44.900                    21965980.602 8
  89947008.22849        45.700    21965980.44949  21965984.227 9  86199161.362 9
        50.300

  21780591.883 8 114457782.363 8        45.500                    21780611.430 8
  89187963.45549        47.200    21780611.46949


  22419368.773 7 117814582.700 7        43.000
  91803661.60948        32.700    22419390.41048


  23634010.125 5 124197581.410 5        36.200                    23634028.844 5
  96777394.56648        31.800    23634029.02348


  23259067.883 5 122227205.800 5        37.400                    23259094.137 6
  95242102.53046        22.600    23259094.91046  23259098.805 8  91273589.475 8
        45.000

  20359318.281 8 106988937.836 8        47.800                    20359334.855 9
  83368074.22149        43.400    20359334.87149  20359342.500 9  79894365.622 9
        55.800

  22440125.086 7 117923652.248 7        42.100                    22440150.078 7
  91888658.18749        41.400    22440149.59049  22440155.406 9  88059882.261 9
        48.200

  21374638.828 8 112324483.768 8        46.000                    21374659.684 8
  87525656.99849        49.700    21374659.25049  21374664.090 9  83878772.710 9
        51.400

  22004768.367 5 117669428.017 5        36.700    22004766.848 5  22004788.688 5
  91520716.628 5        37.600    22004788.992 5


  23647191.508 9 124266829.280 9        48.500
                                                  23647210.559 9  92796642.060 9
        51.200    23647205.918 9  95217412.874 9        52.300    23647208.254 9
  94007136.579 9        58.500
  23976171.156 9 125995629.184 9        49.000
                                                  23976190.391 9  94087722.329 9
        51.000    23976185.750 9  96542166.097 9        51.900    23976188.137 9
  95314943.826 9        57.800
  26247719.719 7 137932695.000 7        41.300
                                                  26247746.066 7 103001773.499 7
        43.000    26247740.676 7 105688761.245 7        44.000    26247743.543 9
 104345276.477 9        49.600
  24486683.266 9 128678391.626 9        48.900
                                                  24486706.180 9  96091001.126 9
        48.500    24486701.488 9  98597722.810 9        50.400    24486703.941 9
  97344384.576 9        55.800
  22432665.117 7 119747081.578 7        43.100    22432664.270 7  22432684.164 7
  93136625.144 7        41.300    22432684.969 7


  20924611.844 9 111814789.859 9        50.300    20924611.246 9  20924629.641 8
  86967052.633 8        46.400    20924629.684 8


  20548024.594 9 109956626.958 9        52.000    20548023.270 9  20548041.871 9
  85521820.344 8        47.700    20548042.719 8


  19280231.453 8 102774483.426 8        47.100    19280229.848 8



  21616275.734 8 115429685.417 8        46.200    21616275.055 7  21616290.645 8
  89778655.435 7        43.400    21616290.492 7


  24230015.242 5 129523396.015 5        35.800    24230015.441 4  24230044.746 4
 100740459.102 4        34.600    24230043.688 4


  38724162.469 6 203496850.200 6        39.900



  36742906.469 7 193085262.610 7        42.000



 23  2 14 10 23 37.0000000  0 21G30G17G19G 7G 1G14G 3G 6R20E33E 1E26 0.000000000
                                E31R22R11R21R10R 9R 5S27S37
  21966435.305 7 115434394.573 7        44.700                    21966454.719 8
  89948951.17649        45.800    21966454.43849  21966458.391 9  86201023.357 9
        49.900

  21780606.688 8 114457860.691 8        45.300                    21780626.813 8
  89188024.49249        47.300    21780626.92249


  22419160.391 7 117813488.708 7        42.800
  91802809.15048        33.400    22419182.17648


  23634667.594 5 124201040.035 5        36.600                    23634686.941 5
  96780089.59448        30.900    23634687.14548


  23259732.461 5 122230703.519 5        37.900                    23259759.762 6
  95244828.02846        22.500    23259760.47346  23259764.309 7  91276201.407 7
        44.900

  20359188.859 8 106988260.167 8        47.700                    20359205.770 9
  83367546.16849        43.600    20359205.53949  20359213.285 9  79893859.575 9
        55.600

  22440122.383 7 117923637.026 7        42.200                    22440147.066 7
  91888646.32749        41.400    22440146.80549  22440152.387 9  88059870.891 9
        48.200

  21374270.938 8 112322553.320 8        46.100                    21374292.148 8
  87524152.75549        49.600    21374291.76249  21374296.309 9  83877331.143 9
        51.300

  22005322.563 5 117672393.985 5        36.000    22005321.629 4  22005343.980 5
  91523023.489 5        37.600    22005343.816 5


  23647373.398 9 124267785.328 9        48.800
                                                  23647392.516 9  92797355.991 9
        51.600    23647387.777 9  95218145.429 9        52.100    23647390.156 9
  94007859.821 9        58.500
  23976302.641 9 125996320.219 9        49.300
                                                  23976322.086 9  94088238.362 9
        51.000    23976317.398 9  96542695.599 9        51.800    23976319.852 9
  95315466.589 9        57.800
  26248189.938 7 137935165.053 7        41.200
                                                  26248216.094 7 103003618.016 7
        43.400    26248210.656 7 105690653.881 7        44.400    26248213.566 9
 104347145.057 9        49.600
  24486340.516 9 128676590.820 9        49.200
                                                  24486363.500 9  96089656.377 9
        48.300    24486358.719 9  98596342.979 9        50.500    24486361.188 9
  97343022.284 9        55.800
  22432306.859 7 119745167.311 7        43.300    22432306.129 7  22432326.184 7
  93135136.268 7        41.600    22432326.645 7


  20924021.266 9 111811632.761 9        49.800    20924020.082 9  20924038.758 8
  86964597.138 8        46.600    20924038.668 8


  20548090.047 9 109956978.267 9        51.900    20548088.840 9  20548107.516 8
  85522093.590 8        47.900    20548107.938 8


  19280396.211 8 102775363.140 8        47.000    19280395.074 8



  21616977.695 8 115433435.053 8        46.300    21616976.781 7  21616992.809 8
  89781571.817 7        43.600    21616992.414 7


  24229708.680 5 129521760.710 5        35.700    24229709.934 4  24229739.551 4
 100739187.185 4        34.100    24229738.109 4


  38724165.609 6 203496860.562 6        40.200



  36742903.047 7 193085267.433 7        42.000



 23  2 14 10 23 38.0000000  0 21G30G17G19G 7G 1G14G 3G 6R20E33E 1E26 0.000000000
                                E31R22R11R21R10R 9R 5S27S37
  21966909.766 8 115436888.263 8        45.200                    21966929.383 8
  89950894.31249        45.800    21966929.07449  21966932.910 9  86202885.524 9
        49.900

  21780621.883 8 114457938.946 8        45.300                    21780641.598 8
  89188085.47549        47.300    21780641.75849


  22418952.289 7 117812394.734 7        42.600
  91801956.71648        33.600    22418973.81648


  23635326.516 5 124204498.637 5        36.600                    23635344.961 5
  96782784.60448        31.200    23635345.32848


  23260398.664 6 122234201.301 6        38.300                    23260425.762 6
  95247553.56346        22.500    23260426.33646  23260430.113 7  91278813.386 7
        44.900

  20359060.047 8 106987582.907 8        47.400                    20359077.152 9
  83367018.44049        43.500    20359077.05549  20359084.508 9  79893353.830 9
        55.600

  22440119.883 7 117923622.366 7        42.000                    22440144.301 7
  91888634.90249        41.700    22440143.96149  22440149.656 9  88059859.942 9
        48.100

  21373904.086 8 112320623.297 8        46.000                    21373925.238 8
  87522648.84449        49.800    21373924.52349  21373929.188 9  83875889.890 9
        51.300

  22005876.836 5 117675359.870 5        36.200    22005876.488 5  22005899.152 6
  91525330.287 5        37.500    22005898.660 5


  23647555.430 9 124268741.618 9        49.000
                                                  23647574.426 9  92798070.103 9
        51.700    23647569.738 9  95218878.173 9        52.100    23647572.125 9
  94008583.249 9        58.500
  23976434.250 9 125997011.558 9        49.600
                                                  23976453.410 9  94088754.624 9
        51.000    23976448.816 9  96543225.325 9        51.800    23976451.262 9
  95315989.584 9        57.800
  26248659.547 7 137937635.037 7        41.000
                                                  26248685.988 7 103005462.481 7
        43.200    26248680.738 7 105692546.461 7        44.200    26248683.508 9
 104349013.580 9        49.700
  24485997.883 9 128674790.173 9        49.100
                                                  24486020.875 9  96088311.742 9
        48.200    24486016.375 9  98594963.267 9        50.600    24486018.707 9
  97341660.116 9        55.800
  22431948.469 7 119743253.408 7        43.700    22431947.270 7  22431967.367 7
  93133647.670 7        41.400    22431967.844 7


  20923430.188 9 111808476.159 9        50.000    20923430.414 9  20923448.965 8
  86962142.019 8        46.600    20923448.816 8


  20548156.117 9 109957329.918 9        52.200    20548154.793 9  20548173.551 8
  85522367.093 9        48.000    20548173.809 9


  19280560.711 8 102776243.632 8        46.800    19280560.398 8



  21617680.383 8 115437185.059 8        46.400    21617678.531 7  21617693.965 7
  89784488.485 7        43.600    21617693.961 7


  24229404.195 5 129520125.800 5        36.100    24229403.926 4  24229433.824 4
 100737915.575 4        34.200    24229432.551 4


  38724166.406 6 203496870.943 6        40.200



  36742901.563 7 193085272.236 7        42.000



 23  2 14 10 23 39.0000000  0 21G30G17G19G 7G 1G14G 3G 6R20E33E 1E26 0.000000000
                                E31R22R11R21R10R 9R 5S27S37
  21967384.180 8 115439382.287 8        45.500                    21967404.000 8
  89952837.70749        45.700    21967404.01249  21967407.613 9  86204747.945 9
        49.900

  21780636.172 8 114458017.199 8        45.500                    21780656.063 8
  89188146.44949        47.200    21780655.93449


  22418743.516 7 117811300.841 7        42.500
  91801104.33948        33.400    22418766.01248


  23635985.313 5 124207957.289 5        36.600                    23636003.410 5
  96785479.66048        30.900    23636003.83248


  23261064.211 6 122237699.188 6        38.400                    23261091.371 6
  95250279.17846        22.900    23261092.09046  23261095.930 7  91281425.440 7
        44.800

  20358931.352 8 106986906.109 8        47.700                    20358947.988 9
  83366491.07049        43.400    20358948.05149  20358955.680 9  79892848.437 9
        55.700

  22440117.133 7 117923608.323 7        41.700                    22440141.785 7
  91888623.95749        41.400    22440141.37949  22440147.078 9  88059849.457 9
        48.100

  21373537.000 8 112318693.796 8        46.000                    21373557.863 8
  87521145.33549        49.700    21373557.52349  21373562.188 9  83874449.039 9
        51.200

  22006431.922 5 117678325.703 5        36.800    22006430.520 5  22006453.961 6
  91527637.032 5        36.900    22006452.969 5


  23647737.617 9 124269698.234 9        48.800
                                                  23647756.332 9  92798784.460 9
        51.800    23647751.781 9  95219611.161 9        52.300    23647754.066 9
  94009306.918 9        58.600
  23976565.883 9 125997703.275 9        50.000
                                                  23976585.129 9  94089271.171 9
        51.200    23976580.629 9  96543755.343 9        52.000    23976582.957 9
  95316512.866 9        57.800
  26249129.625 7 137940105.074 7        41.000
                                                  26249156.168 7 103007306.987 7
        43.200    26249151.008 7 105694439.080 7        44.300    26249153.680 9
 104350882.142 9        49.700
  24485655.242 9 128672989.735 9        48.900
                                                  24485678.270 9  96086967.270 9
        48.400    24485673.625 9  98593583.718 9        50.800    24485675.961 9
  97340298.099 9        55.800
  22431589.977 7 119741339.969 7        43.200    22431589.363 7  22431609.469 7
  93132159.436 7        41.000    22431610.133 7


  20922839.797 9 111805320.117 9        49.900    20922838.613 9  20922857.438 8
  86959687.334 8        46.700    20922856.770 8


  20548221.516 9 109957682.008 9        52.300    20548220.426 9  20548238.770 8
  85522640.946 8        47.700    20548239.625 8


  19280727.180 8 102777125.001 8        46.800    19280726.160 8



  21618382.547 8 115440935.464 8        46.000    21618381.984 7  21618397.141 8
  89787405.461 7        43.700    21618397.441 7


  24229098.117 5 129518491.149 5        37.100    24229097.145 4  24229127.352 4
 100736644.169 4        34.000    24229126.660 4


  38724168.141 6 203496881.349 6        40.200



  36742915.953 7 193085277.020 7        42.000



 23  2 14 10 23 40.0000000  0 21G30G17G19G 7G 1G14G 3G 6R20E33E 1E26 0.000000000
                                E31R22R11R21R10R 9R 5S27S37
  21967858.961 8 115441876.663 8        45.500                    21967878.551 8
  89954781.37849        45.600    21967878.45749  21967882.352 9  86206610.631 9
        50.000

  21780651.734 8 114458095.454 8        45.200                    21780671.656 7
  89188207.43049        47.200    21780671.42649


  22418535.664 7 117810207.043 7        42.400
  91800252.04048        33.400    22418557.53548


  23636643.156 5 124211415.966 5        36.300                    23636661.156 5
  96788174.73848        30.600    23636661.71548


  23261730.250 6 122241197.211 6        38.400                    23261757.012 6
  95253004.91946        22.300    23261757.28146  23261761.117 8  91284037.602 8
        45.100

  20358802.523 9 106986229.830 9        48.200                    20358819.359 9
  83365964.10349        43.400    20358819.33649  20358826.902 9  79892343.429 9
        55.700

  22440114.383 7 117923594.925 7        42.000                    22440139.309 7
  91888613.51549        41.400    22440138.78949  22440144.430 9  88059839.449 9
        48.000

  21373169.867 8 112316764.811 8        45.900                    21373190.168 8
  87519642.23749        49.800    21373189.89849  21373194.504 9  83873008.565 9
        51.300

  22006986.406 5 117681291.594 5        36.600    22006984.887 5  22007008.449 6
  91529943.835 5        37.700    22007007.656 5


  23647919.586 9 124270655.164 9        48.700
                                                  23647938.613 9  92799499.050 9
        51.900    23647934.066 9  95220344.394 9        52.700    23647936.348 9
  94010030.833 9        58.600
  23976697.523 9 125998395.368 9        49.600
                                                  23976716.730 9  94089787.994 9
        51.200    23976712.180 9  96544285.646 9        52.000    23976714.570 9
  95317036.432 9        57.800
  26249599.781 7 137942575.154 7        41.300
                                                  26249626.277 7 103009151.522 7
        43.000    26249620.648 7 105696331.740 7        44.400    26249623.586 9
 104352750.739 9        49.700
  24485312.641 9 128671189.508 9        48.900
                                                  24485335.859 9  96085622.948 9
        48.600    24485331.121 9  98592204.329 9        50.600    24485333.531 9
  97338936.252 9        55.800
  22431231.164 7 119739426.998 7        43.000    22431230.902 7  22431251.156 7
  93130671.567 7        41.200    22431251.516 7


  20922248.625 9 111802164.591 9        49.900    20922248.383 9  20922266.816 8
  86957233.035 8        46.800    20922266.613 8


  20548287.250 9 109958034.532 9        52.300    20548286.395 9  20548305.109 8
  85522915.126 8        47.400    20548305.566 8


  19280892.461 8 102778007.246 8        46.800    19280890.855 8



  21619085.055 8 115444686.300 8        45.900    21619084.023 7  21619099.426 8
  89790322.779 7        43.800    21619099.691 7


  24228792.703 5 129516856.891 5        36.500    24228791.613 4  24228821.738 4
 100735373.074 4        34.200    24228820.930 4


  38724169.953 6 203496891.732 6        40.200



  36742910.875 7 193085281.862 7        42.000



 23  2 14 10 23 41.0000000  0 21G30G17G19G 7G 1G14G 3G 6R20E33E 1E26 0.000000000
                                E31R22R11R21R10R 9R 5S27S37
  21968333.883 8 115444371.348 8        45.400                    21968353.844 8
  89956725.28649        45.600    21968353.62149  21968357.457 9  86208473.548 9
        49.800

  21780666.180 8 114458173.702 8        45.400                    21780686.051 7
  89188268.40649        47.200    21780686.07449


  22418327.875 7 117809113.286 7        42.500
  91799399.76948        33.200    22418349.79348


  23637301.219 5 124214874.524 5        36.000                    23637319.242 5
  96790869.71248        31.300    23637319.95348


  23262396.203 6 122244695.279 6        38.400                    23262422.582 6
  95255730.68946        23.300    23262422.92646  23262426.762 7  91286649.792 7
        44.900

  20358673.641 8 106985553.976 8        47.900                    20358690.750 9
  83365437.46049        43.100    20358690.68049  20358698.367 9  79891838.734 9
        55.700

  22440111.984 7 117923582.110 7        42.000                    22440136.254 7
  91888603.53049        41.300    22440136.08649  22440141.785 9  88059829.881 9
        48.000

  21372802.656 8 112314836.275 8        46.000                    21372823.320 8
  87518139.48649        49.800    21372823.14849  21372827.695 9  83871568.427 9
        51.200

  22007540.313 5 117684257.375 5        36.600    22007539.848 5  22007563.438 5
  91532250.559 5        37.000    22007562.809 5


  23648101.578 9 124271612.368 9        48.500
                                                  23648120.691 9  92800213.845 9
        51.800    23648116.191 9  95221077.837 9        52.700    23648118.430 9
  94010754.950 9        58.500
  23976829.273 9 125999087.807 9        50.000
                                                  23976848.469 9  94090305.075 9
        51.000    23976843.828 9  96544816.224 9        52.300    23976846.297 9
  95317560.261 9        57.800
  26250069.852 7 137945045.282 7        41.100
                                                  26250096.129 7 103010996.091 7
        42.700    26250090.781 7 105698224.428 7        44.600    26250093.676 9
 104354619.372 9        49.600
  24484970.164 9 128669389.470 9        49.000
                                                  24484993.125 9  96084278.772 9
        48.900    24484988.438 9  98590825.086 9        50.600    24484990.797 9
  97337574.542 9        55.800
  22430873.094 7 119737514.457 7        43.200    22430872.012 7  22430892.957 7
  93129184.039 7        41.400    22430892.852 7


  20921658.688 9 111799009.575 9        49.800    20921658.680 9  20921677.105 8
  86954779.135 8        46.400    20921676.746 8


  20548353.008 9 109958387.454 9        52.000    20548352.035 9  20548370.613 8
  85523189.624 8        47.400    20548371.102 8


  19281058.047 8 102778890.337 8        47.000    19281056.676 8



  21619786.914 8 115448437.580 8        46.100    21619785.648 7  21619801.387 8
  89793240.443 7        43.700    21619801.160 7


  24228486.320 5 129515222.980 5        35.400    24228486.168 4  24228516.156 4
 100734102.250 3        33.800    24228515.547 3


  38724172.703 6 203496902.076 6        40.300



  36742904.328 7 193085286.681 7        41.700



 23  2 14 10 23 42.0000000  0 21G30G17G19G 7G 1G14G 3G 6R20E33E 1E26 0.000000000
                                E31R22R11R21R10R 9R 5S27S37
  21968808.391 8 115446866.351 8        45.300                    21968827.922 8
  89958669.44949        45.800    21968827.59049  21968831.543 9  86210336.694 9
        49.800

  21780681.148 8 114458251.925 8        45.500                    21780700.938 8
  89188329.36349        47.300    21780700.76649


  22418119.906 7 117808019.620 7        42.700
  91798547.56648        32.500    22418141.42248


  23637958.805 5 124218333.149 5        36.200                    23637977.520 5
  96793564.73948        31.000    23637977.85548


  23263061.203 6 122248193.494 6        38.100                    23263088.496 6
  95258456.57446        23.200    23263088.60546  23263092.383 7  91289262.095 7
        44.600

  20358545.484 9 106984878.609 9        48.100                    20358562.238 9
  83364911.20649        43.500    20358562.20349  20358569.891 9  79891334.406 9
        55.600

  22440109.977 7 117923569.888 7        41.900                    22440134.492 7
  91888594.01049        41.400    22440134.06349  22440139.820 9  88059820.754 9
        48.100

  21372435.766 8 112312908.265 8        46.000                    21372456.555 8
  87516637.14549        49.800    21372456.08649  21372460.691 9  83870128.685 9
        51.400

  22008095.586 5 117687223.141 5        36.400    22008093.949 5  22008116.605 5
  91534557.267 5        36.700    22008116.719 5


  23648283.883 9 124272569.891 9        48.500
                                                  23648302.973 9  92800928.877 9
        51.800    23648298.281 9  95221811.522 9        52.600    23648300.539 9
  94011479.308 9        58.500
  23976961.203 9 125999780.623 9        49.900
                                                  23976980.582 9  94090822.440 9
        51.000    23976975.848 9  96545347.081 9        51.800    23976978.270 9
  95318084.371 9        57.900
  26250540.000 6 137947515.406 6        40.900
                                                  26250566.238 7 103012840.661 7
        42.800    26250560.801 7 105700117.118 7        44.600    26250563.770 9
 104356488.005 9        49.600
  24484627.609 9 128667589.628 9        48.700
                                                  24484650.727 9  96082934.744 9
        48.900    24484646.086 9  98589445.992 9        50.600    24484648.465 9
  97336212.974 9        55.800
  22430514.367 7 119735602.382 7        43.000    22430514.105 7  22430534.977 7
  93127696.868 7        41.200    22430534.621 7


  20921068.297 9 111795855.082 9        50.000    20921068.055 9  20921086.656 8
  86952325.647 8        46.300    20921086.387 8


  20548419.766 9 109958740.787 9        51.800    20548418.207 9  20548436.262 8
  85523464.443 8        47.000    20548437.063 8


  19281224.227 8 102779774.290 8        47.000    19281222.738 8



  21620489.813 8 115452189.277 8        46.100    21620488.664 7  21620504.441 8
  89796158.429 7        43.800    21620504.254 7


  24228181.273 5 129513589.486 5        35.700    24228181.121 4  24228210.523 3
 100732831.739 3        33.900    24228210.047 3


  38724174.156 6 203496912.388 6        40.000



  36742910.266 7 193085291.516 7        41.700



 23  2 14 10 23 43.0000000  0 21G30G17G19G 7G 1G14G 3G 6R20E33E 1E26 0.000000000
                                E31R22R11R21R10R 9R 5S27S37
  21969283.117 8 115449361.697 8        45.000                    21969303.109 8
  89960613.87349        45.800    21969302.95349  21969306.785 9  86212200.103 9
        50.000

  21780696.156 8 114458330.120 8        45.200                    21780715.750 7
  89188390.29649        47.300    21780715.80949


  22417911.875 7 117806925.969 7        42.800
  91797695.38248        32.500    22417933.30548


  23638616.867 5 124221791.751 5        36.200                    23638635.543 5
  96796259.75048        30.400    23638635.99648


  23263726.852 5 122251691.787 5        37.900                    23263754.023 6
  95261182.51246        22.300    23263754.39546  23263758.113 7  91291874.451 7
        44.500

  20358417.070 8 106984203.706 8        47.800                    20358433.926 9
  83364385.30749        43.200    20358434.08649  20358441.539 9  79890830.422 9
        55.700

  22440107.414 7 117923558.303 7        42.100                    22440132.281 7
  91888584.98349        41.600    22440131.80549  22440137.563 9  88059812.102 9
        48.100

  21372069.086 8 112310980.747 8        46.000                    21372089.832 8
  87515135.18349        49.800    21372089.49649  21372094.219 9  83868689.303 9
        51.400

  22008650.508 5 117690188.862 5        36.800    22008649.223 5  22008672.156 6
  91536863.933 5        37.100    22008671.996 5


  23648466.195 9 124273527.735 9        48.400
                                                  23648485.340 9  92801644.151 9
        51.700    23648480.605 9  95222545.457 9        52.400    23648482.922 9
  94012203.915 9        58.500
  23977093.016 9 126000473.810 9        50.100
                                                  23977112.355 9  94091340.079 9
        51.200    23977107.715 9  96545878.223 9        51.800    23977110.141 9
  95318608.765 9        57.800
  26251010.055 6 137949985.587 6        40.800
                                                  26251036.336 7 103014685.277 7
        42.800    26251030.852 7 105702009.852 7        44.400    26251033.801 9
 104358356.676 9        49.600
  24484285.234 9 128665790.007 9        48.900
                                                  24484308.238 9  96081590.879 9
        48.900    24484303.547 9  98588067.070 9        50.300    24484305.930 9
  97334851.586 9        55.800
  22430156.750 7 119733690.744 7        43.000    22430155.785 7  22430176.500 7
  93126210.044 7        41.500    22430176.441 7


  20920477.891 9 111792701.141 9        50.000    20920477.293 8  20920496.027 8
  86949872.587 8        46.800    20920495.598 8


  20548485.055 9 109959094.561 9        51.800    20548484.434 9  20548502.664 8
  85523739.602 8        47.400    20548503.723 8


  19281389.852 8 102780659.080 8        47.000    19281388.012 8



  21621192.578 8 115455941.438 8        46.000    21621191.430 7  21621206.918 8
  89799076.778 7        43.600    21621207.262 7


  24227876.883 5 129511956.306 5        36.000    24227875.203 4  24227904.973 4
 100731561.473 3        33.600    24227904.117 3


  38724176.609 6 203496922.671 6        40.000



  36742911.422 7 193085296.365 7        42.000



 23  2 14 10 23 44.0000000  0 21G30G17G19G 7G 1G14G 3G 6R20E33E 1E26 0.000000000
                                E31R22R11R21R10R 9R 5S27S37
  21969758.375 8 115451857.326 8        45.100                    21969778.098 8
  89962558.51949        45.600    21969777.89849  21969781.852 9  86214063.719 9
        49.900

  21780710.484 8 114458408.308 8        45.400                    21780730.238 8
  89188451.22749        47.200    21780730.42249


  22417704.102 7 117805832.429 7        43.000
  91796843.27948        32.600    22417725.19548


  23639275.273 5 124225250.319 5        36.300                    23639293.629 5
  96798954.73348        31.200    23639294.02348


  23264391.961 6 122255190.180 6        38.300                    23264419.805 6
  95263908.53046        22.500    23264420.26646  23264423.750 7  91294486.886 7
        44.600

  20358288.766 8 106983529.266 8        47.400                    20358305.906 9
  83363859.77549        43.500    20358306.02349  20358313.594 9  79890326.784 9
        55.600

  22440105.102 7 117923547.302 7        41.500                    22440130.242 7
  91888576.40649        41.600    22440129.87549  22440135.457 9  88059803.887 9
        48.100

  21371702.266 8 112309053.736 8        46.100                    21371723.078 8
  87513633.61749        49.700    21371722.70749  21371727.254 9  83867250.310 9
        51.300

  22009204.203 5 117693154.559 5        37.100    22009203.621 5  22009226.613 5
  91539170.583 5        36.900    22009226.355 5


  23648648.383 9 124274485.860 9        48.200
                                                  23648667.750 9  92802359.631 9
        51.800    23648662.922 9  95223279.605 9        52.800    23648665.305 9
  94012928.727 9        58.500
  23977225.008 9 126001167.355 9        50.400
                                                  23977244.484 9  94091857.989 9
        51.100    23977239.844 9  96546409.649 9        51.800    23977242.246 9
  95319133.429 9        57.800
  26251480.227 6 137952455.741 6        40.700
                                                  26251506.352 7 103016529.866 7
        42.700    26251500.820 7 105703902.563 7        44.100    26251503.824 9
 104360225.326 9        49.600
  24483942.820 9 128663990.557 9        48.800
                                                  24483965.770 9  96080247.140 9
        48.800    24483961.082 9  98586688.276 9        50.400    24483963.539 9
  97333490.315 9        55.800
  22429798.906 7 119731779.561 7        42.700    22429797.586 7  22429818.594 7
  93124723.567 7        41.200    22429818.367 7


  20919888.250 9 111789547.714 9        50.200    20919887.535 9  20919905.445 8
  86947419.923 8        46.700    20919905.680 8


  20548551.297 9 109959448.752 9        51.600    20548550.324 9  20548569.242 8
  85524015.075 8        47.000    20548569.602 8


  19281555.758 8 102781544.725 8        47.200    19281554.270 8



  21621895.594 8 115459694.046 8        46.000    21621893.977 7  21621909.398 7
  89801995.469 7        43.500    21621909.484 7


  24227570.961 5 129510323.514 5        36.000    24227569.750 4  24227599.031 4
 100730291.505 3        33.700    24227598.875 3


  38724179.172 6 203496933.022 6        40.100



  36742907.703 7 193085301.212 7        42.100



 23  2 14 10 23 45.0000000  0 21G30G17G19G 7G 1G14G 3G 6R20E33E 1E26 0.000000000
                                E31R22R11R21R10R 9R 5S27S37
  21970233.516 8 115454353.232 8        45.100                    21970252.699 8
  89964503.37749        45.800    21970252.46549  21970256.418 9  86215927.548 9
        50.000

  21780725.742 8 114458486.423 8        45.500                    21780745.363 7
  89188512.10049        47.200    21780745.42649


  22417495.781 7 117804738.902 7        42.900
  91795991.18448        32.600    22417517.48448


  23639933.500 5 124228708.799 5        36.300                    23639951.809 5
  96801649.65248        31.200    23639952.18448


  23265058.500 6 122258688.628 6        38.800                    23265085.363 6
  95266634.58946        22.900    23265085.99646  23265089.422 7  91297099.355 7
        44.500

  20358160.578 8 106982855.252 8        47.600                    20358177.328 9
  83363334.57549        43.300    20358177.44549  20358185.012 9  79889823.461 9
        55.700

  22440103.539 7 117923536.860 7        41.500                    22440128.227 7
  91888568.26949        41.700    22440127.92649  22440133.508 9  88059796.089 9
        48.100

  21371335.773 8 112307127.158 8        46.000                    21371356.965 8
  87512132.39049        49.800    21371356.49249  21371361.211 9  83865811.632 9
        51.300

  22009758.008 5 117696120.134 5        35.900    22009758.363 5  22009781.922 5
  91541477.144 5        37.700    22009781.137 5


  23648830.742 9 124275444.225 9        48.300
                                                  23648849.813 9  92803075.296 9
        51.600    23648845.219 9  95224013.932 9        52.400    23648847.555 9
  94013653.722 9        58.600
  23977357.203 9 126001861.199 9        50.300
                                                  23977376.496 9  94092376.125 9
        51.000    23977371.902 9  96546941.294 9        51.700    23977374.273 9
  95319658.316 9        57.800
  26251950.219 6 137954925.935 6        40.800
                                                  26251976.535 7 103018374.493 7
        43.000    26251971.094 7 105705795.309 7        43.800    26251973.945 9
 104362094.016 9        49.700
  24483600.438 9 128662191.255 9        49.000
                                                  24483623.430 9  96078903.513 9
        49.000    24483618.836 9  98585309.597 9        49.800    24483621.074 9
  97332129.162 9        55.900
  22429440.797 7 119729868.763 7        42.800    22429439.598 7  22429460.207 7
  93123237.392 7        41.100    22429460.367 7


  20919297.680 9 111786394.774 9        50.100    20919297.555 9  20919315.793 8
  86944967.652 8        46.700    20919315.746 8


  20548617.727 9 109959803.265 9        51.800    20548616.637 9  20548635.160 8
  85524290.806 8        47.300    20548635.711 8


  19281721.672 8 102782431.192 8        46.800    19281720.418 8



  21622598.680 8 115463446.992 8        46.400    21622597.531 7  21622612.648 8
  89804914.428 7        43.100    21622612.809 7


  24227266.109 5 129508690.920 5        35.700    24227264.313 4  24227293.293 4
 100729021.694 3        33.900    24227293.215 3


  38724180.688 6 203496943.392 6        40.100



  36742908.484 7 193085306.022 7        41.800



 23  2 14 10 23 46.0000000  0 21G30G17G19G 7G 1G14G 3G 6R20E33E 1E26 0.000000000
                                E31R22R11R21R10R 9R 5S27S37
  21970708.086 7 115456849.534 7        44.800                    21970728.102 8
  89966448.54849        45.700    21970727.78149  21970731.617 9  86217791.667 9
        50.000

  21780740.453 8 114458564.602 8        45.500                    21780760.508 8
  89188573.01949        47.300    21780760.69149


  22417287.500 7 117803645.502 7        42.800
  91795139.19348        32.300    22417308.98848


  23640591.711 5 124232167.421 5        36.300                    23640610.184 5
  96804344.67948        30.200    23640610.28948


  23265724.344 6 122262187.237 6        38.400                    23265751.113 6
  95269360.78246        22.500    23265751.78546  23265755.270 7  91299711.952 7
        44.500

  20358032.398 8 106982181.751 8        47.800                    20358049.012 9
  83362809.77049        43.400    20358049.17249  20358056.680 9  79889320.525 9
        55.700

  22440101.281 7 117923527.065 7        41.800                    22440126.824 7
  91888560.63749        41.300    22440126.37549  22440131.840 8  88059788.774 8
        47.900

  21370969.922 8 112305201.142 8        45.900                    21370990.105 8
  87510631.60349        49.700    21370989.60949  21370994.215 9  83864373.374 9
        51.300

  22010312.352 5 117699085.793 5        36.200    22010312.707 5  22010336.180 5
  91543783.768 5        36.900    22010335.523 5


  23649013.266 9 124276402.965 9        48.200
                                                  23649032.543 9  92803791.238 9
        51.700    23649027.855 9  95224748.550 9        52.500    23649030.137 9
  94014379.002 9        58.500
  23977489.070 9 126002555.479 9        50.300
                                                  23977508.469 9  94092894.578 9
        50.900    23977503.875 9  96547473.279 9        51.900    23977506.176 9
  95320183.538 9        57.800
  26252420.125 6 137957396.199 6        40.800
                                                  26252446.512 7 103020219.168 7
        42.700    26252441.027 7 105707688.108 7        44.100    26252443.973 9
 104363962.747 9        49.600
  24483258.031 9 128660392.236 9        49.100
                                                  24483281.141 9  96077560.097 9
        49.200    24483276.594 9  98583931.134 9        49.900    24483278.813 9
  97330768.222 9        55.900
  22429082.508 7 119727958.480 7        42.600    22429082.363 7  22429102.734 7
  93121751.617 6        40.900    22429102.715 6


  20918707.695 9 111783242.407 9        50.500    20918707.570 9  20918725.480 8
  86942515.819 8        46.600    20918725.699 8


  20548684.070 9 109960158.278 9        51.900    20548683.332 9  20548701.441 8
  85524566.931 8        47.300    20548702.332 8


  19281888.641 8 102783318.589 8        47.000    19281887.152 8



  21623301.219 8 115467200.458 8        46.300    21623300.070 7  21623316.055 7
  89807833.786 7        43.600    21623315.605 7


  24226960.398 5 129507058.847 5        35.700    24226959.660 3  24226988.254 4
 100727752.289 3        33.500    24226988.270 3


  38724183.109 6 203496953.847 6        40.100



  36742913.531 7 193085310.910 7        42.100



 23  2 14 10 23 47.0000000  0 21G30G17G19G 7G 1G14G 3G 6R20E33E 1E26 0.000000000
                                E31R22R11R21R10R 9R 5S27S37
  21971183.031 8 115459346.128 8        45.100                    21971202.840 8
  89968393.94349        45.700    21971202.64549  21971206.535 9  86219656.011 9
        50.100

  21780755.336 8 114458642.706 8        45.400                    21780775.219 7
  89188633.88149        47.200    21780775.26249


  22417079.094 7 117802552.147 7        43.000
  91794287.22748        31.900    22417101.21948


  23641249.477 5 124235625.966 5        36.200                    23641268.270 5
  96807039.64748        31.100    23641268.27348


  23266390.094 6 122265685.911 6        38.000                    23266417.172 6
  95272087.02146        22.600    23266417.59046  23266420.957 7  91302324.598 7
        44.300

  20357904.203 8 106981508.696 8        47.800                    20357921.039 9
  83362285.31649        43.400    20357921.04349  20357928.555 9  79888817.930 9
        55.600

  22440099.781 7 117923517.891 7        42.100                    22440124.348 7
  91888553.48449        41.700    22440123.87549  22440129.574 9  88059781.916 9
        48.000

  21370603.125 8 112303275.590 8        46.200                    21370623.477 8
  87509131.17449        49.900    21370623.03549  21370627.875 9  83862935.468 9
        51.200

  22010867.570 5 117702051.279 5        36.500    22010867.223 5  22010891.004 5
  91546090.251 5        37.600    22010890.078 5


  23649195.922 9 124277361.972 9        48.600
                                                  23649214.867 9  92804507.380 9
        51.500    23649210.180 9  95225483.375 9        52.300    23649212.516 9
  94015104.485 9        58.500
  23977621.297 9 126003250.107 9        50.100
                                                  23977640.902 9  94093413.296 9
        50.900    23977636.164 9  96548005.530 9        52.200    23977638.629 9
  95320709.020 9        57.800
  26252890.438 6 137959866.466 6        40.700
                                                  26252916.422 7 103022063.845 7
        43.200    26252911.215 7 105709580.907 7        44.100    26252914.176 9
 104365831.485 9        49.600
  24482915.586 9 128658593.377 9        49.400
                                                  24482938.891 9  96076216.796 9
        49.100    24482934.203 9  98582552.797 9        50.000    24482936.582 9
  97329407.406 9        55.800
  22428726.844 7 119726048.618 7        43.200    22428724.469 7  22428744.898 7
  93120266.169 7        41.000    22428744.883 7


  20918118.797 9 111780090.535 9        50.500    20918117.730 9  20918135.613 8
  86940064.374 8        46.300    20918135.922 8


  20548750.648 9 109960513.667 9        52.000    20548749.324 9  20548767.668 8
  85524843.347 8        47.100    20548768.441 8


  19282055.656 8 102784206.813 8        47.300    19282053.934 8



  21624004.594 8 115470954.324 8        46.000    21624003.094 7  21624019.055 7
  89810753.465 7        43.400    21624018.758 7


  24226655.344 5 129505426.995 5        36.500    24226654.016 4  24226682.340 3
 100726483.059 3        33.400    24226682.398 3


  38724184.844 6 203496964.354 6        40.100



  36742915.875 7 193085315.753 7        42.200



 23  2 14 10 23 48.0000000  0 21G30G17G19G 7G 1G14G 3G 6R20E33E 1E26 0.000000000
                                E31R22R11R21R10R 9R 5S27S37
  21971658.297 8 115461843.003 8        45.000                    21971678.250 8
  89970339.56149        45.700    21971677.80149  21971681.750 9  86221520.560 9
        49.900

  21780770.297 8 114458720.794 8        45.400                    21780790.879 7
  89188694.72749        47.300    21780790.67649


  22416871.195 7 117801458.825 7        42.700
  91793435.29248        32.500    22416892.93048


  23641907.727 5 124239084.494 5        36.300                    23641926.742 5
  96809734.60148        30.500    23641926.65648


  23267056.219 6 122269184.677 6        38.100                    23267083.320 6
  95274813.33146        23.600    23267083.68846  23267086.938 7  91304937.312 7
        44.600

  20357776.414 9 106980836.096 9        48.100                    20357793.289 9
  83361761.21149        43.300    20357793.58249  20357800.977 9  79888315.663 9
        55.900

  22440098.125 7 117923509.267 7        42.000                    22440122.445 7
  91888546.76549        41.600    22440122.24649  22440127.828 9  88059775.480 9
        48.100

  21370236.586 8 112301350.526 8        46.000                    21370257.301 8
  87507631.12649        49.800    21370256.89149  21370261.730 9  83861497.923 9
        51.300

  22011422.578 5 117705016.822 5        36.200    22011422.699 4  22011445.602 5
  91548396.784 5        37.700    22011444.926 5


  23649378.438 9 124278321.276 9        48.600
                                                  23649397.445 9  92805223.741 9
        51.500    23649392.758 9  95226218.423 9        52.500    23649395.133 9
  94015830.192 9        58.400
  23977753.586 9 126003945.083 9        50.100
                                                  23977772.953 9  94093932.271 9
        51.000    23977768.313 9  96548538.042 9        51.800    23977770.723 9
  95321234.768 9        57.800
  26253360.461 6 137962336.757 6        40.800
                                                  26253386.648 7 103023908.538 7
        43.100    26253381.254 7 105711473.723 7        44.100    26253384.168 9
 104367700.240 9        49.500
  24482573.414 9 128656794.700 9        49.200
                                                  24482596.414 9  96074873.638 9
        49.100    24482591.680 9  98581174.597 9        49.900    24482594.090 9
  97328046.727 9        55.700
  22428367.820 7 119724139.166 7        43.400    22428366.738 7  22428386.750 6
  93118781.038 7        41.100    22428387.047 7


  20917528.734 9 111776939.178 9        50.200    20917528.020 8  20917546.086 8
  86937613.331 8        46.600    20917546.203 8


  20548816.930 9 109960869.443 9        52.000    20548816.191 9  20548834.164 8
  85525120.060 8        47.100    20548835.152 8


  19282223.375 8 102785095.853 8        46.500    19282220.832 8



  21624707.102 8 115474708.614 8        45.800    21624705.953 7  21624722.031 7
  89813673.470 7        43.600    21624721.746 7


  24226349.891 5 129503795.553 5        35.600    24226348.918 4  24226377.184 3
 100725214.149 3        33.300    24226377.074 3


  38724186.688 6 203496974.789 6        40.100



  36742916.313 7 193085320.609 7        42.300



 23  2 14 10 23 49.0000000  0 21G30G17G19G 7G 1G14G 3G 6R20E33E 1E26 0.000000000
                                E31R22R11R21R10R 9R 5S27S37
  21972133.695 8 115464340.243 8        45.200                    21972153.480 8
  89972285.46349        45.800    21972153.24249  21972157.020 9  86223385.379 9
        49.900

  21780785.023 8 114458798.860 8        45.300                    21780805.293 7
  89188755.56549        47.400    21780805.04749


  22416663.305 7 117800365.561 7        42.800
  91792583.40848        32.400    22416685.09848


  23642566.359 5 124242543.005 5        36.700                    23642584.859 5
  96812429.53848        31.000    23642584.84848


  23267721.617 5 122272683.573 5        37.600                    23267749.055 6
  95277539.73346        23.600    23267749.26246  23267752.574 7  91307550.125 7
        44.300

  20357648.516 8 106980163.960 8        47.600                    20357665.410 9
  83361237.47349        43.200    20357665.33649  20357672.965 9  79887813.749 9
        55.700

  22440096.547 7 117923501.288 7        41.700                    22440121.109 7
  91888540.55149        41.500    22440120.81349  22440126.453 9  88059769.522 9
        48.200

  21369870.102 8 112299425.961 8        46.200                    21369890.680 9
  87506131.47149        49.800    21369890.20749  21369895.047 9  83860060.750 9
        51.300

  22011976.023 5 117707982.337 5        36.400    22011976.496 5  22011999.250 5
  91550703.293 5        37.500    22011998.859 5


  23649561.055 9 124279280.884 9        48.600
                                                  23649580.137 9  92805940.332 9
        51.400    23649575.449 9  95226953.709 9        52.400    23649577.816 9
  94016556.132 9        58.400
  23977885.938 9 126004640.421 9        49.800
                                                  23977905.328 9  94094451.522 9
        51.100    23977900.641 9  96549070.835 9        51.600    23977903.078 9
  95321760.787 9        57.700
  26253830.531 7 137964807.058 7        41.000
                                                  26253856.676 7 103025753.237 7
        43.100    26253851.332 7 105713366.549 7        43.900    26253854.195 9
 104369569.004 9        49.500
  24482231.125 9 128654996.226 9        49.400
                                                  24482254.168 9  96073530.629 9
        48.900    24482249.434 9  98579796.548 9        50.100    24482251.816 9
  97326686.199 9        55.700
  22428010.430 7 119722230.169 7        43.700    22428009.230 7  22428029.012 7
  93117296.259 7        41.100    22428029.801 7


  20916938.859 9 111773788.367 9        50.300    20916938.500 9  20916956.613 8
  86935162.706 8        46.200    20916956.531 8


  20548883.273 9 109961225.675 9        51.700    20548882.887 9  20548900.879 8
  85525397.132 8        47.100    20548901.801 8


  19282389.727 8 102785985.762 8        46.800    19282388.121 8



  21625410.195 8 115478463.301 8        45.800    21625408.930 7  21625424.688 8
  89816593.777 7        44.100    21625424.578 7


  24226044.141 5 129502164.406 5        35.900    24226043.168 4  24226071.555 3
 100723945.468 3        33.100    24226071.547 3


  38724187.969 6 203496985.142 6        40.000



  36742909.875 7 193085325.482 7        42.000



 23  2 14 10 23 50.0000000  0 21G30G17G19G 7G 1G14G 3G 6R20E33E 1E26 0.000000000
                                E31R22R11R21R10R 9R 5S27S37
  21972609.078 7 115466837.802 7        44.600                    21972628.938 8
  89974231.61649        45.700    21972628.27749  21972632.289 9  86225250.438 9
        49.800

  21780800.391 8 114458876.985 8        45.300                    21780820.156 7
  89188816.44449        47.300    21780819.95349


  22416455.125 7 117799272.457 7        42.900
  91791731.65348        32.500    22416476.93848


  23643224.016 5 124246001.565 5        36.700                    23643242.367 5
  96815124.52148        30.600    23643242.70348


  23268387.539 5 122276182.601 5        37.800                    23268414.504 6
  95280266.24446        22.000    23268415.04746  23268418.355 7  91310163.037 7
        44.300

  20357520.625 8 106979492.351 8        47.700                    20357537.453 9
  83360714.14049        43.700    20357537.30149  20357545.047 9  79887312.223 9
        55.700

  22440095.023 7 117923493.959 7        41.700                    22440119.547 7
  91888534.84149        41.700    22440119.24649  22440124.711 9  88059764.049 9
        48.000

  21369503.883 8 112297501.932 8        46.000                    21369524.793 8
  87504632.22449        49.800    21369524.35949  21369529.199 9  83858623.977 9
        51.300

  22012530.031 5 117710947.840 5        36.000    22012531.094 5  22012553.957 5
  91553009.796 5        37.400    22012553.324 5


  23649743.656 9 124280240.838 9        48.600
                                                  23649762.723 9  92806657.180 9
        51.400    23649757.984 9  95227689.258 9        52.200    23649760.363 9
  94017282.329 9        58.500
  23978018.281 9 126005336.175 9        49.700
                                                  23978037.680 9  94094971.082 9
        51.000    23978032.852 9  96549603.947 9        51.200    23978035.379 9
  95322287.122 9        57.700
  26254300.508 7 137967277.505 7        41.700
                                                  26254326.766 7 103027598.053 7
        43.100    26254321.559 7 105715259.487 7        44.000    26254324.391 9
 104371437.881 9        49.500
  24481888.867 9 128653198.019 9        49.700
                                                  24481912.141 9  96072187.820 9
        48.800    24481907.453 9  98578418.706 9        50.100    24481909.844 9
  97325325.874 9        55.800
  22427653.313 7 119720321.680 7        44.000    22427651.406 7  22427671.348 7
  93115811.886 6        40.400    22427671.816 6


  20916349.703 9 111770638.141 9        50.200    20916348.871 9  20916367.316 8
  86932712.538 8        46.700    20916366.984 8


  20548950.570 9 109961582.382 9        51.800    20548949.246 9  20548967.672 9
  85525674.570 8        47.700    20548968.305 8


  19282556.102 8 102786876.584 8        47.200    19282555.316 8



  21626113.094 8 115482218.469 8        45.800    21626112.648 7  21626128.531 8
  89819514.464 7        44.000    21626128.289 7


  24225739.609 5 129500533.747 5        35.500    24225738.637 4  24225767.297 3
 100722677.162 3        33.500    24225767.191 3


  38724190.984 6 203496995.557 6        40.000



  36742915.719 7 193085330.415 7        42.000



 23  2 14 10 23 51.0000000  0 21G30G17G19G 7G 1G14G 3G 6R20E33E 1E26 0.000000000
                                E31R22R11R21R10R 9R 5S27S37
  21973084.477 7 115469335.848 7        44.600                    21973104.328 8
  89976178.14049        45.800    21973103.74249  21973107.578 9  86227115.859 9
        49.900

  21780814.852 8 114458955.208 8        45.400                    21780835.105 8
  89188877.40149        47.300    21780834.99649


  22416247.055 7 117798179.519 7        42.900
  91790880.01348        32.400    22416268.89848


  23643882.656 5 124249460.244 5        36.500                    23643900.719 5
  96817819.59548        30.500    23643900.94148


  23269053.125 5 122279681.857 5        37.700                    23269080.488 6
  95282992.93246        22.800    23269080.98046  23269084.289 7  91312776.111 7
        44.400

  20357392.758 8 106978821.345 8        47.600                    20357409.777 9
  83360191.28549        43.600    20357409.92649  20357417.551 9  79886811.150 9
        55.700

  22440093.875 7 117923487.368 7        41.300                    22440118.184 7
  91888529.70349        41.700    22440118.02049  22440123.602 9  88059759.131 9
        48.300

  21369138.625 8 112295578.531 8        46.200                    21369158.898 8
  87503133.47549        49.800    21369158.43849  21369163.332 9  83857187.675 9
        51.400

  22013085.680 5 117713913.478 5        35.900    22013085.801 4  22013108.934 5
  91555316.399 5        37.300    22013108.320 5


  23649926.414 9 124281201.259 9        48.600
                                                  23649945.566 9  92807374.377 9
        51.600    23649940.832 9  95228425.163 9        52.200    23649943.219 9
  94018008.882 9        58.500
  23978150.836 9 126006032.427 9        50.100
                                                  23978170.156 9  94095491.011 9
        51.300    23978165.375 9  96550137.440 9        51.400    23978167.863 9
  95322813.835 9        57.800
  26254770.813 7 137969748.034 7        41.500
                                                  26254797.012 7 103029442.921 7
        42.500    26254791.805 7 105717152.487 7        44.300    26254794.668 9
 104373306.812 9        49.500
  24481546.969 9 128651400.147 9        49.300
                                                  24481569.895 9  96070845.261 9
        48.600    24481565.254 9  98577041.126 9        50.300    24481567.602 9
  97323965.803 9        55.800
  22427295.211 7 119718413.789 7        44.300    22427294.480 7  22427314.711 7
  93114327.975 7        41.100    22427314.758 7


  20915760.281 9 111767488.572 9        50.300    20915759.332 9  20915777.871 8
  86930262.879 8        46.300    20915777.578 8


  20549017.055 9 109961939.612 9        51.900    20549016.199 9  20549034.605 9
  85525952.415 8        47.800    20549035.016 8


  19282723.023 8 102787768.395 8        47.100    19282721.887 8



  21626816.602 8 115485974.212 8        45.900    21626815.805 7  21626831.027 8
  89822435.595 7        43.700    21626831.246 7


  24225433.938 5 129498903.576 5        36.100    24225434.488 5  24225462.664 3
 100721409.239 3        32.600    24225462.379 3


  38724192.422 6 203497006.144 6        40.200



  36742913.500 7 193085335.487 7        42.000



 23  2 14 10 23 52.0000000  0 21G30G17G19G 7G 1G14G 3G 6R20E33E 1E26 0.000000000
                                E31R22R11R21R10R 9R 5S27S37
  21973559.484 8 115471834.193 8        45.000                    21973579.270 8
  89978124.90149        45.600    21973578.78549  21973582.738 9  86228981.506 9
        49.900

  21780829.172 8 114459033.418 8        45.300                    21780849.672 8
  89188938.34649        47.400    21780849.37949


  22416039.336 7 117797086.652 7        42.800
  91790028.44148        33.000    22416061.23448


  23644539.922 5 124252918.914 5        36.700                    23644559.199 5
  96820514.66548        30.400    23644559.40248


  23269719.406 5 122283181.163 5        37.300                    23269746.359 6
  95285719.67146        22.800    23269746.63746  23269750.121 7  91315389.223 7
        44.600

  20357265.148 8 106978150.788 8        47.600                    20357282.336 9
  83359668.77749        43.300    20357282.34049  20357289.910 9  79886310.410 9
        55.700

  22440092.805 7 117923481.367 7        41.700                    22440117.156 7
  91888525.02749        41.800    22440116.89149  22440122.473 9  88059754.639 9
        48.000

  21368772.727 8 112293655.606 8        46.000                    21368793.285 8
  87501635.09849        49.800    21368792.90249  21368797.625 9  83855751.725 9
        51.300

  22013639.641 5 117716878.995 5        36.000    22013640.586 5  22013663.688 5
  91557622.911 5        37.700    22013662.836 5


  23650109.250 9 124282161.924 9        48.900
                                                  23650128.395 9  92808091.756 9
        51.400    23650123.703 9  95229161.261 9        52.200    23650126.031 9
  94018735.618 9        58.500
  23978283.266 9 126006729.024 9        50.100
                                                  23978302.898 9  94096011.197 9
        50.800    23978298.211 9  96550671.198 9        51.800    23978300.578 9
  95323340.806 9        57.800
  26255241.008 7 137972218.622 7        41.700
                                                  26255267.074 7 103031287.836 7
        42.700    26255261.918 7 105719045.533 7        43.900    26255264.633 9
 104375175.796 9        49.700
  24481204.594 9 128649602.420 9        49.300
                                                  24481227.902 9  96069502.811 9
        48.600    24481223.262 9  98575663.651 9        49.800    24481225.566 9
  97322605.840 9        55.900
  22426936.930 7 119716506.330 7        44.300    22426936.551 7  22426957.016 7
  93112844.399 6        40.800    22426957.039 6


  20915170.719 9 111764339.498 9        50.200    20915170.359 9  20915188.535 8
  86927813.604 8        46.300    20915188.395 8


  20549083.313 9 109962297.178 9        51.700    20549083.043 9  20549101.488 9
  85526230.523 9        48.000    20549101.969 9


  19282890.477 8 102788661.033 8        47.100    19282889.691 8



  21627520.039 8 115489730.329 8        45.500    21627518.656 7  21627534.215 7
  89825357.019 7        43.700    21627534.438 7


  24225128.211 5 129497273.711 5        36.600    24225129.582 5  24225157.727 3
 100720141.557 3        33.000    24225157.234 3


  38724194.828 6 203497016.751 6        40.000



  36742916.734 7 193085340.552 7        42.100



 23  2 14 10 23 53.0000000  0 21G30G17G19G 7G 1G14G 3G 6R20E33E 1E26 0.000000000
                                E31R22R11R21R10R 9R 5S27S37
  21974035.148 7 115474332.849 7        44.900                    21974055.242 8
  89980071.91149        45.600    21974054.78149  21974058.730 9  86230847.389 9
        49.800

  21780844.477 8 114459111.607 8        45.500                    21780864.434 8
  89188999.27649        47.300    21780864.43049


  22415831.297 7 117795993.848 7        42.700
  91789176.91648        33.200    22415853.25448


  23645197.516 5 124256377.536 5        36.200                    23645217.102 5
  96823209.69048        30.200    23645217.21948


  23270385.070 6 122286680.621 6        38.100                    23270412.660 6
  95288446.51546        22.500    23270412.51246  23270415.941 7  91318002.454 7
        44.600

  20357137.500 8 106977480.696 8        47.800                    20357154.641 9
  83359146.63249        43.300    20357154.44149  20357162.242 9  79885810.023 9
        55.700

  22440091.484 7 117923475.963 7        41.700                    22440116.074 7
  91888520.81749        41.400    22440115.93449  22440121.516 9  88059750.608 9
        48.000

  21368406.742 8 112291733.205 8        46.200                    21368427.512 8
  87500137.12849        49.900    21368426.98849  21368431.766 9  83854316.175 9
        51.500

  22014195.273 5 117719844.552 5        36.700    22014194.457 5  22014217.828 5
  91559929.447 5        37.600    22014217.316 5


  23650292.094 9 124283122.901 9        48.700
                                                  23650311.008 9  92808809.370 9
        51.200    23650306.504 9  95229897.589 9        52.300    23650308.762 9
  94019462.592 9        58.500
  23978415.992 9 126007425.987 9        49.700
                                                  23978435.328 9  94096531.661 9
        51.200    23978430.590 9  96551205.234 9        51.700    23978433.012 9
  95323868.056 9        57.800
  26255710.914 7 137974689.239 7        41.600
                                                  26255737.141 7 103033132.779 7
        42.900    26255731.844 7 105720938.596 7        43.600    26255734.723 9
 104377044.799 9        49.700
  24480862.680 9 128647804.914 9        49.100
                                                  24480885.840 9  96068160.523 9
        48.600    24480881.148 9  98574286.350 9        50.100    24480883.426 9
  97321246.046 9        55.800
  22426580.203 7 119714599.299 7        44.400    22426579.121 7  22426599.250 6
  93111361.157 7        41.400    22426599.578 7


  20914582.484 9 111761190.945 9        50.500    20914581.066 9  20914599.066 8
  86925364.743 8        46.200    20914599.320 8


  20549150.641 9 109962655.172 9        52.000    20549150.605 9  20549168.629 9
  85526508.965 9        48.300    20549169.457 9


  19283058.227 8 102789554.514 8        46.800    19283056.855 8



  21628223.055 8 115493486.888 8        45.800    21628223.078 7  21628238.426 8
  89828278.791 7        43.600    21628238.516 7


  24224824.617 5 129495644.237 5        36.100    24224825.285 5  24224852.969 3
 100718874.171 3        33.500    24224852.387 3


  38724197.859 6 203497027.340 6        39.800



  36742925.000 7 193085345.609 7        42.100



 23  2 14 10 23 54.0000000  0 21G30G17G19G 7G 1G14G 3G 6R20E33E 1E26 0.000000000
                                E31R22R11R21R10R 9R 5S27S37
  21974510.766 7 115476831.866 7        44.800                    21974530.254 8
  89982019.19349        45.500    21974529.99249  21974533.828 9  86232713.539 9
        49.800

  21780858.867 8 114459189.816 8        45.600                    21780879.398 8
  89189060.21549        47.300    21780879.52349


  22415623.148 7 117794901.155 7        42.900
  91788325.47448        33.600    22415645.10548


  23645856.508 5 124259836.204 5        36.400                    23645875.238 5
  96825904.75747        29.900    23645875.64547


  23271051.766 5 122290180.196 5        37.600                    23271078.469 7
  95291173.46246        22.500    23271078.60946  23271082.094 7  91320615.776 7
        44.500

  20357010.391 8 106976811.104 8        47.800                    20357027.035 9
  83358624.87749        43.200    20357026.89149  20357034.637 9  79885310.008 9
        55.700

  22440090.367 7 117923471.221 7        42.000                    22440115.230 7
  91888517.11549        41.400    22440114.95349  22440120.770 9  88059747.064 9
        48.000

  21368041.375 8 112289811.319 8        46.100                    21368061.695 8
  87498639.56149        50.000    21368061.41849  21368065.902 9  83852881.001 9
        51.400

  22014750.602 5 117722810.066 5        36.500    22014749.434 4  22014772.227 5
  91562235.959 5        37.200    22014771.832 5


  23650474.930 9 124284084.217 9        48.600
                                                  23650494.043 9  92809527.233 9
        51.300    23650489.309 9  95230634.181 9        52.400    23650491.695 9
  94020189.816 9        58.500
  23978548.734 9 126008123.363 9        50.000
                                                  23978568.063 9  94097052.431 9
        51.000    23978563.516 9  96551739.589 9        51.900    23978565.863 9
  95324395.620 9        57.800
  26256181.141 7 137977159.915 7        41.600
                                                  26256207.492 7 103034977.764 7
        42.700    26256202.238 7 105722831.711 7        43.700    26256205.102 9
 104378913.846 9        49.700
  24480520.773 9 128646007.663 9        49.300
                                                  24480543.605 9  96066818.428 9
        48.300    24480538.914 9  98572909.244 9        50.100    24480541.355 9
  97319886.445 9        55.800
  22426223.594 7 119712692.748 7        44.600    22426222.273 7  22426242.422 7
  93109878.284 6        40.500    22426242.922 6


  20913992.297 9 111758042.991 9        50.600    20913992.172 9  20914010.066 8
  86922916.339 8        46.500    20914010.086 8


  20549217.328 9 109963013.657 9        52.100    20549216.355 9  20549234.703 9
  85526787.788 9        48.200    20549235.227 9


  19283226.805 8 102790448.901 8        47.200    19283225.199 8



  21628927.664 8 115497243.919 8        45.800    21628925.930 7  21628941.625 8
  89831200.922 7        43.500    21628941.430 7


  24224519.805 5 129494015.161 5        35.800    24224519.887 5  24224548.273 3
 100717607.091 3        33.500    24224547.715 3


  38724199.719 6 203497038.054 6        40.200



  36742918.422 7 193085350.710 7        42.000



 23  2 14 10 23 55.0000000  0 21G30G17G19G 7G 1G14G 3G 6R20E33E 1E26 0.000000000
                                E31R22R11R21R10R 9R 5S27S37
  21974986.508 7 115479331.214 7        44.500                    21975005.656 8
  89983966.74249        45.500    21975005.37549  21975009.211 9  86234579.933 9
        49.800

  21780874.750 8 114459268.029 8        45.600                    21780894.336 7
  89189121.16649        47.300    21780894.33649


  22415415.469 7 117793808.503 7        42.700
  91787474.05848        32.600    22415436.88748


  23646515.195 5 124263294.846 5        36.400                    23646533.379 5
  96828599.79948        30.500    23646533.76248


  23271717.555 5 122293679.872 5        37.900                    23271745.020 6
  95293900.48146        22.200    23271745.00446  23271748.605 7  91323229.168 7
        44.500

  20356883.000 8 106976141.998 8        47.800                    20356899.930 9
  83358103.49449        43.300    20356899.89149  20356907.516 9  79884810.352 9
        55.600

  22440089.813 7 117923467.089 7        42.100                    22440114.477 7
  91888513.89549        41.300    22440114.18849  22440119.828 9  88059743.976 9
        48.200

  21367675.008 8 112287889.927 8        46.300                    21367695.883 8
  87497142.36949        49.800    21367695.36349  21367700.203 9  83851446.199 9
        51.300

  22015303.516 5 117725775.547 5        35.800    22015303.402 5  22015326.512 5
  91564542.448 5        37.100    22015326.195 5


  23650657.992 9 124285045.860 9        48.400
                                                  23650677.211 9  92810245.343 9
        51.100    23650672.566 9  95231371.025 9        52.400    23650674.836 9
  94020917.294 9        58.500
  23978681.500 9 126008821.110 9        50.100
                                                  23978700.793 9  94097573.478 9
        51.200    23978696.102 9  96552274.231 9        52.000    23978698.512 9
  95324923.461 9        57.900
  26256651.359 7 137979630.630 7        41.200
                                                  26256677.656 7 103036822.776 7
        42.700    26256672.313 7 105724724.859 7        44.000    26256675.090 9
 104380782.926 9        49.600
  24480178.758 9 128644210.591 9        49.300
                                                  24480201.676 9  96065476.469 9
        48.500    24480197.078 9  98571532.272 9        50.100    24480199.422 9
  97318526.980 9        55.800
  22425866.063 7 119710786.681 7        44.500    22425864.980 7  22425884.918 7
  93108395.781 6        40.900    22425885.203 6


  20913403.445 9 111754895.552 9        50.400    20913402.496 9  20913420.957 8
  86920468.344 8        46.300    20913420.637 8


  20549284.844 9 109963372.598 9        51.500    20549284.105 9  20549302.445 9
  85527066.968 9        48.000    20549303.008 9


  19283394.391 8 102791344.155 8        46.700    19283392.785 8



  21629630.445 8 115501001.391 8        45.800    21629630.117 7  21629645.941 7
  89834123.399 7        43.300    21629645.367 7


  24224215.234 5 129492386.401 5        36.600    24224215.434 5  24224243.090 3
 100716340.262 3        33.300    24224242.480 3


  38724200.078 6 203497048.735 6        40.000



  36742921.938 7 193085355.854 7        42.100



 23  2 14 10 23 56.0000000  0 21G30G17G19G 7G 1G14G 3G 6R20E33E 1E26 0.000000000
                                E31R22R11R21R10R 9R 5S27S37
  21975462.125 7 115481830.913 7        44.700                    21975481.570 8
  89985914.55949        45.700    21975481.22749  21975485.180 9  86236446.591 9
        49.900

  21780889.484 8 114459346.237 8        45.100                    21780909.520 7
  89189182.11149        47.200    21780909.56649


  22415207.469 7 117792715.972 7        42.800
  91786622.74248        33.000    22415229.50048


  23647172.992 5 124266753.516 5        36.600                    23647191.934 5
  96831294.86848        30.700    23647192.02348


  23272382.984 5 122297179.707 5        36.900                    23272410.547 6
  95296627.61846        22.800    23272410.53946  23272414.203 7  91325842.680 7
        44.600

  20356755.523 8 106975473.373 8        47.700                    20356772.801 9
  83357582.49049        43.300    20356772.77049  20356780.281 9  79884311.059 9
        55.600

  22440089.367 7 117923463.575 7        41.900                    22440113.957 7
  91888511.15749        41.400    22440113.64149  22440119.164 9  88059741.353 9
        48.100

  21367309.594 8 112285969.082 8        46.200                    21367330.203 8
  87495645.61249        49.900    21367329.69149  21367334.414 9  83850011.806 9
        51.300

  22015858.758 5 117728741.067 5        36.700    22015857.941 5  22015881.250 5
  91566848.959 5        37.200    22015880.848 5


  23650841.109 9 124286007.813 9        48.400
                                                  23650860.125 9  92810963.686 9
        51.300    23650855.480 9  95232108.107 9        52.100    23650857.762 9
  94021645.007 9        58.500
  23978814.242 9 126009519.236 9        50.100
                                                  23978833.563 9  94098094.809 9
        51.300    23978828.922 9  96552809.160 9        52.000    23978831.375 9
  95325451.593 9        57.800
  26257121.516 7 137982101.391 7        41.400
                                                  26257147.695 7 103038667.826 7
        43.000    26257142.586 7 105726618.037 7        43.600    26257145.328 9
 104382652.043 9        49.500
  24479836.719 9 128642413.755 9        49.100
                                                  24479859.918 9  96064134.679 9
        48.800    24479855.137 9  98570155.482 9        49.900    24479857.516 9
  97317167.691 9        55.800
  22425509.141 7 119708881.066 7        44.800    22425508.176 7  22425528.238 7
  93106913.636 7        41.000    22425528.445 7


  20912814.422 9 111751748.662 9        50.600    20912814.063 9  20912832.094 8
  86918020.773 8        46.200    20912832.105 8


  20549352.031 9 109963731.955 9        51.900    20549350.824 9  20549369.082 9
  85527346.467 8        47.800    20549369.855 8


  19283562.211 8 102792240.302 8        46.700    19283560.840 8



  21630334.516 8 115504759.306 8        46.300    21630333.602 7  21630348.914 7
  89837046.222 7        43.400    21630348.910 7


  24223910.875 5 129490758.053 5        36.100    24223910.723 5  24223939.199 3
 100715073.744 3        32.900    24223938.207 3


  38724202.578 6 203497059.345 6        40.000



  36742921.078 7 193085361.040 7        42.400



 23  2 14 10 23 57.0000000  0 21G30G17G19G 7G 1G14G 3G 6R20E33E 1E26 0.000000000
                                E31R22R11R21R10R 9R 5S27S37
  21975937.594 8 115484330.877 8        45.000                    21975957.543 8
  89987862.58049        45.700    21975957.40649  21975961.242 9  86238313.449 9
        50.100

  21780904.148 8 114459424.393 8        45.500                    21780923.957 7
  89189243.01649        47.400    21780923.94949


  22414999.867 7 117791623.464 7        43.000
  91785771.44848        32.600    22415021.48848


  23647831.227 5 124270212.175 5        36.300                    23647849.879 5
  96833989.92848        30.600    23647850.00448


  23273050.141 5 122300679.568 5        37.300                    23273076.195 6
  95299354.77946        22.900    23273076.27746  23273079.879 8  91328456.205 8
        45.000

  20356628.742 8 106974805.191 8        47.800                    20356645.340 9
  83357061.83149        43.400    20356645.33249  20356652.902 9  79883812.092 9
        55.700

  22440089.164 7 117923460.648 7        41.800                    22440112.551 7
  91888508.88149        41.400    22440112.57049  22440118.328 9  88059739.169 9
        48.100

  21366944.250 8 112284048.700 8        46.300                    21366964.730 8
  87494149.21049        49.900    21366964.26249  21366968.922 9  83848577.752 9
        51.300

  22016414.438 5 117731706.487 5        36.700    22016412.449 5  22016436.051 6
  91569155.397 5        37.600    22016435.332 5


  23651024.281 9 124286970.038 9        48.600
                                                  23651043.164 9  92811682.229 9
        51.500    23651038.570 9  95232845.395 9        52.400    23651040.895 9
  94022372.919 9        58.600
  23978947.250 9 126010217.705 9        50.600
                                                  23978966.719 9  94098616.395 9
        51.200    23978961.938 9  96553344.353 9        52.200    23978964.348 9
  95325979.980 9        57.800
  26257591.414 7 137984572.174 7        41.200
                                                  26257617.781 7 103040512.890 7
        43.200    26257612.762 7 105728511.230 7        43.700    26257615.469 9
 104384521.169 9        49.500
  24479494.930 9 128640617.103 9        48.900
                                                  24479518.020 9  96062793.033 9
        49.100    24479513.328 9  98568778.833 9        50.200    24479515.711 9
  97315808.542 9        55.800
  22425152.930 8 119706975.863 8        45.000    22425151.609 7  22425171.887 6
  93105431.812 6        40.500    22425171.992 6


  20912225.664 9 111748602.263 9        50.200    20912224.949 9  20912243.121 8
  86915573.583 8        46.400    20912243.023 8


  20549419.188 9 109964091.699 9        51.600    20549418.332 9  20549436.770 8
  85527626.267 8        47.300    20549437.297 8


  19283730.539 8 102793137.245 8        46.500    19283728.934 8



  21631037.852 8 115508517.624 8        46.100    21631037.406 7  21631052.660 8
  89839969.359 7        43.600    21631052.754 7


  24223606.117 5 129489129.984 5        36.200    24223605.496 4  24223633.121 3
 100713807.458 3        33.400    24223632.926 3


  38724206.703 6 203497069.972 6        40.200



  36742924.438 7 193085366.174 7        42.000



 23  2 14 10 23 58.0000000  0 21G30G17G19G 7G 1G14G 3G 6R20E33E 1E26 0.000000000
                                E31R22R11R21R10R 9R 5S27S37
  21976413.398 8 115486831.145 8        45.100                    21976433.086 8
  89989810.84749        45.500    21976432.69549  21976436.531 9  86240180.535 9
        50.300

  21780919.281 8 114459502.524 8        45.500                    21780939.188 7
  89189303.90249        47.400    21780939.34049


  22414791.789 7 117790531.004 7        43.000
  91784920.18348        33.100    22414813.57448


  23648489.125 5 124273670.734 5        35.700                    23648508.262 5
  96836684.90548        30.200    23648508.26248


  23273715.406 5 122304179.504 5        37.300                    23273742.617 6
  95302081.99846        23.300    23273742.90246  23273746.797 8  91331069.790 8
        45.000

  20356501.578 8 106974137.453 8        47.500                    20356518.246 9
  83356541.52249        43.300    20356518.34449  20356525.973 9  79883313.460 9
        55.700

  22440088.336 7 117923458.263 7        41.800                    22440112.516 7
  91888507.02249        41.500    22440112.19949  22440117.957 9  88059737.387 9
        48.100

  21366578.641 8 112282128.759 8        46.200                    21366599.352 8
  87492653.15049        49.900    21366599.01249  21366603.793 9  83847144.035 9
        51.400

  22016968.344 5 117734671.833 5        36.500    22016967.879 5  22016991.160 6
  91571461.776 5        37.300    22016990.637 5


  23651207.289 9 124287932.514 9        48.600
                                                  23651226.359 9  92812400.963 9
        51.700    23651221.809 9  95233582.875 9        52.600    23651224.039 9
  94023101.025 9        58.500
  23979080.297 9 126010916.515 9        50.400
                                                  23979099.508 9  94099138.232 9
        51.300    23979094.914 9  96553879.806 9        52.100    23979097.277 9
  95326508.625 9        57.800
  26258061.477 7 137987042.905 7        41.100
                                                  26258088.016 7 103042357.907 7
        43.200    26258082.855 7 105730404.381 7        43.800    26258085.637 9
 104386390.252 9        49.500
  24479153.219 9 128638820.600 9        48.900
                                                  24479176.191 9  96061451.496 9
        49.200    24479171.500 9  98567402.297 9        50.300    24479173.789 9
  97314449.505 9        55.800
  22424795.563 7 119705071.081 7        44.700    22424794.480 7  22424815.117 6
  93103950.316 6        40.900    22424814.969 6


  20911636.727 9 111745456.356 9        50.000    20911636.602 9  20911654.336 8
  86913126.774 8        46.200    20911654.496 8


  20549486.820 9 109964451.793 9        51.700    20549486.434 9  20549504.371 8
  85527906.343 8        47.600    20549505.059 8


  19283899.109 8 102794035.013 8        46.500    19283897.504 8



  21631742.141 8 115512276.329 8        46.100    21631741.344 7  21631757.406 8
  89842892.796 7        43.600    21631757.063 7


  24223300.891 5 129487502.195 5        36.400    24223301.793 4  24223329.309 3
 100712541.377 3        32.800    24223329.164 3


  38724207.313 6 203497080.611 6        40.400



  36742920.828 7 193085371.286 7        41.900



 23  2 14 10 23 59.0000000  0 21G30G17G19G 7G 1G14G 3G 6R20E33E 1E26 0.000000000
                                E31R22R11R21R10R 9R 5S27S37
  21976889.531 8 115489331.717 8        45.000                    21976908.711 8
  89991759.34049        45.500    21976908.42649  21976912.316 9  86242047.842 9
        50.200

  21780934.172 8 114459580.607 8        45.400                    21780954.016 7
  89189364.74549        47.600    21780953.97349


  22414583.922 7 117789438.565 7        42.800
  91784068.93348        33.000    22414606.04748


  23649147.008 5 124277129.301 5        35.700                    23649166.438 5
  96839379.88448        30.500    23649166.35248


  23274380.969 5 122307679.527 5        37.200                    23274408.531 6
  95304809.28346        22.900    23274408.85946  23274412.699 7  91333683.442 7
        44.600

  20356374.547 8 106973470.164 8        47.500                    20356391.582 9
  83356021.55349        43.400    20356391.50049  20356399.188 9  79882815.168 9
        55.600

  22440088.023 7 117923456.519 7        42.000                    22440112.555 7
  91888505.65749        41.600    22440112.29749  22440117.758 9  88059736.081 9
        48.000

  21366213.383 8 112280209.339 8        46.000                    21366234.133 8
  87491157.50349        49.900    21366233.75049  21366238.648 9  83845710.701 9
        51.300

  22017522.578 5 117737637.160 5        36.500    22017521.879 5  22017544.602 5
  91573768.139 5        36.800    22017544.441 5


  23651390.422 9 124288895.310 9        48.600
                                                  23651409.465 9  92813119.934 9
        51.300    23651404.918 9  95234320.604 9        52.400    23651407.156 9
  94023829.378 9        58.500
  23979213.164 9 126011615.669 9        50.200
                                                  23979232.578 9  94099660.326 9
        51.100    23979227.938 9  96554415.519 9        51.800    23979230.363 9
  95327037.530 9        57.800
  26258531.984 7 137989513.687 7        41.000
                                                  26258558.441 7 103044202.968 7
        43.000    26258553.000 7 105732297.578 7        43.900    26258555.793 9
 104388259.382 9        49.600
  24478811.188 9 128637024.310 9        48.900
                                                  24478834.281 9  96060110.117 9
        49.200    24478829.500 9  98566025.928 9        50.400    24478831.891 9
  97313090.631 9        55.800
  22424438.688 7 119703166.750 7        44.800    22424437.957 7  22424458.203 6
  93102469.163 6        40.400    22424458.301 6


  20911047.992 9 111742310.985 9        50.100    20911047.984 9  20911065.938 8
  86910680.379 8        46.200    20911065.824 8


  20549553.781 9 109964812.312 9        51.600    20549553.277 9  20549571.336 8
  85528186.742 8        47.900    20549571.988 8


  19284067.195 8 102794933.628 8        46.700    19284066.293 8



  21632447.008 8 115516035.438 8        46.000    21632445.625 7  21632461.367 7
  89845816.549 7        43.300    21632461.121 7


  24222997.336 5 129485874.852 5        36.400    24222996.246 4  24223024.234 3
 100711275.659 3        33.100    24223024.297 3


  38724209.656 6 203497091.212 6        39.800



  36742927.391 7 193085376.433 7        42.200



 23  2 14 10 24  0.0000000  0 21G30G17G19G 7G 1G14G 3G 6R20E33E 1E26 0.000000000
                                E31R22R11R21R10R 9R 5S27S37
  21977365.172 8 115491832.594 8        45.600                    21977384.727 8
  89993708.07949        45.700    21977384.52749  21977388.480 9  86243915.382 9
        50.000

  21780948.578 8 114459658.666 8        45.500                    21780968.750 7
  89189425.57349        47.300    21780968.84049


  22414376.023 7 117788346.228 7        42.900
  91783217.77548        33.000    22414397.81348


  23649806.039 5 124280587.869 5        36.000                    23649824.367 5
  96842074.86948        30.200    23649824.42248


  23275047.328 6 122311179.670 6        38.000                    23275074.336 6
  95307536.66346        22.600    23275074.75046  23275078.410 7  91336297.185 7
        44.400

  20356247.531 8 106972803.354 8        47.700                    20356264.430 9
  83355501.96849        43.200    20356264.29349  20356272.039 9  79882317.222 9
        55.800

  22440088.313 7 117923455.327 7        41.800                    22440112.516 7
  91888504.72349        41.300    22440112.05149  22440117.750 9  88059735.185 9
        48.000

  21365848.531 8 112278290.392 8        46.300                    21365869.395 8
  87489662.22149        50.000    21365868.62549  21365873.465 9  83844277.730 9
        51.500

  22018078.117 5 117740602.401 5        36.300    22018077.301 5  22018099.910 5
  91576074.438 5        37.100    22018099.387 5


  23651573.641 9 124289858.403 9        48.800
                                                  23651592.910 9  92813839.125 9
        51.300    23651588.176 9  95235058.558 9        52.400    23651590.621 9
  94024557.949 9        58.500
  23979346.273 9 126012315.186 9        50.100
                                                  23979365.688 9  94100182.695 9
        51.200    23979361.047 9  96554951.520 9        51.700    23979363.410 9
  95327566.715 9        57.800
  26259002.016 7 137991984.512 7        41.000
                                                  26259028.566 7 103046048.063 7
        43.200    26259023.176 7 105734190.807 7        43.300    26259025.996 9
 104390128.544 9        49.600
  24478469.383 9 128635228.211 9        48.600
                                                  24478492.566 9  96058768.881 9
        48.800    24478487.738 9  98564649.701 9        50.300    24478490.191 9
  97311731.896 9        55.800
  22424082.039 7 119701262.876 7        44.300    22424081.074 7  22424101.547 6
  93100988.372 6        40.200    22424101.332 6


  20910460.039 9 111739166.131 9        49.900    20910458.855 9  20910476.695 8
  86908234.398 8        46.100    20910476.676 8


  20549621.164 9 109965173.204 9        52.000    20549620.660 9  20549639.406 9
  85528467.437 9        48.000    20549639.609 9


  19284236.492 8 102795833.098 8        46.800    19284234.887 8



  21633150.109 8 115519795.000 8        46.400    21633149.078 7  21633164.930 7
  89848740.649 7        43.300    21633164.688 7


  24222693.688 5 129484247.831 5        36.000    24222692.008 4  24222719.680 3
 100710010.184 3        33.600    24222719.793 3


  38724211.078 6 203497101.799 6        40.200



  36742923.609 7 193085381.556 7        42.000



 23  2 14 10 24  1.0000000  0 21G30G17G19G 7G 1G14G 3G 6R20E33E 1E26 0.000000000
                                E31R22R11R21R10R 9R 5S27S37
  21977841.266 8 115494333.828 8        45.500                    21977860.934 8
  89995657.08749        45.500    21977860.52349  21977864.414 9  86245783.183 9
        49.900

  21780964.031 8 114459736.727 8        45.400                    21780983.805 7
  89189486.40349        47.300    21780983.73849


  22414167.797 7 117787253.921 7        42.700
  91782366.63948        32.600    22414189.99648


  23650463.148 5 124284046.434 5        36.300                    23650482.512 5
  96844769.84848        30.400    23650482.75448


  23275713.336 5 122314679.920 5        37.300                    23275740.191 6
  95310264.12046        22.800    23275740.62546  23275744.406 7  91338911.006 7
        44.500

  20356120.773 8 106972136.989 8        47.500                    20356137.805 9
  83354982.72649        43.300    20356137.75449  20356145.324 9  79881819.620 9
        55.700

  22440087.641 7 117923454.811 7        41.800                    22440112.117 7
  91888504.32549        41.400    22440111.93049  22440117.570 9  88059734.805 9
        48.300

  21365482.953 8 112276371.939 8        46.300                    21365503.195 8
  87488167.32449        49.900    21365502.84049  21365507.738 9  83842845.117 9
        51.400

  22018632.055 5 117743567.675 5        35.700    22018631.473 4  22018654.121 5
  91578380.767 5        37.500    22018653.766 5


  23651756.977 9 124290821.792 9        48.200
                                                  23651776.102 9  92814558.538 9
        51.700    23651771.648 9  95235796.736 9        52.400    23651773.898 9
  94025286.747 9        58.500
  23979479.594 9 126013015.078 9        50.100
                                                  23979499.000 9  94100705.345 9
        51.100    23979494.313 9  96555487.801 9        51.800    23979496.699 9
  95328096.181 9        57.800
  26259472.508 7 137994455.382 7        41.300
                                                  26259498.879 7 103047893.190 7
        43.500    26259493.582 7 105736084.068 7        44.200    26259496.359 9
 104391997.738 9        49.700
  24478127.711 9 128633432.294 9        48.800
                                                  24478150.688 9  96057427.777 9
        48.900    24478146.047 9  98563273.611 9        50.300    24478148.414 9
  97310373.308 9        55.900
  22423724.586 7 119699359.421 7        44.100    22423724.559 7  22423744.367 6
  93099507.903 6        40.300    22423744.945 6


  20909871.422 9 111736021.842 9        49.800    20909871.180 9  20909889.348 8
  86905788.855 8        46.300    20909889.289 8


  20549689.063 9 109965534.520 9        51.900    20549688.324 9  20549706.473 8
  85528748.459 9        48.000    20549707.145 9


  19284404.703 8 102796733.411 8        46.600    19284403.918 8



  21633854.289 8 115523554.966 8        46.500    21633853.609 7  21633869.406 7
  89851665.070 7        43.600    21633869.016 7


  24222388.250 5 129482621.155 5        35.800    24222387.395 4  24222415.500 3
 100708744.988 3        33.700    24222415.391 3


  38724212.906 6 203497112.479 6        40.000



  36742922.094 7 193085386.695 7        42.100



 23  2 14 10 24  2.0000000  0 21G30G17G19G 7G 1G14G 3G 6R20E33E 1E26 0.000000000
                                E31R22R11R21R10R 9R 5S27S37
  21978317.281 8 115496835.335 8        45.300                    21978336.910 8
  89997606.31249        45.500    21978336.59849  21978340.609 9  86247651.193 9
        49.800

  21780978.695 8 114459814.759 8        45.300                    21780998.273 7
  89189547.20949        47.500    21780998.37149


  22413959.984 7 117786161.692 7        42.800
  91781515.56148        32.700    22413982.06348


  23651121.805 5 124287504.921 5        36.600                    23651140.934 5
  96847464.77048        30.300    23651140.87548


  23276379.469 5 122318180.212 5        37.300                    23276405.895 6
  95312991.62646        22.900    23276406.35946  23276410.078 7  91341524.861 7
        44.600

  20355994.117 8 106971471.099 8        47.600                    20356010.906 9
  83354463.85049        43.700    20356010.80149  20356018.605 9  79881322.370 9
        55.700

  22440087.461 7 117923454.871 7        41.800                    22440111.785 7
  91888504.37349        41.500    22440111.57049  22440117.152 9  88059734.850 9
        48.100

  21365118.602 8 112274453.974 8        46.200                    21365139.211 8
  87486672.81049        50.000    21365138.73049  21365143.395 9  83841412.878 9
        51.400

  22019187.461 5 117746532.867 5        36.100    22019186.059 5  22019208.922 5
  91580687.023 5        37.400    22019208.219 5


  23651940.453 9 124291785.474 9        48.400
                                                  23651959.691 9  92815278.171 9
        51.400    23651955.051 9  95236535.142 9        52.400    23651957.340 9
  94026015.767 9        58.500
  23979612.844 9 126013715.311 9        49.900
                                                  23979632.293 9  94101228.246 9
        50.900    23979627.508 9  96556024.343 9        52.100    23979629.906 9
  95328625.905 9        57.800
  26259942.484 7 137996926.228 7        41.300
                                                  26259968.891 7 103049738.302 7
        43.800    26259963.684 7 105737977.308 7        44.000    26259966.402 9
 104393866.917 9        49.700
  24477786.023 9 128631636.583 9        48.800
                                                  24477808.969 9  96056086.838 9
        49.000    24477804.234 9  98561897.688 9        50.100    24477806.691 9
  97309014.868 9        55.800
  22423369.008 7 119697456.390 7        43.700    22423368.043 7  22423388.164 7
  93098027.766 6        40.600    22423388.305 6


  20909282.773 9 111732878.057 9        49.700    20909282.766 9  20909300.676 8
  86903343.687 8        46.300    20909300.801 8


  20549756.469 9 109965896.259 9        51.600    20549755.379 9  20549773.445 9
  85529029.817 8        47.700    20549774.305 8


  19284573.984 8 102797634.577 8        46.500    19284572.613 8



  21634558.859 8 115527315.382 8        46.600    21634557.828 7  21634573.039 7
  89854589.835 7        43.400    21634572.930 7


  24222082.469 5 129480994.851 5        35.400    24222082.434 4  24222111.078 4
 100707480.074 3        33.600    24222110.770 3


  38724215.563 6 203497123.170 6        40.200



  36742922.828 7 193085391.839 7        42.000



 23  2 14 10 24  3.0000000  0 21G30G17G19G 7G 1G14G 3G 6R20E33E 1E26 0.000000000
                                E31R22R11R21R10R 9R 5S27S37
  21978793.109 8 115499337.132 8        45.100                    21978812.809 8
  89999555.76449        45.700    21978812.43049  21978816.266 9  86249519.415 9
        49.800

  21780993.313 8 114459892.759 8        45.300                    21781013.539 8
  89189607.99349        47.200    21781013.30149


  22413752.523 7 117785069.507 7        43.000
  91780664.51148        32.500    22413774.23448


  23651779.891 5 124290963.466 5        36.700                    23651799.102 5
  96850159.73148        30.200    23651799.10248


  23277045.641 5 122321680.582 5        37.100                    23277072.699 6
  95315719.17646        23.400    23277073.10946  23277076.887 7  91344138.766 7
        44.700

  20355867.555 8 106970805.636 8        47.600                    20355884.043 9
  83353945.31449        43.200    20355884.17249  20355891.738 9  79880825.431 9
        55.700

  22440087.969 7 117923455.501 7        41.700                    22440112.313 7
  91888504.86249        41.400    22440112.20749  22440117.848 9  88059735.322 9
        48.400

  21364753.547 8 112272536.469 8        46.300                    21364774.316 8
  87485178.65749        50.000    21364773.80549  21364778.523 9  83839980.973 9
        51.400

  22019741.563 5 117749498.005 5        36.900    22019740.629 4  22019763.520 5
  91582993.229 5        37.400    22019762.906 5


  23652123.891 9 124292749.418 9        48.700
                                                  23652143.031 9  92815997.997 9
        51.500    23652138.156 9  95237273.747 9        52.700    23652140.637 9
  94026744.985 9        58.500
  23979746.133 9 126014415.873 9        49.500
                                                  23979765.598 9  94101751.396 9
        50.900    23979760.770 9  96556561.139 9        52.000    23979763.184 9
  95329155.877 9        57.700
  26260412.602 7 137999397.099 7        41.500
                                                  26260439.168 7 103051583.429 7
        43.700    26260433.871 7 105739870.569 7        43.500    26260436.570 9
 104395736.111 9        49.600
  24477444.227 9 128629841.043 9        48.600
                                                  24477467.441 9  96054746.017 9
        49.100    24477462.656 9  98560521.893 9        49.800    24477465.016 9
  97307656.563 9        55.900
  22423012.391 7 119695553.794 7        43.900    22423011.426 7  22423031.793 7
  93096547.977 6        40.700    22423031.746 6


  20908694.695 9 111729734.757 9        49.900    20908694.453 9  20908712.637 8
  86900898.903 8        46.400    20908712.332 8


  20549824.461 9 109966258.401 9        51.800    20549823.605 9  20549841.539 8
  85529311.486 8        47.300    20549842.387 8


  19284743.109 8 102798536.571 8        46.500    19284742.324 7



  21635263.938 8 115531076.158 8        46.500    21635262.203 7  21635277.738 8
  89857514.885 7        43.600    21635277.641 7


  24221778.609 5 129479368.855 5        36.600    24221779.043 5  24221807.957 3
 100706215.393 4        34.100    24221807.453 4


  38724218.469 6 203497133.823 6        40.000



  36742932.125 7 193085396.952 7        42.100



 23  2 14 10 24  4.0000000  0 21G30G17G19G 7G 1G14G 3G 6R20E33E 1E26 0.000000000
                                E31R22R11R21R10R 9R 5S27S37
  21979269.313 7 115501839.252 7        44.900                    21979288.949 8
  90001505.46849        45.700    21979288.73049  21979292.625 9  86251387.884 9
        49.800

  21781007.719 8 114459970.732 8        45.300                    21781028.105 7
  89189668.74949        47.300    21781027.99649


  22413544.805 7 117783977.367 7        43.100
  91779813.49648        33.200    22413566.81648


  23652437.836 5 124294421.924 5        36.500                    23652457.555 5
  96852854.63848        30.700    23652457.39848


  23277711.805 5 122325181.078 5        37.500                    23277738.480 6
  95318446.84146        22.500    23277739.07446  23277742.793 7  91346752.773 7
        44.700

  20355740.859 8 106970140.667 8        47.900                    20355757.891 9
  83353427.15849        43.500    20355757.85549  20355765.480 9  79880328.872 9
        55.700

  22440087.648 7 117923456.729 7        41.700                    22440112.074 7
  91888505.82149        41.300    22440111.94949  22440117.648 9  88059736.235 9
        48.100

  21364388.719 8 112270619.482 8        46.200                    21364409.398 8
  87483684.89949        50.000    21364408.73049  21364413.512 9  83838549.462 9
        51.400

  22020296.953 5 117752463.081 5        36.800    22020294.730 5  22020317.418 5
  91585299.401 5        37.500    22020317.199 5


  23652307.484 9 124293713.664 9        48.500
                                                  23652326.430 9  92816718.050 9
        51.700    23652321.645 9  95238012.589 9        52.700    23652324.102 9
  94027474.427 9        58.500
  23979879.570 9 126015116.809 9        49.000
                                                  23979898.887 9  94102274.824 9
        50.600    23979894.289 9  96557098.219 9        52.200    23979896.602 9
  95329686.135 9        57.800
  26260882.953 7 138001867.989 7        41.200
                                                  26260909.262 7 103053428.572 7
        43.300    26260903.961 7 105741763.846 7        43.700    26260906.754 9
 104397605.314 9        49.600
  24477102.602 9 128628045.681 9        48.600
                                                  24477125.621 9  96053405.337 9
        49.500    24477120.840 9  98559146.232 9        50.000    24477123.336 9
  97306298.393 9        55.900
  22422655.977 7 119693651.654 7        44.100    22422655.480 7  22422675.594 7
  93095068.538 6        40.900    22422675.719 6


  20908106.734 9 111726591.988 9        50.200    20908106.727 9  20908124.594 8
  86898454.537 8        46.900    20908124.531 8


  20549891.938 9 109966620.963 9        51.800    20549891.199 9  20549909.836 8
  85529593.475 8        47.300    20549910.262 8


  19284913.266 8 102799439.431 8        46.400    19284911.426 8



  21635968.273 8 115534837.331 8        46.400    21635966.070 7  21635981.777 8
  89860440.236 7        43.600    21635981.609 7


  24221476.469 5 129477743.178 5        36.600    24221475.258 5  24221503.715 3
 100704950.956 4        34.000    24221503.793 4


  38724220.469 6 203497144.485 6        40.100



  36742931.813 7 193085402.073 7        42.000



 23  2 14 10 24  5.0000000  0 21G30G17G19G 7G 1G14G 3G 6R20E33E 1E26 0.000000000
                                E31R22R11R21R10R 9R 5S27S37
  21979745.570 8 115504341.691 8        45.100                    21979765.414 8
  90003455.42149        45.500    21979764.92249  21979768.758 9  86253256.584 9
        50.000

  21781023.047 8 114460048.699 8        45.400                    21781042.688 7
  89189729.50649        47.300    21781042.79749


  22413336.781 7 117782885.306 7        43.100
  91778962.54248        32.700    22413358.67648


  23653096.359 5 124297880.393 5        36.700                    23653115.289 5
  96855549.54548        31.000    23653114.89148


  23278378.352 5 122328681.651 5        37.200                    23278405.285 7
  95321174.56746        23.200    23278405.57046  23278409.406 7  91349366.831 7
        44.400

  20355614.617 8 106969476.153 8        47.500                    20355631.273 9
  83352909.35649        43.200    20355631.12949  20355638.816 9  79879832.644 9
        55.600

  22440088.570 7 117923458.558 7        41.500                    22440113.055 7
  91888507.24349        41.100    22440112.87149  22440118.395 9  88059737.601 9
        48.400

  21364023.875 8 112268702.978 8        46.300                    21364044.508 8
  87482191.52549        49.900    21364044.21149  21364048.934 9  83837118.312 9
        51.400

  22020849.984 5 117755428.102 5        36.000    22020848.465 5  22020871.465 5
  91587605.530 5        37.800    22020871.309 5


  23652491.055 9 124294678.208 9        48.600
                                                  23652510.246 9  92817438.327 9
        51.200    23652505.559 9  95238751.654 9        52.200    23652507.848 9
  94028204.100 9        58.500
  23980012.938 9 126015818.101 9        49.300
                                                  23980032.398 9  94102798.515 9
        51.000    23980027.895 9  96557635.577 9        51.900    23980030.203 9
  95330216.657 9        57.800
  26261352.898 7 138004338.885 7        42.000
                                                  26261379.664 7 103055273.717 7
        43.100    26261374.316 7 105743657.130 7        43.600    26261377.012 9
 104399474.532 9        49.600
  24476760.961 9 128626250.542 9        48.600
                                                  24476784.117 9  96052064.816 9
        49.300    24476779.336 9  98557770.745 9        50.100    24476781.738 9
  97304940.388 9        55.800
  22422300.039 7 119691749.941 7        44.400    22422298.719 7  22422319.027 7
  93093589.426 6        40.700    22422319.223 6


  20907518.453 9 111723449.764 9        49.800    20907518.445 9  20907536.398 8
  86896010.590 8        46.900    20907536.445 8


  20549959.477 9 109966983.883 9        51.800    20549958.855 9  20549977.367 9
  85529875.750 8        46.800    20549977.785 8


  19285082.328 8 102800343.144 8        46.400    19285080.957 8



  21636672.148 8 115538598.944 8        46.700    21636670.414 7  21636686.551 8
  89863365.938 7        43.500    21636686.148 7


  24221172.234 5 129476117.858 5        36.800    24221171.379 5  24221199.336 3
 100703686.797 4        34.100    24221199.160 4


  38724220.063 6 203497155.140 6        40.200



  36742928.734 7 193085407.209 7        42.100



 23  2 14 10 24  6.0000000  0 21G30G17G19G 7G 1G14G 3G 6R20E33E 1E26 0.000000000
                                E31R22R11R21R10R 9R 5S27S37
  21980221.867 7 115506844.419 7        44.800                    21980241.684 8
  90005405.59949        45.700    21980241.20349  21980245.098 9  86255125.508 9
        49.800

  21781037.875 8 114460126.621 8        45.300                    21781057.555 7
  89189790.22649        47.300    21781057.56649


  22413129.023 7 117781793.290 7        43.100
  91778111.62548        32.600    22413150.76648


  23653755.406 5 124301338.811 5        36.100                    23653773.313 5
  96858244.42348        30.000    23653772.95348


  23279044.680 5 122332182.280 5        37.300                    23279071.242 6
  95323902.32746        22.300    23279071.53946  23279075.316 7  91351980.935 7
        44.400

  20355488.070 9 106968812.075 9        48.000                    20355504.965 9
  83352391.89949        43.200    20355504.88749  20355512.633 9  79879336.748 9
        55.700

  22440088.906 7 117923461.002 7        41.900                    22440113.508 7
  91888509.14649        41.400    22440113.10249  22440118.742 9  88059739.423 9
        48.300

  21363659.234 8 112266786.934 8        46.100                    21363680.195 8
  87480698.50349        49.800    21363679.71949  21363684.438 9  83835687.495 9
        51.400

  22021405.875 5 117758393.135 5        36.100    22021403.652 4  22021426.625 5
  91589911.673 5        37.600    22021426.316 5


  23652674.664 9 124295643.028 9        48.400
                                                  23652693.629 9  92818158.808 9
        51.300    23652688.938 9  95239490.933 9        52.300    23652691.359 9
  94028933.978 9        58.500
  23980146.547 9 126016519.728 9        49.500
                                                  23980165.633 9  94103322.462 9
        51.000    23980161.035 9  96558173.190 9        52.000    23980163.379 9
  95330747.436 9        57.800
  26261823.352 7 138006809.829 7        41.400
                                                  26261849.656 7 103057118.895 7
        43.100    26261844.355 7 105745550.441 7        43.300    26261847.023 9
 104401343.778 9        49.500
  24476419.320 9 128624455.556 9        48.900
                                                  24476442.434 9  96050724.409 9
        49.500    24476437.559 9  98556395.370 9        50.400    24476440.066 9
  97303582.499 9        55.800
  22421943.492 7 119689848.653 7        44.300    22421942.879 7  22421963.570 7
  93092110.645 6        40.800    22421963.395 6


  20906930.469 9 111720307.998 9        49.900    20906929.992 9  20906947.527 8
  86893567.011 8        47.000    20906947.941 8


  20550027.617 9 109967347.171 9        51.700    20550026.410 9  20550044.891 8
  85530158.302 8        47.300    20550045.543 8


  19285251.961 8 102801247.708 8        46.700    19285250.590 8



  21637376.359 8 115542360.976 8        46.200    21637374.742 7  21637390.789 8
  89866291.963 7        43.800    21637390.508 7


  24220867.852 5 129474492.820 5        36.800    24220868.051 5  24220896.477 3
 100702422.860 3        33.700    24220895.992 3


  38724223.531 6 203497165.736 6        40.000



  36742930.828 7 193085412.313 7        41.800



 23  2 14 10 24  7.0000000  0 21G30G17G19G 7G 1G14G 3G 6R20E33E 1E26 0.000000000
                                E31R22R11R21R10R 9R 5S27S37
  21980698.531 8 115509347.447 8        45.300                    21980717.676 8
  90007356.00749        45.600    21980717.34049  21980721.176 9  86256994.651 9
        49.600

  21781052.703 8 114460204.491 8        45.300                    21781072.238 7
  89189850.91049        47.400    21781072.27049


  22412921.172 7 117780701.298 7        43.400
  91777260.73248        32.900    22412942.87548


  23654412.719 5 124304797.146 5        36.000                    23654431.133 5
  96860939.22648        30.000    23654431.12948


  23279709.766 5 122335683.036 5        37.700                    23279737.258 6
  95326630.19846        23.000    23279737.62946  23279741.348 7  91354595.132 7
        44.600

  20355361.953 9 106968148.442 9        48.600                    20355378.578 9
  83351874.78349        43.400    20355378.50049  20355386.129 9  79878841.179 9
        55.600

  22440088.953 7 117923463.979 7        41.700                    22440113.879 7
  91888511.47049        41.400    22440113.68449  22440119.207 9  88059741.647 9
        48.100

  21363294.461 8 112264871.355 8        46.100                    21363316.094 8
  87479205.85049        49.900    21363315.42249  21363320.141 9  83834257.033 9
        51.400

  22021958.641 5 117761358.121 5        36.100    22021958.059 5  22021981.168 5
  91592217.771 5        37.100    22021980.750 5


  23652858.289 9 124296608.125 9        48.500
                                                  23652877.219 9  92818879.498 9
        51.300    23652872.621 9  95240230.417 9        52.400    23652874.957 9
  94029664.070 9        58.500
  23980279.898 9 126017221.715 9        49.400
                                                  23980299.445 9  94103846.676 9
        51.300    23980294.805 9  96558711.077 9        52.000    23980297.148 9
  95331278.487 9        57.700
  26262293.750 7 138009280.787 7        41.500
                                                  26262320.063 7 103058964.089 7
        43.400    26262314.625 7 105747443.773 7        43.700    26262317.469 9
 104403213.043 9        49.700
  24476077.813 9 128622660.772 9        49.000
                                                  24476100.859 9  96049384.155 9
        49.600    24476096.359 9  98555020.153 9        50.300    24476098.609 9
  97302224.759 9        55.800
  22421587.180 7 119687947.797 7        44.300    22421586.566 7  22421607.051 7
  93090632.200 7        41.200    22421607.008 7


  20906342.906 9 111717166.767 9        50.100    20906342.430 9  20906360.418 8
  86891123.848 8        46.700    20906360.625 8


  20550095.992 9 109967710.868 9        52.200    20550094.434 9  20550113.203 8
  85530441.181 8        47.200    20550113.531 8


  19285422.070 8 102802153.112 8        47.000    19285420.816 7



  21638080.219 8 115546123.419 8        46.100    21638079.773 7  21638095.324 8
  89869218.307 7        43.700    21638095.461 7


  24220563.109 5 129472868.182 5        35.800    24220563.309 5  24220592.105 3
 100701159.236 3        33.800    24220591.586 3


  38724225.453 6 203497176.343 6        40.200



  36742936.109 7 193085417.404 7        41.900



 23  2 14 10 24  8.0000000  0 21G30G17G19G 7G 1G14G 3G 6R20E33E 1E26 0.000000000
                                E31R22R11R21R10R 9R 5S27S37
  21981174.977 8 115511850.812 8        45.100                    21981194.316 8
  90009306.68249        45.600    21981193.84849  21981197.797 9  86258864.049 9
        49.700

  21781067.258 8 114460282.384 8        45.100                    21781087.230 7
  89189911.61149        47.200    21781087.46949


  22412713.266 7 117779609.409 7        43.100
  91776409.91848        32.500    22412735.24248


  23655070.406 5 124308255.528 5        36.400                    23655089.211 5
  96863634.07148        30.300    23655089.30948


  23280376.297 5 122339183.865 5        37.900                    23280403.129 6
  95329358.10846        22.500    23280403.58246  23280407.301 7  91357209.386 7
        44.800

  20355235.906 9 106967485.302 9        48.800                    20355252.617 9
  83351358.05049        43.400    20355252.33249  20355260.137 9  79878345.980 9
        55.600

  22440090.102 7 117923467.606 7        41.800                    22440114.332 7
  91888514.29349        41.300    22440114.21149  22440119.910 9  88059744.355 9
        48.000

  21362930.586 8 112262956.324 8        46.100                    21362951.387 8
  87477713.62049        50.000    21362951.02349  21362955.629 9  83832826.987 9
        51.600

  22022512.531 5 117764323.010 5        36.400    22022511.832 5  22022535.094 5
  91594523.791 5        37.900    22022534.672 5


  23653041.813 9 124297573.535 9        48.500
                                                  23653060.723 9  92819600.421 9
        51.300    23653055.988 9  95240970.146 9        52.300    23653058.453 9
  94030394.396 9        58.500
  23980413.727 9 126017924.086 9        49.300
                                                  23980433.055 9  94104371.173 9
        51.200    23980428.414 9  96559249.255 9        51.900    23980430.809 9
  95331809.824 9        57.800
  26262763.734 7 138011751.738 7        41.300
                                                  26262790.164 7 103060809.277 7
        43.500    26262784.773 7 105749337.095 7        43.800    26262787.684 9
 104405082.292 9        49.600
  24475736.500 9 128620866.206 9        48.800
                                                  24475759.262 9  96048044.065 9
        48.900    24475754.668 9  98553645.105 9        50.200    24475757.066 9
  97300867.190 9        55.900
  22421231.570 7 119686047.423 7        44.300    22421231.074 7  22421251.305 7
  93089154.135 7        41.200    22421251.266 7


  20905755.359 9 111714026.109 9        50.000    20905755.117 9  20905773.211 8
  86888681.126 8        46.900    20905773.137 8


  20550163.320 9 109968075.026 9        52.000    20550162.582 9  20550180.766 8
  85530724.420 8        47.300    20550181.590 8


  19285592.680 8 102803059.380 8        46.600    19285591.191 8



  21638785.398 8 115549886.315 8        45.700    21638783.781 7  21638800.078 8
  89872145.004 7        43.600    21638799.773 7


  24220259.867 5 129471243.982 5        36.600    24220259.598 4  24220288.004 4
 100699895.959 4        34.000    24220287.730 4


  38724226.391 6 203497186.998 6        40.100



  36742937.109 7 193085422.538 7        42.000



 23  2 14 10 24  9.0000000  0 21G30G17G19G 7G 1G14G 3G 6R20E33E 1E26 0.000000000
                                E31R22R11R21R10R 9R 5S27S37
  21981651.313 8 115514354.460 8        45.000                    21981670.973 8
  90011257.58549        45.300    21981670.55949  21981674.453 9  86260733.656 9
        49.600

  21781081.992 8 114460360.218 8        45.200                    21781101.848 7
  89189972.26149        47.200    21781101.84449


  22412505.297 7 117778517.544 7        42.800
  91775559.12548        33.100    22412527.26248


  23655728.938 5 124311713.902 5        35.800                    23655747.539 5
  96866328.91048        30.800    23655747.74648


  23281042.578 5 122342684.796 5        37.800                    23281069.281 6
  95332086.09546        22.600    23281069.55146  23281073.387 7  91359823.715 7
        44.300

  20355109.688 9 106966822.588 9        48.800                    20355126.336 9
  83350841.65549        43.000    20355126.23449  20355133.801 9  79877851.103 9
        55.700

  22440090.922 7 117923471.795 7        41.800                    22440115.422 7
  91888517.55749        41.500    22440114.93849  22440120.637 9  88059747.480 9
        48.000

  21362565.906 8 112261041.747 8        46.200                    21362586.738 8
  87476221.74349        49.900    21362586.22749  21362590.949 9  83831397.271 9
        51.500

  22023067.820 5 117767287.908 5        36.300    22023067.590 5  22023090.707 5
  91596829.819 5        37.400    22023090.152 5


  23653225.719 9 124298539.229 9        48.600
                                                  23653244.789 9  92820321.557 9
        51.200    23653240.102 9  95241710.096 9        52.400    23653242.551 9
  94031124.935 9        58.500
  23980547.461 9 126018626.776 9        49.300
                                                  23980566.688 9  94104895.912 9
        51.400    23980562.047 9  96559787.684 9        52.100    23980564.457 9
  95332341.406 9        57.800
  26263233.797 7 138014222.699 7        41.300
                                                  26263260.223 7 103062654.471 7
        43.600    26263254.875 7 105751230.426 7        43.900    26263257.684 9
 104406951.558 9        49.500
  24475394.953 9 128619071.797 9        48.800
                                                  24475417.816 9  96046704.091 9
        48.800    24475413.035 9  98552270.170 9        50.200    24475415.512 9
  97299509.742 9        55.800
  22420874.906 7 119684147.462 7        44.300    22420875.348 7  22420895.512 7
  93087676.383 6        40.800    22420895.488 6


  20905167.594 9 111710885.944 9        50.400    20905167.703 9  20905185.711 8
  86886238.787 8        46.600    20905185.664 8


  20550231.742 9 109968439.573 9        52.200    20550230.770 9  20550249.023 8
  85531007.951 8        47.500    20550249.516 8


  19285761.648 8 102803966.487 8        46.700    19285760.863 8



  21639490.281 8 115553649.578 8        45.800    21639489.016 7  21639505.129 7
  89875071.988 7        43.900    21639504.914 7


  24219956.414 5 129469620.060 5        37.100    24219955.203 5  24219983.148 4
 100698632.900 3        33.600    24219983.742 3


  38724228.453 6 203497197.615 6        40.300



  36742930.109 7 193085427.635 7        42.000



 23  2 14 10 24 10.0000000  0 21G30G17G19G 7G 1G14G 3G 6R20E33E 1E26 0.000000000
                                E31R22R11R21R10R 9R 5S27S37
  21982127.492 7 115516858.426 7        44.700                    21982147.500 8
  90013208.72449        45.600    21982146.93449  21982151.063 9  86262603.500 9
        49.600

  21781096.852 8 114460438.031 8        45.200                    21781117.152 7
  89190032.89749        47.500    21781116.96149


  22412297.508 7 117777425.740 7        43.200
  91774708.37748        33.400    22412319.72348


  23656387.008 5 124315172.246 5        35.500                    23656405.152 5
  96869023.71647        29.600    23656405.43847


  23281708.609 5 122346185.787 5        37.500                    23281735.594 6
  95334814.14546        22.300    23281735.99646  23281739.598 7  91362438.090 7
        44.300

  20354983.688 9 106966160.328 9        48.300                    20355000.516 9
  83350325.60949        43.200    20355000.32849  20355007.957 9  79877356.562 9
        55.900

  22440092.039 7 117923476.627 7        42.000                    22440116.297 7
  91888521.32849        35.500    22440116.04349  22440121.625 9  88059751.097 9
        48.200

  21362201.797 8 112259127.640 8        46.400                    21362222.383 8
  87474730.23749        49.900    21362222.09449  21362226.816 9  83829967.911 9
        51.500

  22023621.953 5 117770252.700 5        36.200    22023620.902 5  22023644.340 5
  91599135.763 5        37.400    22023643.516 5


  23653409.578 9 124299505.204 9        48.400
                                                  23653428.555 9  92821042.902 9
        51.500    23653423.914 9  95242450.257 9        52.300    23653426.266 9
  94031855.691 9        58.500
  23980681.211 9 126019329.833 9        49.500
                                                  23980700.387 9  94105420.925 9
        51.200    23980695.793 9  96560326.389 9        52.200    23980698.199 9
  95332873.264 9        57.800
  26263704.227 7 138016693.696 7        41.500
                                                  26263730.586 7 103064499.694 7
        43.600    26263725.148 7 105753123.788 7        44.300    26263728.059 9
 104408820.853 9        49.400
  24475053.406 9 128617277.578 9        48.900
                                                  24475076.309 9  96045364.260 9
        49.000    24475071.668 9  98550895.388 9        50.000    24475074.031 9
  97298152.431 9        55.800
  22420520.414 7 119682247.917 7        44.200    22420519.449 7  22420539.305 7
  93086198.962 7        41.500    22420539.770 7


  20904580.031 9 111707746.293 9        50.500    20904579.672 9  20904597.563 8
  86883796.842 8        46.700    20904597.445 8


  20550299.742 9 109968804.535 9        52.500    20550299.121 9  20550317.504 9
  85531291.811 8        47.600    20550318.020 8


  19285933.172 8 102804874.408 8        46.800    19285930.746 8



  21640195.156 8 115557413.259 8        45.800    21640193.305 7  21640209.180 7
  89877999.299 7        43.600    21640209.035 7


  24219652.719 5 129467996.493 5        36.900    24219651.508 5  24219679.441 3
 100697370.121 3        33.800    24219679.715 3


  38724231.688 6 203497208.305 6        40.100



  36742940.766 7 193085432.737 7        42.000



 23  2 14 10 24 11.0000000  0 21G30G17G19G 7G 1G14G 3G 6R20E33E 1E26 0.000000000
                                E31R22R11R21R10R 9R 5S27S37
  21982603.898 7 115519362.663 7        44.800                    21982623.906 8
  90015160.07449        45.700    21982623.41049  21982627.188 9  86264473.547 9
        49.800

  21781111.953 8 114460515.818 8        45.200                    21781132.020 8
  89190093.51649        47.300    21781131.81649


  22412090.445 7 117776333.979 7        43.100
  91773857.65548        33.600    22412112.04348


  23657045.063 5 124318630.537 5        35.700                    23657063.699 5
  96871718.48248        30.500    23657063.70348


  23282375.328 5 122349686.913 5        37.400                    23282402.535 6
  95337542.29046        22.800    23282402.88746  23282406.605 7  91365052.570 7
        44.500

  20354857.633 9 106965498.549 9        48.100                    20354874.414 9
  83349809.94249        43.200    20354874.51249  20354882.199 9  79876862.378 9
        55.800

  22440092.563 7 117923482.005 7        42.300                    22440116.840 7
  91888525.51449        35.000    22440116.62949  22440122.152 9  88059755.108 9
        48.100

  21361837.617 8 112257214.045 8        46.300                    21361858.188 8
  87473239.12449        49.900    21361857.70349  21361862.426 9  83828538.925 9
        51.300

  22024176.719 5 117773217.500 5        35.800    22024176.020 5  22024199.754 5
  91601441.718 5        37.700    22024198.461 5


  23653593.352 9 124300471.462 9        48.500
                                                  23653612.570 9  92821764.455 9
        51.300    23653607.738 9  95243190.638 9        52.400    23653610.109 9
  94032586.653 9        58.500
  23980814.992 9 126020033.250 9        49.500
                                                  23980834.445 9  94105946.204 9
        51.000    23980829.758 9  96560865.376 9        52.000    23980832.133 9
  95333405.397 9        57.800
  26264174.102 7 138019164.734 7        41.400
                                                  26264200.590 7 103066344.952 7
        43.400    26264195.199 7 105755017.183 7        44.000    26264198.000 9
 104410690.175 9        49.600
  24474712.172 9 128615483.553 9        48.900
                                                  24474735.047 9  96044024.573 9
        49.600    24474730.406 9  98549520.754 9        50.300    24474732.758 9
  97296795.272 9        55.900
  22420164.461 7 119680348.802 7        44.500    22420163.141 7  22420183.059 7
  93084721.870 7        41.100    22420183.563 7


  20903993.281 9 111704607.144 9        50.600    20903992.684 9  20904010.289 8
  86881355.289 8        46.700    20904010.641 8


  20550368.281 9 109969169.867 9        52.500    20550366.723 9  20550385.570 9
  85531575.958 8        47.400    20550386.004 8


  19286103.641 8 102805783.191 8        46.800    19286101.566 8



  21640899.914 8 115561177.357 8        46.000    21640898.883 7  21640914.629 8
  89880926.925 7        43.600    21640914.449 7


  24219349.898 5 129466373.268 5        35.900    24219349.160 5  24219376.684 3
 100696107.595 3        33.300    24219376.766 3


  38724232.656 6 203497218.974 6        39.900



  36742930.297 7 193085437.841 7        41.600



 23  2 14 10 24 12.0000000  0 21G30G17G19G 7G 1G14G 3G 6R20E33E 1E26 0.000000000
                                E31R22R11R21R10R 9R 5S27S37
  21983080.539 7 115521867.263 7        44.800                    21983100.309 8
  90017111.71249        45.500    21983100.02349  21983103.801 9  86266343.866 9
        49.800

  21781126.805 8 114460593.586 8        45.200                    21781146.570 7
  89190154.11149        47.300    21781146.36349


  22411882.469 7 117775242.305 7        43.200
  91773007.00148        33.000    22411903.89148


  23657703.125 5 124322088.787 5        36.300                    23657721.152 5
  96874413.21748        31.100    23657721.45748


  23283041.117 5 122353188.039 5        37.300                    23283068.555 6
  95340270.43346        22.000    23283068.75046  23283072.352 7  91367667.044 7
        44.300

  20354731.641 8 106964837.227 8        47.900                    20354748.457 9
  83349294.62949        43.300    20354748.52049  20354756.145 9  79876368.536 9
        55.700

  22440093.727 7 117923488.015 7        42.100                    22440118.398 7
  91888530.19549        35.200    22440118.09049  22440123.906 9  88059759.598 9
        48.100

  21361473.461 8 112255300.912 8        46.200                    21361494.324 9
  87471748.37449        49.900    21361493.87949  21361498.656 9  83827110.289 9
        51.400

  22024730.930 5 117776182.278 5        35.700    22024731.051 5  22024754.070 5
  91603747.655 6        38.100    22024753.098 6


  23653777.352 9 124301438.045 9        48.300
                                                  23653796.465 9  92822486.256 9
        51.700    23653791.633 9  95243931.268 9        52.500    23653794.078 9
  94033317.871 9        58.500
  23980948.992 9 126020737.009 9        49.600
                                                  23980968.293 9  94106471.739 9
        51.000    23980963.602 9  96561404.621 9        51.500    23980966.090 9
  95333937.791 9        57.800
  26264644.641 7 138021635.768 7        41.100
                                                  26264671.023 7 103068190.203 7
        43.100    26264665.680 7 105756910.565 7        44.000    26264668.516 9
 104412559.494 9        49.500
  24474370.836 9 128613689.730 9        48.500
                                                  24474393.840 9  96042685.042 9
        49.500    24474389.059 9  98548146.270 9        50.300    24474391.492 9
  97295438.265 9        55.900
  22419808.727 7 119678450.155 7        44.200    22419807.406 7  22419827.344 7
  93083245.150 7        41.400    22419828.051 7


  20903405.273 9 111701468.539 9        50.500    20903405.031 9  20903422.617 8
  86878914.158 8        46.900    20903422.648 8


  20550436.234 9 109969535.571 9        52.100    20550435.262 9  20550453.656 8
  85531860.391 8        47.400    20550454.320 8


  19286273.820 8 102806692.816 8        47.100    19286273.152 8



  21641605.141 8 115564941.888 8        45.600    21641603.758 7  21641619.902 8
  89883854.898 7        43.800    21641619.539 7


  24219044.898 5 129464750.460 5        35.300    24219045.332 4  24219073.305 4
 100694845.395 3        33.100    24219073.230 3


  38724235.766 6 203497229.680 6        40.100



  36742936.313 7 193085442.954 7        41.800



 23  2 14 10 24 13.0000000  0 21G30G17G19G 7G 1G14G 3G 6R20E33E 1E26 0.000000000
                                E31R22R11R21R10R 9R 5S27S37
  21983557.641 7 115524372.135 7        44.700                    21983577.414 8
  90019063.56049        45.600    21983576.63749  21983580.531 9  86268214.383 9
        49.800

  21781141.547 8 114460671.323 8        45.200                    21781161.313 7
  89190214.69349        47.300    21781161.29749


  22411675.102 7 117774150.664 7        43.200
  91772156.38348        32.800    22411696.23848


  23658361.953 5 124325547.101 5        35.900                    23658379.348 5
  96877108.00848        30.500    23658379.50048


  23283707.625 5 122356689.329 5        37.500                    23283734.883 6
  95342998.71646        22.000    23283735.10946  23283738.594 7  91370281.643 7
        44.200

  20354606.016 8 106964176.379 8        47.600                    20354622.914 9
  83348779.68449        43.400    20354622.83249  20354630.461 9  79875875.046 9
        55.800

  22440094.867 7 117923494.616 7        42.200                    22440119.105 7
  91888535.34549        35.400    22440118.72349  22440124.539 8  88059764.523 8
        47.900

  21361109.359 8 112253388.301 8        46.100                    21361130.691 8
  87470258.02949        49.800    21361130.41049  21361135.133 9  83825682.048 9
        51.600

  22025284.227 5 117779146.984 5        36.700    22025285.641 5  22025308.512 5
  91606053.530 5        37.700    22025307.656 5


  23653961.305 9 124302404.906 9        48.500
                                                  23653980.379 9  92823208.259 9
        51.500    23653975.645 9  95244672.110 9        52.500    23653978.090 9
  94034049.296 9        58.500
  23981082.945 9 126021441.153 9        50.000
                                                  23981102.434 9  94106997.562 9
        51.000    23981097.742 9  96561944.164 9        51.300    23981100.059 9
  95334470.472 9        57.800
  26265114.828 7 138024106.824 7        41.100
                                                  26265141.262 7 103070035.465 7
        43.100    26265136.008 7 105758803.970 7        44.100    26265138.738 9
 104414428.827 9        49.500
  24474029.469 9 128611896.120 9        49.000
                                                  24474052.227 9  96041345.665 9
        49.100    24474047.680 9  98546771.952 9        50.500    24474050.043 9
  97294081.416 9        55.900
  22419453.383 7 119676551.956 7        44.400    22419451.828 7  22419472.148 6
  93081768.772 7        41.200    22419472.477 7


  20902818.070 9 111698330.471 9        50.300    20902817.594 9  20902835.566 8
  86876473.439 8        47.200    20902835.535 8


  20550504.914 9 109969901.678 9        52.100    20550503.824 9  20550522.199 8
  85532145.149 8        47.300    20550522.688 8


  19286444.375 8 102807603.284 8        47.300    19286443.238 8



  21642310.008 8 115568706.838 8        45.700    21642308.742 7  21642324.535 7
  89886783.190 7        44.000    21642324.371 7


  24218741.016 5 129463127.939 5        35.400    24218741.801 5  24218770.004 4
 100693583.418 3        32.800    24218769.789 3


  38724236.969 6 203497240.335 6        39.900



  36742936.250 7 193085448.069 7        42.100



 23  2 14 10 24 14.0000000  0 21G30G17G19G 7G 1G14G 3G 6R20E33E 1E26 0.000000000
                                E31R22R11R21R10R 9R 5S27S37
  21984034.008 7 115526877.338 7        44.600                    21984053.926 8
  90021015.66849        45.700    21984053.27749  21984057.344 9  86270085.157 9
        49.800

  21781156.398 8 114460749.051 8        45.200                    21781176.121 7
  89190275.26249        47.200    21781176.06649


  22411466.617 7 117773059.097 7        43.000
  91771305.81848        32.900    22411488.71948


  23659019.906 5 124329005.378 5        36.000                    23659037.715 5
  96879802.76347        29.500    23659037.73447


  23284374.453 5 122360190.708 5        37.100                    23284401.359 6
  95345727.05846        22.500    23284401.55146  23284405.094 7  91372896.301 7
        44.200

  20354480.406 8 106963515.983 8        47.800                    20354496.879 9
  83348265.09349        43.200    20354496.89549  20354504.582 9  79875381.895 9
        55.700

  22440096.820 7 117923501.838 7        42.100                    22440120.563 7
  91888540.96949        34.900    22440120.28549  22440126.043 9  88059769.918 9
        48.100

  21360745.758 8 112251476.173 8        46.400                    21360766.441 9
  87468768.05849        49.900    21360765.97349  21360770.867 9  83824254.161 9
        51.700

  22025840.445 5 117782111.617 5        36.900    22025839.277 5  22025862.297 5
  91608359.360 6        38.000    22025861.621 6


  23654145.430 9 124303372.062 9        48.300
                                                  23654164.363 9  92823930.489 9
        51.400    23654159.676 9  95245413.172 9        52.200    23654162.070 9
  94034780.942 9        58.600
  23981216.930 9 126022145.631 9        49.800
                                                  23981236.402 9  94107523.639 9
        50.900    23981231.758 9  96562483.955 9        51.100    23981234.176 9
  95335003.408 9        57.800
  26265585.016 6 138026577.894 6        40.600
                                                  26265611.512 7 103071880.743 7
        43.400    26265606.121 7 105760697.385 7        44.300    26265608.988 9
 104416298.175 9        49.800
  24473688.102 9 128610102.674 9        48.600
                                                  24473711.004 9  96040006.407 9
        48.900    24473706.316 9  98545397.758 9        50.500    24473708.703 9
  97292724.694 9        55.900
  22419096.398 7 119674654.183 7        44.600    22419096.371 7  22419116.609 7
  93080292.729 7        41.000    22419117.008 7


  20902230.992 9 111695192.921 9        50.300    20902230.160 9  20902248.543 8
  86874033.134 8        46.700    20902248.148 8


  20550573.711 9 109970268.198 9        51.800    20550572.387 9  20550591.027 8
  85532430.216 8        47.600    20550591.488 8


  19286615.516 8 102808514.597 8        47.000    19286613.676 8



  21643014.922 8 115572472.223 8        45.900    21643013.656 7  21643029.348 7
  89889711.819 7        43.600    21643028.961 7


  24218439.289 5 129461505.834 5        35.900    24218438.078 4  24218466.234 4
 100692321.761 3        33.300    24218466.445 3


  38724239.703 6 203497250.913 6        40.100



  36742941.516 7 193085453.187 7        41.800



 23  2 14 10 24 15.0000000  0 21G30G17G19G 7G 1G14G 3G 6R20E33E 1E26 0.000000000
                                E31R22R11R21R10R 9R 5S27S37
  21984510.664 7 115529382.839 7        44.500                    21984530.629 8
  90022968.01049        45.600    21984530.35249  21984534.246 9  86271956.146 9
        49.600

  21781171.086 8 114460826.761 8        45.200                    21781191.074 7
  89190335.82049        47.300    21781191.09449


  22411259.211 7 117771967.597 7        43.000
  91770455.30848        33.000    22411281.01648


  23659678.070 5 124332463.589 5        36.100                    23659696.211 5
  96882497.47448        30.300    23659696.07848


  23285040.625 5 122363692.143 5        37.400                    23285066.547 6
  95348455.45346        23.000    23285067.02346  23285070.566 7  91375511.008 7
        44.300

  20354354.602 9 106962856.041 9        48.000                    20354371.703 9
  83347750.85649        43.100    20354371.53949  20354379.105 9  79874889.085 9
        55.800

  22440098.688 7 117923509.629 7        42.000                    22440122.551 7
  91888547.04049        35.400    22440122.47349  22440128.172 9  88059775.738 9
        48.100

  21360382.102 8 112249564.513 8        46.300                    21360402.758 8
  87467278.45949        50.000    21360401.98849  21360406.883 9  83822826.625 9
        51.400

  22026393.297 5 117785076.194 5        37.000    22026394.125 5  22026417.125 5
  91610665.146 5        37.100    22026416.344 5


  23654329.523 9 124304339.490 9        48.500
                                                  23654348.465 9  92824652.920 9
        51.600    23654343.777 9  95246154.451 9        52.100    23654346.148 9
  94035512.792 9        58.500
  23981351.109 9 126022850.485 9        49.900
                                                  23981370.504 9  94108049.992 9
        50.800    23981365.906 9  96563024.038 9        51.400    23981368.320 9
  95335536.626 9        57.800
  26266055.539 7 138029049.042 7        41.400
                                                  26266081.770 7 103073726.080 7
        43.100    26266076.375 7 105762590.857 7        44.500    26266079.277 9
 104418167.578 9        49.600
  24473346.961 9 128608309.443 9        48.900
                                                  24473369.941 9  96038667.313 9
        49.400    24473365.207 9  98544023.732 9        50.300    24473367.563 9
  97291368.134 9        55.900
  22418741.656 7 119672756.863 7        44.700    22418740.809 7  22418761.508 6
  93078817.033 7        41.400    22418761.285 7


  20901643.961 9 111692055.882 9        50.300    20901643.246 9  20901661.191 8
  86871593.218 8        46.800    20901661.285 8


  20550642.250 9 109970635.163 9        51.800    20550641.160 9  20550659.445 8
  85532715.634 8        47.200    20550660.035 8


  19286786.305 8 102809426.767 8        46.900    19286785.402 8



  21643720.461 8 115576238.010 8        46.100    21643719.078 7  21643734.848 7
  89892640.764 7        43.600    21643734.563 7


  24218134.828 5 129459883.984 5        35.500    24218134.676 5  24218163.625 4
 100691060.309 3        33.400    24218163.223 3


  38724242.156 6 203497261.510 6        39.700



  36742949.484 7 193085458.299 7        41.800



 23  2 14 10 24 16.0000000  0 21G30G17G19G 7G 1G14G 3G 6R20E33E 1E26 0.000000000
                                E31R22R11R21R10R 9R 5S27S37
  21984987.859 7 115531888.667 7        44.700                    21985007.422 8
  90024920.60149        45.700    21985007.07449  21985010.969 9  86273827.383 9
        49.800

  21781185.914 8 114460904.413 8        45.400                    21781205.879 8
  89190396.33049        47.300    21781205.83649


  22411051.281 7 117770876.142 7        43.200
  91769604.83448        32.300    22411073.27048


  23660335.242 5 124335921.796 5        36.400                    23660354.203 5
  96885192.17847        29.700    23660354.11347


  23285706.375 5 122367193.656 5        37.300                    23285733.508 6
  95351183.89946        22.600    23285733.74646  23285737.113 7  91378125.770 7
        44.300

  20354229.398 8 106962196.583 8        47.900                    20354246.051 9
  83347236.99649        43.500    20354245.77749  20354253.465 9  79874396.637 9
        55.800

  22440100.211 7 117923518.036 7        42.100                    22440123.813 7
  91888553.58949        36.100    22440123.85549  22440129.438 9  88059782.011 9
        48.100

  21360018.055 8 112247653.372 8        46.300                    21360038.973 8
  87465789.26649        50.000    21360038.73049  21360043.449 9  83821399.479 9
        51.500

  22026947.273 5 117788040.805 5        36.900    22026948.219 5  22026971.094 6
  91612970.960 5        37.300    22026970.641 5


  23654513.641 9 124305307.237 9        48.600
                                                  23654532.738 9  92825375.585 9
        51.500    23654527.953 9  95246895.971 9        52.200    23654530.410 9
  94036244.885 9        58.500
  23981485.328 9 126023555.686 9        49.900
                                                  23981504.691 9  94108576.605 9
        50.900    23981499.859 9  96563564.394 9        51.400    23981502.414 9
  95336070.105 9        57.800
  26266525.617 7 138031520.151 7        41.800
                                                  26266551.699 7 103075571.383 7
        42.700    26266546.539 7 105764484.303 7        44.500    26266549.344 9
 104420036.953 9        49.500
  24473005.734 9 128606516.399 9        48.800
                                                  24473028.703 9  96037328.356 9
        49.500    24473024.105 9  98542649.849 9        50.000    24473026.398 9
  97290011.712 9        55.900
  22418386.406 7 119670859.972 7        43.900    22418385.793 7  22418406.020 6
  93077341.679 7        41.500    22418406.172 7


  20901056.391 9 111688919.367 9        50.400    20901056.031 9  20901074.227 8
  86869153.719 8        47.100    20901073.844 8


  20550710.531 9 109971002.524 9        51.600    20550709.324 9  20550727.723 8
  85533001.365 8        47.100    20550728.266 8


  19286957.586 8 102810339.776 8        47.000    19286956.098 8



  21644425.344 8 115580004.215 8        46.100    21644424.430 7  21644440.039 7
  89895570.035 7        43.300    21644439.840 7


  24217833.305 5 129458262.503 5        35.400    24217830.805 4  24217859.918 4
 100689799.148 3        33.900    24217859.914 3


  38724243.641 6 203497272.194 6        40.100



  36742941.875 7 193085463.415 7        42.300



 23  2 14 10 24 17.0000000  0 21G30G17G19G 7G 1G14G 3G 6R20E33E 1E26 0.000000000
                                E31R22R11R21R10R 9R 5S27S37
  21985464.234 7 115534394.789 7        44.800                    21985484.293 8
  90026873.42149        45.600    21985483.63749  21985487.707 9  86275698.835 9
        49.700

  21781200.680 8 114460982.083 8        45.200                    21781220.129 7
  89190456.85549        47.400    21781220.24649


  22410843.555 7 117769784.772 7        43.100
  91768754.42148        33.000    22410865.59048


  23660993.398 5 124339379.971 5        36.600                    23661011.902 5
  96887886.86247        29.900    23661012.09447


  23286372.438 5 122370695.305 5        37.500                    23286399.363 6
  95353912.45446        22.500    23286399.64146  23286403.125 7  91380740.635 7
        44.200

  20354103.703 8 106961537.568 8        47.800                    20354120.516 9
  83346723.48349        43.400    20354120.42249  20354128.051 9  79873904.521 9
        55.800

  22440101.313 7 117923527.049 7        42.000                    22440125.809 7
  91888560.61349        35.700    22440125.50049  22440131.141 9  88059788.743 9
        48.000

  21359654.633 8 112245742.717 8        46.300                    21359675.656 8
  87464300.43949        49.900    21359675.21549  21359679.879 9  83819972.692 9
        51.400

  22027501.992 5 117791005.312 5        36.900    22027502.348 5  22027525.051 6
  91615276.682 5        37.100    22027524.848 5


  23654697.727 9 124306275.277 9        48.500
                                                  23654716.859 9  92826098.469 9
        51.400    23654712.172 9  95247637.713 9        52.100    23654714.621 9
  94036977.204 9        58.500
  23981619.664 9 126024261.266 9        50.200
                                                  23981639.188 9  94109103.496 9
        51.000    23981634.359 9  96564105.036 9        51.700    23981636.844 9
  95336603.876 9        57.700
  26266995.805 7 138033991.317 7        41.400
                                                  26267021.988 7 103077416.735 7
        42.800    26267016.781 7 105766377.793 7        44.200    26267019.594 9
 104421906.370 9        49.600
  24472664.461 9 128604723.543 9        48.200
                                                  24472687.574 9  96035989.544 9
        49.300    24472682.742 9  98541276.113 9        50.100    24472685.191 9
  97288655.434 9        55.900
  22418030.508 7 119668963.512 7        44.300    22418030.129 7  22418050.199 6
  93075866.654 7        41.200    22418050.313 7


  20900470.367 9 111685783.381 9        50.800    20900469.418 9  20900487.266 8
  86866714.631 8        46.800    20900487.254 8


  20550779.039 9 109971370.260 9        51.700    20550778.652 9  20550796.875 8
  85533287.381 8        47.300    20550797.793 8


  19287129.484 8 102811253.640 8        47.200    19287128.348 8



  21645130.898 8 115583770.853 8        45.800    21645130.336 7  21645146.160 7
  89898499.643 7        43.700    21645145.563 7


  24217528.609 5 129456641.431 5        35.200    24217527.871 4  24217556.695 4
 100688538.304 3        33.400    24217556.641 3


  38724244.859 6 203497282.905 6        39.700



  36742940.250 7 193085468.541 7        41.800



 23  2 14 10 24 18.0000000  0 21G30G17G19G 7G 1G14G 3G 6R20E33E 1E26 0.000000000
                                E31R22R11R21R10R 9R 5S27S37
  21985941.086 7 115536901.212 7        44.900                    21985960.805 8
  90028826.47549        45.600    21985960.75049  21985964.469 9  86277570.514 9
        49.900

  21781215.484 8 114461059.699 8        45.400                    21781235.047 7
  89190517.33449        47.300    21781235.12549


  22410635.922 7 117768693.410 7        43.000
  91767904.01848        32.500    22410658.07048


  23661651.641 5 124342838.118 5        36.300                    23661669.926 5
  96890581.51847        29.800    23661670.16047


  23287038.633 5 122374197.046 5        37.700                    23287066.129 6
  95356641.07846        23.000    23287066.36346  23287069.559 7  91383355.574 7
        44.300

  20353978.461 9 106960879.020 9        48.100                    20353995.383 9
  83346210.33149        43.200    20353995.39549  20354003.141 9  79873412.753 9
        55.700

  22440103.297 7 117923536.685 7        41.800                    22440127.691 7
  91888568.11749        35.700    22440127.53549  22440133.176 9  88059795.941 9
        48.300

  21359291.094 8 112243832.538 8        46.200                    21359311.945 8
  87462811.99249        50.000    21359311.41849  21359316.195 9  83818546.264 9
        51.400

  22028056.836 5 117793969.781 5        36.800    22028056.488 5  22028079.977 6
  91617582.380 5        37.000    22028079.441 5


  23654882.148 9 124307243.592 9        48.500
                                                  23654901.195 9  92826821.566 9
        51.200    23654896.457 9  95248379.669 9        52.000    23654898.895 9
  94037709.725 9        58.400
  23981754.102 9 126024967.190 9        50.000
                                                  23981773.523 9  94109630.651 9
        51.400    23981768.742 9  96564645.934 9        51.800    23981771.188 9
  95337137.902 9        57.800
  26267466.055 7 138036462.456 7        41.700
                                                  26267492.266 7 103079262.063 7
        43.000    26267487.105 7 105768271.262 7        44.000    26267489.875 9
 104423775.775 9        49.500
  24472323.273 9 128602930.879 9        48.300
                                                  24472346.223 9  96034650.876 9
        49.400    24472341.672 9  98539902.518 9        50.100    24472344.043 9
  97287299.304 9        55.800
  22417675.898 7 119667067.483 7        44.500    22417675.402 7  22417695.160 7
  93074391.963 7        41.100    22417695.664 7


  20899882.625 9 111682647.909 9        50.900    20899882.383 9  20899900.277 8
  86864275.944 8        47.000    20899900.414 8


  20550848.094 9 109971738.366 9        52.100    20550847.355 9  20550865.293 8
  85533573.685 8        47.300    20550866.086 8


  19287300.609 8 102812168.336 8        47.000    19287299.473 8



  21645835.797 8 115587537.899 8        45.800    21645835.234 7  21645851.176 7
  89901429.570 7        43.300    21645850.648 7


  24217225.781 5 129455020.630 5        35.500    24217225.277 4  24217253.328 5
 100687277.674 3        33.500    24217253.633 3


  38724248.125 6 203497293.575 6        40.000



  36742944.063 7 193085473.655 7        41.700



 23  2 14 10 24 19.0000000  0 21G30G17G19G 7G 1G14G 3G 6R20E33E 1E26 0.000000000
                                E31R22R11R21R10R 9R 5S27S37
  21986418.414 8 115539407.968 8        45.100                    21986438.000 8
  90030779.79149        45.500    21986437.91049  21986441.629 9  86279442.440 9
        49.700

  21781230.148 8 114461137.316 8        45.300                    21781249.887 7
  89190577.81649        47.300    21781249.86349


  22410428.547 7 117767602.156 7        43.000
  91767053.69448        32.300    22410449.99248


  23662309.680 5 124346296.287 5        36.400                    23662327.762 5
  96893276.19648        30.800    23662327.99248


  23287705.492 5 122377698.880 5        37.600                    23287732.863 6
  95359369.77546        23.200    23287733.00446  23287736.430 7  91385970.580 7
        44.400

  20353853.227 9 106960220.953 9        48.200                    20353869.887 9
  83345697.55149        43.500    20353869.89849  20353877.645 9  79872921.342 9
        55.700

  22440105.492 7 117923546.878 7        42.000                    22440129.414 7
  91888576.06049        35.900    22440129.43849  22440135.137 9  88059803.549 9
        48.000

  21358927.727 8 112241922.868 8        46.100                    21358948.391 8
  87461323.93849        50.000    21358948.07449  21358952.680 9  83817120.214 9
        51.400

  22028611.102 5 117796934.253 5        37.100    22028610.520 5  22028634.527 5
  91619888.074 5        36.900    22028633.797 5


  23655066.625 9 124308212.218 9        48.900
                                                  23655085.609 9  92827544.884 9
        51.400    23655080.781 9  95249121.864 9        52.200    23655083.250 9
  94038442.486 9        58.400
  23981888.352 9 126025673.482 9        49.600
                                                  23981907.660 9  94110158.079 9
        51.300    23981903.160 9  96565187.121 9        52.000    23981905.410 9
  95337672.213 9        57.700
  26267936.445 7 138038933.690 7        41.200
                                                  26267962.813 7 103081107.466 7
        42.900    26267957.418 7 105770164.807 7        43.600    26267960.230 9
 104425645.242 9        49.500
  24471982.156 9 128601138.431 9        48.300
                                                  24472005.117 9  96033312.368 9
        49.600    24472000.566 9  98538529.089 9        49.700    24472002.883 9
  97285943.338 9        55.800
  22417321.391 7 119665171.942 7        44.100    22417320.070 7  22417340.168 7
  93072917.653 7        41.100    22417340.477 7


  20899296.242 9 111679512.975 9        50.800    20899296.000 9  20899313.672 8
  86861837.673 8        46.800    20899313.789 8


  20550916.766 9 109972106.922 9        52.200    20550915.793 9  20550934.117 8
  85533860.338 8        47.200    20550934.824 8


  19287472.820 8 102813083.912 8        46.800    19287471.801 8



  21646541.852 8 115591305.356 8        45.600    21646540.703 7  21646556.383 8
  89904359.815 7        43.600    21646556.184 7


  24216922.703 5 129453400.248 5        35.700    24216921.730 3  24216949.816 4
 100686017.365 3        33.100    24216950.270 3


  38724250.641 6 203497304.211 6        40.000



  36742937.703 7 193085478.784 7        41.800



 23  2 14 10 24 20.0000000  0 21G30G17G19G 7G 1G14G 3G 6R20E33E 1E26 0.000000000
                                E31R22R11R21R10R 9R 5S27S37
  21986895.523 8 115541915.025 8        45.200                    21986915.363 8
  90032733.34149        45.500    21986915.04349  21986918.820 9  86281314.593 9
        49.800

  21781245.016 8 114461214.889 8        45.400                    21781265.082 7
  89190638.27049        47.200    21781265.13749


  22410220.430 7 117766510.938 7        43.200
  91766203.40948        32.600    22410242.21148


  23662968.172 5 124349754.415 5        36.300                    23662985.461 4
  96895970.84647        29.600    23662985.90247


  23288371.773 6 122381200.789 6        38.100                    23288399.020 6
  95362098.52746        22.900    23288399.21546  23288402.348 7  91388585.639 7
        44.600

  20353728.227 9 106959563.320 9        48.000                    20353744.805 9
  83345185.11249        43.400    20353744.85549  20353752.367 9  79872430.257 9
        55.700

  22440107.578 7 117923557.680 7        41.700                    22440131.543 7
  91888584.47749        35.800    22440131.38749  22440137.145 9  88059811.613 9
        48.200

  21358564.484 8 112240013.658 8        46.400                    21358584.836 8
  87459836.24749        50.100    21358584.45349  21358589.230 9  83815694.507 9
        51.500

  22029165.180 5 117799898.613 5        36.700    22029165.184 5  22029189.039 6
  91622193.692 5        37.100    22029188.340 5


  23655250.797 9 124309181.135 9        48.800
                                                  23655269.762 9  92828268.429 9
        51.700    23655265.121 9  95249864.282 9        52.500    23655267.523 9
  94039175.464 9        58.500
  23982022.664 9 126026380.110 9        49.700
                                                  23982042.063 9  94110685.760 9
        51.000    23982037.465 9  96565728.566 9        51.900    23982039.805 9
  95338206.773 9        57.700
  26268406.688 7 138041404.890 7        41.000
                                                  26268433.039 7 103082952.837 7
        42.500    26268427.738 7 105772058.321 7        44.100    26268430.551 9
 104427514.691 9        49.500
  24471641.289 9 128599346.160 9        48.600
                                                  24471664.168 9  96031973.988 9
        49.400    24471659.574 9  98537155.796 9        50.000    24471661.910 9
  97284587.504 9        55.800
  22416966.586 7 119663276.792 7        44.500    22416965.031 7  22416985.156 7
  93071443.642 7        41.400    22416985.316 7


  20898709.992 9 111676378.574 9        50.600    20898709.516 9  20898727.508 8
  86859399.808 8        46.600    20898727.578 8


  20550985.992 9 109972475.891 9        52.300    20550984.551 9  20551003.133 8
  85534147.317 8        46.700    20551003.746 8


  19287645.078 8 102814000.326 8        46.700    19287643.238 8



  21647246.734 8 115595073.206 8        45.700    21647246.289 7  21647262.215 8
  89907290.363 7        43.800    21647261.723 7


  24216620.289 5 129451780.132 5        35.200    24216618.844 3  24216646.660 4
 100684757.266 3        32.800    24216647.656 3


  38724251.469 6 203497314.903 6        39.800



  36742944.516 7 193085483.909 7        42.000



 23  2 14 10 24 21.0000000  0 21G30G17G19G 7G 1G14G 3G 6R20E33E 1E26 0.000000000
                                E31R22R11R21R10R 9R 5S27S37
  21987373.031 8 115544422.353 8        45.100                    21987392.070 8
  90034687.10649        45.600    21987391.85249  21987395.863 9  86283186.951 9
        49.800

  21781259.406 8 114461292.416 8        45.400                    21781279.750 7
  89190698.68549        47.300    21781279.64549


  22410013.406 7 117765419.778 7        43.400
  91765353.16448        32.500    22410034.92248


  23663626.219 5 124353212.525 5        36.400                    23663643.875 4
  96898665.47247        29.600    23663644.18447


  23289038.367 6 122384702.729 6        38.300                    23289065.645 6
  95364827.31446        22.000    23289065.75846  23289069.129 7  91391200.720 7
        44.700

  20353603.086 8 106958906.145 8        47.800                    20353620.063 9
  83344673.03149        43.400    20353619.93849  20353627.684 9  79871939.510 9
        55.700

  22440109.477 7 117923569.060 7        42.100                    22440133.832 7
  91888593.34249        35.500    22440133.53549  22440139.352 9  88059820.102 9
        48.400

  21358201.320 8 112238104.911 8        46.400                    21358222.258 8
  87458348.91449        50.000    21358221.71949  21358226.496 9  83814269.150 9
        51.500

  22029720.367 5 117802862.934 5        37.000    22029718.965 5  22029742.734 5
  91624499.267 5        37.100    22029742.070 5


  23655435.148 9 124310150.293 9        48.500
                                                  23655454.141 9  92828992.150 9
        51.700    23655449.500 9  95250606.884 9        52.400    23655451.910 9
  94039908.626 9        58.400
  23982157.227 9 126027087.075 9        49.800
                                                  23982176.848 9  94111213.693 9
        51.100    23982172.160 9  96566270.270 9        51.700    23982174.539 9
  95338741.588 9        57.700
  26268876.977 7 138043876.076 7        41.500
                                                  26268903.258 7 103084798.202 7
        42.600    26268898.004 7 105773951.818 7        44.000    26268900.762 9
 104429384.119 9        49.500
  24471300.094 9 128597554.057 9        48.400
                                                  24471323.109 9  96030635.734 9
        49.100    24471318.422 9  98535782.634 9        50.300    24471320.777 9
  97283231.793 9        55.900
  22416612.211 7 119661382.054 7        44.600    22416609.602 7  22416630.012 7
  93069969.954 7        41.400    22416630.320 7


  20898123.391 9 111673244.658 9        50.300    20898123.148 9  20898141.008 8
  86856962.322 8        46.300    20898141.129 8


  20551054.680 9 109972845.241 9        52.000    20551053.590 9  20551072.059 8
  85534434.591 8        46.700    20551072.684 8


  19287816.336 8 102814917.563 8        46.800    19287814.965 8



  21647952.727 8 115598841.486 8        45.600    21647951.930 7  21647967.934 8
  89910221.251 7        43.700    21647967.340 7


  24216315.797 4 129450160.350 4        34.800    24216315.410 3  24216343.996 3
 100683497.422 3        32.600    24216344.730 3


  38724254.219 6 203497325.516 6        39.800



  36742944.656 7 193085489.001 7        41.800



 23  2 14 10 24 22.0000000  0 21G30G17G19G 7G 1G14G 3G 6R20E33E 1E26 0.000000000
                                E31R22R11R21R10R 9R 5S27S37
  21987850.375 8 115546930.035 8        45.000                    21987870.125 8
  90036641.14649        45.400    21987869.82049  21987873.480 9  86285059.572 9
        49.500

  21781274.461 8 114461369.926 8        45.100                    21781294.543 7
  89190759.08249        47.300    21781294.44149


  22409805.578 7 117764328.689 7        43.300
  91764502.97048        32.300    22409827.23048


  23664283.828 5 124356670.589 5        36.600                    23664302.191 5
  96901360.06648        30.700    23664302.32048


  23289704.492 5 122388204.812 5        37.900                    23289732.047 6
  95367556.21046        22.900    23289732.16446  23289735.648 7  91393815.906 7
        44.500

  20353477.930 9 106958249.429 9        48.100                    20353495.105 9
  83344161.31049        43.600    20353495.00849  20353502.637 9  79871449.109 9
        55.600

  22440111.828 7 117923581.054 7        42.300                    22440136.207 7
  91888602.68549        35.600    22440136.01649  22440141.656 9  88059829.058 9
        48.300

  21357838.305 8 112236196.705 8        46.200                    21357858.754 9
  87456862.00249        50.000    21357858.19149  21357862.973 9  83812844.191 9
        51.500

  22030274.586 5 117805827.254 5        36.900    22030274.004 5  22030297.207 5
  91626804.851 5        37.500    22030296.699 5


  23655619.602 9 124311119.798 9        49.000
                                                  23655638.547 9  92829716.133 9
        51.800    23655633.813 9  95251349.752 9        52.400    23655636.230 9
  94040642.054 9        58.500
  23982291.836 9 126027794.414 9        49.400
                                                  23982311.324 9  94111741.900 9
        51.000    23982306.590 9  96566812.258 9        51.700    23982308.973 9
  95339276.688 9        57.800
  26269347.023 7 138046347.335 7        41.800
                                                  26269373.359 7 103086643.616 7
        42.700    26269368.203 7 105775845.381 7        44.100    26269370.965 9
 104431253.610 9        49.500
  24470959.156 9 128595762.178 9        48.500
                                                  24470982.051 9  96029297.650 9
        49.200    24470977.406 9  98534409.641 9        50.500    24470979.785 9
  97281876.255 9        55.900
  22416256.758 8 119659487.777 8        45.000    22416255.438 7  22416275.535 6
  93068496.629 7        41.400    22416275.695 7


  20897536.859 9 111670111.314 9        50.300    20897536.734 9  20897554.270 8
  86854525.281 8        46.300    20897554.496 8


  20551124.680 9 109973214.983 9        51.800    20551122.414 9  20551140.910 8
  85534722.170 8        46.900    20551141.484 8


  19287988.891 8 102815835.656 8        47.200    19287987.988 8



  21648659.000 8 115602610.171 8        45.800    21648658.086 7  21648673.832 7
  89913152.446 7        44.000    21648673.605 7


  24216012.867 5 129448540.996 5        35.100    24216011.777 3  24216040.906 4
 100682237.904 3        32.900    24216041.359 3


  38724255.828 6 203497336.178 6        40.200



  36742945.500 7 193085494.122 7        42.000



 23  2 14 10 24 23.0000000  0 21G30G17G19G 7G 1G14G 3G 6R20E33E 1E26 0.000000000
                                E31R22R11R21R10R 9R 5S27S37
  21988327.039 8 115549438.008 8        45.200                    21988346.695 8
  90038595.41449        45.700    21988346.32449  21988350.156 9  86286932.412 9
        49.600

  21781289.164 8 114461447.430 8        45.300                    21781309.004 7
  89190819.47449        47.300    21781309.06649


  22409598.000 7 117763237.645 7        43.200
  91763652.81148        32.300    22409619.37148


  23664942.094 5 124360128.662 5        36.300                    23664959.957 5
  96904054.66848        30.300    23664960.16448


  23290371.375 6 122391706.974 6        38.400                    23290398.492 6
  95370285.17146        24.900    23290398.74246  23290402.227 7  91396431.157 7
        44.100

  20353353.008 9 106957593.190 9        48.500                    20353370.152 9
  83343649.95749        43.300    20353369.89849  20353377.586 9  79870959.063 9
        55.900

  22440114.094 7 117923593.668 7        42.000                    22440138.488 7
  91888612.51649        35.300    22440138.19549  22440144.129 9  88059838.478 9
        48.100

  21357475.172 8 112234288.962 8        46.300                    21357495.930 9
  87455375.45649        50.000    21357495.45349  21357500.176 9  83811419.582 9
        51.400

  22030829.664 5 117808791.471 5        37.200    22030828.613 5  22030852.078 5
  91629110.352 5        37.800    22030851.387 5


  23655804.125 9 124312089.582 9        48.600
                                                  23655823.250 9  92830440.322 9
        51.700    23655818.469 9  95252092.831 9        52.600    23655820.922 9
  94041375.684 9        58.500
  23982426.570 9 126028502.138 9        49.700
                                                  23982446.039 9  94112270.396 9
        51.200    23982441.207 9  96567354.541 9        51.700    23982443.758 9
  95339812.077 9        57.800
  26269817.148 7 138048818.633 7        41.800
                                                  26269843.797 7 103088489.065 7
        42.800    26269838.313 7 105777738.968 7        44.000    26269841.246 9
 104433123.129 9        49.500
  24470618.289 9 128593970.486 9        48.300
                                                  24470641.027 9  96027959.709 9
        49.500    24470636.387 9  98533036.790 9        50.300    24470638.816 9
  97280520.857 9        55.900
  22415901.609 7 119657593.953 7        44.700    22415900.055 7  22415921.020 6
  93067023.654 7        41.600    22415920.777 7


  20896950.922 9 111666978.483 9        50.500    20896950.445 9  20896967.953 8
  86852088.649 8        46.500    20896968.254 8


  20551193.531 9 109973585.119 9        51.500    20551192.207 9  20551210.488 8
  85535010.053 8        46.700    20551211.180 8


  19288160.844 8 102816754.606 8        47.000    19288159.824 8



  21649364.750 8 115606379.255 8        45.800    21649363.719 7  21649379.207 8
  89916083.952 7        43.900    21649379.371 7


  24215711.250 4 129446921.941 4        34.700    24215709.219 3  24215737.898 3
 100680978.613 3        32.900    24215738.652 3


  38724257.172 6 203497346.820 6        40.200



  36742956.875 7 193085499.243 7        42.300



 23  2 14 10 24 24.0000000  0 21G30G17G19G 7G 1G14G 3G 6R20E33E 1E26 0.000000000
                                E31R22R11R21R10R 9R 5S27S37
  21988804.875 8 115551946.250 8        45.200                    21988824.527 8
  90040549.88649        45.500    21988824.24249  21988827.961 9  86288805.445 9
        49.600

  21781303.758 8 114461524.871 8        45.400                    21781323.734 7
  89190879.82249        47.300    21781323.66849


  22409390.078 7 117762146.642 7        43.200
  91762802.67748        32.300    22409411.44948


  23665599.773 5 124363586.665 5        36.400                    23665618.684 5
  96906749.21047        29.700    23665618.56347


  23291037.320 6 122395209.195 6        38.100                    23291064.594 7
  95373014.17946        23.800    23291064.94546  23291068.547 7  91399046.450 7
        44.200

  20353228.648 9 106956937.389 9        48.000                    20353245.617 9
  83343138.94849        43.300    20353245.57049  20353253.141 9  79870469.344 9
        55.700

  22440116.547 7 117923606.839 7        42.100                    22440141.051 7
  91888622.77849        35.400    22440140.53949  22440146.590 9  88059848.313 9
        48.000

  21357112.313 8 112232381.671 8        46.300                    21357132.965 9
  87453889.25649        50.000    21357132.61749  21357137.395 9  83809995.307 9
        51.300

  22031382.828 5 117811755.656 5        37.600    22031382.480 4  22031406.766 5
  91631415.822 6        38.000    22031405.629 6


  23655988.891 9 124313059.613 9        48.600
                                                  23656007.996 9  92831164.698 9
        51.800    23656003.211 9  95252836.098 9        52.700    23656005.691 9
  94042109.508 9        58.500
  23982561.406 9 126029210.175 9        49.800
                                                  23982580.742 9  94112799.123 9
        51.300    23982576.102 9  96567897.065 9        51.300    23982578.461 9
  95340347.706 9        57.800
  26270287.453 7 138051289.886 7        42.200
                                                  26270313.914 7 103090334.480 7
        43.000    26270308.660 7 105779632.521 7        44.400    26270311.359 9
 104434992.613 9        49.500
  24470277.281 9 128592178.936 9        48.200
                                                  24470300.285 9  96026621.872 9
        49.400    24470295.504 9  98531664.053 9        50.700    24470297.965 9
  97279165.571 9        55.900
  22415546.789 7 119655700.519 7        43.900    22415545.707 7  22415566.309 6
  93065550.987 7        41.600    22415566.316 7


  20896364.422 9 111663846.101 9        50.900    20896364.297 9  20896382.203 8
  86849652.363 8        46.200    20896382.141 8


  20551262.320 9 109973955.638 9        51.700    20551261.348 9  20551279.836 8
  85535298.234 8        46.900    20551280.578 8


  19288333.844 8 102817674.337 8        46.700    19288332.590 8



  21650070.531 8 115610148.728 8        45.800    21650069.734 7  21650085.598 7
  89919015.764 7        43.600    21650085.664 7


  24215407.742 4 129445303.211 4        34.600    24215406.887 3  24215435.875 3
 100679719.586 3        33.300    24215436.281 3


  38724260.250 6 203497357.417 6        40.600



  36742955.688 7 193085504.347 7        42.200



 23  2 14 10 24 25.0000000  0 21G30G17G19G 7G 1G14G 3G 6R20E33E 1E26 0.000000000
                                E31R22R11R21R10R 9R 5S27S37
  21989281.930 8 115554454.801 8        45.200                    21989301.340 8
  90042504.60249        45.500    21989301.15649  21989304.992 9  86290678.715 9
        49.800

  21781318.461 8 114461602.302 8        45.400                    21781338.680 7
  89190940.16349        47.300    21781338.68849


  22409182.453 7 117761055.673 7        43.200
  91761952.58048        32.500    22409204.32448


  23666257.813 5 124367044.673 5        36.000                    23666276.238 5
  96909443.76447        29.900    23666276.40247


  23291703.539 6 122398711.524 6        38.300                    23291731.082 7
  95375743.25546        22.600    23291731.37546  23291735.152 7  91401661.824 7
        44.300

  20353103.742 8 106956282.036 8        47.900                    20353120.285 9
  83342628.28949        43.300    20353120.19549  20353127.883 9  79869979.958 9
        55.600

  22440119.586 7 117923620.626 7        42.000                    22440144.012 7
  91888633.52449        35.900    22440143.50449  22440149.262 9  88059858.613 9
        48.100

  21356749.180 8 112230474.917 8        46.100                    21356769.605 8
  87452403.46949        50.000    21356769.48049  21356774.379 9  83808571.438 9
        51.300

  22031938.742 5 117814719.815 5        37.200    22031936.637 5  22031960.305 5
  91633721.278 5        37.100    22031959.258 5


  23656173.477 9 124314029.957 9        48.300
                                                  23656192.473 9  92831889.297 9
        51.600    23656187.691 9  95253579.608 9        52.700    23656190.199 9
  94042843.566 9        58.500
  23982696.211 9 126029918.563 9        49.900
                                                  23982715.680 9  94113328.115 9
        51.300    23982711.039 9  96568439.856 9        51.300    23982713.379 9
  95340883.596 9        57.700
  26270757.781 7 138053761.181 7        42.400
                                                  26270784.133 7 103092179.919 7
        43.100    26270778.789 7 105781526.109 7        44.000    26270781.648 9
 104436862.126 9        49.500
  24469936.500 9 128590387.619 9        48.600
                                                  24469959.285 9  96025284.205 9
        49.100    24469954.500 9  98530291.492 9        50.600    24469956.984 9
  97277810.457 9        55.800
  22415193.102 7 119653807.563 7        44.100    22415190.961 7  22415211.184 6
  93064078.695 7        41.300    22415211.414 7


  20895778.516 9 111660714.293 9        50.700    20895778.039 9  20895795.895 8
  86847216.527 8        46.700    20895795.867 8


  20551331.703 9 109974326.603 9        51.900    20551330.965 9  20551349.473 8
  85535586.764 8        47.000    20551349.805 8


  19288506.109 8 102818594.933 8        46.700    19288505.441 8



  21650776.609 8 115613918.655 8        45.600    21650775.695 7  21650791.117 7
  89921947.931 7        43.900    21650791.348 7


  24215104.469 4 129443684.861 4        34.700    24215104.082 3  24215133.141 4
 100678460.853 3        33.500    24215133.461 3


  38724261.766 6 203497368.029 6        40.400



  36742950.141 7 193085509.459 7        42.100



 23  2 14 10 24 26.0000000  0 21G30G17G19G 7G 1G14G 3G 6R20E33E 1E26 0.000000000
                                E31R22R11R21R10R 9R 5S27S37
  21989759.688 8 115556963.688 8        45.600                    21989779.309 8
  90044459.57249        45.800    21989778.74249  21989782.402 9  86292552.233 9
        49.600

  21781333.680 8 114461679.688 8        45.300                    21781353.051 7
  89191000.46349        47.200    21781353.42649


  22408974.977 7 117759964.791 7        43.100
  91761102.55748        32.300    22408996.53548


  23666916.375 5 124370502.615 5        36.500                    23666934.500 5
  96912138.25348        30.000    23666934.40248


  23292370.602 6 122402213.942 6        38.400                    23292397.652 6
  95378472.40146        22.000    23292398.09846  23292401.816 7  91404277.260 7
        44.300

  20352979.047 8 106955627.171 8        47.900                    20352995.949 9
  83342118.00649        43.400    20352995.73449  20353003.418 9  79869490.946 9
        55.700

  22440122.406 7 117923635.015 7        42.000                    22440146.988 7
  91888644.73449        36.000    22440146.18849  22440152.180 9  88059869.355 9
        48.100

  21356386.641 8 112228568.629 8        46.400                    21356407.375 9
  87450918.05449        50.000    21356407.10549  21356411.766 9  83807147.913 9
        51.400

  22032492.492 5 117817683.849 5        36.600    22032490.855 5  22032514.402 5
  91636026.637 5        37.300    22032513.535 5


  23656358.258 9 124315000.574 9        48.300
                                                  23656377.184 9  92832614.109 9
        51.400    23656372.445 9  95254323.331 9        52.600    23656374.910 9
  94043577.831 9        58.500
  23982830.961 9 126030627.314 9        50.000
                                                  23982850.391 9  94113857.384 9
        51.300    23982845.656 9  96568982.928 9        51.500    23982848.102 9
  95341419.766 9        57.700
  26271228.328 7 138056232.476 7        41.800
                                                  26271254.621 7 103094025.365 7
        43.000    26271249.414 7 105783419.693 7        44.000    26271252.012 9
 104438731.642 9        49.500
  24469595.695 9 128588596.470 9        48.300
                                                  24469618.465 9  96023946.668 9
        48.800    24469613.777 9  98528919.062 9        50.600    24469616.145 9
  97276455.476 9        55.900
  22414837.156 7 119651915.036 7        43.700    22414837.012 7  22414857.277 6
  93062606.725 7        41.200    22414857.125 7


  20895193.180 9 111657582.996 9        50.700    20895191.996 9  20895209.680 8
  86844781.090 8        46.400    20895210.023 8


  20551401.297 9 109974697.962 9        51.800    20551399.855 9  20551417.988 8
  85535875.597 8        47.000    20551418.961 8


  19288679.711 8 102819516.368 8        46.800    19288677.754 8



  21651482.211 8 115617688.971 8        45.700    21651481.883 7  21651497.316 7
  89924880.402 7        43.900    21651497.277 7


  24214802.570 4 129442066.883 4        34.600    24214801.125 3  24214830.121 4
 100677202.414 3        33.800    24214830.563 3


  38724263.594 6 203497378.673 6        40.100



  36742944.719 7 193085514.544 7        41.700



 23  2 14 10 24 27.0000000  0 21G30G17G19G 7G 1G14G 3G 6R20E33E 1E26 0.000000000
                                E31R22R11R21R10R 9R 5S27S37
  21990236.719 8 115559472.636 8        45.400                    21990256.512 8
  90046414.59949        45.500    21990256.08249  21990259.973 9  86294425.796 9
        49.700

  21781348.125 8 114461756.859 8        45.400                    21781367.742 7
  89191060.60049        47.300    21781367.72749


  22408767.188 7 117758873.735 7        43.000
  91760252.38748        32.400    22408788.68848


  23667573.531 5 124373960.344 5        36.600                    23667592.996 5
  96914832.59248        30.200    23667592.80948


  23293037.281 6 122405716.215 6        38.100                    23293064.410 6
  95381201.44246        22.500    23293064.64546  23293068.246 7  91406892.596 7
        44.300

  20352854.648 8 106954972.532 8        47.900                    20352871.609 9
  83341607.89349        43.000    20352871.63749  20352879.207 9  79869002.095 9
        55.700

  22440125.414 7 117923649.743 7        41.900                    22440149.391 7
  91888656.20649        35.900    22440148.96149  22440154.660 9  88059880.355 9
        48.300

  21356023.547 8 112226662.613 8        46.100                    21356044.289 9
  87449432.84649        49.900    21356043.68049  21356048.461 9  83805724.594 9
        51.400

  22033047.078 5 117820647.670 5        36.500    22033045.207 5  22033068.238 5
  91638331.836 5        37.600    22033067.574 5


  23656542.977 9 124315971.283 9        48.200
                                                  23656561.945 9  92833338.992 9
        51.500    23656557.066 9  95255067.120 9        52.300    23656559.633 9
  94044312.164 9        58.500
  23982965.859 9 126031336.201 9        50.000
                                                  23982985.348 9  94114386.750 9
        51.100    23982980.754 9  96569526.105 9        51.800    23982983.090 9
  95341956.036 9        57.800
  26271698.445 7 138058703.588 7        41.800
                                                  26271724.875 7 103095870.674 7
        43.300    26271719.387 7 105785313.145 7        44.400    26271722.301 9
 104440601.020 9        49.600
  24469254.836 9 128586805.317 9        48.300
                                                  24469277.613 9  96022609.129 9
        49.100    24469272.969 9  98527546.628 9        50.700    24469275.398 9
  97275100.484 9        55.800
  22414483.633 7 119650022.723 7        43.900    22414482.434 7  22414502.387 6
  93061134.924 7        41.300    22414502.449 7


  20894605.938 9 111654452.003 9        50.500    20894606.281 9  20894623.891 8
  86842345.889 8        46.600    20894623.977 8


  20551470.563 9 109975069.474 9        52.000    20551469.238 9  20551487.492 8
  85536164.552 8        47.400    20551488.082 8


  19288852.477 8 102820438.429 8        47.000    19288850.988 8



  21652188.375 8 115621459.454 8        46.000    21652187.461 7  21652203.098 7
  89927812.996 7        43.500    21652203.285 7


  24214500.453 5 129440449.035 5        35.000    24214498.422 3  24214527.816 4
 100675944.077 4        34.200    24214528.078 4


  38724265.375 6 203497389.115 6        40.000



  36742957.500 7 193085519.423 7        42.100



 23  2 14 10 24 28.0000000  0 21G30G17G19G 7G 1G14G 3G 6R20E33E 1E26 0.000000000
                                E31R22R11R21R10R 9R 5S27S37
  21990714.313 8 115561982.092 8        45.700                    21990734.094 8
  90048370.01549        45.700    21990733.81349  21990737.590 9  86296299.737 9
        50.000

  21781362.828 8 114461834.168 8        45.600                    21781382.891 7
  89191120.84549        47.300    21781382.80949


  22408559.828 7 117757782.945 7        43.000
  91759402.42748        32.200    22408581.38348


  23668232.438 5 124377418.203 5        36.600                    23668250.336 5
  96917527.02547        29.700    23668250.14147


  23293703.273 6 122409218.751 6        38.100                    23293730.250 6
  95383930.69946        22.200    23293730.45346  23293734.348 7  91409508.123 7
        44.200

  20352729.867 8 106954318.536 8        47.600                    20352746.848 9
  83341098.29449        43.200    20352746.64549  20352754.273 9  79868513.721 9
        55.800

  22440127.703 7 117923665.305 7        42.200                    22440151.957 7
  91888668.32948        30.500    22440151.82048  22440157.578 9  88059891.975 9
        48.000

  21355661.117 8 112224757.238 8        46.000                    21355681.891 8
  87447948.14449        50.000    21355681.46549  21355686.246 9  83804301.747 9
        51.400

  22033601.672 5 117823611.640 5        36.200    22033599.918 5  22033622.645 5
  91640637.142 5        37.200    22033622.246 5


  23656727.844 9 124316942.450 9        48.600
                                                  23656746.879 9  92834064.212 9
        51.500    23656742.051 9  95255811.264 9        51.900    23656744.461 9
  94045046.845 9        58.400
  23983101.008 9 126032045.626 9        49.500
                                                  23983120.324 9  94114916.518 9
        51.500    23983115.633 9  96570069.691 9        52.100    23983118.031 9
  95342492.711 9        57.800
  26272168.859 7 138061174.908 7        42.200
                                                  26272195.016 7 103097716.136 7
        43.300    26272189.668 7 105787206.747 7        44.400    26272192.422 9
 104442470.551 9        49.600
  24468914.023 9 128585014.522 9        48.500
                                                  24468936.906 9  96021271.852 9
        49.200    24468932.309 9  98526174.465 9        50.700    24468934.656 9
  97273745.769 9        55.900
  22414128.750 7 119648131.025 7        43.900    22414127.785 7  22414147.766 6
  93059663.602 7        41.200    22414147.684 7


  20894020.492 9 111651321.715 9        50.600    20894020.250 9  20894038.125 8
  86839911.224 8        46.900    20894038.172 8


  20551540.461 9 109975441.526 9        51.800    20551539.020 9  20551557.070 9
  85536453.932 8        46.800    20551557.859 8


  19289025.250 8 102821361.520 8        46.800    19289023.762 8



  21652895.008 8 115625230.544 8        46.200    21652893.742 7  21652909.164 7
  89930746.066 7        43.700    21652909.105 7


  24214197.102 5 129438831.656 5        36.100    24214196.598 3  24214224.883 4
 100674686.098 3        33.400    24214225.480 3


  38724266.500 6 203497399.680 6        39.700



  36742955.797 7 193085524.479 7        42.100



 23  2 14 10 24 29.0000000  0 21G30G17G19G 7G 1G14G 3G 6R20E33E 1E26 0.000000000
                                E31R22R11R21R10R 9R 5S27S37
  21991192.453 8 115564491.844 8        45.400                    21991211.848 8
  90050325.66849        45.500    21991211.52049  21991215.355 9  86298173.904 9
        50.000

  21781377.867 8 114461911.477 8        45.400                    21781397.578 7
  89191181.08649        47.400    21781397.50449


  22408352.336 7 117756692.167 7        43.100
  91758552.47748        32.400    22408374.04748


  23668889.641 5 124380876.102 5        36.300                    23668908.746 5
  96920221.49047        29.400    23668908.40247


  23294370.297 5 122412721.369 5        37.700                    23294397.477 6
  95386660.02046        22.300    23294397.44546  23294401.574 7  91412123.715 7
        44.300

  20352605.797 9 106953664.995 9        48.100                    20352622.453 9
  83340589.04449        43.200    20352622.47349  20352630.102 9  79868025.691 9
        55.700

  22440131.313 7 117923681.420 7        41.800                    22440155.492 7
  91888680.88548        31.100    22440155.18048  22440161.055 9  88059904.005 9
        48.300

  21355298.977 8 112222852.373 8        46.200                    21355319.539 8
  87446463.83649        50.000    21355319.04749  21355323.828 9  83802879.286 9
        51.400

  22034155.406 5 117826575.548 5        36.600    22034154.590 5  22034177.063 5
  91642942.406 5        37.500    22034176.547 5


  23656912.609 9 124317913.921 9        48.400
                                                  23656931.633 9  92834789.661 9
        51.700    23656926.898 9  95256555.632 9        51.900    23656929.250 9
  94045781.758 9        58.500
  23983235.977 9 126032755.406 9        49.500
                                                  23983255.336 9  94115446.548 9
        51.000    23983250.695 9  96570613.549 9        51.900    23983253.074 9
  95343029.657 9        57.800
  26272639.219 7 138063646.233 7        41.500
                                                  26272665.426 7 103099561.607 7
        43.100    26272660.125 7 105789100.360 7        44.000    26272662.863 9
 104444340.095 9        49.500
  24468573.133 9 128583223.934 9        49.200
                                                  24468596.223 9  96019934.731 9
        49.300    24468591.531 9  98524802.464 9        50.700    24468593.879 9
  97272391.209 9        55.900
  22413773.484 7 119646239.784 7        44.100    22413773.223 7  22413793.598 6
  93058192.634 6        40.700    22413793.332 6


  20893435.063 9 111648191.943 9        50.800    20893434.586 9  20893452.531 8
  86837476.962 8        46.600    20893452.547 8


  20551609.609 9 109975813.991 9        52.100    20551608.871 9  20551627.145 8
  85536743.625 8        47.200    20551627.684 8


  19289198.680 8 102822285.485 8        46.800    19289197.309 7



  21653601.039 8 115629002.077 8        45.600    21653600.711 7  21653616.426 7
  89933679.481 7        43.400    21653616.141 7


  24213895.695 5 129437214.724 5        36.200    24213893.313 4  24213922.699 4
 100673428.478 4        34.000    24213923.035 4


  38724269.781 6 203497410.249 6        40.200



  36742952.031 7 193085529.539 7        41.800



 23  2 14 10 24 30.0000000  0 21G30G17G19G 7G 1G14G 3G 6R20E33E 1E26 0.000000000
                                E31R22R11R21R10R 9R 5S27S37
  21991669.992 8 115567001.913 8        45.100                    21991688.938 8
  90052281.57049        45.700    21991688.98849  21991692.707 9  86300048.309 9
        50.100

  21781392.313 8 114461988.743 8        45.400                    21781412.180 7
  89191241.29749        47.400    21781412.09449


  22408144.734 7 117755601.499 7        43.000
  91757702.61548        32.700    22408166.25048


  23669548.109 5 124384333.942 5        36.900                    23669566.672 5
  96922915.90647        29.800    23669566.39147


  23295036.820 5 122416224.139 5        37.500                    23295063.703 6
  95389389.45546        21.700    23295063.85946  23295067.871 7  91414739.420 7
        44.500

  20352481.445 9 106953011.959 9        48.400                    20352498.488 9
  83340080.18849        43.500    20352498.50049  20352506.012 9  79867538.037 9
        55.800

  22440134.008 7 117923698.176 7        42.200                    22440158.230 7
  91888693.94148        31.400    22440158.12548  22440163.824 9  88059916.515 9
        48.200

  21354936.531 8 112220948.033 8        46.400                    21354957.039 8
  87444979.93749        50.100    21354956.71549  21354961.492 9  83801457.218 9
        51.500

  22034711.117 5 117829539.340 5        36.400    22034709.012 5  22034731.070 6
  91645247.575 5        37.600    22034730.820 5


  23657097.484 9 124318885.703 9        48.700
                                                  23657116.715 9  92835515.345 9
        51.500    23657111.699 9  95257300.245 9        52.000    23657114.324 9
  94046516.902 9        58.500
  23983371.047 9 126033465.565 9        49.600
                                                  23983390.469 9  94115976.863 9
        51.000    23983385.824 9  96571157.700 9        52.100    23983388.262 9
  95343566.892 9        57.900
  26273109.188 7 138066117.567 7        41.500
                                                  26273135.637 7 103101407.079 7
        43.200    26273130.387 7 105790993.976 7        44.000    26273133.125 9
 104446209.636 9        49.500
  24468232.523 9 128581433.559 9        48.900
                                                  24468255.719 9  96018597.767 9
        49.100    24468250.938 9  98523430.625 9        50.600    24468253.250 9
  97271036.806 9        55.900
  22413420.695 7 119644348.991 7        44.400    22413419.848 7  22413439.762 6
  93056722.018 6        40.900    22413439.594 6


  20892849.484 9 111645062.764 9        50.500    20892849.008 9  20892866.688 8
  86835043.160 8        46.500    20892866.781 8


  20551679.500 9 109976186.915 9        52.100    20551678.293 9  20551696.934 8
  85537033.675 8        47.100    20551697.340 8


  19289371.703 8 102823210.297 8        47.100    19289369.980 8



  21654306.836 8 115632774.023 8        45.800    21654306.273 7  21654322.316 7
  89936613.219 7        43.600    21654321.934 7


  24213591.797 5 129435598.113 5        35.700    24213590.941 4  24213619.742 4
 100672171.101 3        33.900    24213620.516 3


  38724271.797 6 203497420.909 6        39.900



  36742956.188 7 193085534.621 7        42.000



 23  2 14 10 24 31.0000000  0 21G30G17G19G 7G 1G14G 3G 6R20E33E 1E26 0.000000000
                                E31R22R11R21R10R 9R 5S27S37
  21992147.242 8 115569512.301 8        45.000                    21992166.316 8
  90054237.71649        45.500    21992166.30949  21992170.027 9  86301922.954 9
        49.800

  21781406.688 8 114462065.995 8        45.300                    21781426.961 7
  89191301.50049        47.400    21781426.93449


  22407937.016 7 117754510.869 7        43.000
  91756852.78048        32.300    22407958.57048


  23670205.516 5 124387791.779 5        36.800                    23670224.754 5
  96925610.32248        30.100    23670224.39148


  23295702.883 5 122419726.925 5        37.500                    23295730.457 6
  95392118.90046        23.200    23295730.71146  23295734.547 7  91417355.135 7
        44.600

  20352357.328 9 106952359.362 9        48.100                    20352373.738 9
  83339571.66949        43.000    20352373.81349  20352381.383 9  79867050.715 9
        55.700

  22440137.406 7 117923715.557 7        42.100                    22440161.738 7
  91888707.48548        31.200    22440161.37148  22440167.305 9  88059929.495 9
        48.400

  21354574.234 8 112219044.176 8        46.300                    21354595.059 9
  87443496.41849        50.000    21354594.67649  21354599.340 9  83800035.509 9
        51.500

  22035264.484 5 117832503.215 5        36.200    22035262.730 5  22035284.871 6
  91647552.811 5        37.600    22035284.883 5


  23657282.555 9 124319857.769 9        49.000
                                                  23657301.539 9  92836241.237 9
        51.600    23657296.758 9  95258045.071 9        52.400    23657299.203 9
  94047252.266 9        58.500
  23983506.211 9 126034176.064 9        49.500
                                                  23983525.773 9  94116507.435 9
        51.100    23983521.129 9  96571702.110 9        52.100    23983523.500 9
  95344104.379 9        57.800
  26273579.617 7 138068588.967 7        41.400
                                                  26273605.871 7 103103252.600 7
        43.100    26273600.434 7 105792887.644 7        43.700    26273603.289 9
 104448079.232 9        49.400
  24467891.945 9 128579643.355 9        48.500
                                                  24467914.828 9  96017260.938 9
        48.700    24467910.184 9  98522058.915 9        50.800    24467912.496 9
  97269682.532 9        55.900
  22413066.609 7 119642458.629 7        44.100    22413065.645 7  22413085.863 6
  93055251.736 6        40.800    22413085.676 6


  20892264.680 9 111641934.069 9        50.100    20892263.730 9  20892281.129 8
  86832609.741 8        46.700    20892281.516 8


  20551749.820 9 109976560.278 9        52.100    20551748.379 9  20551766.531 8
  85537324.068 8        47.500    20551767.297 8


  19289546.172 8 102824135.951 8        46.900    19289545.035 8



  21655013.836 8 115636546.392 8        46.100    21655013.391 7  21655029.262 7
  89939547.279 7        43.900    21655028.754 7


  24213289.984 5 129433981.822 5        35.900    24213289.012 3  24213317.047 3
 100670913.976 3        33.300    24213317.926 3


  38724274.078 6 203497431.520 6        39.900



  36742954.141 7 193085539.717 7        41.800



 23  2 14 10 24 32.0000000  0 21G30G17G19G 7G 1G14G 3G 6R20E33E 1E26 0.000000000
                                E31R22R11R21R10R 9R 5S27S37
  21992625.273 8 115572022.995 8        45.200                    21992644.652 8
  90056194.09749        45.600    21992644.52349  21992648.184 9  86303797.820 9
        49.500

  21781421.172 8 114462143.221 8        45.500                    21781441.453 8
  89191361.67749        47.400    21781441.27349


  22407729.445 7 117753420.295 7        43.200
  91756002.98948        32.500    22407751.17248


  23670864.086 5 124391249.587 5        36.500                    23670882.723 5
  96928304.72748        30.300    23670882.43848


  23296369.969 5 122423229.869 5        37.700                    23296396.855 6
  95394848.46046        22.300    23296397.07846  23296400.797 7  91419970.970 7
        44.600

  20352232.820 8 106951707.214 8        47.700                    20352250.109 9
  83339063.50749        43.400    20352249.94949  20352257.578 9  79866563.722 9
        55.600

  22440140.852 7 117923733.494 7        41.900                    22440164.906 7
  91888721.46948        31.600    22440164.38748  22440170.262 9  88059942.891 9
        48.200

  21354211.664 8 112217140.770 8        46.300                    21354232.723 9
  87442013.24449        49.900    21354232.26649  21354237.047 9  83798614.139 9
        51.400

  22035818.656 5 117835466.998 5        36.100    22035816.785 5  22035839.594 5
  91649857.972 5        37.100    22035839.297 5


  23657467.719 9 124320830.120 9        48.800
                                                  23657486.488 9  92836967.342 9
        51.200    23657481.656 9  95258790.122 9        52.500    23657484.227 9
  94047987.841 9        58.500
  23983641.531 9 126034886.932 9        49.400
                                                  23983660.660 9  94117038.275 9
        51.200    23983656.203 9  96572246.804 9        51.900    23983658.520 9
  95344642.149 9        57.800
  26274049.969 7 138071060.352 7        41.500
                                                  26274076.051 7 103105098.113 7
        43.000    26274070.797 7 105794781.304 7        43.900    26274073.570 9
 104449948.817 9        49.500
  24467551.109 9 128577853.367 9        48.500
                                                  24467574.082 9  96015924.260 9
        48.800    24467569.484 9  98520687.371 9        51.000    24467571.777 9
  97268328.426 9        55.900
  22412711.820 7 119640568.725 7        43.900    22412710.738 7  22412730.898 6
  93053781.812 6        40.900    22412730.953 6


  20891677.773 9 111638805.875 9        50.500    20891678.234 9  20891696.051 8
  86830176.708 8        46.900    20891696.098 8


  20551819.422 9 109976934.000 9        52.000    20551818.215 9  20551836.293 8
  85537614.745 8        47.600    20551837.000 8


  19289720.039 8 102825062.425 8        46.800    19289718.082 8



  21655721.078 8 115640319.145 8        46.200    21655719.227 7  21655735.285 7
  89942481.640 7        43.300    21655734.977 7


  24212988.289 5 129432365.880 5        36.100    24212986.961 4  24213015.418 3
 100669657.116 3        33.700    24213015.680 3


  38724275.781 6 203497442.171 6        40.100



  36742954.953 7 193085544.779 7        42.100



 23  2 14 10 24 33.0000000  0 21G30G17G19G 7G 1G14G 3G 6R20E33E 1E26 0.000000000
                                E31R22R11R21R10R 9R 5S27S37
  21993102.469 8 115574533.967 8        45.000                    21993122.348 8
  90058150.70049        45.600    21993122.30949  21993126.023 9  86305672.895 9
        49.700

  21781436.055 8 114462220.406 8        45.400                    21781456.707 8
  89191421.82749        47.400    21781456.54749


  22407521.844 7 117752329.781 7        43.200
  91755153.25548        32.600    22407543.82848


  23671521.820 5 124394707.351 5        36.300                    23671540.543 5
  96930999.09448        30.700    23671540.22348


  23297036.055 5 122426732.824 5        37.900                    23297063.395 6
  95397578.01746        22.900    23297063.71146  23297067.371 7  91422586.803 7
        44.500

  20352109.203 9 106951055.524 9        48.000                    20352125.789 9
  83338555.70049        43.300    20352125.73849  20352133.309 9  79866077.076 9
        55.700

  22440144.250 7 117923752.028 7        42.100                    22440168.551 7
  91888735.90748        31.400    22440168.39548  22440174.387 9  88059956.731 9
        48.200

  21353849.742 8 112215237.875 8        46.300                    21353870.270 8
  87440530.46949        50.000    21353869.94949  21353874.727 9  83797193.147 9
        51.500

  22036371.727 5 117838430.719 5        36.000    22036370.207 5  22036393.352 5
  91652163.082 5        37.700    22036393.102 5


  23657652.586 9 124321802.725 9        48.400
                                                  23657671.512 9  92837693.636 9
        51.300    23657667.012 9  95259535.365 9        52.400    23657669.422 9
  94048723.609 9        58.500
  23983776.922 9 126035598.145 9        49.200
                                                  23983796.141 9  94117569.378 9
        51.000    23983791.594 9  96572791.759 9        52.000    23983793.953 9
  95345180.179 9        57.800
  26274520.383 7 138073531.781 7        41.200
                                                  26274546.691 7 103106943.662 7
        43.200    26274541.301 7 105796674.994 7        44.000    26274544.090 9
 104451818.440 9        49.400
  24467210.609 9 128576063.548 9        48.800
                                                  24467233.672 9  96014587.717 9
        49.100    24467228.980 9  98519315.961 9        51.000    24467231.332 9
  97266974.448 9        55.900
  22412357.773 7 119638679.217 7        43.700    22412356.809 7  22412377.531 6
  93052312.192 6        40.600    22412376.984 6


  20891093.156 9 111635678.234 9        50.700    20891092.914 9  20891110.891 8
  86827744.111 8        47.000    20891111.004 8


  20551888.445 9 109977308.067 9        52.100    20551888.059 9  20551906.465 8
  85537905.686 8        47.100    20551906.855 8


  19289893.789 8 102825989.753 8        46.600    19289892.301 8



  21656426.391 8 115644092.281 8        46.100    21656425.711 7  21656442.063 8
  89945416.302 7        43.400    21656441.418 7


  24212684.727 5 129430750.287 5        35.900    24212684.457 3  24212713.531 4
 100668400.529 3        33.500    24212713.363 3


  38724277.828 6 203497452.790 6        40.300



  36742967.063 7 193085549.844 7        42.100



 23  2 14 10 24 34.0000000  0 21G30G17G19G 7G 1G14G 3G 6R20E33E 1E26 0.000000000
                                E31R22R11R21R10R 9R 5S27S37
  21993580.594 7 115577045.255 7        44.900                    21993600.422 8
  90060107.54749        45.800    21993600.15649  21993603.758 9  86307548.209 9
        49.600

  21781450.867 8 114462297.578 8        45.300                    21781470.496 8
  89191481.96049        47.200    21781470.66449


  22407314.820 7 117751239.307 7        43.100
  91754303.53848        33.200    22407336.53148


  23672179.578 5 124398165.112 5        36.500                    23672198.492 4
  96933693.44948        30.700    23672198.18448


  23297702.500 6 122430235.871 6        38.200                    23297729.641 6
  95400307.65046        22.500    23297730.16846  23297733.828 7  91425202.711 7
        44.600

  20351985.156 8 106950404.305 8        47.700                    20352001.836 9
  83338048.26349        43.600    20352001.78549  20352009.355 9  79865590.777 9
        55.700

  22440148.055 7 117923771.156 7        41.900                    22440172.605 7
  91888750.81148        31.300    22440171.88748  22440177.879 9  88059971.013 9
        48.300

  21353488.102 8 112213335.456 8        46.100                    21353508.633 8
  87439048.07049        50.000    21353508.03549  21353512.875 9  83795772.512 9
        51.600

  22036925.570 5 117841394.366 5        36.900    22036924.520 5  22036947.676 5
  91654468.138 5        37.800    22036947.504 5


  23657837.727 9 124322775.651 9        48.400
                                                  23657856.789 9  92838420.172 9
        51.700    23657852.102 9  95260280.854 9        52.300    23657854.539 9
  94049459.620 9        58.500
  23983912.320 9 126036309.720 9        49.200
                                                  23983931.770 9  94118100.753 9
        51.000    23983927.082 9  96573336.988 9        51.700    23983929.441 9
  95345718.480 9        57.700
  26274990.414 7 138076003.221 7        41.300
                                                  26275016.914 7 103108789.212 7
        43.300    26275011.426 7 105798568.692 7        44.300    26275014.258 9
 104453688.063 9        49.600
  24466869.969 9 128574273.921 9        48.600
                                                  24466892.734 9  96013251.317 9
        49.200    24466888.184 9  98517944.695 9        50.900    24466890.492 9
  97265620.611 9        55.900
  22412004.344 7 119636790.154 7        44.000    22412002.672 7  22412023.172 6
  93050842.921 6        40.400    22412022.895 6


  20890507.969 9 111632551.088 9        50.700    20890507.137 9  20890525.484 8
  86825311.899 8        46.800    20890525.090 8


  20551958.883 9 109977682.548 9        51.700    20551958.145 9  20551976.055 8
  85538196.954 8        47.300    20551977.008 8


  19290068.391 8 102826917.946 8        47.000    19290066.551 8



  21657134.086 8 115647865.911 8        45.900    21657132.117 7  21657147.832 8
  89948351.349 7        43.400    21657147.785 7


  24212383.242 5 129429135.078 5        35.700    24212381.680 4  24212411.262 4
 100667144.235 3        33.800    24212410.863 3


  38724279.797 6 203497463.443 6        40.300



  36742961.203 7 193085554.912 7        42.000



 23  2 14 10 24 35.0000000  0 21G30G17G19G 7G 1G14G 3G 6R20E33E 1E26 0.000000000
                                E31R22R11R21R10R 9R 5S27S37
  21994058.898 8 115579556.911 8        45.300                    21994078.551 8
  90062064.68049        45.700    21994078.32849  21994082.164 9  86309423.796 9
        49.600

  21781465.477 8 114462374.782 8        45.500                    21781485.375 8
  89191542.12549        47.300    21781485.44549


  22407107.617 7 117750148.960 7        43.100
  91753453.92648        33.000    22407128.78148


  23672837.930 5 124401622.902 5        36.700                    23672856.387 4
  96936387.82448        30.600    23672856.20348


  23298369.734 5 122433739.128 5        37.800                    23298396.730 6
  95403037.46346        22.800    23298396.94946  23298400.555 7  91427818.773 7
        44.700

  20351861.438 8 106949753.617 8        47.700                    20351878.238 9
  83337541.23149        43.300    20351878.14849  20351885.777 9  79865104.881 9
        55.700

  22440151.859 7 117923790.953 7        41.800                    22440176.324 7
  91888766.23448        30.500    22440175.85548  22440181.848 9  88059985.797 9
        48.200

  21353125.508 8 112211433.583 8        46.300                    21353146.363 8
  87437566.09149        50.000    21353145.95749  21353150.734 9  83794352.283 9
        51.700

  22037480.703 5 117844358.080 5        36.500    22037479.418 5  22037502.371 5
  91656773.250 5        37.400    22037502.102 5


  23658022.914 9 124323748.931 9        48.500
                                                  23658041.973 9  92839146.971 9
        51.800    23658037.191 9  95261026.611 9        52.100    23658039.668 9
  94050195.904 9        58.500
  23984047.672 9 126037021.719 9        49.500
                                                  23984067.215 9  94118632.441 9
        50.900    23984062.480 9  96573882.553 9        51.900    23984064.961 9
  95346257.107 9        57.800
  26275460.695 7 138078474.711 7        41.500
                                                  26275487.242 7 103110634.808 7
        43.300    26275481.988 7 105800462.431 7        44.400    26275484.789 9
 104455557.729 9        49.600
  24466529.609 9 128572484.554 9        48.500
                                                  24466552.496 9  96011915.110 9
        49.400    24466547.855 9  98516573.626 9        51.000    24466550.246 9
  97264266.975 9        55.900
  22411650.719 7 119634901.573 7        44.200    22411649.281 7  22411669.938 6
  93049374.029 6        40.500    22411669.586 6


  20889922.797 9 111629424.555 9        51.000    20889922.555 9  20889940.520 8
  86822880.153 8        46.500    20889940.648 8


  20552028.844 9 109978057.529 9        51.600    20552027.637 9  20552045.895 8
  85538488.604 8        47.400    20552046.738 8


  19290241.852 8 102827847.059 8        46.200    19290240.949 8



  21657840.055 8 115651639.998 8        45.800    21657839.375 7  21657855.336 8
  89951286.749 7        43.200    21657854.863 7


  24212081.672 5 129427520.315 5        35.800    24212080.227 4  24212109.824 4
 100665888.295 3        33.900    24212109.270 3


  38724280.859 6 203497474.124 6        40.500



  36742969.375 7 193085560.030 7        42.300



 23  2 14 10 24 36.0000000  0 21G30G17G19G 7G 1G14G 3G 6R20E33E 1E26 0.000000000
                                E31R22R11R21R10R 9R 5S27S37
  21994536.617 7 115582068.861 7        44.900                    21994556.309 8
  90064022.04349        45.500    21994556.21549  21994559.871 9  86311299.597 9
        49.700

  21781480.766 8 114462451.989 8        45.500                    21781499.871 8
  89191602.28849        47.400    21781500.22749


  22406899.680 7 117749058.654 7        43.000
  91752604.33948        33.000    22406920.89148


  23673496.016 5 124405080.636 5        36.900                    23673514.105 4
  96939082.15648        30.900    23673513.99248


  23299036.516 5 122437242.400 5        37.400                    23299063.316 6
  95405767.28146        22.800    23299063.85946  23299067.402 8  91430434.849 8
        45.000

  20351737.578 8 106949103.372 8        47.900                    20351754.398 9
  83337034.55449        43.500    20351754.48049  20351762.168 9  79864619.313 9
        55.800

  22440155.953 7 117923811.365 7        41.800                    22440180.281 7
  91888782.14448        30.900    22440179.97748  22440185.676 9  88060001.042 9
        48.000

  21352764.109 8 112209532.185 8        46.300                    21352785.199 9
  87436084.48649        50.000    21352784.41449  21352789.195 9  83792932.413 9
        51.500

  22038035.555 5 117847321.648 5        36.800    22038033.684 5  22038056.645 5
  91659078.252 6        38.100    22038055.910 6


  23658208.148 9 124324722.476 9        48.500
                                                  23658227.293 9  92839873.970 9
        51.700    23658222.512 9  95261772.578 9        51.900    23658224.965 9
  94050932.384 9        58.500
  23984183.469 9 126037734.047 9        49.500
                                                  23984202.910 9  94119164.375 9
        50.900    23984198.082 9  96574428.363 9        51.500    23984200.563 9
  95346795.976 9        57.700
  26275930.875 7 138080946.220 7        41.600
                                                  26275957.488 7 103112480.406 7
        43.400    26275952.285 7 105802356.176 7        44.200    26275954.957 9
 104457427.400 9        49.600
  24466189.070 9 128570695.374 9        48.900
                                                  24466211.977 9  96010579.040 9
        49.100    24466207.379 9  98515202.700 9        50.800    24466209.715 9
  97262913.476 9        55.900
  22411296.352 7 119633013.471 7        44.100    22411295.973 7  22411315.730 6
  93047905.499 6        40.300    22411315.820 6


  20889337.977 9 111626298.518 9        50.700    20889337.379 9  20889355.273 8
  86820448.798 8        46.500    20889355.289 8


  20552099.063 9 109978432.894 9        51.900    20552097.621 9  20552115.758 8
  85538780.557 8        47.200    20552116.617 8


  19290417.266 8 102828777.010 8        46.900    19290415.074 8



  21658547.617 8 115655414.511 8        45.800    21658546.586 7  21658562.125 7
  89954222.488 7        42.900    21658562.203 7


  24211779.125 5 129425905.793 5        36.300    24211777.680 5  24211807.699 3
 100664632.544 3        33.300    24211806.742 3


  38724284.125 6 203497484.794 6        40.200



  36742958.359 7 193085565.138 7        41.900



 23  2 14 10 24 37.0000000  0 21G30G17G19G 7G 1G14G 3G 6R20E33E 1E26 0.000000000
                                E31R22R11R21R10R 9R 5S27S37
  21995015.164 7 115584581.102 7        44.700                    21995034.434 8
  90065979.63149        45.700    21995034.11349  21995038.008 9  86313175.618 9
        49.700

  21781494.977 8 114462529.131 8        45.300                    21781514.684 8
  89191662.40149        47.500    21781514.68049


  22406691.797 7 117747968.390 7        43.100
  91751754.79048        32.600    22406713.82448


  23674153.656 5 124408538.336 5        36.800                    23674172.406 4
  96941776.47048        30.100    23674172.48448


  23299703.758 5 122440745.776 5        37.800                    23299730.359 6
  95408497.18546        23.200    23299730.75846  23299734.477 7  91433051.004 7
        44.900

  20351613.789 9 106948453.543 9        48.000                    20351630.262 9
  83336528.19549        43.200    20351630.35549  20351637.984 9  79864134.048 9
        55.700

  22440159.680 7 117923832.317 7        41.800                    22440184.305 7
  91888798.46748        31.300    22440183.89148  22440189.766 9  88060016.688 9
        48.300

  21352402.281 8 112207631.282 8        46.400                    21352422.969 9
  87434603.26649        50.100    21352422.11349  21352427.184 9  83791512.911 9
        51.500

  22038589.352 5 117850285.254 5        36.700    22038588.301 5  22038610.965 5
  91661383.276 5        37.400    22038610.383 5


  23658393.492 9 124325696.297 9        48.300
                                                  23658412.547 9  92840601.175 9
        51.700    23658407.719 9  95262518.750 9        51.800    23658410.191 9
  94051669.073 9        58.500
  23984319.008 9 126038446.714 9        49.400
                                                  23984338.391 9  94119696.565 9
        51.500    23984333.652 9  96574974.433 9        51.500    23984336.176 9
  95347335.109 9        57.700
  26276401.352 7 138083417.733 7        41.400
                                                  26276427.816 7 103114326.015 7
        43.800    26276422.285 7 105804249.933 7        44.300    26276425.355 9
 104459297.083 9        49.600
  24465848.602 9 128568906.360 9        49.000
                                                  24465871.441 9  96009243.092 9
        49.200    24465866.750 9  98513831.905 9        50.700    24465869.246 9
  97261560.110 9        55.900
  22410943.750 7 119631125.755 7        44.600    22410942.313 7  22410962.523 6
  93046437.270 6        40.000    22410962.328 6


  20888753.266 9 111623173.006 9        50.700    20888752.434 9  20888770.332 8
  86818017.850 8        46.600    20888770.434 8


  20552169.453 9 109978808.643 9        52.300    20552168.012 9  20552186.453 8
  85539072.803 8        47.400    20552186.957 8


  19290591.219 8 102829707.805 8        46.900    19290589.379 8



  21659254.148 8 115659189.396 8        45.800    21659253.234 7  21659268.578 7
  89957158.502 7        42.800    21659268.617 7


  24211477.313 5 129424291.709 5        36.600    24211476.457 5  24211505.871 3
 100663377.135 4        34.200    24211504.949 4


  38724285.609 6 203497495.442 6        40.100



  36742958.406 7 193085570.244 7        42.000



 23  2 14 10 24 38.0000000  0 21G30G17G19G 7G 1G14G 3G 6R20E33E 1E26 0.000000000
                                E31R22R11R21R10R 9R 5S27S37
  21995492.992 8 115587093.656 8        45.000                    21995512.813 8
  90067937.47049        45.600    21995512.64549  21995516.242 9  86315051.881 9
        49.500

  21781509.594 8 114462606.258 8        45.400                    21781529.313 8
  89191722.49949        47.300    21781529.40249


  22406484.656 7 117746878.204 7        43.000
  91750905.29748        32.800    22406506.33248


  23674811.969 5 124411996.036 5        36.800                    23674830.258 4
  96944470.77947        29.800    23674830.23047


  23300369.594 6 122444249.231 6        38.400                    23300397.008 6
  95411227.16046        23.000    23300397.35946  23300400.844 7  91435667.220 7
        44.500

  20351490.414 9 106947804.240 9        48.200                    20351507.395 9
  83336022.25149        43.500    20351507.43449  20351514.941 9  79863649.182 9
        55.700

  22440163.633 7 117923853.878 7        41.800                    22440188.254 7
  91888815.26748        31.400    22440187.99248  22440193.750 9  88060032.781 9
        48.100

  21352040.555 8 112205730.856 8        46.300                    21352061.605 9
  87433122.41549        50.000    21352061.04749  21352065.945 9  83790093.765 9
        51.400

  22039142.750 5 117853248.794 5        36.600    22039142.754 5  22039164.699 5
  91663688.253 5        37.600    22039164.777 5


  23658578.805 9 124326670.426 9        48.500
                                                  23658597.922 9  92841328.606 9
        51.800    23658593.234 9  95263265.161 9        51.900    23658595.652 9
  94052405.990 9        58.500
  23984454.734 9 126039159.764 9        49.500
                                                  23984473.984 9  94120229.038 9
        51.500    23984469.293 9  96575520.798 9        51.500    23984471.664 9
  95347874.528 9        57.800
  26276871.805 7 138085889.297 7        41.500
                                                  26276898.070 7 103116171.660 7
        43.300    26276892.539 7 105806143.720 7        44.200    26276895.488 9
 104461166.802 9        49.500
  24465508.125 9 128567117.555 9        48.900
                                                  24465531.211 9  96007907.304 9
        49.000    24465526.477 9  98512461.269 9        51.200    24465528.852 9
  97260206.896 9        55.900
  22410590.328 7 119629238.482 7        44.300    22410588.656 7  22410608.418 6
  93044969.388 6        40.500    22410608.395 6


  20888168.320 9 111620048.029 9        50.700    20888167.961 9  20888185.844 8
  86815587.332 8        46.500    20888185.945 8


  20552239.813 9 109979184.808 9        52.400    20552238.488 9  20552256.637 8
  85539365.378 8        47.300    20552257.461 8


  19290766.469 8 102830639.434 8        47.000    19290764.629 8



  21659960.938 8 115662964.708 8        45.800    21659960.492 7  21659976.070 7
  89960094.859 7        43.500    21659976.113 7


  24211176.234 5 129422677.936 5        36.900    24211175.145 5  24211204.129 4
 100662121.959 4        34.600    24211203.305 4


  38724288.047 6 203497506.100 6        39.900



  36742959.234 7 193085575.362 7        41.800



 23  2 14 10 24 39.0000000  0 21G30G17G19G 7G 1G14G 3G 6R20E33E 1E26 0.000000000
                                E31R22R11R21R10R 9R 5S27S37
  21995971.211 8 115589606.522 8        45.200                    21995990.648 8
  90069895.54649        45.700    21995990.54749  21995994.148 9  86316928.370 9
        49.500

  21781524.266 8 114462683.373 8        45.500                    21781544.414 8
  89191782.59449        47.300    21781544.21149


  22406277.055 7 117745788.038 7        43.200
  91750055.81948        32.600    22406298.57848


  23675469.125 5 124415453.697 5        36.800                    23675488.453 4
  96947165.06448        30.100    23675488.39848


  23301036.516 6 122447752.800 6        38.300                    23301063.414 6
  95413957.21946        22.600    23301064.01246  23301067.555 7  91438283.523 7
        44.200

  20351366.781 9 106947155.378 9        48.300                    20351383.680 9
  83335516.64449        43.400    20351383.56649  20351391.250 9  79863164.652 9
        55.700

  22440168.414 7 117923876.080 7        42.300                    22440192.363 7
  91888832.56648        31.400    22440192.03548  22440197.852 9  88060049.362 9
        48.100

  21351678.906 8 112203830.928 8        46.300                    21351699.891 9
  87431641.95949        50.000    21351699.26649  21351704.164 9  83788674.991 9
        51.500

  22039696.164 5 117856212.211 5        36.800    22039696.520 5  22039718.734 5
  91665993.132 5        37.000    22039718.773 5


  23658764.414 9 124327644.829 9        48.600
                                                  23658783.484 9  92842056.245 9
        51.800    23658778.703 9  95264011.779 9        51.900    23658781.145 9
  94053143.123 9        58.500
  23984590.508 9 126039873.150 9        49.800
                                                  23984609.648 9  94120761.765 9
        51.100    23984605.051 9  96576067.423 9        51.300    23984607.465 9
  95348414.204 9        57.800
  26277342.039 7 138088360.850 7        41.500
                                                  26277368.414 7 103118017.299 7
        43.100    26277363.020 7 105808037.507 7        44.000    26277365.914 9
 104463036.514 9        49.400
  24465167.656 9 128565328.948 9        48.800
                                                  24465190.672 9  96006571.664 9
        48.900    24465186.027 9  98511090.784 9        51.000    24465188.445 9
  97258853.835 9        55.900
  22410236.172 7 119627351.661 7        44.500    22410234.973 7  22410255.258 6
  93043501.862 6        40.200    22410255.023 6


  20887583.148 9 111616923.562 9        50.300    20887583.375 9  20887601.109 8
  86813157.199 8        46.300    20887601.379 8


  20552310.445 9 109979561.356 9        52.000    20552308.652 9  20552327.074 8
  85539658.245 8        47.200    20552327.727 8


  19290940.875 8 102831571.924 8        47.200    19290939.152 8



  21660668.383 8 115666740.429 8        46.300    21660667.820 7  21660682.773 7
  89963031.530 7        43.000    21660683.215 7


  24210874.609 5 129421064.516 5        36.500    24210872.930 5  24210902.918 4
 100660867.050 3        33.800    24210901.656 3


  38724290.188 6 203497516.719 6        40.000



  36742961.063 7 193085580.457 7        41.900



 23  2 14 10 24 40.0000000  0 21G30G17G19G 7G 1G14G 3G 6R20E33E 1E26 0.000000000
                                E31R22R11R21R10R 9R 5S27S37
  21996449.406 8 115592119.680 8        45.300                    21996469.219 8
  90071853.85149        45.300    21996468.92249  21996472.523 9  86318805.083 9
        49.900

  21781539.023 8 114462760.464 8        45.200                    21781558.855 8
  89191842.67149        47.300    21781558.89849


  22406069.539 7 117744697.953 7        43.000
  91749206.41348        33.300    22406091.36748


  23676127.891 5 124418911.349 5        36.300                    23676145.977 4
  96949859.34148        30.500    23676145.91048


  23301703.266 6 122451256.427 6        38.300                    23301730.289 6
  95416687.31846        22.800    23301730.94546  23301734.254 7  91440899.869 7
        44.300

  20351243.508 9 106946506.963 9        48.100                    20351260.059 9
  83335011.38849        43.500    20351260.10549  20351267.793 9  79862680.443 9
        55.900

  22440172.031 7 117923898.837 7        41.800                    22440196.230 7
  91888850.29048        31.200    22440195.89148  22440201.648 9  88060066.356 9
        48.200

  21351317.555 8 112201931.464 8        46.400                    21351338.164 9
  87430161.85449        50.000    21351337.67249  21351342.629 9  83787256.561 9
        51.500

  22040250.797 5 117859175.679 5        37.300    22040250.449 5  22040273.223 6
  91668298.044 5        37.000    22040273.059 5


  23658949.742 9 124328619.529 9        48.700
                                                  23658968.746 9  92842784.109 9
        51.800    23658964.012 9  95264758.631 9        52.100    23658966.496 9
  94053880.478 9        58.500
  23984726.383 9 126040586.909 9        49.800
                                                  23984745.660 9  94121294.765 9
        51.300    23984740.969 9  96576614.329 9        51.000    23984743.332 9
  95348954.160 9        57.800
  26277812.297 7 138090832.421 7        41.500
                                                  26277838.785 7 103119862.950 7
        43.300    26277833.348 7 105809931.307 7        44.100    26277836.195 9
 104464906.240 9        49.500
  24464827.289 9 128563540.536 9        48.800
                                                  24464850.285 9  96005236.167 9
        49.200    24464845.832 9  98509720.451 9        50.800    24464848.043 9
  97257500.920 9        55.900
  22409882.953 7 119625465.273 7        44.700    22409881.281 7  22409901.426 6
  93042034.671 6        40.700    22409901.410 6


  20886998.969 9 111613799.623 9        50.500    20886998.727 9  20887016.543 8
  86810727.481 8        46.400    20887016.582 8


  20552380.180 9 109979938.298 9        51.800    20552379.090 9  20552397.969 8
  85539951.425 8        47.000    20552398.301 8


  19291115.438 8 102832505.239 8        46.800    19291114.770 8



  21661375.547 8 115670516.551 8        46.500    21661375.102 7  21661390.535 7
  89965968.512 7        43.500    21661390.445 7


  24210571.859 5 129419451.423 5        36.600    24210571.941 4  24210601.508 4
 100659612.401 4        34.100    24210600.230 4


  38724291.672 6 203497527.351 6        40.300



  36742971.156 7 193085585.580 7        41.800



 23  2 14 10 24 41.0000000  0 21G30G17G19G 7G 1G14G 3G 6R20E33E 1E26 0.000000000
                                E31R22R11R21R10R 9R 5S27S37
  21996927.508 8 115594633.122 8        45.200                    21996947.477 8
  90073812.37849        45.500    21996947.18049  21996950.957 9  86320682.000 9
        49.700

  21781553.438 8 114462837.484 8        45.400                    21781573.453 8
  89191902.68649        47.300    21781573.60249


  22405862.375 7 117743607.908 7        43.000
  91748357.02948        33.400    22405883.79748


  23676785.609 5 124422368.964 5        36.800                    23676804.180 4
  96952553.57947        29.600    23676804.20347


  23302369.813 6 122454760.098 6        38.400                    23302397.191 6
  95419417.45346        23.800    23302397.84446  23302401.152 7  91443516.243 7
        44.100

  20351120.227 9 106945858.988 9        48.000                    20351137.004 9
  83334506.47049        43.400    20351137.02749  20351144.598 9  79862196.573 9
        55.700

  22440176.727 7 117923922.188 7        42.000                    22440200.988 7
  91888868.49048        30.800    22440200.43448  22440206.191 9  88060083.792 9
        48.000

  21350956.531 8 112200032.496 8        46.300                    21350977.027 8
  87428682.14349        50.100    21350976.62549  21350981.227 9  83785838.505 9
        51.600

  22040805.891 5 117862139.003 5        36.900    22040803.902 5  22040827.324 5
  91670602.853 5        37.100    22040826.656 5


  23659135.297 9 124329594.494 9        48.500
                                                  23659154.359 9  92843512.164 9
        51.700    23659149.621 9  95265505.677 9        52.300    23659152.012 9
  94054618.034 9        58.500
  23984862.141 9 126041300.999 9        50.100
                                                  23984881.477 9  94121828.017 9
        51.500    23984876.695 9  96577161.490 9        51.400    23984879.207 9
  95349494.365 9        57.800
  26278282.531 7 138093304.003 7        41.800
                                                  26278309.047 7 103121708.607 7
        42.600    26278303.652 7 105811825.119 7        43.800    26278306.602 9
 104466775.978 9        49.500
  24464487.297 9 128561752.297 9        48.700
                                                  24464510.160 9  96003900.804 9
        49.000    24464505.566 9  98508350.250 9        50.400    24464507.863 9
  97256148.135 9        55.900
  22409529.156 7 119623579.317 7        44.400    22409528.191 7  22409549.008 7
  93040567.814 6        40.800    22409548.512 6


  20886414.539 9 111610676.197 9        50.100    20886413.590 9  20886431.953 8
  86808298.167 8        46.000    20886431.555 8


  20552450.859 9 109980315.619 9        51.900    20552449.184 9  20552467.949 8
  85540244.897 8        47.400    20552468.367 8


  19291290.938 8 102833439.395 8        47.000    19291289.566 8



  21662082.484 8 115674293.050 8        46.300    21662081.688 7  21662097.297 7
  89968905.792 7        43.700    21662097.066 7


  24210270.273 5 129417838.742 5        36.800    24210269.887 4  24210299.434 4
 100658358.077 4        34.200    24210298.313 4


  38724294.484 6 203497537.958 6        40.500



  36742963.719 7 193085590.663 7        41.700



 23  2 14 10 24 42.0000000  0 21G30G17G19G 7G 1G14G 3G 6R20E33E 1E26 0.000000000
                                E31R22R11R21R10R 9R 5S27S37
  21997405.945 8 115597146.864 8        45.200                    21997425.918 8
  90075771.13849        45.500    21997425.73049  21997429.270 9  86322559.152 9
        49.500

  21781568.172 8 114462914.483 8        45.200                    21781588.277 8
  89191962.69249        47.300    21781588.18449


  22405654.969 7 117742517.909 7        43.200
  91747507.69148        32.400    22405676.32448


  23677444.391 5 124425826.534 5        36.900                    23677462.090 4
  96955247.78648        30.000    23677462.19148


  23303037.172 6 122458263.874 6        38.100                    23303063.449 6
  95422147.66546        22.900    23303064.21146  23303067.402 7  91446132.700 7
        44.200

  20350996.961 8 106945211.501 8        47.900                    20351013.645 9
  83334001.93949        43.400    20351013.60549  20351021.293 9  79861713.061 9
        55.700

  22440181.688 7 117923946.112 7        42.200                    22440205.992 7
  91888887.13348        31.200    22440205.52048  22440211.277 9  88060101.659 9
        48.200

  21350595.148 8 112198134.004 8        46.300                    21350615.723 8
  87427202.80249        50.000    21350615.32049  21350620.098 9  83784420.802 9
        51.500

  22041359.953 5 117865102.337 5        37.000    22041358.902 5  22041381.789 5
  91672907.665 5        36.700    22041381.129 5


  23659320.867 9 124330569.761 9        48.300
                                                  23659339.984 9  92844240.448 9
        51.700    23659335.434 9  95266252.964 9        52.700    23659337.785 9
  94055355.811 9        58.500
  23984998.070 9 126042015.439 9        49.900
                                                  23985017.664 9  94122361.527 9
        51.300    23985012.832 9  96577708.918 9        51.700    23985015.344 9
  95350034.832 9        57.800
  26278752.641 7 138095775.575 7        41.600
                                                  26278779.320 7 103123554.264 7
        42.900    26278773.930 7 105813718.918 7        43.700    26278776.785 9
 104468645.704 9        49.500
  24464147.047 9 128559964.246 9        48.800
                                                  24464170.070 9  96002565.579 9
        49.100    24464165.195 9  98506980.190 9        50.200    24464167.609 9
  97254795.493 9        55.900
  22409175.875 7 119621693.788 7        44.200    22409174.793 7  22409195.840 7
  93039101.294 7        41.200    22409195.426 7


  20885829.484 9 111607553.305 9        50.200    20885829.594 9  20885847.527 8
  86805869.259 8        46.300    20885847.684 8


  20552521.773 9 109980693.332 9        52.100    20552520.801 9  20552539.340 8
  85540538.669 8        47.400    20552540.000 8


  19291466.422 8 102834374.390 8        46.900    19291465.051 8



  21662789.609 8 115678070.005 8        46.200    21662789.633 7  21662805.152 8
  89971843.422 7        43.400    21662805.191 7


  24209969.328 5 129416226.376 5        36.700    24209968.590 4  24209997.313 4
 100657104.004 4        34.100    24209997.074 4


  38724296.281 6 203497548.490 6        40.200



  36742963.234 7 193085595.743 7        41.800



 23  2 14 10 24 43.0000000  0 21G30G17G19G 7G 1G14G 3G 6R20E33E 1E26 0.000000000
                                E31R22R11R21R10R 9R 5S27S37
  21997884.133 8 115599660.962 8        45.200                    21997904.242 8
  90077730.17349        45.600    21997903.71949  21997907.555 9  86324436.559 9
        49.600

  21781583.250 8 114462991.502 8        45.100                    21781603.449 8
  89192022.70949        47.200    21781603.14149


  22405447.406 7 117741428.007 7        43.000
  91746658.42748        33.400    22405469.18048


  23678102.438 5 124429284.158 5        37.000                    23678120.121 5
  96957942.04448        30.200    23678119.92248


  23303703.039 6 122461767.791 6        38.400                    23303730.406 6
  95424877.98446        23.500    23303731.06646  23303734.199 7  91448749.258 7
        44.300

  20350873.977 9 106944564.487 9        48.300                    20350891.020 9
  83333497.78149        43.200    20350890.78549  20350898.527 9  79861229.904 9
        55.700

  22440186.172 7 117923970.715 7        42.000                    22440210.516 7
  91888906.30548        31.700    22440210.03948  22440215.797 9  88060120.034 9
        48.200

  21350233.688 8 112196236.045 8        46.300                    21350254.785 8
  87425723.87649        50.000    21350254.20349  21350259.102 9  83783003.499 9
        51.500

  22041914.922 5 117868065.610 5        37.100    22041913.402 5  22041936.027 5
  91675212.430 5        37.500    22041935.383 5


  23659506.516 9 124331545.349 9        48.700
                                                  23659525.645 9  92844968.968 9
        51.400    23659520.863 9  95267000.488 9        52.500    23659523.355 9
  94056093.835 9        58.400
  23985134.258 9 126042730.283 9        49.800
                                                  23985153.516 9  94122895.343 9
        51.200    23985148.781 9  96578256.660 9        51.700    23985151.270 9
  95350575.610 9        57.800
  26279223.367 7 138098247.283 7        41.700
                                                  26279249.527 7 103125400.013 7
        42.800    26279244.320 7 105815612.824 7        43.900    26279247.141 9
 104470515.528 9        49.400
  24463806.750 9 128558176.415 9        49.000
                                                  24463829.727 9  96001230.516 9
        49.100    24463825.039 9  98505610.300 9        50.400    24463827.434 9
  97253443.015 9        56.000
  22408821.727 7 119619808.726 7        44.100    22408821.230 7  22408842.777 7
  93037635.134 7        41.200    22408842.574 7


  20885245.648 9 111604431.006 9        50.200    20885245.641 9  20885263.469 8
  86803440.803 8        46.200    20885263.215 8


  20552592.984 9 109981071.468 9        52.300    20552591.426 9  20552610.180 8
  85540832.777 8        47.500    20552610.605 8


  19291642.891 8 102835310.246 8        47.200    19291640.348 8



  21663497.523 8 115681847.398 8        46.300    21663496.375 7  21663511.957 7
  89974781.396 7        43.500    21663511.820 7


  24209667.609 5 129414614.400 5        36.900    24209666.164 5  24209695.438 4
 100655850.230 4        34.100    24209695.199 4


  38724297.359 6 203497559.153 6        39.900



  36742969.922 7 193085600.863 7        41.900



 23  2 14 10 24 44.0000000  0 21G30G17G19G 7G 1G14G 3G 6R20E33E 1E26 0.000000000
                                E31R22R11R21R10R 9R 5S27S37
  21998363.086 8 115602175.349 8        45.300                    21998382.922 8
  90079689.44049        45.500    21998382.55149  21998386.148 9  86326314.184 9
        49.800

  21781597.563 8 114463068.449 8        45.100                    21781617.785 8
  89192082.67449        47.300    21781617.76249


  22405239.828 7 117740338.147 7        43.000
  91745809.19148        33.400    22405261.69148


  23678759.781 5 124432741.692 5        37.100                    23678778.246 4
  96960636.22147        29.800    23678778.33247


  23304369.836 5 122465271.765 5        37.900                    23304397.422 6
  95427608.34246        23.000    23304398.06646  23304401.379 7  91451365.857 7
        44.100

  20350750.680 9 106943917.939 9        48.100                    20350767.898 9
  83332993.97949        43.500    20350767.77749  20350775.348 9  79860747.099 9
        55.700

  22440190.813 7 117923995.896 7        42.100                    22440214.938 7
  91888925.92848        31.100    22440214.55948  22440220.434 9  88060138.839 9
        48.100

  21349872.852 8 112194338.574 8        46.200                    21349893.277 8
  87424245.32949        50.000    21349892.85949  21349897.816 9  83781586.561 9
        51.600

  22042468.508 5 117871028.874 5        37.000    22042466.754 4  22042490.484 5
  91677517.188 5        36.800    22042489.195 5


  23659692.383 9 124332521.217 9        48.900
                                                  23659711.320 9  92845697.705 9
        51.700    23659706.539 9  95267748.232 9        53.000    23659709.066 9
  94056832.077 9        58.500
  23985270.227 9 126043445.470 9        50.300
                                                  23985289.734 9  94123429.412 9
        51.100    23985285.090 9  96578804.659 9        51.700    23985287.492 9
  95351116.645 9        57.800
  26279693.750 7 138100718.922 7        41.400
                                                  26279720.180 7 103127245.715 7
        42.500    26279714.695 7 105817506.667 7        44.300    26279717.637 9
 104472385.303 9        49.500
  24463466.656 9 128556388.792 9        49.000
                                                  24463489.469 9  95999895.607 9
        49.300    24463484.875 9  98504240.568 9        50.200    24463487.203 9
  97252090.698 9        55.900
  22408468.531 7 119617924.085 7        44.100    22408468.738 7  22408489.406 7
  93036169.302 6        40.900    22408489.730 6


  20884661.836 9 111601309.172 9        50.200    20884660.535 9  20884678.379 8
  86801012.710 8        46.400    20884678.480 8


  20552663.094 9 109981450.000 9        52.200    20552661.770 9  20552680.473 8
  85541127.194 8        47.100    20552680.840 8


  19291817.742 8 102836246.949 8        46.800    19291816.840 8



  21664204.766 8 115685625.172 8        46.300    21664203.617 7  21664219.426 8
  89977719.661 7        43.700    21664219.227 7


  24209365.352 5 129413002.735 5        37.000    24209364.379 5  24209394.094 4
 100654596.698 4        34.000    24209393.445 4


  38724299.563 6 203497569.892 6        40.200



  36742971.906 7 193085605.974 7        42.000



 23  2 14 10 24 45.0000000  0 21G30G17G19G 7G 1G14G 3G 6R20E33E 1E26 0.000000000
                                E31R22R11R21R10R 9R 5S27S37
  21998841.578 8 115604690.004 8        45.300                    21998861.137 8
  90081648.90849        45.800    21998860.93849  21998864.535 9  86328192.007 9
        49.800

  21781612.211 8 114463145.357 8        45.200                    21781631.699 8
  89192142.60349        47.400    21781631.89149


  22405032.594 7 117739248.302 7        43.100
  91744959.97048        33.300    22405054.34048


  23679418.195 5 124436199.163 5        37.100                    23679436.172 4
  96963330.35948        30.300    23679436.27048


  23305037.336 5 122468775.776 5        37.600                    23305063.918 6
  95430338.73746        22.500    23305064.41446  23305067.840 7  91453982.489 7
        44.200

  20350627.797 9 106943271.809 9        48.100                    20350644.492 9
  83332490.50449        43.400    20350644.44949  20350652.020 9  79860264.603 9
        55.800

  22440195.906 7 117924021.614 7        42.200                    22440220.734 7
  91888945.96648        31.200    22440220.12148  22440225.996 9  88060158.040 9
        48.200

  21349511.617 8 112192441.521 8        46.300                    21349532.699 8
  87422767.11049        50.000    21349532.23049  21349537.246 9  83780169.934 9
        51.600

  22043023.367 5 117873992.018 5        37.100    22043021.262 5  22043044.703 5
  91679821.857 5        37.700    22043043.461 5


  23659877.961 9 124333497.326 9        48.600
                                                  23659897.172 9  92846426.613 9
        51.700    23659892.434 9  95268496.161 9        53.000    23659894.895 9
  94057570.496 9        58.500
  23985406.406 9 126044160.988 9        50.300
                                                  23985425.809 9  94123963.730 9
        51.200    23985421.074 9  96579352.917 9        51.900    23985423.457 9
  95351657.930 9        57.900
  26280163.820 7 138103190.574 7        41.200
                                                  26280190.563 7 103129091.427 7
        42.800    26280185.172 7 105819400.530 7        44.200    26280187.988 9
 104474255.088 9        49.600
  24463126.367 9 128554601.292 9        48.800
                                                  24463149.227 9  95998560.794 9
        49.200    24463144.633 9  98502870.935 9        49.900    24463147.016 9
  97250738.474 9        55.900
  22408116.156 7 119616039.831 7        44.500    22408115.543 7  22408136.148 7
  93034703.774 7        41.200    22408136.301 7


  20884077.672 9 111598187.820 9        50.400    20884077.547 9  20884095.535 8
  86798585.004 8        46.600    20884095.316 8


  20552733.594 9 109981828.910 9        52.000    20552732.621 9  20552750.934 8
  85541421.907 8        47.400    20552751.379 8


  19291993.781 8 102837184.454 8        47.200    19291993.234 8



  21664912.961 8 115689403.310 8        46.400    21664911.578 7  21664927.207 7
  89980658.213 7        43.900    21664926.988 7


  24209064.547 5 129411391.357 5        36.600    24209063.336 5  24209091.875 5
 100653343.389 3        33.800    24209091.898 3


  38724302.031 6 203497580.515 6        39.900



  36742964.422 7 193085611.064 7        42.000



 23  2 14 10 24 46.0000000  0 21G30G17G19G 7G 1G14G 3G 6R20E33E 1E26 0.000000000
                                E31R22R11R21R10R 9R 5S27S37
  21999320.141 8 115607204.958 8        45.500                    21999339.715 8
  90083608.61249        45.600    21999339.64149  21999343.301 9  86330070.057 9
        49.600

  21781626.391 8 114463222.241 8        45.300                    21781646.484 7
  89192202.51649        47.500    21781646.67249


  22404825.547 7 117738158.535 7        43.200
  91744110.80548        33.300    22404847.17648


  23680076.141 5 124439656.643 5        37.100                    23680093.922 4
  96966024.49247        29.100    23680094.03947


  23305703.344 5 122472279.913 5        37.700                    23305731.145 6
  95433069.23546        22.900    23305731.51646  23305734.883 7  91456599.213 7
        44.300

  20350505.117 9 106942626.143 9        48.200                    20350522.055 9
  83331987.39249        43.300    20350522.02349  20350529.477 9  79859782.454 9
        55.900

  22440200.531 7 117924047.984 7        41.900                    22440225.117 7
  91888966.51248        30.900    22440224.54348  22440230.301 9  88060177.732 9
        48.100

  21349150.883 8 112190544.998 8        46.300                    21349171.344 8
  87421289.30449        50.200    21349170.87949  21349175.777 9  83778753.698 9
        51.600

  22043576.836 5 117876955.076 5        37.100    22043575.082 5  22043598.395 5
  91682126.457 5        37.600    22043597.484 5


  23660063.727 9 124334473.752 9        48.700
                                                  23660082.883 9  92847155.760 9
        51.100    23660078.008 9  95269244.329 9        53.000    23660080.543 9
  94058309.154 9        58.500
  23985542.531 9 126044876.847 9        49.900
                                                  23985562.113 9  94124498.301 9
        51.200    23985557.379 9  96579901.431 9        51.700    23985559.793 9
  95352199.474 9        57.800
  26280634.328 7 138105662.221 7        41.400
                                                  26280660.820 7 103130937.129 7
        43.000    26280655.477 7 105821294.385 7        43.900    26280658.383 9
 104476124.868 9        49.500
  24462786.328 9 128552814.030 9        48.800
                                                  24462809.309 9  95997226.157 9
        49.500    24462804.668 9  98501501.479 9        49.900    24462806.941 9
  97249386.429 9        55.900
  22407762.930 7 119614156.046 7        44.500    22407763.254 7  22407783.777 7
  93033238.607 6        40.900    22407784.031 6


  20883493.438 9 111595067.036 9        50.900    20883493.195 9  20883510.977 8
  86796157.741 8        46.700    20883510.891 8


  20552805.023 9 109982208.247 9        52.300    20552804.051 9  20552822.605 8
  85541716.946 8        47.300    20552822.848 8


  19292170.281 8 102838122.793 8        47.000    19292168.441 8



  21665620.648 8 115693181.888 8        46.500    21665619.031 7  21665634.535 7
  89983597.106 7        43.400    21665634.598 7


  24208762.781 5 129409780.409 5        37.000    24208762.043 5  24208790.379 4
 100652090.415 3        33.600    24208790.887 3


  38724303.703 6 203497591.089 6        39.800



  36742966.938 7 193085616.135 7        41.800



 23  2 14 10 24 47.0000000  0 21G30G17G19G 7G 1G14G 3G 6R20E33E 1E26 0.000000000
                                E31R22R11R21R10R 9R 5S27S37
  21999798.555 8 115609720.210 8        45.500                    21999818.090 8
  90085568.54949        45.400    21999817.82849  21999821.605 9  86331948.331 9
        49.500

  21781641.117 8 114463299.088 8        45.200                    21781661.102 7
  89192262.39849        47.300    21781661.03549


  22404618.000 7 117737068.805 7        43.000
  91743261.66948        33.200    22404639.70748


  23680733.742 5 124443114.073 5        37.500                    23680751.523 4
  96968718.58948        30.000    23680751.77048


  23306371.016 5 122475784.072 5        37.700                    23306397.512 6
  95435799.74346        23.000    23306398.02046  23306401.328 7  91459215.949 7
        44.300

  20350382.203 9 106941980.940 9        48.300                    20350399.059 9
  83331484.63749        43.400    20350398.97749  20350406.605 9  79859300.647 9
        55.700

  22440205.547 7 117924074.908 7        42.000                    22440230.105 7
  91888987.49848        31.400    22440229.41848  22440235.410 9  88060197.833 9
        48.700

  21348790.250 8 112188648.925 8        46.200                    21348810.477 8
  87419811.84249        50.000    21348810.10549  21348815.063 9  83777337.804 9
        51.500

  22044131.055 5 117879918.086 5        37.000    22044129.418 5  22044152.559 5
  91684431.015 6        38.100    22044151.637 6


  23660249.813 9 124335450.438 9        49.000
                                                  23660268.754 9  92847885.108 9
        51.200    23660263.973 9  95269992.701 9        52.500    23660266.422 9
  94059048.016 9        58.400
  23985678.844 9 126045593.058 9        49.700
                                                  23985698.422 9  94125033.136 9
        51.000    23985693.734 9  96580450.218 9        51.900    23985696.078 9
  95352741.288 9        57.800
  26281104.977 7 138108133.919 7        41.200
                                                  26281131.043 7 103132782.878 7
        43.000    26281125.793 7 105823188.281 7        44.200    26281128.566 9
 104477994.686 9        49.600
  24462446.398 9 128551026.926 9        48.800
                                                  24462469.098 9  95995891.639 9
        49.100    24462464.410 9  98500132.148 9        50.000    24462466.781 9
  97248034.503 9        56.000
  22407410.313 7 119612272.685 7        44.100    22407410.285 7  22407430.531 7
  93031773.772 7        41.500    22407430.719 7


  20882909.258 9 111591946.746 9        50.600    20882908.781 9  20882926.605 8
  86793730.858 8        46.700    20882926.602 8


  20552875.438 9 109982587.937 9        52.100    20552874.816 9  20552893.426 9
  85542012.260 8        47.300    20552893.441 8


  19292346.211 8 102839061.971 8        47.000    19292344.605 8



  21666327.297 8 115696960.841 8        46.400    21666326.266 7  21666342.004 7
  89986536.291 7        43.300    21666341.875 7


  24208460.539 5 129408169.783 5        36.900    24208460.504 5  24208488.914 5
 100650837.687 4        34.300    24208489.180 4


  38724306.313 6 203497601.616 6        40.300



  36742979.031 7 193085621.193 7        41.900



 23  2 14 10 24 48.0000000  0 21G30G17G19G 7G 1G14G 3G 6R20E33E 1E26 0.000000000
                                E31R22R11R21R10R 9R 5S27S37
  22000277.375 8 115612235.788 8        45.100                    22000296.977 8
  90087528.74249        45.600    22000296.90649  22000300.508 9  86333826.849 9
        49.500

  21781656.195 8 114463375.918 8        45.200                    21781676.238 7
  89192322.26749        47.500    21781676.35549


  22404410.789 7 117735979.138 7        43.400
  91742412.58648        33.000    22404432.01248


  23681392.289 6 124446571.472 6        38.000                    23681409.852 4
  96971412.66448        30.900    23681409.95348


  23307037.047 5 122479288.368 5        37.900                    23307064.516 6
  95438530.36546        22.800    23307064.93446  23307068.184 7  91461832.796 7
        44.100

  20350259.563 9 106941336.197 9        48.200                    20350276.219 9
  83330982.24049        43.300    20350276.18449  20350283.695 9  79858819.190 9
        55.700

  22440210.953 7 117924102.446 7        41.800                    22440235.797 7
  91889008.95448        31.500    22440235.41048  22440241.168 9  88060218.396 9
        48.800

  21348429.102 8 112186753.364 8        46.300                    21348449.883 8
  87418334.78949        50.100    21348449.59849  21348454.555 9  83775922.289 9
        51.500

  22044685.367 5 117882881.101 5        36.700    22044683.730 5  22044706.895 5
  91686735.580 5        37.300    22044706.254 5


  23660435.594 9 124336427.430 9        48.700
                                                  23660454.617 9  92848614.679 9
        51.400    23660449.789 9  95270741.302 9        52.100    23660452.316 9
  94059787.102 9        58.400
  23985815.352 9 126046309.629 9        49.900
                                                  23985834.629 9  94125568.243 9
        50.700    23985829.844 9  96580999.282 9        51.800    23985832.277 9
  95353283.369 9        57.700
  26281575.133 7 138110605.641 7        41.200
                                                  26281601.621 7 103134628.639 7
        43.200    26281596.180 7 105825082.196 7        44.200    26281599.039 9
 104479864.527 9        49.500
  24462106.320 9 128549240.019 9        49.000
                                                  24462129.125 9  95994557.270 9
        49.000    24462124.391 9  98498762.966 9        50.100    24462126.758 9
  97246682.725 9        55.900
  22407057.781 7 119610389.776 7        44.100    22407057.520 7  22407077.695 7
  93030309.286 6        40.900    22407077.926 6


  20882325.797 9 111588826.998 9        50.200    20882326.023 9  20882343.813 8
  86791304.394 8        46.700    20882343.930 8


  20552946.594 9 109982968.034 9        52.300    20552945.387 9  20552963.609 9
  85542307.889 8        47.300    20552964.141 8


  19292522.680 8 102840001.968 8        47.100    19292520.840 8



  21667035.789 8 115700740.213 8        46.300    21667034.055 7  21667049.863 7
  89989475.802 7        43.800    21667049.754 7


  24208159.938 5 129406559.511 5        37.300    24208159.551 5  24208187.723 5
 100649585.234 4        34.100    24208188.340 4


  38724308.594 6 203497612.239 6        40.300



  36742970.953 7 193085626.267 7        41.800



 23  2 14 10 24 49.0000000  0 21G30G17G19G 7G 1G14G 3G 6R20E33E 1E26 0.000000000
                                E31R22R11R21R10R 9R 5S27S37
  22000755.563 7 115614751.659 7        44.600                    22000775.918 8
  90089489.15949        45.500    22000775.59049  22000779.367 9  86335705.588 9
        49.500

  21781671.188 8 114463452.726 8        45.600                    21781690.484 8
  89192382.11949        47.500    21781690.59449


  22404203.133 7 117734889.547 7        43.200
  91741563.55848        33.300    22404224.67648


  23682049.242 5 124450028.874 5        37.000                    23682068.156 4
  96974106.75648        30.600    23682068.28548


  23307703.602 6 122482792.740 6        38.000                    23307731.473 6
  95441261.04646        22.200    23307731.84046  23307735.094 7  91464449.694 7
        44.300

  20350136.719 9 106940691.917 9        48.500                    20350153.422 9
  83330480.20849        43.700    20350153.54749  20350160.996 9  79858338.073 9
        55.800

  22440215.891 7 117924130.565 7        42.000                    22440240.773 7
  91889030.86748        31.300    22440240.37548  22440245.957 9  88060239.395 9
        48.700

  21348068.672 8 112184858.293 8        46.400                    21348089.105 8
  87416858.10749        50.200    21348088.62149  21348093.637 9  83774507.144 9
        51.600

  22045237.672 5 117885844.002 5        36.700    22045238.027 5  22045261.035 5
  91689040.067 5        37.500    22045260.621 5


  23660621.617 9 124337404.699 9        48.600
                                                  23660640.617 9  92849344.459 9
        51.200    23660635.883 9  95271490.119 9        52.400    23660638.301 9
  94060526.399 9        58.400
  23985951.727 9 126047026.564 9        49.800
                                                  23985971.148 9  94126103.619 9
        50.600    23985966.273 9  96581548.625 9        51.800    23985968.789 9
  95353825.730 9        57.700
  26282045.258 7 138113077.334 7        41.200
                                                  26282071.750 7 103136474.382 7
        43.000    26282066.594 7 105826976.086 7        44.400    26282069.371 9
 104481734.349 9        49.400
  24461766.188 9 128547453.312 9        49.400
                                                  24461789.219 9  95993223.045 9
        48.600    24461784.297 9  98497393.934 9        50.200    24461786.824 9
  97245331.101 9        55.800
  22406705.492 7 119608507.278 7        44.500    22406704.762 7  22406725.695 7
  93028845.122 7        41.200    22406725.711 7


  20881741.555 9 111585707.766 9        50.100    20881741.547 9  20881759.555 8
  86788878.330 8        46.600    20881759.406 8


  20553017.422 9 109983348.513 9        52.300    20553016.918 9  20553035.078 9
  85542603.821 8        46.900    20553035.547 8


  19292698.594 8 102840942.807 8        47.500    19292697.340 8



  21667743.273 8 115704519.969 8        46.100    21667742.008 7  21667758.188 7
  89992415.618 7        43.800    21667757.707 7


  24207859.570 6 129404949.509 6        38.100    24207858.715 5  24207887.246 5
 100648332.993 4        34.900    24207887.281 4


  38724310.313 6 203497622.906 6        40.500



  36742976.563 7 193085631.345 7        41.900



 23  2 14 10 24 50.0000000  0 21G30G17G19G 7G 1G14G 3G 6R20E33E 1E26 0.000000000
                                E31R22R11R21R10R 9R 5S27S37
  22001234.656 8 115617267.804 8        45.000                    22001254.480 8
  90091449.78849        45.300    22001254.23849  22001257.957 9  86337584.523 9
        49.500

  21781685.531 8 114463529.447 8        45.600                    21781705.355 8
  89192441.90949        47.300    21781705.24649


  22403996.445 7 117733799.941 7        43.200
  91740714.52248        33.000    22404017.25848


  23682707.430 5 124453486.178 5        36.400                    23682725.852 4
  96976800.76248        30.900    23682725.67648


  23308370.891 5 122486297.191 5        37.500                    23308398.277 6
  95443991.79246        23.000    23308398.94946  23308402.316 7  91467066.651 7
        44.500

  20350014.375 9 106940048.087 9        48.500                    20350031.719 9
  83329978.52549        43.400    20350031.52749  20350039.156 9  79857857.293 9
        55.700

  22440221.773 7 117924159.285 7        41.600                    22440246.559 7
  91889053.23848        30.900    22440246.07848  22440251.836 9  88060260.837 9
        48.400

  21347708.633 8 112182963.659 8        46.400                    21347729.023 9
  87415381.77849        50.100    21347728.55149  21347733.391 9  83773092.322 9
        51.500

  22045792.258 5 117888806.839 5        36.200    22045791.090 5  22045814.199 5
  91691344.487 5        37.700    22045814.059 5


  23660807.680 9 124338382.233 9        49.100
                                                  23660826.727 9  92850074.434 9
        51.600    23660821.992 9  95272239.139 9        52.300    23660824.445 9
  94061265.898 9        58.400
  23986088.164 9 126047743.816 9        49.800
                                                  23986107.496 9  94126639.228 9
        50.600    23986102.805 9  96582098.208 9        51.900    23986105.148 9
  95354368.328 9        57.700
  26282515.758 7 138115549.013 7        41.200
                                                  26282542.246 7 103138320.118 7
        42.600    26282536.996 7 105828869.968 7        44.400    26282539.688 9
 104483604.152 9        49.400
  24461426.234 9 128545666.776 9        49.400
                                                  24461449.031 9  95991888.947 9
        48.600    24461444.434 9  98496025.035 9        50.300    24461446.770 9
  97243979.602 9        55.900
  22406353.242 7 119606625.208 7        44.700    22406351.922 7  22406372.609 7
  93027381.293 6        40.900    22406372.648 6


  20881157.688 9 111582589.050 9        50.100    20881157.211 9  20881175.621 8
  86786452.678 8        46.400    20881175.281 8


  20553089.219 9 109983729.352 9        52.600    20553087.777 9  20553105.793 8
  85542900.030 8        47.100    20553106.531 8


  19292875.523 8 102841884.489 8        47.000    19292874.621 8



  21668450.609 8 115708300.143 8        46.100    21668449.813 7  21668465.770 7
  89995355.748 7        44.100    21668465.637 7


  24207557.633 6 129403339.892 6        38.100    24207557.715 5  24207586.043 4
 100647081.057 4        34.300    24207586.227 4


  38724311.672 6 203497633.561 6        38.800



  36742971.625 7 193085636.380 7        42.000



 23  2 14 10 24 51.0000000  0 21G30G17G19G 7G 1G14G 3G 6R20E33E 1E26 0.000000000
                                E31R22R11R21R10R 9R 5S27S37
  22001713.563 8 115619784.293 8        45.500                    22001733.395 8
  90093410.68949        45.600    22001733.02749  22001736.805 9  86339463.717 9
        49.500

  21781699.695 8 114463606.212 8        45.500                    21781719.809 8
  89192501.72649        47.500    21781719.99249


  22403788.438 7 117732710.467 7        43.000
  91739865.58948        32.700    22403809.94148


  23683365.367 5 124456943.578 5        37.100                    23683383.738 4
  96979494.82848        30.700    23683383.84448


  23309037.984 6 122489801.697 6        38.000                    23309064.965 6
  95446722.55646        22.600    23309065.59446  23309068.961 7  91469683.648 7
        44.300

  20349892.133 9 106939404.739 9        48.500                    20349909.145 9
  83329477.22149        43.400    20349909.01649  20349916.527 9  79857376.876 9
        55.700

  22440227.695 7 117924188.670 7        41.700                    22440251.785 7
  91889076.13548        30.900    22440251.69148  22440257.273 9  88060282.782 9
        48.200

  21347347.813 8 112181069.587 8        46.400                    21347368.832 9
  87413905.87749        50.100    21347368.15649  21347372.816 9  83771677.922 9
        51.600

  22046347.781 5 117891769.656 5        36.800    22046346.145 5  22046369.508 5
  91693648.901 5        37.200    22046368.684 5


  23660993.773 9 124339360.096 9        49.100
                                                  23661012.621 9  92850804.658 9
        51.800    23661007.887 9  95272988.409 9        52.300    23661010.441 9
  94062005.644 9        58.500
  23986224.828 9 126048461.464 9        50.000
                                                  23986244.191 9  94127175.137 9
        50.900    23986239.457 9  96582648.095 9        51.800    23986241.809 9
  95354911.225 9        57.700
  26282985.977 7 138118020.802 7        41.800
                                                  26283012.465 7 103140165.927 7
        42.900    26283007.445 7 105830763.933 7        44.300    26283010.105 9
 104485474.043 9        49.500
  24461086.297 9 128543880.486 9        48.900
                                                  24461109.250 9  95990555.037 9
        49.200    24461104.563 9  98494656.325 9        50.100    24461106.934 9
  97242628.292 9        55.900
  22405999.242 7 119604743.604 7        44.700    22405999.684 7  22406020.504 7
  93025917.817 6        40.900    22406020.426 6


  20880574.609 9 111579470.899 9        50.400    20880574.133 9  20880591.914 8
  86784027.455 8        46.300    20880592.309 8


  20553160.609 9 109984110.658 9        52.700    20553159.285 9  20553177.543 8
  85543196.602 8        47.300    20553178.160 8


  19293052.188 8 102842827.049 8        47.200    19293051.285 8



  21669159.273 8 115712080.740 8        46.100    21669157.773 7  21669173.938 7
  89998296.212 7        43.400    21669173.863 7


  24207258.523 6 129401730.734 6        38.700    24207256.844 5  24207285.461 4
 100645829.476 4        34.800    24207285.227 4


  38724315.688 6 203497644.192 6        38.300



  36742980.672 7 193085641.479 7        42.000



