     2.11           OBSERVATION DATA    M (MIXED)           RINEX VERSION / TYPE
NetR9 5.54          Receiver Operator   20230214 102358 UTC PGM / RUN BY / DATE
JNAV                                                        MARKER NAME
JNAV                                                        MARKER NUMBER
NAVIS               HUST                                    OBSERVER / AGENCY   
5426R48968          TRIMBLE NETR9       5.54                REC # / TYPE / VERS
                    TRM57971.00     NONE                    ANT # / TYPE
 -1626347.1400  5730607.7483  2271882.3974                  APPROX POSITION XYZ
        0.0000        0.0000        0.0000                  ANTENNA: DELTA H/E/N
     1     1                                                WAVELENGTH FACT L1/2
    17    C1    L1    S1    P1    C2    L2    S2    P2    C5# / TYPES OF OBSERV
          L5    S5    C7    L7    S7    C8    L8    S8      # / TYPES OF OBSERV
     1.000                                                  INTERVAL
  2023     2    14    10    23   58.0000000     GPS         TIME OF FIRST OBS
L2C CARRIER PHASE MEASUREMENTS: PHASE SHIFTS REMOVED        COMMENT             
L2C PHASE MATCHES L2 P PHASE                                COMMENT             
GLONASS C/A & P PHASE MATCH: PHASE SHIFTS REMOVED           COMMENT             
                                                            END OF HEADER       
 23  2 14 10 23 58.0000000  0 25G30R 9R 5G19G11G14G 3R21R22G17G 7R11 0.000000000
                                R10G 6R20G 1E12E24E26E 1E31E21E33E10
                                S26
  21976445.367 7 115487017.84217        44.400                    21976464.352 7
  89989939.29559        43.400    21976463.71549  21976467.387 9  86240326.06919
        49.400

  21631774.250 7 115512491.56717        44.100    21631773.586 7  21631788.168 7
  89843037.60717        44.100


  24223335.352 4 129487717.63014        34.600    24223334.395 3  24223360.453 3
 100712568.36013        32.500


  22414823.461 7 117790699.71117        41.500
  91785031.63958        30.900    22414844.38748


  24880686.195 4 130748891.61014        34.400                    24880707.480 5
 101882337.82155        15.600    24880706.80945  24880716.289 6  97637160.63416
        39.700

  20356533.336 8 106974310.15118        47.000                    20356549.637 9
  83356661.97159        40.900    20356549.32849  20356556.543 9  79883429.98219
        54.500

  22440120.031 6 117923616.97216        40.500                    22440144.535 7
  91888624.48259        39.400    22440143.41449  22440148.746 8  88059863.91418
        46.700

  20549519.008 9 109964623.41519        50.000    20549518.332 9  20549535.352 8
  85528050.42218        46.200


  22424828.531 7 119705268.26117        43.000    22424827.543 7  22424846.246 6
  93104093.09716        40.200


  21780950.891 7 114459686.22417        43.900                    21780969.746 7
  89189419.35659        45.000    21780969.79749


  23648521.172 4 124273831.43814        34.600                    23648539.402 4
  96836805.34757        28.100    23648538.88347


  20911669.125 9 111745630.73019        48.800    20911669.305 8  20911685.867 8
  86913274.68018        45.600


  19283930.922 7 102794189.94317        44.900    19283929.199 7



  21366610.453 7 112282287.47917        44.700                    21366630.652 8
  87492770.62059        47.200    21366630.09849  21366634.387 9  83847189.56519
        50.300

  22017000.281 4 117734790.30214        34.700    22017000.492 4  22017020.738 5
  91571511.75615        35.900


  23273747.406 5 122304374.21215        37.300                    23273773.164 6
  95302205.45856        20.900    23273773.84846  23273776.871 7  91331204.31617
        43.400

  25031106.766 7 131539353.40117        43.200
                                                  25031124.590 7  98227475.08817
        44.300    25031121.672 7 100789917.25017        44.000    25031123.559 8
  99508642.28618        47.800
  28610830.398 5 150350913.61815        35.000
                                                  28610855.770 5 112275036.06315
        36.100    28610852.930 5 115203889.21515        35.400

  26258093.039 7 137987213.40017        41.200
                                                  26258118.691 7 103042327.98217
        42.600    26258114.781 7 105730457.49317        43.000    26258117.273 8
 104386407.35218        46.400
  23979112.070 9 126011082.01319        50.200
                                                  23979130.191 9  94099233.29319
        49.800    23979126.926 9  96553986.91019        51.200    23979128.977 9
  95326542.71119        53.800
  24479185.031 9 128638989.09119        49.000
                                                  24479206.598 9  96061536.54819
        48.500    24479203.457 9  98567493.40119        49.100    24479205.375 9
  97314534.58319        52.200
  27256149.648 6 143232035.11116        38.200
                                                  27256171.727 6 106958923.79116
        39.900    27256168.234 6 109749219.79716        39.700    27256170.395 7
 108354072.91617        43.500
  23651239.266 9 124288100.01619        48.500
                                                  23651256.949 9  92812600.02119
        51.300    23651253.598 9  95233788.98719        51.300    23651255.703 9
  94023113.11519        54.000
  27097553.539 6 142398620.57016        38.600
                                                  27097578.313 7 106336558.41117
        41.400    27097573.730 7 109110608.06317        41.200    27097576.398 7
 107723577.84417        44.600
  38095844.969 5 200195022.44915        36.200



 23  2 14 10 23 59.0000000  0 25G30R 9R 5G19G11G14G 3R21R22G17G 7R11 0.000000000
                                R10G 6R20G 1E12E24E26E 1E31E21E33E10
                                S26
  21976920.969 7 115489517.684 7        44.500                    21976940.246 7
  89991887.22349        43.200    21976939.57849  21976943.141 9  86242192.827 9
        49.200

  21632477.719 7 115516249.953 7        44.000    21632477.469 7  21632492.035 7
  89845960.771 7        43.900


  24223030.055 4 129486089.523 4        34.000    24223029.559 3  24223056.820 3
 100711301.993 3        33.200


  22414615.656 7 117789606.543 7        41.600
  91784179.83348        30.400    22414636.47748


  24880075.859 3 130745684.863 3        33.600                    24880097.543 5
 101879839.03945        16.300    24880096.62945  24880105.871 6  97634765.990 6
        39.400

  20356406.227 8 106973642.141 8        47.000                    20356422.559 9
  83356141.44849        41.100    20356422.20749  20356429.480 9  79882931.152 9
        54.500

  22440119.789 6 117923614.503 6        40.400                    22440143.527 7
  91888622.55249        39.500    22440142.94949  22440148.367 8  88059862.066 8
        47.200

  20549586.047 9 109964983.187 9        49.600    20549585.730 9  20549602.250 8
  85528330.240 8        46.600


  22424470.461 7 119703363.198 7        42.500    22424470.543 7  22424489.418 6
  93102611.341 6        40.200


  21780965.844 7 114459763.577 7        43.800                    21780984.844 7
  89189479.62949        45.700    21780984.68849


  23649179.250 4 124277289.287 4        34.600                    23649197.035 5
  96839499.77747        28.500    23649196.85547


  20911080.430 9 111742484.612 9        48.300    20911080.566 8  20911097.109 8
  86910827.712 8        45.900


  19284099.422 8 102795087.825 8        45.000    19284097.746 7



  21366245.547 7 112280367.309 7        44.700                    21366265.551 8
  87491274.39049        47.500    21366264.68849  21366268.996 9  83845755.680 9
        50.300

  22017554.578 4 117737754.900 4        34.600    22017554.840 4  22017576.086 5
  91573817.550 5        36.000


  23274412.703 5 122307873.488 5        37.100                    23274439.004 6
  95304932.15346        21.100    23274439.76646  23274442.879 7  91333817.441 7
        43.300

  25030832.906 7 131537912.593 7        43.700
                                                  25030850.309 7  98226399.157 7
        44.200    25030847.305 7 100788813.250 7        44.400    25030849.371 9
  99507552.308 9        48.000
  28610334.570 4 150348308.403 4        34.900
                                                  28610360.559 5 112273090.575 5
        36.500    28610356.789 5 115201893.020 5        36.100

  26258563.477 7 137989683.453 7        41.300
                                                  26258588.848 7 103044172.501 7
        42.600    26258585.027 7 105732350.148 7        43.400    26258587.324 8
 104388275.934 8        46.300
  23979244.938 9 126011780.431 9        50.100
                                                  23979263.031 9  94099754.843 9
        49.800    23979259.820 9  96554522.073 9        51.200    23979261.895 9
  95327071.065 9        54.000
  24478842.938 9 128637192.068 9        49.100
                                                  24478864.781 9  96060194.626 9
        48.400    24478861.332 9  98566116.470 9        49.500    24478863.410 9
  97313175.157 9        52.300
  27256578.422 6 143234289.918 6        38.100
                                                  27256600.523 6 106960607.572 6
        39.600    27256597.230 6 109750947.561 6        39.800    27256599.492 7
 108355778.667 7        43.400
  23651422.148 9 124289062.078 9        48.600
                                                  23651440.059 9  92813318.446 9
        51.000    23651436.852 9  95234526.158 9        51.500    23651438.777 9
  94023840.914 9        54.000
  27097145.242 6 142396470.648 6        38.700
                                                  27097169.223 7 106334952.977 7
        41.200    27097164.844 6 109108960.732 6        40.900    27097167.277 7
 107721951.457 7        44.600
  38095845.156 5 200194970.056 5        36.000



 23  2 14 10 24  0.0000000  0 25G30R 9R 5G19G11G14G 3R21R22G17G 7R11 0.000000000
                                R10G 6R20G 1E12E24E26E 1E31E21E33E10
                                S26
  21977396.750 7 115492017.855 7        44.700                    21977415.922 7
  89993835.41249        43.200    21977415.35249  21977418.844 9  86244059.837 9
        48.800

  21633182.164 7 115520008.770 7        43.900    21633181.184 7  21633195.824 7
  89848884.300 7        44.100


  24222726.016 4 129484461.806 4        34.200    24222725.113 3  24222751.316 3
 100710035.958 3        32.800


  22414407.344 7 117788513.483 7        41.600
  91783328.10248        30.500    22414428.43848


  24879465.500 4 130742478.294 4        34.300                    24879487.371 5
 101877340.42545        15.600    24879486.37545  24879495.742 6  97632371.484 6
        39.500

  20356279.375 8 106972974.609 8        47.100                    20356295.555 9
  83355621.29749        41.200    20356295.19549  20356302.457 9  79882432.666 9
        54.500

  22440119.680 6 117923612.590 6        40.300                    22440143.199 7
  91888621.06849        39.800    22440142.71549  22440147.973 8  88059860.670 8
        47.300

  20549653.578 9 109965343.347 9        49.600    20549652.813 9  20549669.867 8
  85528610.364 8        46.700


  22424113.406 7 119701458.589 7        42.400    22424113.684 6  22424132.543 6
  93101129.984 6        40.000


  21780980.422 7 114459840.944 7        43.900                    21781000.035 7
  89189539.91649        45.600    21780999.29749


  23649837.742 4 124280747.124 4        34.700                    23649855.031 5
  96842194.19447        29.000    23649854.89147


  20910491.703 9 111739339.029 9        48.800    20910491.918 8  20910507.969 8
  86908381.155 8        45.700


  19284267.234 7 102795986.560 7        44.800    19284266.660 7



  21365879.828 7 112278447.654 7        44.900                    21365900.324 8
  87489778.56249        47.400    21365899.20349  21365903.707 9  83844322.175 9
        50.200

  22018109.070 4 117740719.410 4        34.800    22018109.348 4  22018131.379 5
  91576123.274 5        36.400


  23275078.703 6 122311372.917 6        38.100                    23275105.219 6
  95307658.99946        21.100    23275105.61746  23275108.727 7  91336430.613 7
        43.600

  25030558.609 7 131536472.127 7        43.700
                                                  25030576.266 7  98225323.476 7
        44.400    25030573.262 7 100787709.521 7        44.100    25030575.262 9
  99506462.609 9        48.100
  28609838.797 5 150345703.187 5        35.300
                                                  28609864.961 5 112271145.098 5
        36.400    28609861.148 5 115199896.776 5        35.400

  26259033.445 7 137992153.553 7        41.300
                                                  26259058.754 7 103046017.065 7
        42.100    26259054.910 7 105734242.807 7        42.700    26259057.363 8
 104390144.539 8        46.100
  23979377.922 9 126012479.230 9        50.000
                                                  23979396.023 9  94100276.687 9
        49.800    23979392.820 9  96555057.515 9        51.300    23979394.863 9
  95327599.710 9        54.000
  24478500.977 9 128635395.252 9        48.800
                                                  24478522.770 9  96058852.853 9
        48.200    24478519.520 9  98564739.694 9        49.200    24478521.484 9
  97311815.885 9        52.100
  27257007.258 6 143236544.979 6        38.500
                                                  27257029.789 6 106962291.560 6
        40.000    27257026.438 6 109752675.446 6        39.900    27257028.613 7
 108357484.611 7        43.900
  23651605.258 9 124290024.445 9        48.600
                                                  23651623.223 9  92814037.100 9
        50.800    23651619.840 9  95235263.555 9        51.400    23651621.906 9
  94024568.937 9        53.900
  27096735.961 6 142394321.023 6        38.900
                                                  27096760.055 7 106333347.728 7
        41.100    27096755.773 6 109107313.622 6        40.900    27096758.227 7
 107720325.270 7        44.400
  38095826.469 5 200194917.608 5        36.100



 23  2 14 10 24  1.0000000  0 25G30R 9R 5G19G11G14G 3R21R22G17G 7R11 0.000000000
                                R10G 6R20G 1E12E24E26E 1E31E21E33E10
                                S26
  21977872.742 7 115494518.364 7        44.700                    21977891.961 7
  89995783.85849        43.100    21977891.12549  21977894.648 9  86245927.085 9
        48.900

  21633886.273 7 115523768.016 7        44.000    21633885.500 7  21633900.406 7
  89851808.152 7        43.400


  24222420.078 4 129482834.371 4        34.200    24222420.895 3  24222447.328 3
 100708770.242 3        32.800


  22414199.211 7 117787420.462 7        41.300
  91782476.40748        30.400    22414220.39148


  24878856.047 4 130739271.965 4        34.800                    24878877.512 5
 101874842.01445        17.400    24878876.35245  24878885.504 6  97629977.153 6
        39.800

  20356152.352 8 106972307.533 8        47.000                    20356168.535 9
  83355101.49949        41.400    20356168.18849  20356175.520 9  79881934.536 9
        54.700

  22440119.375 6 117923611.356 6        40.400                    22440142.910 7
  91888620.09849        39.800    22440142.41849  22440147.707 8  88059859.721 8
        47.300

  20549720.773 9 109965703.927 9        50.200    20549720.469 9  20549736.566 8
  85528890.826 8        46.600


  22423756.695 7 119699554.400 7        42.500    22423756.617 6  22423774.473 6
  93099648.966 6        39.600


  21780995.148 7 114459918.275 7        43.900                    21781014.309 7
  89189600.18149        44.800    21781013.87949


  23650495.461 5 124284204.950 5        35.400                    23650513.523 4
  96844888.60847        28.000    23650512.93847


  20909903.430 9 111736194.003 9        48.600    20909903.340 8  20909919.820 8
  86905935.032 8        45.800


  19284436.289 7 102796886.148 7        44.600    19284435.230 7



  21365514.391 7 112276528.483 7        44.800                    21365534.707 8
  87488283.10149        47.200    21365534.03549  21365538.520 9  83842889.034 9
        50.200

  22018664.305 4 117743683.948 4        34.700    22018663.691 4  22018685.355 5
  91578428.994 5        36.800


  23275744.594 5 122314872.444 5        37.500                    23275771.598 6
  95310385.89946        21.100    23275771.49246  23275774.594 7  91339043.890 7
        43.700

  25030284.484 7 131535031.977 7        43.900
                                                  25030302.227 7  98224248.037 7
        44.000    25030299.191 7 100786606.045 7        44.700    25030301.227 9
  99505373.151 9        48.200
  28609343.313 5 150343097.843 5        35.300
                                                  28609369.234 5 112269199.534 5
        36.500    28609365.250 5 115197900.449 5        35.700

  26259503.773 7 137994623.694 7        41.300
                                                  26259528.762 7 103047861.615 7
        42.300    26259524.965 7 105736135.501 7        43.000    26259527.414 8
 104392013.167 8        46.400
  23979510.953 9 126013178.404 9        50.000
                                                  23979529.086 9  94100798.777 9
        49.900    23979525.844 9  96555593.245 9        51.200    23979527.910 9
  95328128.624 9        53.600
  24478158.961 9 128633598.627 9        49.100
                                                  24478180.766 9  96057511.230 9
        48.000    24478177.637 9  98563363.069 9        49.300    24478179.578 9
  97310456.755 9        52.100
  27257437.055 5 143238800.198 5        37.700
                                                  27257458.949 6 106963975.684 6
        39.800    27257455.578 6 109754403.503 6        40.200    27257457.758 7
 108359190.712 7        43.900
  23651788.477 9 124290987.114 9        48.400
                                                  23651806.398 9  92814755.982 9
        51.000    23651803.145 9  95236001.189 9        51.400    23651805.109 9
  94025297.195 9        54.400
  27096327.367 6 142392171.640 6        38.900
                                                  27096351.148 7 106331742.667 7
        41.300    27096346.844 7 109105666.665 7        41.100    27096349.191 7
 107718699.271 7        44.600
  38095819.500 5 200194865.226 5        36.400



 23  2 14 10 24  2.0000000  0 25G30R 9R 5G19G11G14G 3R21R22G17G 7R11 0.000000000
                                R10G 6R20G 1E12E24E26E 1E31E21E33E10
                                S26
  21978349.117 7 115497019.159 7        44.500                    21978367.855 7
  89997732.52849        43.200    21978366.90249  21978370.574 9  86247794.575 9
        49.000

  21634590.281 7 115527527.682 7        44.200    21634589.508 7  21634603.766 7
  89854732.346 7        43.600


  24222116.195 3 129481207.373 3        33.500    24222115.949 3  24222142.559 3
 100707504.727 3        32.800


  22413991.125 7 117786327.518 7        41.400
  91781624.77048        31.200    22414012.38748


  24878246.102 4 130736065.781 4        34.400                    24878266.441 5
 101872343.67845        17.400    24878266.25045  24878275.449 6  97627582.955 6
        39.800

  20356025.180 8 106971640.930 8        47.000                    20356041.770 9
  83354582.07349        41.400    20356041.34849  20356048.586 9  79881436.752 9
        54.800

  22440118.969 6 117923610.685 6        40.400                    22440142.617 7
  91888619.57149        39.600    22440142.15649  22440147.547 8  88059859.225 8
        47.200

  20549788.266 9 109966064.943 9        50.200    20549787.754 9  20549803.855 8
  85529171.617 8        46.700


  22423400.320 7 119697650.635 7        42.000    22423400.059 6  22423419.711 6
  93098168.254 6        39.800


  21781009.984 7 114459995.594 7        43.800                    21781028.816 7
  89189660.43249        44.800    21781028.77049


  23651153.758 5 124287662.748 5        35.400                    23651172.078 5
  96847582.98647        28.200    23651170.94147


  20909315.156 9 111733049.479 9        48.300    20909314.793 8  20909331.137 8
  86903489.283 8        46.000


  19284605.320 8 102797786.581 8        45.000    19284604.184 7



  21365149.977 7 112274609.804 7        44.700                    21365169.648 8
  87486788.03149        47.400    21365169.07449  21365173.414 9  83841456.246 9
        50.200

  22019218.867 4 117746648.446 4        34.700    22019218.027 3  22019239.332 5
  91580734.697 5        36.600


  23276410.203 5 122318372.025 5        37.000                    23276437.434 6
  95313112.83446        21.300    23276437.46946  23276440.734 7  91341657.224 7
        43.800

  25030010.758 7 131533592.177 7        43.900
                                                  25030028.297 7  98223172.886 7
        44.200    25030025.270 7 100785502.798 7        44.900    25030027.234 9
  99504283.950 9        48.300
  28608847.828 5 150340492.497 5        35.200
                                                  28608873.633 5 112267253.963 5
        36.500    28608869.324 5 115195904.158 5        36.000

  26259973.883 7 137997093.848 7        41.200
                                                  26259998.949 7 103049706.210 7
        42.400    26259995.082 7 105738028.217 7        43.000    26259997.492 8
 104393881.827 8        46.900
  23979644.086 9 126013877.919 9        49.800
                                                  23979662.273 9  94101321.146 9
        49.800    23979658.953 9  96556129.240 9        51.100    23979661.027 9
  95328657.803 9        53.700
  24477817.391 9 128631802.191 9        49.100
                                                  24477838.949 8  96056169.744 8
        47.800    24477835.789 9  98561986.586 9        49.100    24477837.727 9
  97309097.771 9        52.000
  27257865.727 5 143241055.712 5        37.800
                                                  27257888.223 6 106965659.964 6
        39.700    27257884.781 6 109756131.733 6        40.000    27257886.969 7
 108360896.956 7        43.800
  23651971.945 9 124291950.076 9        48.400
                                                  23651989.559 9  92815475.075 9
        50.900    23651986.406 9  95236739.040 9        51.200    23651988.359 9
  94026025.666 9        54.500
  27095918.297 6 142390022.484 6        39.100
                                                  27095942.047 7 106330137.771 7
        41.000    27095937.922 7 109104019.925 7        41.300    27095940.230 7
 107717073.445 7        44.600
  38095811.813 5 200194812.806 5        35.600



 23  2 14 10 24  3.0000000  0 25G30R 9R 5G19G11G14G 3R21R22G17G 7R11 0.000000000
                                R10G 6R20G 1E12E24E26E 1E31E21E33E10
                                S26
  21978824.492 7 115499520.273 7        44.400                    21978843.387 7
  89999681.44949        43.300    21978843.00049  21978846.508 9  86249662.283 9
        48.800

  21635294.898 7 115531287.760 7        44.700    21635293.719 7  21635307.742 7
  89857656.864 7        43.400


  24221812.430 4 129479580.657 4        34.100    24221811.625 3  24221838.109 3
 100706239.506 3        32.900


  22413783.602 7 117785234.649 7        41.400
  91780773.18848        30.600    22413804.44548


  24877635.063 4 130732859.873 4        34.800                    24877656.477 5
 101869845.57445        17.800    24877656.18045  24877665.379 6  97625188.920 6
        39.400

  20355898.750 8 106970974.784 8        47.100                    20355914.926 9
  83354063.00049        41.600    20355914.74249  20355921.805 9  79880939.309 9
        54.500

  22440119.273 6 117923610.643 6        40.300                    22440142.746 7
  91888619.55049        40.200    22440142.24649  22440147.551 8  88059859.186 8
        47.300

  20549856.258 9 109966426.386 9        50.200    20549855.348 9  20549872.227 8
  85529452.743 8        46.900


  22423045.086 7 119695747.356 7        42.300    22423043.520 7  22423063.676 6
  93096687.926 6        40.300


  21781024.594 7 114460072.897 7        43.800                    21781044.117 7
  89189720.67149        44.800    21781043.36349


  23651811.242 5 124291120.604 5        35.400                    23651829.809 5
  96850277.41047        27.700    23651828.85547


  20908726.313 9 111729905.493 9        48.200    20908726.504 8  20908743.340 8
  86901043.989 8        46.100


  19284774.070 8 102798687.892 8        45.100    19284773.434 7



  21364784.750 8 112272691.608 8        45.000                    21364804.656 8
  87485293.33249        47.500    21364803.95749  21364808.391 9  83840023.844 9
        50.300

  22019771.555 5 117749612.864 5        35.500    22019772.199 3  22019794.020 5
  91583040.420 5        36.500


  23277076.750 5 122321871.717 5        36.900                    23277103.117 6
  95315839.85546        20.600    23277103.48046  23277106.637 7  91344270.653 7
        44.100

  25029736.336 7 131532152.706 7        43.700
                                                  25029754.289 7  98222097.950 7
        44.600    25029751.285 7 100784399.836 7        44.800    25029753.316 9
  99503195.006 9        48.300
  28608351.813 5 150337887.025 5        35.400
                                                  28608377.980 5 112265308.314 5
        36.400    28608373.988 5 115193907.787 5        36.000

  26260443.766 7 137999564.024 7        41.300
                                                  26260469.242 7 103051550.843 7
        42.600    26260465.180 7 105739920.937 7        42.600    26260467.547 8
 104395750.511 8        46.300
  23979777.281 9 126014577.805 9        49.600
                                                  23979795.434 9  94101843.786 9
        49.800    23979792.164 9  96556665.515 9        51.200    23979794.215 9
  95329187.262 9        53.700
  24477475.336 9 128630005.963 9        49.000
                                                  24477497.238 8  96054828.411 8
        47.700    24477494.063 9  98560610.256 9        48.800    24477495.914 9
  97307738.947 9        51.900
  27258295.383 6 143243311.384 6        38.300
                                                  27258317.430 6 106967344.446 6
        40.200    27258314.117 6 109757860.141 6        40.200    27258316.219 7
 108362603.409 7        44.000
  23652155.117 9 124292913.355 9        48.600
                                                  23652172.887 9  92816194.394 9
        50.600    23652169.715 9  95237477.125 9        51.400    23652171.656 9
  94026754.373 9        54.600
  27095509.063 6 142387873.626 6        39.600
                                                  27095533.094 7 106328533.083 7
        41.200    27095528.758 7 109102373.378 7        41.400    27095531.297 7
 107715447.828 7        44.600
  38095803.969 5 200194760.420 5        35.800



 23  2 14 10 24  4.0000000  0 25G30R 9R 5G19G11G14G 3R21R22G17G 7R11 0.000000000
                                R10G 6R20G 1E12E24E26E 1E31E21E33E10
                                S26
  21979299.875 7 115502021.704 7        44.300                    21979319.594 7
  90001630.61549        43.200    21979318.86749  21979322.477 9  86251530.243 9
        48.700

  21635999.367 7 115535048.249 7        44.600    21635998.207 7  21636012.234 7
  89860581.682 7        43.400


  24221509.031 4 129477954.291 4        34.800    24221507.621 3  24221534.070 3
 100704974.539 3        32.800


  22413575.828 7 117784141.815 7        41.600
  91779921.64548        31.500    22413596.54748


  24877025.273 4 130729654.165 4        34.000                    24877046.684 5
 101867347.57545        17.400    24877046.27045  24877055.094 6  97622795.037 6
        39.100

  20355771.758 8 106970309.114 8        47.200                    20355788.277 9
  83353544.30349        41.400    20355787.83249  20355795.152 9  79880442.222 9
        54.600

  22440118.586 6 117923611.169 6        40.400                    22440142.652 7
  91888619.95349        39.600    22440142.39149  22440147.695 8  88059859.573 8
        47.000

  20549923.313 9 109966788.238 9        49.800    20549922.910 9  20549939.590 8
  85529734.172 8        46.600


  22422687.055 7 119693844.501 7        42.500    22422687.082 7  22422706.258 6
  93095207.932 6        40.600


  21781038.734 7 114460150.192 7        43.800                    21781058.340 7
  89189780.89949        45.000    21781058.26249


  23652469.234 5 124294578.352 5        35.200                    23652487.742 4
  96852971.76347        28.000    23652486.96547


  20908138.117 9 111726762.028 9        48.400    20908138.262 8  20908155.516 8
  86898599.072 8        45.900


  19284943.625 8 102799590.032 8        45.100    19284942.691 7



  21364419.695 7 112270773.927 7        44.700                    21364439.777 8
  87483799.04049        47.500    21364439.03549  21364443.395 9  83838591.805 9
        50.200

  22020326.383 5 117752577.238 5        35.200    22020326.258 4  22020347.176 5
  91585346.044 5        36.500


  23277742.594 5 122325371.526 5        37.100                    23277768.836 6
  95318566.97846        20.900    23277769.51646  23277772.695 7  91346884.110 7
        44.100

  25029462.547 7 131530713.571 7        43.600
                                                  25029480.305 7  98221023.266 7
        44.600    25029477.473 8 100783297.131 8        45.100    25029479.438 9
  99502106.303 9        48.400
  28607856.422 5 150335281.526 5        35.300
                                                  28607882.406 5 112263362.622 5
        36.300    28607878.426 5 115191911.315 5        36.300

  26260914.008 7 138002034.222 7        41.300
                                                  26260938.984 7 103053395.439 7
        42.100    26260935.215 7 105741813.692 7        42.400    26260937.602 8
 104397619.187 8        46.200
  23979910.484 9 126015278.038 9        49.300
                                                  23979928.715 9  94102366.706 9
        49.700    23979925.395 9  96557202.059 9        51.200    23979927.445 9
  95329716.993 9        53.800
  24477133.695 9 128628209.920 9        49.000
                                                  24477155.406 9  96053487.229 9
        48.000    24477152.059 9  98559234.080 9        48.900    24477154.133 9
  97306380.274 9        52.300
  27258724.703 6 143245567.361 6        38.100
                                                  27258746.613 6 106969029.067 6
        40.000    27258743.441 6 109759588.740 6        40.400    27258745.504 7
 108364310.000 7        43.900
  23652338.539 9 124293876.900 9        48.500
                                                  23652356.266 9  92816913.936 9
        50.800    23652353.004 9  95238215.434 9        51.300    23652355.020 9
  94027483.296 9        54.600
  27095100.172 6 142385724.957 6        39.200
                                                  27095124.113 7 106326928.578 7
        41.200    27095120.063 7 109100726.984 7        41.500    27095122.426 7
 107713822.393 7        44.600
  38095786.391 5 200194707.993 5        35.900



 23  2 14 10 24  5.0000000  0 25G30R 9R 5G19G11G14G 3R21R22G17G 7R11 0.000000000
                                R10G 6R20G 1E12E24E26E 1E31E21E33E10
                                S26
  21979776.586 7 115504523.421 7        44.100                    21979795.691 7
  90003580.00049        43.400    21979795.07449  21979798.547 9  86253398.394 9
        48.900

  21636703.078 7 115538809.108 7        44.800    21636702.492 7  21636717.063 7
  89863506.810 7        43.500


  24221204.086 4 129476328.201 4        34.600    24221203.297 3  24221231.586 3
 100703709.774 3        32.900


  22413367.578 7 117783049.026 7        41.600
  91779070.12148        31.100    22413388.66448


  24876414.992 3 130726448.570 3        33.300                    24876437.035 5
 101864849.73445        17.400    24876436.23845  24876444.691 6  97620401.259 6
        38.800

  20355645.492 8 106969643.876 8        46.900                    20355661.566 9
  83353025.93249        41.400    20355661.29749  20355668.621 9  79879945.447 9
        54.500

  22440119.219 6 117923612.286 6        40.200                    22440142.898 7
  91888620.82349        39.500    22440142.47749  22440147.895 8  88059860.419 8
        47.200

  20549991.031 9 109967150.440 9        49.700    20549990.586 9  20550007.477 8
  85530015.882 8        46.500


  22422331.813 7 119691942.059 7        42.500    22422330.934 7  22422350.254 6
  93093728.233 6        40.300


  21781053.867 7 114460227.426 7        43.800                    21781073.254 7
  89189841.08849        44.900    21781072.81649


  23653126.961 5 124298036.111 5        35.100                    23653145.699 5
  96855666.13047        28.100    23653144.78947


  20907549.852 9 111723619.069 9        48.500    20907550.000 8  20907566.320 8
  86896154.547 8        46.100


  19285112.523 8 102800493.022 8        45.000    19285111.953 7



  21364054.766 7 112268856.705 7        44.900                    21364074.805 8
  87482305.10349        47.300    21364074.18049  21364078.594 9  83837160.122 9
        50.200

  22020879.930 4 117755541.557 4        34.800    22020880.617 3  22020901.555 5
  91587651.613 5        36.100


  23278408.586 5 122328871.363 5        36.500                    23278435.281 6
  95321294.11746        20.600    23278435.45746  23278438.703 7  91349497.642 7
        43.900

  25029188.867 7 131529274.719 7        43.800
                                                  25029206.672 7  98219948.820 7
        44.900    25029203.660 8 100782194.639 8        45.000    25029205.645 9
  99501017.834 9        48.300
  28607360.578 5 150332675.933 5        35.600
                                                  28607386.531 5 112261416.875 5
        36.100    28607382.539 5 115189914.790 5        35.600

  26261383.711 7 138004504.401 7        41.400
                                                  26261409.195 7 103055240.076 7
        42.000    26261405.371 7 105743706.447 7        42.600    26261407.660 8
 104399487.871 8        46.200
  23980043.898 9 126015978.618 9        49.500
                                                  23980061.871 9  94102889.852 9
        49.900    23980058.734 9  96557738.867 9        51.600    23980060.762 9
  95330246.969 9        53.900
  24476791.906 9 128626414.067 9        48.700
                                                  24476813.652 9  96052146.153 9
        48.000    24476810.387 9  98557858.031 9        48.900    24476812.383 9
  97305021.703 9        52.000
  27259154.063 5 143247823.524 5        37.700
                                                  27259175.945 6 106970713.843 6
        39.800    27259172.836 6 109761317.458 6        40.400    27259174.816 7
 108366016.754 7        43.700
  23652521.781 9 124294840.723 9        48.800
                                                  23652539.672 9  92817633.671 9
        50.700    23652536.445 9  95238953.941 9        51.800    23652538.418 9
  94028212.412 9        54.800
  27094690.789 6 142383576.516 6        39.300
                                                  27094715.352 6 106325324.207 6
        40.900    27094711.234 7 109099080.790 7        41.100    27094713.598 7
 107712197.107 7        44.100
  38095777.188 5 200194655.562 5        35.800



 23  2 14 10 24  6.0000000  0 25G30R 9R 5G19G11G14G 3R21R22G17G 7R11 0.000000000
                                R10G 6R20G 1E12E24E26E 1E31E21E33E10
                                S26
  21980253.000 7 115507025.445 7        44.000                    21980271.402 7
  90005529.63349        43.800    21980271.28949  21980274.719 9  86255266.788 9
        49.300

  21637406.891 7 115542570.437 7        44.500    21637406.598 7  21637420.859 7
  89866432.283 7        43.600


  24220899.703 5 129474702.511 5        35.000    24220899.273 4  24220926.340 3
 100702445.349 3        32.700


  22413159.773 7 117781956.289 7        41.800
  91778218.64248        30.400    22413180.68448


  24875804.656 3 130723243.133 3        33.200                    24875827.332 5
 101862352.02245        17.800    24875826.15645  24875834.043 6  97618007.649 6
        38.800

  20355518.641 8 106968979.093 8        47.500                    20355535.250 9
  83352507.92749        41.400    20355534.77049  20355542.129 9  79879449.029 9
        54.900

  22440119.328 6 117923614.000 6        40.500                    22440143.133 7
  91888622.16149        39.300    22440142.91049  22440148.266 8  88059861.697 8
        47.600

  20550059.328 9 109967513.008 9        50.000    20550058.344 9  20550075.395 8
  85530297.892 8        46.200


  22421975.781 7 119690040.075 7        42.400    22421974.469 7  22421993.816 6
  93092248.914 6        40.500


  21781068.484 7 114460304.650 7        43.800                    21781087.793 7
  89189901.26749        45.200    21781087.49249


  23653785.102 5 124301493.841 5        35.000                    23653803.391 4
  96858360.45647        28.000    23653802.76247


  20906961.563 9 111720476.596 9        48.500    20906961.914 8  20906978.531 8
  86893710.427 8        46.300


  19285282.906 7 102801396.870 7        44.900    19285281.461 7



  21363689.906 7 112266939.963 7        44.700                    21363710.305 8
  87480811.54049        47.300    21363709.34849  21363713.863 9  83835728.790 9
        50.200

  22021435.031 4 117758505.834 4        34.300    22021435.051 3  22021456.113 5
  91589957.160 5        36.200


  23279074.891 5 122332371.311 5        36.600                    23279101.281 6
  95324021.37146        21.100    23279101.42246  23279104.684 7  91352111.247 7
        43.400

  25028915.250 7 131527836.235 7        43.500
                                                  25028932.902 7  98218874.619 7
        44.600    25028930.027 7 100781092.407 7        44.800    25028931.898 8
  99499929.623 8        47.900
  28606864.867 5 150330070.226 5        35.100
                                                  28606890.695 5 112259471.028 5
        36.500    28606886.492 5 115187918.250 5        35.900

  26261854.219 7 138006974.644 7        41.500
                                                  26261879.316 7 103057084.705 7
        41.900    26261875.348 7 105745599.205 7        42.800    26261877.723 8
 104401356.564 8        46.000
  23980177.406 9 126016679.544 9        49.700
                                                  23980195.426 9  94103413.286 9
        49.700    23980192.191 9  96558275.943 9        51.000    23980194.148 9
  95330777.221 9        53.900
  24476450.133 9 128624618.383 9        49.000
                                                  24476471.996 9  96050805.233 9
        48.400    24476468.629 9  98556482.135 9        49.500    24476470.672 9
  97303663.293 9        52.300
  27259583.172 5 143250079.844 5        37.800
                                                  27259605.426 6 106972398.796 6
        39.700    27259602.160 6 109763046.347 6        40.400    27259604.180 7
 108367723.686 7        43.800
  23652705.539 9 124295804.838 9        48.600
                                                  23652723.133 9  92818353.625 9
        51.100    23652719.809 9  95239692.674 9        51.700    23652721.887 9
  94028941.762 9        54.900
  27094281.797 6 142381428.293 6        39.400
                                                  27094306.652 6 106323720.059 6
        40.700    27094302.418 6 109097434.776 6        40.900    27094304.797 7
 107710572.030 7        44.200
  38095770.750 5 200194603.175 5        36.300



 23  2 14 10 24  7.0000000  0 25G30R 9R 5G19G11G14G 3R21R22G17G 7R11 0.000000000
                                R10G 6R20G 1E12E24E26E 1E31E21E33E10
                                S26
  21980728.773 7 115509527.777 7        44.100                    21980747.852 7
  90007479.50149        43.200    21980747.32049  21980750.813 9  86257135.424 9
        48.900

  21638111.070 7 115546332.181 7        44.500    21638111.055 7  21638125.813 7
  89869358.089 7        44.000


  24220595.992 4 129473077.126 4        34.600    24220595.672 3  24220622.348 3
 100701181.162 3        33.200


  22412951.773 7 117780863.632 7        42.000
  91777367.22848        31.400    22412972.80148


  24875194.961 3 130720038.007 3        33.400                    24875216.879 5
 101859854.53145        16.300    24875216.24245  24875223.617 6  97615614.161 6
        39.200

  20355392.695 9 106968314.768 9        48.000                    20355408.676 9
  83351990.27649        41.300    20355408.39849  20355415.652 9  79878952.941 9
        54.400

  22440119.313 6 117923616.322 6        40.100                    22440144.188 7
  91888623.97349        39.400    22440143.29749  22440148.637 8  88059863.423 8
        47.400

  20550127.063 9 109967875.998 9        50.500    20550126.188 9  20550143.609 8
  85530580.219 8        45.900


  22421618.078 7 119688138.509 7        42.700    22421617.918 6  22421637.645 6
  93090769.922 6        40.600


  21781083.055 7 114460381.825 7        43.700                    21781102.781 7
  89189961.40549        45.000    21781102.21549


  23654443.031 4 124304951.492 4        34.600                    23654461.461 5
  96861054.72047        28.700    23654460.82847


  20906374.555 9 111717334.655 9        48.600    20906373.824 8  20906390.371 8
  86891266.692 8        46.500


  19285452.984 8 102802301.577 8        45.100    19285451.340 7



  21363325.289 7 112265023.692 7        44.600                    21363345.684 8
  87479318.34649        47.400    21363344.70749  21363349.199 9  83834297.817 9
        50.100

  22021990.555 4 117761470.111 4        34.400    22021989.699 3  22022011.246 5
  91592262.731 5        36.200


  23279740.367 5 122335871.389 5        37.100                    23279767.012 6
  95326748.70546        21.800    23279767.39846  23279770.691 7  91354724.924 7
        43.600

  25028641.594 7 131526398.054 7        43.600
                                                  25028659.230 8  98217800.659 8
        45.000    25028656.387 7 100779990.438 7        44.800    25028658.219 9
  99498841.650 9        48.300
  28606368.984 5 150327464.473 5        35.000
                                                  28606394.836 5 112257525.168 5
        35.900    28606390.609 5 115185921.582 5        35.200

  26262324.367 7 138009444.894 7        41.400
                                                  26262349.320 7 103058929.358 7
        42.400    26262345.438 7 105747491.979 7        43.100    26262347.797 8
 104403225.276 8        46.200
  23980310.570 9 126017380.836 9        49.300
                                                  23980328.824 9  94103936.975 9
        49.900    23980325.598 9  96558813.299 9        50.800    23980327.594 9
  95331307.746 9        54.100
  24476108.391 9 128622822.891 9        49.100
                                                  24476130.309 9  96049464.467 9
        48.600    24476127.043 9  98555106.383 9        49.500    24476129.004 9
  97302305.031 9        52.300
  27260012.531 5 143252336.384 5        37.800
                                                  27260034.617 6 106974083.874 6
        39.900    27260031.305 6 109764775.418 6        40.400    27260033.570 7
 108369430.735 7        44.000
  23652888.938 9 124296769.240 9        48.500
                                                  23652906.691 9  92819073.790 9
        51.000    23652903.391 9  95240431.639 9        51.600    23652905.410 9
  94029671.329 9        54.600
  27093873.227 6 142379280.349 6        39.600
                                                  27093897.828 6 106322116.064 6
        40.800    27093893.398 7 109095788.945 7        41.000    27093896.039 7
 107708947.127 7        44.000
  38095752.578 5 200194550.752 5        36.400



 23  2 14 10 24  8.0000000  0 25G30R 9R 5G19G11G14G 3R21R22G17G 7R11 0.000000000
                                R10G 6R20G 1E12E24E26E 1E31E21E33E10
                                S26
  21981205.383 7 115512030.430 7        44.500                    21981224.223 7
  90009429.62149        43.400    21981223.54349  21981227.000 9  86259004.281 9
        48.600

  21638816.641 7 115550094.354 7        44.600    21638815.691 7  21638830.711 7
  89872284.190 7        44.000


  24220291.352 4 129471452.216 4        34.800    24220291.086 3  24220318.223 3
 100699917.306 3        33.500


  22412743.336 7 117779771.026 7        42.100
  91776515.85548        30.900    22412764.84448


  24874584.977 3 130716833.004 3        33.200                    24874606.965 5
 101857357.10445        16.300    24874606.52745  24874613.637 6  97613220.800 6
        39.100

  20355266.266 9 106967650.910 9        48.100                    20355282.488 9
  83351472.98049        41.700    20355281.94949  20355289.297 9  79878457.209 9
        54.500

  22440120.953 6 117923619.178 6        40.300                    22440144.398 7
  91888626.18949        39.500    22440143.87549  22440149.230 8  88059865.573 8
        47.700

  20550194.828 9 109968239.424 9        50.300    20550194.043 9  20550210.449 8
  85530862.885 8        46.600


  22421262.531 7 119686237.388 7        43.100    22421261.988 7  22421281.344 6
  93089291.274 6        40.600


  21781097.406 7 114460459.001 7        43.700                    21781116.914 7
  89190021.54249        44.800    21781116.95349


  23655100.742 5 124308409.142 5        35.200                    23655119.258 5
  96863748.99447        28.800    23655118.81347


  20905786.664 9 111714193.264 9        48.600    20905786.152 8  20905803.457 8
  86888823.407 8        46.500


  19285622.836 7 102803207.123 7        44.700    19285621.004 7



  21362960.859 7 112263107.942 7        44.900                    21362981.031 8
  87477825.55949        47.400    21362980.24649  21362984.547 9  83832867.215 9
        50.300

  22022545.086 5 117764434.312 5        35.100    22022543.605 3  22022565.816 5
  91594568.184 5        36.500


  23280406.836 5 122339371.486 5        37.100                    23280433.668 6
  95329476.05346        21.300    23280433.46946  23280436.680 7  91357338.623 7
        43.600

  25028367.992 7 131524960.214 7        44.000
                                                  25028385.535 8  98216726.946 8
        45.400    25028382.699 7 100778888.711 7        44.900    25028384.609 9
  99497753.940 9        48.400
  28605872.383 5 150324858.578 5        35.100
                                                  28605898.492 5 112255579.233 5
        35.600    28605894.422 5 115183924.915 5        35.400

  26262794.695 7 138011915.143 7        41.300
                                                  26262819.422 7 103060774.051 7
        42.600    26262815.387 7 105749384.791 7        42.400    26262817.891 8
 104405094.026 8        46.300
  23980444.383 9 126018082.490 9        48.900
                                                  23980462.340 9  94104460.925 9
        49.800    23980459.074 9  96559350.927 9        50.900    23980461.113 9
  95331838.534 9        53.900
  24475766.922 9 128621027.615 9        49.100
                                                  24475788.582 9  96048123.824 9
        48.400    24475785.320 9  98553730.772 9        49.100    24475787.371 9
  97300946.915 9        52.200
  27260442.125 6 143254593.175 6        38.300
                                                  27260464.238 6 106975769.148 6
        39.700    27260460.836 6 109766504.628 6        40.200    27260463.027 7
 108371137.996 7        43.700
  23653072.617 9 124297733.940 9        48.600
                                                  23653090.246 9  92819794.183 9
        51.000    23653086.883 9  95241170.827 9        51.600    23653088.988 9
  94030401.118 9        54.800
  27093464.375 6 142377132.626 6        39.400
                                                  27093489.102 6 106320512.273 6
        40.500    27093485.098 6 109094143.303 6        40.900    27093487.355 7
 107707322.399 7        43.900
  38095744.984 5 200194498.355 5        36.400



 23  2 14 10 24  9.0000000  0 25G30R 9R 5G19G11G14G 3R21R22G17G 7R11 0.000000000
                                R10G 6R20G 1E12E24E26E 1E31E21E33E10
                                S26
  21981681.664 7 115514533.377 7        44.400                    21981700.613 7
  90011379.97449        43.300    21981699.73449  21981703.352 9  86260873.367 9
        48.700

  21639520.570 7 115553856.914 7        44.700    21639520.223 7  21639535.922 7
  89875210.641 7        43.900


  24219989.414 5 129469827.580 5        35.500    24219986.867 4  24220014.711 3
 100698653.689 3        33.500


  22412535.688 7 117778678.469 7        41.400
  91775664.51948        30.900    22412556.75048


  24873975.539 4 130713628.182 4        34.200                    24873996.809 5
 101854859.86045        16.300    24873996.82045  24874003.809 6  97610827.623 6
        39.000

  20355140.055 9 106966987.506 9        48.100                    20355156.180 9
  83350956.04849        41.000    20355155.76649  20355163.090 9  79877961.818 9
        54.400

  22440121.234 6 117923622.724 6        40.300                    22440145.094 7
  91888628.95649        39.400    22440144.65249  22440149.840 8  88059868.207 8
        47.800

  20550263.258 9 109968603.259 9        50.200    20550262.090 9  20550279.035 8
  85531145.864 8        46.700


  22420906.367 7 119684336.743 7        43.100    22420905.902 7  22420924.637 6
  93087812.975 6        40.700


  21781112.633 7 114460536.151 7        43.700                    21781131.840 7
  89190081.66349        45.100    21781131.60949


  23655759.289 4 124311866.830 4        34.900                    23655777.539 5
  96866443.30747        28.400    23655776.84447


  20905198.531 9 111711052.394 9        49.000    20905198.625 8  20905215.211 8
  86886380.523 8        46.300


  19285793.008 7 102804113.520 7        44.600    19285791.344 7



  21362596.633 7 112261192.661 7        44.600                    21362616.410 8
  87476333.13149        47.300    21362615.74249  21362620.160 9  83831436.984 9
        50.300

  22023099.594 5 117767398.468 5        35.000    22023098.059 3  22023119.379 5
  91596873.650 5        36.700


  23281072.898 5 122342871.709 5        37.300                    23281099.223 6
  95332203.47646        20.900    23281099.44146  23281102.590 7  91359952.426 7
        43.200

  25028094.430 7 131523522.701 7        44.200
                                                  25028111.961 7  98215653.463 7
        44.900    25028109.160 7 100777787.247 7        44.800    25028111.047 9
  99496666.464 9        48.300
  28605376.555 4 150322252.798 4        34.700
                                                  28605402.855 5 112253633.271 5
        35.800    28605398.305 5 115181928.154 5        35.300

  26263264.008 7 138014385.415 7        41.600
                                                  26263289.457 7 103062618.740 7
        42.300    26263285.563 7 105751277.584 7        42.800    26263287.969 8
 104406962.773 8        46.100
  23980577.758 9 126018784.493 9        49.000
                                                  23980595.922 9  94104985.160 9
        49.700    23980592.703 9  96559888.826 9        51.000    23980594.707 9
  95332369.607 9        53.900
  24475425.195 9 128619232.504 9        49.100
                                                  24475446.980 9  96046783.343 9
        48.200    24475443.816 9  98552355.311 9        49.300    24475445.746 9
  97299588.940 9        52.000
  27260871.586 5 143256850.181 5        37.900
                                                  27260893.727 6 106977454.565 6
        39.600    27260890.426 6 109768234.010 6        40.000    27260892.535 7
 108372845.398 7        43.500
  23653256.023 9 124298698.942 9        48.700
                                                  23653273.879 9  92820514.801 9
        50.800    23653270.594 9  95241910.247 9        51.500    23653272.617 9
  94031131.128 9        54.700
  27093056.258 6 142374985.200 6        39.400
                                                  27093080.441 6 106318908.653 6
        40.700    27093076.223 6 109092497.863 6        40.600    27093078.711 7
 107705697.858 7        44.000
  38095731.250 5 200194445.945 5        36.300



 23  2 14 10 24 10.0000000  0 25G30R 9R 5G19G11G14G 3R21R22G17G 7R11 0.000000000
                                R10G 6R20G 1E12E24E26E 1E31E21E33E10
                                S26
  21982156.992 7 115517036.678 7        44.100                    21982176.844 7
  90013330.59949        43.200    21982176.09849  21982179.703 9  86262742.701 9
        48.700

  21640225.383 7 115557619.910 7        44.600    21640224.797 7  21640239.188 7
  89878137.407 7        44.100


  24219683.914 5 129468203.328 5        35.400    24219683.805 4  24219710.898 3
 100697390.389 3        33.400


  22412327.570 7 117777585.994 7        42.000
  91774813.24848        30.800    22412348.82048


  24873366.258 4 130710423.598 4        34.500                    24873387.430 5
 101852362.80145        16.300    24873387.08245  24873394.020 6  97608434.618 6
        39.200

  20355013.820 8 106966324.596 8        47.700                    20355030.008 9
  83350439.49849        41.500    20355029.60549  20355036.875 9  79877466.787 9
        54.500

  22440122.336 6 117923626.886 6        40.500                    22440145.902 7
  91888632.20748        33.700    22440145.47748  22440150.641 8  88059871.296 8
        47.300

  20550330.445 9 109968967.537 9        50.400    20550330.176 9  20550346.758 8
  85531429.194 8        46.600


  22420550.180 7 119682436.506 7        42.800    22420550.160 7  22420568.289 6
  93086335.022 6        40.600


  21781126.969 7 114460613.284 7        43.800                    21781146.801 7
  89190141.77149        45.100    21781146.21549


  23656416.859 4 124315324.496 4        34.700                    23656435.160 5
  96869137.59047        29.100    23656434.78147


  20904610.781 9 111707912.070 9        49.000    20904610.758 8  20904626.934 8
  86883938.052 8        46.400


  19285963.477 7 102805020.768 7        44.700    19285961.289 7



  21362232.016 8 112259277.895 8        45.000                    21362252.133 8
  87474841.10649        47.600    21362251.43049  21362255.773 9  83830007.129 9
        50.200

  22023653.031 4 117770362.611 4        34.300    22023652.750 4  22023674.293 5
  91599179.086 5        36.800


  23281738.828 5 122346372.057 5        37.100                    23281764.859 6
  95334931.03046        20.600    23281765.60946  23281768.738 7  91362566.308 7
        43.300

  25027820.938 7 131522085.540 7        43.800
                                                  25027838.621 7  98214580.261 7
        44.800    25027835.730 7 100776686.056 7        44.800    25027837.563 9
  99495579.265 9        48.100
  28604880.898 4 150319646.835 4        34.500
                                                  28604906.836 5 112251687.284 5
        36.000    28604902.008 5 115179931.393 5        35.100

  26263734.406 7 138016855.748 7        41.400
                                                  26263759.582 7 103064463.459 7
        42.400    26263755.547 7 105753170.426 7        42.800    26263758.051 8
 104408831.549 8        46.100
  23980711.375 9 126019486.876 9        49.200
                                                  23980729.547 9  94105509.678 9
        49.900    23980726.270 9  96560427.022 9        50.900    23980728.355 9
  95332900.958 9        53.700
  24475083.758 9 128617437.627 9        48.900
                                                  24475105.434 9  96045443.014 9
        48.200    24475102.176 9  98550980.026 9        49.300    24475104.195 9
  97298231.124 9        52.100
  27261300.969 5 143259107.413 5        37.800
                                                  27261323.051 6 106979140.184 6
        39.600    27261319.832 6 109769963.570 6        40.000    27261322.051 7
 108374552.995 7        43.600
  23653439.781 9 124299664.245 9        48.500
                                                  23653457.621 9  92821235.652 9
        50.900    23653454.309 9  95242649.887 9        51.300    23653456.320 9
  94031861.379 9        54.600
  27092647.563 6 142372837.993 6        39.400
                                                  27092671.969 6 106317305.224 6
        40.800    27092667.793 7 109090852.600 7        41.100    27092670.094 7
 107704073.511 7        44.200
  38095727.359 5 200194393.567 5        36.300



 23  2 14 10 24 11.0000000  0 25G30R 9R 5G19G11G14G 3R21R22G17G 7R11 0.000000000
                                R10G 6R20G 1E12E24E26E 1E31E21E33E10
                                S26
  21982633.875 7 115519540.214 7        44.200                    21982653.305 7
  90015281.39949        43.400    21982652.44149  21982656.090 9  86264612.242 9
        48.700

  21640930.313 7 115561383.295 7        44.000    21640929.523 7  21640944.371 7
  89881064.494 7        44.300


  24219378.766 3 129466579.414 3        33.800    24219380.527 4  24219406.234 3
 100696127.279 3        32.300


  22412119.914 7 117776493.519 7        41.700
  91773961.96948        30.900    22412141.05548


  24872755.695 4 130707219.205 4        34.800                    24872777.625 5
 101849865.86245        16.300    24872777.27045  24872784.738 6  97606041.699 6
        39.100

  20354887.539 8 106965662.102 8        47.700                    20354903.980 9
  83349923.27149        41.400    20354903.65249  20354910.875 9  79876972.067 9
        54.600

  22440122.578 6 117923631.537 6        40.700                    22440146.539 7
  91888635.82548        33.100    22440146.32048  22440151.430 8  88059874.801 8
        47.200

  20550399.102 9 109969332.148 9        50.200    20550398.316 9  20550414.879 8
  85531712.766 8        46.400


  22420194.180 7 119680536.668 7        42.800    22420194.043 7  22420212.066 6
  93084857.388 6        40.200


  21781141.938 7 114460690.365 7        43.900                    21781161.539 7
  89190201.83349        45.000    21781160.93849


  23657074.961 5 124318782.064 5        35.300                    23657093.520 4
  96871831.79647        28.300    23657092.75847


  20904023.672 9 111704772.199 9        48.500    20904023.176 8  20904038.969 8
  86881495.941 8        46.200


  19286132.953 7 102805928.827 7        44.800    19286131.500 7



  21361867.914 8 112257363.584 8        45.000                    21361887.883 8
  87473349.43949        47.400    21361887.08249  21361891.512 9  83828577.604 9
        50.100

  22024208.250 4 117773326.728 4        34.700    22024207.383 4  22024227.977 5
  91601484.442 5        36.500


  23282405.242 5 122349872.446 5        36.900                    23282431.809 6
  95337658.61146        20.600    23282431.62546  23282434.770 7  91365180.230 7
        43.100

  25027547.086 7 131520648.675 7        44.000
                                                  25027565.039 7  98213507.286 7
        44.700    25027562.109 7 100775585.067 7        44.800    25027564.129 9
  99494492.295 9        48.200
  28604384.219 4 150317040.737 4        34.300
                                                  28604411.207 5 112249741.173 5
        35.400    28604406.113 5 115177934.509 5        35.300

  26264204.445 7 138019326.051 7        41.100
                                                  26264229.602 7 103066308.146 7
        42.400    26264225.754 7 105755063.255 7        42.700    26264228.152 8
 104410700.314 8        46.100
  23980845.242 9 126020189.582 9        49.200
                                                  23980863.293 9  94106034.417 9
        50.000    23980860.008 9  96560965.452 9        51.200    23980862.070 9
  95333432.543 9        54.000
  24474742.172 9 128615642.883 9        48.800
                                                  24474763.898 9  96044102.793 9
        48.600    24474760.668 9  98549604.842 9        49.600    24474762.660 9
  97296873.428 9        52.200
  27261730.445 6 143261364.815 6        38.000
                                                  27261752.820 6 106980825.897 6
        39.700    27261749.309 6 109771693.277 6        40.200    27261751.617 7
 108376260.695 7        43.500
  23653623.391 9 124300629.803 9        48.500
                                                  23653641.355 9  92821956.673 9
        50.600    23653638.008 9  95243389.730 9        51.300    23653640.051 9
  94032591.815 9        54.400
  27092239.016 6 142370690.985 6        39.700
                                                  27092263.293 6 106315701.959 6
        40.800    27092259.094 7 109089207.478 7        41.200    27092261.543 7
 107702449.334 7        44.200
  38095713.063 5 200194341.121 5        36.100



 23  2 14 10 24 12.0000000  0 25G30R 9R 5G19G11G14G 3R21R22G17G 7R11 0.000000000
                                R10G 6R20G 1E12E24E26E 1E31E21E33E10
                                S26
  21983110.813 7 115522044.130 7        44.100                    21983129.984 7
  90017232.50349        43.000    21983129.08249  21983132.570 9  86266482.039 9
        48.600

  21641635.156 7 115565147.141 7        44.100    21641634.559 7  21641649.066 7
  89883991.925 7        44.300


  24219076.242 4 129464955.851 4        34.100    24219076.219 4  24219102.637 3
 100694864.569 3        33.100


  22411912.133 7 117775401.168 7        42.100
  91773110.79448        30.800    22411933.08648


  24872146.250 4 130704015.024 4        34.300                    24872168.195 5
 101847369.08645        16.300    24872167.44545  24872175.023 6  97603648.969 6
        39.700

  20354761.438 8 106965000.096 8        47.500                    20354778.047 9
  83349407.42449        41.600    20354777.65249  20354784.895 9  79876477.723 9
        54.500

  22440123.477 6 117923636.891 6        40.600                    22440147.887 7
  91888639.99648        33.300    22440147.36748  22440152.559 8  88059878.785 8
        47.000

  20550466.953 9 109969697.181 9        50.200    20550466.453 9  20550483.660 8
  85531996.681 8        45.900


  22419838.070 7 119678637.355 7        42.900    22419838.410 7  22419856.500 6
  93083380.144 6        40.300


  21781156.641 7 114460767.456 7        43.800                    21781175.801 7
  89190261.90949        44.800    21781175.62149


  23657733.469 5 124322239.664 5        35.400                    23657750.891 4
  96874526.01647        29.100    23657750.54747


  20903435.930 9 111701632.905 9        48.700    20903435.660 8  20903452.082 8
  86879054.276 8        46.200


  19286303.172 8 102806837.767 8        45.000    19286302.426 7



  21361503.531 8 112255449.791 8        45.000                    21361523.469 8
  87471858.17749        47.300    21361522.91849  21361527.371 9  83827148.480 9
        50.200

  22024761.836 4 117776290.758 4        34.300    22024761.273 4  22024782.480 5
  91603789.861 5        36.400


  23283070.961 5 122353372.900 5        36.800                    23283097.641 6
  95340386.22446        21.700    23283097.82046  23283100.824 7  91367794.223 7
        43.400

  25027273.984 7 131519212.176 7        44.000
                                                  25027291.785 7  98212434.588 7
        44.400    25027288.996 7 100774484.392 7        44.800    25027290.785 8
  99493405.599 8        47.900
  28603888.758 4 150314434.662 4        34.300
                                                  28603915.043 5 112247795.096 5
        36.000    28603909.961 5 115175937.666 5        35.100

  26264674.422 6 138021796.427 6        40.900
                                                  26264699.680 7 103068152.895 7
        42.400    26264695.902 7 105756956.129 7        42.500    26264698.254 8
 104412569.121 8        46.100
  23980978.875 9 126020892.674 9        49.500
                                                  23980997.051 9  94106559.453 9
        49.800    23980993.918 9  96561504.186 9        50.700    23980995.887 9
  95333964.431 9        53.700
  24474400.914 9 128613848.396 9        48.500
                                                  24474422.414 9  96042762.752 9
        48.300    24474419.141 9  98548229.846 9        49.300    24474421.180 9
  97295515.908 9        52.400
  27262160.289 6 143263622.467 6        38.100
                                                  27262182.430 6 106982511.831 6
        39.700    27262179.313 6 109773423.169 6        39.900    27262181.227 7
 108377968.607 7        43.200
  23653807.297 9 124301595.704 9        48.500
                                                  23653825.133 9  92822677.965 9
        50.500    23653821.809 9  95244129.827 9        51.200    23653823.863 9
  94033322.506 9        54.400
  27091830.313 6 142368544.273 6        39.700
                                                  27091854.770 6 106314098.881 6
        40.700    27091850.691 7 109087562.603 7        41.300    27091853.012 7
 107700825.349 7        44.000
  38095700.531 5 200194288.718 5        36.400



 23  2 14 10 24 13.0000000  0 25G30R 9R 5G19G11G14G 3R21R22G17G 7R11 0.000000000
                                R10G 6R20G 1E12E24E26E 1E31E21E33E10
                                S26
  21983587.109 7 115524548.300 7        44.600                    21983606.680 7
  90019183.80449        43.200    21983605.61749  21983609.078 9  86268352.035 9
        48.400

  21642339.891 7 115568911.360 7        44.400    21642339.441 7  21642353.742 7
  89886919.663 7        43.800


  24218771.117 3 129463332.635 3        33.900    24218772.012 3  24218799.992 3
 100693601.993 3        33.500


  22411704.953 7 117774308.820 7        41.800
  91772259.62748        31.300    22411725.24248


  24871536.031 4 130700810.990 4        34.600                    24871558.332 5
 101844872.41445        16.300    24871557.94145  24871565.520 6  97601256.352 6
        39.300

  20354635.914 8 106964338.541 8        47.200                    20354651.980 9
  83348891.92949        41.600    20354651.74649  20354658.980 9  79875983.702 9
        54.500

  22440124.797 6 117923642.774 6        40.600                    22440149.027 7
  91888644.58148        33.600    22440148.49248  22440153.781 8  88059883.191 8
        47.000

  20550535.570 9 109970062.552 9        50.200    20550534.809 9  20550551.617 8
  85532280.858 8        45.800


  22419483.320 7 119676738.417 7        43.200    22419482.574 7  22419501.586 6
  93081903.210 6        40.500


  21781171.297 7 114460844.485 7        43.700                    21781190.137 7
  89190321.93449        44.900    21781190.23449


  23658391.039 5 124325697.270 5        35.000                    23658408.992 4
  96877220.25547        29.400    23658408.41847


  20902848.086 9 111698494.107 9        48.700    20902848.152 8  20902864.121 8
  86876613.002 8        46.300


  19286474.258 8 102807747.516 8        45.400    19286472.828 7



  21361139.211 7 112253536.462 7        44.600                    21361159.512 8
  87470367.26649        47.300    21361158.70749  21361163.242 9  83825719.695 9
        50.400

  22025315.078 4 117779254.718 4        34.600    22025315.227 3  22025337.414 5
  91606095.164 5        36.400


  23283736.852 5 122356873.484 5        37.000                    23283763.602 6
  95343113.93646        20.600    23283764.05146  23283767.027 7  91370408.293 7
        43.200

  25027000.609 7 131517775.977 7        43.500
                                                  25027018.340 7  98211362.100 7
        44.400    25027015.602 7 100773383.920 7        44.900    25027017.480 9
  99492319.113 9        48.200
  28603392.703 4 150311828.474 4        34.500
                                                  28603418.750 5 112245848.871 5
        36.200    28603414.145 5 115173940.676 5        36.100

  26265144.859 7 138024266.759 7        41.200
                                                  26265169.836 7 103069997.646 7
        42.700    26265165.957 7 105758848.982 7        42.900    26265168.355 8
 104414437.924 8        46.600
  23981112.875 9 126021596.094 9        49.700
                                                  23981130.980 9  94107084.750 9
        49.800    23981127.703 9  96562043.180 9        50.800    23981129.719 9
  95334496.575 9        53.800
  24474059.281 9 128612054.069 9        49.000
                                                  24474080.926 9  96041422.834 9
        48.500    24474077.719 9  98546854.972 9        49.300    24474079.719 9
  97294158.510 9        52.400
  27262590.422 6 143265880.302 6        38.200
                                                  27262611.961 6 106984197.879 6
        39.800    27262608.590 6 109775153.242 6        39.900    27262610.883 7
 108379676.671 7        43.400
  23653991.195 9 124302561.851 9        48.500
                                                  23654008.918 9  92823399.437 9
        50.600    23654005.672 9  95244870.128 9        51.200    23654007.715 9
  94034053.387 9        54.600
  27091421.664 6 142366397.764 6        39.800
                                                  27091446.383 6 106312495.965 6
        40.600    27091442.188 7 109085917.906 7        41.000    27091444.555 7
 107699201.545 7        44.000
  38095693.625 5 200194236.320 5        36.400



 23  2 14 10 24 14.0000000  0 25G30R 9R 5G19G11G14G 3R21R22G17G 7R11 0.000000000
                                R10G 6R20G 1E12E24E26E 1E31E21E33E10
                                S26
  21984063.906 7 115527052.833 7        44.200                    21984082.949 7
  90021135.38849        43.100    21984082.21549  21984085.730 9  86270222.309 9
        48.500

  21643045.352 7 115572676.046 7        44.300    21643044.734 7  21643059.379 7
  89889847.758 7        43.900


  24218469.867 4 129461709.838 4        34.500    24218468.125 3  24218495.258 3
 100692339.863 3        33.200


  22411496.141 7 117773216.586 7        41.600
  91771408.53748        30.600    22411517.37948


  24870926.414 4 130697607.210 4        34.300                    24870948.465 4
 101842375.99745        17.400    24870948.38745  24870955.984 6  97598863.924 6
        39.400

  20354510.078 8 106963677.465 8        47.200                    20354526.094 9
  83348376.80649        41.300    20354525.77749  20354533.168 9  79875490.046 9
        54.400

  22440126.164 6 117923649.326 6        40.700                    22440150.023 7
  91888649.68648        33.300    22440149.63748  22440154.965 8  88059888.072 8
        47.600

  20550604.313 9 109970428.397 9        50.200    20550603.313 9  20550619.656 8
  85532565.408 8        46.300


  22419127.359 7 119674839.966 7        43.600    22419127.313 7  22419145.531 6
  93080426.642 6        40.500


  21781185.914 7 114460921.537 7        43.900                    21781205.301 7
  89190381.97949        44.800    21781204.95749


  23659049.148 5 124329154.855 5        35.200                    23659067.293 4
  96879914.48047        28.600    23659066.50047


  20902260.867 9 111695355.872 9        48.800    20902260.770 8  20902278.102 8
  86874172.153 8        46.100


  19286645.906 7 102808658.171 7        44.900    19286643.527 7



  21360775.336 8 112251623.657 8        45.000                    21360795.418 8
  87468876.77949        47.400    21360794.77349  21360799.184 9  83824291.302 9
        50.500

  22025870.313 4 117782218.692 4        34.600    22025869.965 4  22025890.691 5
  91608400.472 5        36.600


  23284403.844 5 122360374.196 5        36.700                    23284429.523 6
  95345841.76646        21.500    23284430.19546  23284433.297 7  91373022.424 7
        43.100

  25026727.258 7 131516340.146 7        43.500
                                                  25026745.336 7  98210289.905 7
        43.800    25026742.410 7 100772283.749 7        44.900    25026744.258 9
  99491232.931 9        48.100
  28602896.703 4 150309222.176 4        34.300
                                                  28602922.703 5 112243902.655 5
        35.600    28602918.055 4 115171943.685 4        34.800

  26265614.625 7 138026737.184 7        41.000
                                                  26265639.922 7 103071842.443 7
        42.700    26265636.063 7 105760741.894 7        43.000    26265638.449 8
 104416306.785 8        46.500
  23981246.695 9 126022299.921 9        49.300
                                                  23981264.875 9  94107610.332 9
        49.800    23981261.645 9  96562582.472 9        50.700    23981263.660 9
  95335029.011 9        53.500
  24473717.875 9 128610259.954 9        48.800
                                                  24473739.586 9  96040083.090 9
        48.000    24473736.320 9  98545480.273 9        49.200    24473738.309 9
  97292801.286 9        52.300
  27263019.539 6 143268138.430 6        38.500
                                                  27263041.746 6 106985884.134 6
        39.800    27263038.336 6 109776883.470 6        39.800    27263040.586 7
 108381384.929 7        43.400
  23654175.211 9 124303528.335 9        48.600
                                                  23654192.906 9  92824121.171 9
        50.500    23654189.602 9  95245610.670 9        51.200    23654191.629 9
  94034784.536 9        54.300
  27091013.625 6 142364251.565 6        39.600
                                                  27091037.699 6 106310893.298 6
        40.900    27091033.863 7 109084273.382 7        41.200    27091036.145 7
 107697577.950 7        44.300
  38095683.281 5 200194183.970 5        36.200



 23  2 14 10 24 15.0000000  0 25G30R 9R 5G19G11G14G 3R21R22G17G 7R11 0.000000000
                                R10G 6R20G 1E12E24E26E 1E31E21E33E10
                                S26
  21984540.594 7 115529557.642 7        44.100                    21984559.645 7
  90023087.18949        43.000    21984558.82449  21984562.398 9  86272092.792 9
        48.700

  21643750.016 7 115576441.167 7        44.200    21643749.668 7  21643764.004 7
  89892776.164 7        44.200


  24218166.133 4 129460087.279 4        34.000    24218164.957 3  24218192.699 3
 100691077.897 3        33.200


  22411289.344 7 117772124.400 7        41.600
  91770557.49648        31.200    22411309.48048


  24870317.367 4 130694403.620 4        34.200                    24870338.844 5
 101839879.68945        16.900    24870338.65645  24870346.418 6  97596471.631 6
        39.700

  20354384.273 8 106963016.844 8        47.200                    20354400.418 9
  83347862.04049        41.200    20354400.15649  20354407.477 9  79874996.731 9
        54.500

  22440127.953 6 117923656.459 6        40.500                    22440151.531 7
  91888655.24348        33.100    22440150.84048  22440156.309 8  88059893.391 8
        47.600

  20550672.094 9 109970794.672 9        50.300    20550671.574 9  20550688.133 8
  85532850.291 8        46.600


  22418771.203 7 119672941.961 7        43.500    22418771.574 7  22418790.883 6
  93078950.413 6        40.100


  21781200.445 7 114460998.558 7        43.700                    21781219.766 7
  89190442.00149        44.800    21781219.64549


  23659706.898 5 124332612.409 5        35.200                    23659725.035 5
  96882608.66247        28.900    23659724.67247


  20901673.523 9 111692218.148 9        48.700    20901673.930 8  20901690.758 8
  86871731.710 8        46.000


  19286815.625 8 102809569.631 8        45.100    19286814.695 7



  21360411.813 7 112249711.328 7        44.700                    21360431.875 8
  87467386.65649        47.600    21360430.88749  21360435.270 9  83822863.265 9
        50.200

  22026421.898 4 117785182.618 4        34.300    22026424.586 3  22026444.492 5
  91610705.761 5        36.500


  23285069.531 5 122363874.953 5        36.100                    23285096.020 6
  95348569.63246        21.300    23285096.32846  23285099.348 7  91375636.648 7
        43.500

  25026454.203 7 131514904.631 7        43.500
                                                  25026472.141 7  98209217.931 7
        43.800    25026469.238 8 100771183.808 8        45.100    25026471.082 9
  99490146.979 9        48.200
  28602400.969 4 150306615.942 4        34.500
                                                  28602426.402 5 112241956.381 5
        35.800    28602421.887 4 115169946.660 4        34.800

  26266085.102 7 138029207.637 7        41.800
                                                  26266109.965 7 103073687.254 7
        42.000    26266106.238 7 105762634.838 7        43.000    26266108.563 8
 104418175.659 8        46.100
  23981380.938 9 126023004.080 9        49.500
                                                  23981398.848 9  94108136.159 9
        49.900    23981395.641 9  96563122.025 9        50.500    23981397.660 9
  95335561.707 9        54.000
  24473376.648 9 128608466.038 9        48.800
                                                  24473398.086 9  96038743.482 9
        48.200    24473394.973 9  98544105.724 9        49.300    24473396.930 9
  97291444.208 9        52.500
  27263449.227 6 143270396.757 6        38.200
                                                  27263471.605 6 106987570.545 6
        39.700    27263468.184 6 109778613.898 6        40.000    27263470.324 7
 108383093.325 7        43.400
  23654359.211 9 124304495.098 9        48.600
                                                  23654376.848 9  92824843.100 9
        50.800    23654373.523 9  95246351.449 9        51.000    23654375.590 9
  94035515.881 9        54.200
  27090605.500 6 142362105.566 6        39.500
                                                  27090629.320 6 106309290.748 6
        40.400    27090625.766 7 109082629.071 7        41.500    27090627.773 7
 107695954.509 7        44.100
  38095671.266 5 200194131.630 5        35.800



 23  2 14 10 24 16.0000000  0 25G30R 9R 5G19G11G14G 3R21R22G17G 7R11 0.000000000
                                R10G 6R20G 1E12E24E26E 1E31E21E33E10
                                S26
  21985016.891 7 115532062.740 7        44.100                    21985036.156 7
  90025039.22049        43.000    21985035.51249  21985039.055 9  86273963.474 9
        49.000

  21644455.109 7 115580206.622 7        44.700    21644454.660 7  21644469.324 7
  89895704.852 7        44.100


  24217862.945 3 129458465.104 3        33.700    24217861.824 3  24217888.738 3
 100689816.115 3        33.200


  22411081.188 7 117771032.213 7        42.000
  91769706.44848        30.500    22411101.59048


  24869707.250 4 130691200.150 4        34.100                    24869728.824 5
 101837383.45845        17.400    24869728.98845  24869736.703 6  97594079.451 6
        38.900

  20354258.719 8 106962356.664 8        47.000                    20354274.938 9
  83347347.61949        41.300    20354274.55949  20354281.879 9  79874503.733 9
        54.500

  22440129.633 6 117923664.119 6        40.500                    22440152.883 7
  91888661.21549        34.100    22440152.39149  22440157.727 8  88059899.115 8
        47.200

  20550741.289 9 109971161.285 9        50.300    20550740.004 9  20550757.184 8
  85533135.438 8        46.400


  22418416.781 7 119671044.331 7        43.000    22418416.070 7  22418434.652 6
  93077474.465 6        40.000


  21781215.031 7 114461075.503 7        43.800                    21781234.113 7
  89190501.95449        44.700    21781234.18449


  23660364.891 5 124336069.876 5        35.500                    23660382.633 4
  96885302.79547        28.900    23660382.71547


  20901086.273 9 111689080.889 9        48.900    20901086.699 8  20901103.609 8
  86869291.636 8        46.100


  19286987.930 8 102810481.890 8        45.400    19286985.969 7



  21360047.766 7 112247799.451 7        44.800                    21360067.879 8
  87465896.87849        47.300    21360067.05949  21360071.445 9  83821435.575 9
        50.600

  22026977.781 5 117788146.431 5        35.200    22026978.730 4  22026999.219 5
  91613010.946 5        37.100


  23285736.398 5 122367375.723 5        36.000                    23285762.555 6
  95351297.51446        21.500    23285762.71946  23285765.461 7  91378250.895 7
        43.200

  25026181.273 7 131513469.409 7        43.200
                                                  25026198.895 7  98208146.166 7
        43.400    25026196.105 8 100770084.101 8        45.100    25026197.969 9
  99489061.242 9        48.100
  28601905.555 4 150304009.516 4        34.600
                                                  28601930.734 5 112240010.026 5
        36.100    28601926.195 4 115167949.498 4        34.900

  26266554.961 7 138031678.010 7        41.600
                                                  26266579.840 7 103075532.001 7
        42.300    26266576.160 7 105764527.726 7        43.000    26266578.656 8
 104420044.473 8        46.200
  23981514.820 9 126023708.555 9        49.600
                                                  23981533.012 9  94108662.241 9
        49.800    23981529.648 9  96563661.832 9        50.700    23981531.711 9
  95336094.645 9        54.000
  24473035.102 9 128606672.264 9        48.700
                                                  24473056.859 9  96037403.991 9
        48.300    24473053.582 9  98542731.280 9        49.100    24473055.566 9
  97290087.243 9        52.300
  27263879.172 6 143272655.236 6        38.500
                                                  27263901.258 6 106989257.087 6
        39.500    27263897.969 6 109780344.434 6        40.100    27263900.094 7
 108384801.853 7        43.500
  23654543.250 9 124305462.102 9        48.600
                                                  23654560.836 9  92825565.216 9
        50.800    23654557.551 9  95247092.407 9        51.100    23654559.613 9
  94036247.418 9        53.900
  27090196.656 6 142359959.777 6        39.600
                                                  27090221.152 6 106307688.387 6
        40.800    27090217.074 7 109080984.890 7        41.600    27090219.453 7
 107694331.240 7        44.400
  38095658.281 5 200194079.177 5        36.200



 23  2 14 10 24 17.0000000  0 25G30R 9R 5G19G11G14G 3R21R22G17G 7R11 0.000000000
                                R10G 6R20G 1E12E24E26E 1E31E21E33E10
                                S26
  21985493.867 7 115534568.195 7        44.200                    21985513.047 7
  90026991.51649        43.200    21985512.33249  21985515.926 9  86275834.427 9
        48.900

  21645160.266 7 115583972.592 7        44.700    21645160.105 7  21645174.453 7
  89898633.929 7        44.200


  24217558.828 4 129456843.306 4        34.100    24217558.133 3  24217583.906 3
 100688554.729 3        33.400


  22410872.719 7 117769940.161 7        42.200
  91768855.51148        30.500    22410893.81348


  24869097.758 4 130687996.973 4        34.200                    24869119.332 5
 101834887.51245        16.900    24869119.47345  24869127.152 6  97591687.426 6
        39.200

  20354133.000 8 106961696.973 8        47.000                    20354149.223 9
  83346833.57649        41.000    20354149.08249  20354156.297 9  79874011.116 9
        54.500

  22440130.977 6 117923672.454 6        40.500                    22440155.008 7
  91888667.71448        33.600    22440154.02048  22440159.430 8  88059905.350 8
        47.000

  20550808.969 9 109971528.322 9        50.200    20550808.770 9  20550825.324 8
  85533420.926 8        46.300


  22418060.305 7 119669147.169 7        42.800    22418060.594 6  22418080.172 6
  93075998.906 6        39.900


  21781229.930 7 114461152.485 7        43.800                    21781249.121 7
  89190561.93949        44.800    21781248.98049


  23661022.961 5 124339527.383 5        35.300                    23661040.234 4
  96887996.96747        27.900    23661040.59047


  20900499.742 9 111685944.219 9        48.900    20900499.691 8  20900516.324 8
  86866852.015 8        46.000


  19287157.703 8 102811395.075 8        45.400    19287156.992 7



  21359684.305 8 112245888.121 8        45.000                    21359704.023 8
  87464407.53749        47.700    21359703.32849  21359707.746 9  83820008.282 9
        50.500

  22027531.680 4 117791110.228 4        34.600    22027533.063 4  22027553.164 5
  91615316.141 5        37.300


  23286402.102 5 122370876.710 5        36.400                    23286428.449 6
  95354025.55146        21.300    23286429.07446  23286431.629 7  91380865.240 7
        43.300

  25025908.266 7 131512034.572 7        43.500
                                                  25025925.863 7  98207074.689 7
        43.800    25025923.047 8 100768984.677 8        45.000    25025924.934 9
  99487975.792 9        48.100
  28601409.375 5 150301403.121 5        35.200
                                                  28601434.730 5 112238063.651 5
        36.000    28601430.445 5 115165952.375 5        35.300

  26267024.844 7 138034148.494 7        41.400
                                                  26267049.973 7 103077376.855 7
        42.200    26267046.469 7 105766420.680 7        42.800    26267048.785 8
 104421913.391 8        46.200
  23981648.977 9 126024413.445 9        49.800
                                                  23981667.066 9  94109188.617 9
        49.800    23981663.707 9  96564201.930 9        50.800    23981665.848 9
  95336627.881 9        53.700
  24472693.977 9 128604878.732 9        48.500
                                                  24472715.707 9  96036064.669 9
        48.200    24472712.250 9  98541357.020 9        49.100    24472714.285 9
  97288730.453 9        52.200
  27264309.117 5 143274913.989 5        37.800
                                                  27264330.891 6 106990943.817 6
        39.700    27264327.727 6 109782075.152 6        40.300    27264329.906 7
 108386510.591 7        43.800
  23654727.117 9 124306429.462 9        48.600
                                                  23654745.016 9  92826287.592 9
        51.200    23654741.621 9  95247833.618 9        51.100    23654743.703 9
  94036979.212 9        54.000
  27089788.766 6 142357814.292 6        38.900
                                                  27089812.957 6 106306086.230 6
        40.800    27089808.820 7 109079340.936 7        41.800    27089811.180 7
 107692708.201 7        44.200
  38095653.656 5 200194026.758 5        36.100



 23  2 14 10 24 18.0000000  0 25G30R 9R 5G19G11G14G 3R21R22G17G 7R11 0.000000000
                                R10G 6R20G 1E12E24E26E 1E31E21E33E10
                                S26
  21985970.266 7 115537073.927 7        44.700                    21985989.848 7
  90028944.03249        43.500    21985989.14849  21985992.641 9  86277705.589 9
        48.700

  21645865.609 7 115587738.920 7        44.500    21645865.547 7  21645880.047 7
  89901563.299 7        44.200


  24217256.188 3 129455221.836 3        33.800    24217255.313 3  24217281.605 3
 100687293.596 3        33.700


  22410664.711 7 117768848.126 7        41.800
  91768004.57548        30.600    22410686.06348


  24868488.188 4 130684793.938 4        34.700                    24868509.617 5
 101832391.64645        16.300    24868509.73845  24868517.547 6  97589295.581 6
        39.000

  20354007.680 8 106961037.724 8        47.500                    20354023.797 9
  83346319.87749        40.600    20354023.55949  20354030.824 9  79873518.828 9
        54.400

  22440132.609 6 117923681.364 6        40.400                    22440156.535 7
  91888674.64248        33.600    22440155.71548  22440161.059 8  88059911.995 8
        47.400

  20550877.773 9 109971895.739 9        50.500    20550877.453 9  20550893.902 8
  85533706.668 8        46.300


  22417705.477 7 119667250.429 7        42.800    22417705.426 6  22417723.719 6
  93074523.685 6        40.300


  21781244.547 7 114461229.414 7        44.000                    21781263.891 7
  89190621.89649        45.100    21781263.62949


  23661680.406 5 124342984.834 5        35.000                    23661698.703 4
  96890691.08447        27.600    23661698.62947


  20899912.141 9 111682808.040 9        49.200    20899912.766 8  20899929.148 8
  86864412.782 8        46.100


  19287330.063 8 102812309.074 8        45.000    19287328.523 7



  21359320.078 7 112243977.247 7        44.700                    21359340.680 8
  87462918.54849        47.400    21359339.71949  21359344.117 9  83818581.334 9
        50.500

  22028086.445 5 117794074.045 5        35.000    22028086.906 3  22028108.676 5
  91617621.300 5        37.600


  23287067.805 5 122374377.752 5        36.600                    23287094.594 6
  95356753.62746        20.900    23287095.17246  23287097.805 7  91383479.658 7
        43.100

  25025635.320 7 131510600.047 7        43.600
                                                  25025652.883 7  98206003.472 7
        44.200    25025650.141 7 100767885.492 7        44.900    25025651.949 9
  99486890.594 9        48.300
  28600913.313 5 150298796.534 5        35.300
                                                  28600938.902 5 112236117.182 5
        36.500    28600934.438 5 115163955.146 5        35.100

  26267495.242 7 138036618.955 7        41.800
                                                  26267520.320 7 103079221.687 7
        41.800    26267516.473 7 105768313.643 7        42.500    26267518.910 8
 104423782.282 8        45.700
  23981783.234 9 126025118.680 9        50.000
                                                  23981801.262 9  94109715.244 9
        49.800    23981798.047 9  96564742.308 9        50.600    23981800.047 9
  95337161.385 9        53.700
  24472352.508 9 128603085.370 9        48.600
                                                  24472374.285 9  96034725.481 9
        48.500    24472370.969 9  98539982.897 9        49.200    24472373.004 9
  97287373.801 9        52.000
  27264739.094 5 143277172.945 5        37.500
                                                  27264760.703 6 106992630.718 6
        39.800    27264757.773 6 109783806.043 6        40.200    27264759.734 7
 108388219.495 7        43.700
  23654911.391 9 124307397.093 9        48.600
                                                  23654929.168 9  92827010.178 9
        51.100    23654925.785 9  95248575.047 9        51.200    23654927.832 9
  94037711.220 9        54.200
  27089380.781 6 142355669.017 6        39.300
                                                  27089404.504 7 106304484.258 7
        41.100    27089400.633 7 109077697.163 7        41.300    27089402.934 7
 107691085.327 7        44.200
  38095643.844 5 200193974.318 5        36.300



 23  2 14 10 24 19.0000000  0 25G30R 9R 5G19G11G14G 3R21R22G17G 7R11 0.000000000
                                R10G 6R20G 1E12E24E26E 1E31E21E33E10
                                S26
  21986447.242 7 115539579.992 7        44.200                    21986466.602 8
  90030896.81249        43.200    21986466.01249  21986469.527 9  86279576.999 9
        48.600

  21646570.492 7 115591505.661 7        44.500    21646570.766 7  21646584.770 7
  89904493.007 7        43.900


  24216953.047 3 129453600.712 3        33.900    24216951.840 3  24216978.254 3
 100686032.711 3        32.900


  22410457.414 7 117767756.157 7        41.600
  91767153.70048        30.000    22410478.19948


  24867878.383 3 130681591.138 3        33.800                    24867900.805 5
 101829895.94845        16.900    24867900.27345  24867908.184 6  97586903.882 6
        39.200

  20353882.234 8 106960378.961 8        47.600                    20353898.637 9
  83345806.55949        40.900    20353898.25449  20353905.488 9  79873026.894 9
        54.400

  22440134.617 6 117923690.903 6        40.300                    22440158.082 7
  91888682.08048        33.600    22440157.53948  22440162.887 8  88059919.107 8
        47.300

  20550947.055 9 109972263.584 9        51.000    20550946.191 9  20550962.426 8
  85533992.787 8        45.800


  22417349.539 7 119665354.185 7        42.700    22417350.059 7  22417368.891 6
  93073048.776 6        40.200


  21781258.859 7 114461306.321 7        43.900                    21781278.215 7
  89190681.82749        44.800    21781278.27749


  23662338.398 5 124346442.300 5        35.600                    23662356.613 4
  96893385.21147        28.200    23662356.44547


  20899325.859 9 111679672.409 9        49.200    20899325.930 8  20899342.332 8
  86861973.954 8        45.900


  19287501.766 8 102813223.947 8        45.200    19287500.340 7



  21358956.578 7 112242066.874 7        44.800                    21358977.039 8
  87461429.94349        47.400    21358976.14849  21358980.531 9  83817154.761 9
        50.700

  22028641.320 5 117797037.802 5        35.000    22028641.141 3  22028663.207 5
  91619926.382 5        37.300


  23287733.828 5 122377878.886 5        36.600                    23287761.492 6
  95359481.77146        20.900    23287761.13346  23287764.148 7  91386094.133 7
        43.800

  25025362.242 7 131509165.853 7        43.900
                                                  25025380.035 7  98204932.471 7
        44.200    25025377.156 8 100766786.566 8        45.100    25025379.023 9
  99485805.632 9        48.400
  28600417.578 5 150296189.998 5        35.200
                                                  28600443.266 5 112234170.722 5
        37.000    28600438.297 5 115161957.907 5        35.500

  26267965.391 7 138039089.481 7        41.600
                                                  26267990.352 7 103081066.537 7
        41.700    26267986.563 7 105770206.639 7        42.800    26267989.027 8
 104425651.196 8        46.000
  23981917.586 9 126025824.274 9        49.700
                                                  23981935.531 9  94110242.154 9
        50.000    23981932.293 9  96565282.961 9        50.300    23981934.309 9
  95337695.172 9        53.600
  24472011.227 9 128601292.226 9        48.500
                                                  24472033.023 9  96033386.438 9
        48.500    24472029.730 9  98538608.931 9        49.100    24472031.770 9
  97286017.294 9        52.200
  27265168.086 6 143279432.096 6        38.000
                                                  27265190.648 6 106994317.758 6
        39.500    27265187.680 6 109785537.108 6        40.000    27265189.637 7
 108389928.544 7        43.500
  23655095.570 9 124308365.022 9        48.800
                                                  23655113.371 9  92827732.978 9
        50.900    23655109.965 9  95249316.718 9        51.300    23655112.027 9
  94038443.456 9        54.400
  27088972.758 6 142353524.012 6        39.800
                                                  27088996.473 7 106302882.451 7
        41.100    27088992.457 7 109076053.563 7        41.500    27088994.766 7
 107689462.625 7        44.500
  38095627.375 5 200193921.890 5        36.700



 23  2 14 10 24 20.0000000  0 25G30R 9R 5G19G11G14G 3R21R22G17G 7R11 0.000000000
                                R10G 6R20G 1E12E24E26E 1E31E21E33E10
                                S26
  21986924.648 7 115542086.358 7        44.400                    21986943.629 7
  90032849.82349        43.300    21986942.96549  21986946.508 9  86281448.647 9
        48.600

  21647276.281 7 115595272.825 7        44.700    21647276.230 7  21647290.602 7
  89907423.030 7        44.100


  24216649.352 3 129451979.929 3        33.100    24216648.777 3  24216675.074 3
 100684772.069 3        32.900


  22410249.875 7 117766664.263 7        41.800
  91766302.87548        30.700    22410270.43448


  24867269.391 3 130678388.464 3        33.800                    24867291.461 5
 101827400.36045        16.300    24867290.73445  24867298.730 6  97584512.294 6
        39.400

  20353757.352 8 106959720.645 8        47.500                    20353773.395 9
  83345293.59449        41.100    20353772.98049  20353780.215 9  79872535.297 9
        54.400

  22440136.273 6 117923701.004 6        40.200                    22440159.895 7
  91888689.95548        33.900    22440159.67248  22440164.809 8  88059926.655 8
        47.100

  20551015.617 9 109972631.846 9        51.100    20551014.828 9  20551031.445 8
  85534279.212 8        45.800


  22416995.695 7 119663458.354 7        42.800    22416995.039 6  22417013.637 6
  93071574.252 6        40.500


  21781273.695 7 114461383.211 7        43.800                    21781292.840 7
  89190741.74349        44.700    21781292.85249


  23662997.055 5 124349899.746 5        35.600                    23663014.324 4
  96896079.31347        27.700    23663014.28947


  20898739.008 9 111676537.312 9        49.300    20898739.293 8  20898755.891 8
  86859535.538 8        45.800


  19287674.258 7 102814139.662 7        44.700    19287671.980 7



  21358593.328 7 112240156.986 7        44.900                    21358613.441 8
  87459941.72549        47.500    21358612.73049  21358617.188 9  83815728.555 9
        50.700

  22029195.977 5 117800001.472 5        35.100    22029195.355 3  22029217.441 5
  91622231.523 5        37.500


  23288401.281 5 122381380.107 5        37.000                    23288427.598 6
  95362209.99646        22.000    23288427.25046  23288430.305 7  91388708.667 7
        43.900

  25025089.719 7 131507731.986 7        43.600
                                                  25025107.234 7  98203861.730 7
        44.500    25025104.184 8 100765687.894 8        45.100    25025106.176 9
  99484720.926 9        48.100
  28599921.789 5 150293583.370 5        36.000
                                                  28599947.410 5 112232224.177 5
        37.100    28599942.551 5 115159960.603 5        35.600

  26268435.195 7 138041560.013 7        41.700
                                                  26268460.426 7 103082911.417 7
        41.900    26268456.730 7 105772099.636 7        42.700    26268459.137 8
 104427520.144 8        46.100
  23982051.766 9 126026530.223 9        49.700
                                                  23982069.871 9  94110769.341 9
        50.200    23982066.590 9  96565823.887 9        50.600    23982068.645 9
  95338229.222 9        53.500
  24471670.133 9 128599499.275 9        48.700
                                                  24471691.918 9  96032047.561 9
        48.600    24471688.535 9  98537235.107 9        49.200    24471690.574 9
  97284660.945 9        52.300
  27265598.875 6 143281691.508 6        38.500
                                                  27265620.637 6 106996004.993 6
        39.500    27265617.320 6 109787268.331 6        40.200    27265619.605 7
 108391637.781 7        43.700
  23655279.820 9 124309333.252 9        48.800
                                                  23655297.570 9  92828456.004 9
        50.600    23655294.266 9  95250058.600 9        51.100    23655296.277 9
  94039175.907 9        54.800
  27088564.250 6 142351379.260 6        39.600
                                                  27088588.328 6 106301280.845 6
        40.900    27088584.484 7 109074410.188 7        41.200    27088586.598 7
 107687840.134 7        44.700
  38095625.906 5 200193869.482 5        36.900



 23  2 14 10 24 21.0000000  0 25G30R 9R 5G19G11G14G 3R21R22G17G 7R11 0.000000000
                                R10G 6R20G 1E12E24E26E 1E31E21E33E10
                                S26
  21987401.625 7 115544593.015 7        44.600                    21987420.434 7
  90034803.06949        43.400    21987420.08249  21987423.477 9  86283320.505 9
        48.800

  21647982.055 7 115599040.421 7        44.100    21647981.648 7  21647996.059 7
  89910353.357 7        43.800


  24216346.109 3 129450359.487 3        33.200    24216345.254 3  24216373.789 3
 100683511.683 3        32.600


  22410041.805 7 117765572.445 7        42.200
  91765452.11848        31.200    22410062.69548


  24866660.648 3 130675186.046 3        33.700                    24866681.715 5
 101824904.95245        16.900    24866681.49245  24866689.402 6  97582120.850 6
        39.100

  20353631.891 8 106959062.803 8        47.500                    20353648.145 9
  83344780.98349        41.100    20353647.75849  20353655.008 9  79872044.054 9
        54.500

  22440138.367 6 117923711.719 6        40.500                    22440162.086 7
  91888698.29748        33.600    22440161.66848  22440166.855 8  88059934.660 8
        47.200

  20551084.703 9 109973000.508 9        50.800    20551083.945 9  20551100.270 8
  85534565.954 8        45.900


  22416640.250 7 119661562.948 7        43.600    22416640.051 7  22416659.074 6
  93070100.053 6        40.300


  21781288.219 7 114461460.072 7        44.100                    21781307.539 7
  89190801.63749        45.100    21781307.35249


  23663654.773 5 124353357.187 5        35.800                    23663672.531 3
  96898773.42147        27.900    23663672.28147


  20898152.461 9 111673402.706 9        49.100    20898152.738 8  20898169.656 8
  86857097.521 8        45.900


  19287845.430 7 102815056.227 7        44.300    19287843.965 7



  21358230.406 7 112238247.580 7        44.900                    21358250.223 8
  87458453.87849        47.600    21358249.40249  21358253.828 9  83814302.702 9
        50.500

  22029750.047 4 117802965.087 4        34.800    22029749.695 3  22029770.930 5
  91624536.570 5        37.400


  23289066.961 5 122384881.395 5        37.600                    23289093.895 6
  95364938.26546        22.000    23289093.53546  23289096.645 7  91391323.259 7
        43.700

  25024816.789 7 131506298.449 7        43.400
                                                  25024834.438 7  98202791.239 7
        44.100    25024831.469 8 100764589.462 8        45.100    25024833.375 9
  99483636.468 9        48.000
  28599425.570 5 150290976.642 5        35.800
                                                  28599451.703 5 112230277.593 5
        37.100    28599446.832 5 115157963.186 5        36.300

  26268905.656 7 138044030.540 7        41.900
                                                  26268930.656 7 103084756.309 7
        41.700    26268926.809 7 105773992.646 7        42.800    26268929.273 8
 104429389.088 8        46.000
  23982185.977 9 126027236.522 9        50.100
                                                  23982204.305 9  94111296.760 9
        50.200    23982201.117 9  96566365.083 9        50.800    23982203.047 9
  95338763.529 9        53.700
  24471328.859 9 128597706.506 9        48.400
                                                  24471350.754 9  96030708.811 9
        48.600    24471347.383 9  98535861.439 9        49.300    24471349.418 9
  97283304.730 9        52.400
  27266028.438 6 143283951.119 6        38.000
                                                  27266050.527 6 106997692.351 6
        39.600    27266047.496 6 109788999.723 6        40.200    27266049.598 7
 108393347.148 7        43.900
  23655464.141 9 124310301.753 9        48.600
                                                  23655481.836 9  92829179.233 9
        50.500    23655478.512 9  95250800.702 9        51.200    23655480.566 9
  94039908.577 9        54.400
  27088156.555 6 142349234.708 6        39.700
                                                  27088180.199 6 106299679.414 6
        40.900    27088176.484 7 109072767.003 7        41.300    27088178.535 7
 107686217.802 7        44.900
  38095612.828 5 200193816.941 5        36.500



 23  2 14 10 24 22.0000000  0 25G30R 9R 5G19G11G14G 3R21R22G17G 7R11 0.000000000
                                R10G 6R20G 1E12E24E26E 1E31E21E33E10
                                S26
  21987879.023 7 115547100.012 7        44.400                    21987897.641 7
  90036756.57249        43.400    21987897.09849  21987900.578 9  86285192.605 9
        49.000

  21648687.930 7 115602808.405 7        44.000    21648687.258 7  21648701.926 7
  89913284.029 7        43.600


  24216044.070 3 129448739.411 3        33.300    24216042.004 2  24216070.168 3
 100682251.593 3        32.600


  22409834.398 7 117764480.676 7        42.300
  91764601.39248        30.400    22409854.93048


  24866050.641 3 130671983.871 3        33.900                    24866072.727 5
 101822409.76045        16.900    24866072.10245  24866080.070 6  97579729.610 6
        39.500

  20353506.672 9 106958405.410 9        48.100                    20353522.980 9
  83344268.73549        41.100    20353522.58649  20353529.906 9  79871553.152 9
        54.500

  22440140.695 6 117923723.035 6        40.700                    22440164.289 7
  91888707.11148        33.700    22440163.81648  22440168.945 8  88059943.113 8
        47.300

  20551153.430 9 109973369.566 9        50.400    20551152.766 9  20551170.043 8
  85534852.998 8        46.100


  22416286.289 7 119659667.977 7        43.300    22416285.254 7  22416303.863 6
  93068626.191 6        40.100


  21781302.859 7 114461536.926 7        43.700                    21781322.352 7
  89190861.52049        45.000    21781321.93849


  23664312.227 5 124356814.599 5        35.700                    23664330.859 4
  96901467.51747        28.100    23664330.16447


  20897566.266 9 111670268.667 9        49.100    20897566.262 8  20897582.641 8
  86854659.948 8        46.100


  19288017.469 7 102815973.621 7        44.800    19288016.285 7



  21357866.867 7 112236338.683 7        44.800                    21357887.086 8
  87456966.42349        47.500    21357886.07049  21357890.508 9  83812877.228 9
        50.500

  22030303.992 3 117805928.731 3        33.800    22030303.688 3  22030325.426 5
  91626841.596 5        37.300


  23289733.680 5 122388382.807 5        37.100                    23289759.992 6
  95367666.62746        21.800    23289759.95746  23289763.023 7  91393937.957 7
        43.700

  25024543.766 7 131504865.263 7        43.400
                                                  25024561.555 7  98201721.004 7
        44.400    25024558.754 7 100763491.296 7        44.800    25024560.625 8
  99482552.267 8        47.800
  28598928.961 5 150288369.809 5        35.700
                                                  28598955.930 5 112228330.947 5
        37.100    28598951.422 5 115155965.755 5        36.300

  26269375.859 7 138046501.096 7        42.000
                                                  26269400.711 7 103086601.196 7
        41.900    26269397.105 7 105775885.682 7        42.700    26269399.414 8
 104431258.051 8        46.300
  23982320.727 9 126027943.185 9        49.700
                                                  23982338.777 9  94111824.483 9
        50.200    23982335.492 9  96566906.556 9        50.700    23982337.516 9
  95339298.129 9        53.900
  24470987.867 9 128595913.939 9        48.600
                                                  24471009.637 9  96029370.215 9
        48.500    24471006.289 9  98534487.918 9        49.300    24471008.305 9
  97281948.674 9        52.100
  27266459.031 5 143286210.948 5        37.900
                                                  27266480.617 6 106999379.908 6
        39.600    27266477.668 6 109790731.283 6        40.400    27266479.605 7
 108395056.706 7        43.600
  23655648.250 9 124311270.565 9        48.900
                                                  23655666.313 9  92829902.697 9
        50.700    23655662.836 9  95251543.036 9        51.300    23655664.930 9
  94040641.482 9        54.400
  27087747.898 6 142347090.447 6        39.100
                                                  27087772.184 7 106298078.173 7
        41.300    27087768.309 7 109071123.964 7        41.300    27087770.508 7
 107684595.685 7        44.800
  38095602.141 5 200193764.501 5        35.800



 23  2 14 10 24 23.0000000  0 25G30R 9R 5G19G11G14G 3R21R22G17G 7R11 0.000000000
                                R10G 6R20G 1E12E24E26E 1E31E21E33E10
                                S26
  21988355.469 7 115549607.278 7        44.200                    21988374.883 7
  90038710.28649        43.600    21988374.21549  21988377.656 9  86287064.908 9
        48.600

  21649393.484 7 115606576.781 7        44.300    21649392.918 7  21649408.074 7
  89916214.969 7        43.900


  24215740.367 3 129447119.642 3        33.300    24215739.641 2  24215764.813 3
 100680991.785 3        32.500


  22409625.938 7 117763388.917 7        41.700
  91763750.68248        30.300    22409647.29748


  24865440.602 3 130668781.779 3        33.400                    24865463.379 5
 101819914.61545        16.300    24865462.67245  24865470.965 6  97577338.476 6
        39.800

  20353381.609 9 106957748.469 9        48.100                    20353397.988 9
  83343756.83149        41.300    20353397.65249  20353404.922 9  79871062.572 9
        54.500

  22440142.148 6 117923734.950 6        40.400                    22440166.285 7
  91888716.39948        33.600    22440166.00448  22440171.355 8  88059952.002 8
        47.100

  20551222.359 9 109973738.978 9        50.400    20551221.906 9  20551238.434 8
  85535140.312 8        46.400


  22415930.422 7 119657773.429 7        43.100    22415930.254 7  22415948.957 6
  93067152.633 6        39.900


  21781317.336 7 114461613.709 7        43.700                    21781336.867 7
  89190921.35449        44.900    21781336.67649


  23664970.531 4 124360271.941 4        34.900                    23664988.406 4
  96904161.55647        28.300    23664988.10247


  20896979.641 9 111667135.111 9        48.800    20896979.762 8  20896996.066 8
  86852222.749 8        46.200


  19288189.477 8 102816891.859 8        45.000    19288188.430 7



  21357503.773 7 112234430.237 7        44.900                    21357523.664 8
  87455479.33349        47.300    21357523.02049  21357527.465 9  83811452.098 9
        50.700

  22030859.563 4 117808892.255 4        34.500    22030857.750 3  22030879.574 5
  91629146.550 5        36.800


  23290400.375 5 122391884.257 5        37.600                    23290426.105 6
  95370395.02046        21.700    23290426.30146  23290429.441 7  91396552.667 7
        43.700

  25024271.023 7 131503432.354 7        43.600
                                                  25024289.000 7  98200650.972 7
        44.400    25024286.047 7 100762393.360 7        44.700    25024287.977 8
  99481468.277 8        47.700
  28598433.133 5 150285762.961 5        35.800
                                                  28598459.922 5 112226384.229 5
        37.000    28598455.488 5 115153968.259 5        36.300

  26269845.813 7 138048971.678 7        41.600
                                                  26269870.992 7 103088446.094 7
        41.800    26269867.160 7 105777778.713 7        43.000    26269869.551 8
 104433127.014 8        46.000
  23982455.211 9 126028650.192 9        49.800
                                                  23982473.242 9  94112352.430 9
        50.500    23982470.012 9  96567448.281 9        50.800    23982472.063 9
  95339832.970 9        54.000
  24470646.953 9 128594121.543 9        48.700
                                                  24470668.418 9  96028031.735 9
        48.300    24470665.234 9  98533114.533 9        48.900    24470667.211 9
  97280592.741 9        51.900
  27266889.164 6 143288470.975 6        38.100
                                                  27266910.836 6 107001067.586 6
        40.100    27266907.754 6 109792463.015 6        40.600    27266909.676 7
 108396766.408 7        43.800
  23655832.773 9 124312239.634 9        48.600
                                                  23655850.641 9  92830626.356 9
        50.600    23655847.227 9  95252285.572 9        51.400    23655849.328 9
  94041374.573 9        54.500
  27087339.461 6 142344946.355 6        38.900
                                                  27087364.055 7 106296477.069 7
        41.200    27087360.504 7 109069481.098 7        41.200    27087362.488 7
 107682973.704 7        44.900
  38095593.219 5 200193711.977 5        35.900



 23  2 14 10 24 24.0000000  0 25G30R 9R 5G19G11G14G 3R21R22G17G 7R11 0.000000000
                                R10G 6R20G 1E12E24E26E 1E31E21E33E10
                                S26
  21988833.039 7 115552114.870 7        44.100                    21988851.887 7
  90040664.25249        43.600    21988851.45749  21988854.871 9  86288937.462 9
        48.700

  21650099.758 7 115610345.584 7        44.600    21650098.457 7  21650112.840 7
  89919146.266 7        43.800


  24215436.656 3 129445500.257 3        33.600    24215436.160 3  24215461.992 3
 100679732.232 3        32.400


  22409418.781 7 117762297.262 7        41.800
  91762900.04548        30.500    22409439.55148


  24864831.828 3 130665579.937 3        33.400                    24864854.148 5
 101817419.72945        17.400    24864853.41845  24864861.992 6  97574947.505 6
        39.800

  20353256.641 8 106957092.001 8        47.600                    20353273.047 9
  83343245.30549        41.200    20353272.78549  20353279.980 9  79870572.363 9
        54.400

  22440144.969 6 117923747.462 6        40.600                    22440168.836 7
  91888726.14549        34.100    22440168.38749  22440173.680 8  88059961.345 8
        47.100

  20551290.906 9 109974108.835 9        50.500    20551290.980 9  20551308.121 8
  85535427.989 8        46.400


  22415576.102 7 119655879.343 7        43.000    22415575.355 7  22415592.891 6
  93065679.473 6        39.900


  21781332.125 7 114461690.492 7        44.000                    21781351.301 7
  89190981.19249        44.900    21781351.28149


  23665628.258 5 124363729.292 5        35.200                    23665646.188 4
  96906855.58547        26.400    23665646.04747


  20896393.523 9 111664002.078 9        48.800    20896393.469 8  20896410.082 8
  86849785.958 8        46.000


  19288362.063 7 102817810.921 7        44.900    19288360.684 7



  21357140.750 7 112232522.302 7        44.900                    21357160.484 8
  87453992.62949        47.400    21357159.96949  21357164.359 9  83810027.354 9
        50.900

  22031412.195 5 117811855.769 5        35.200    22031411.887 3  22031433.992 5
  91631451.501 5        36.700


  23291066.117 5 122395385.818 5        37.100                    23291092.820 6
  95373123.53446        21.700    23291092.64546  23291095.770 7  91399167.489 7
        43.700

  25023998.570 7 131501999.811 7        43.600
                                                  25024016.398 7  98199581.223 7
        44.200    25024013.402 8 100761295.702 8        45.100    25024015.348 8
  99480384.572 8        47.700
  28597937.000 4 150283156.003 4        34.700
                                                  28597963.813 5 112224437.474 5
        37.000    28597959.484 5 115151970.745 5        36.600

  26270315.852 7 138051442.303 7        41.900
                                                  26270341.172 7 103090291.012 7
        41.900    26270337.250 7 105779671.765 7        43.000    26270339.680 8
 104434995.998 8        45.900
  23982589.758 9 126029357.574 9        50.000
                                                  23982607.945 9  94112880.674 9
        50.800    23982604.648 9  96567990.301 9        50.500    23982606.672 9
  95340368.102 9        53.800
  24470305.672 9 128592329.353 9        48.600
                                                  24470327.391 9  96026693.430 9
        48.300    24470324.102 9  98531741.314 9        48.800    24470326.160 9
  97279236.981 9        52.200
  27267319.273 6 143290731.237 6        38.400
                                                  27267340.879 6 107002755.449 6
        39.800    27267337.648 6 109794194.927 6        40.700    27267339.781 7
 108398476.280 7        44.400
  23656017.297 9 124313209.021 9        48.800
                                                  23656035.043 9  92831350.248 9
        50.700    23656031.832 9  95253028.348 9        51.500    23656033.805 9
  94042107.910 9        54.700
  27086931.656 6 142342802.595 6        39.100
                                                  27086956.047 6 106294876.181 6
        40.700    27086952.578 7 109067838.454 7        41.400    27086954.535 7
 107681351.931 7        44.600
  38095574.875 5 200193659.446 5        35.800



 23  2 14 10 24 25.0000000  0 25G30R 9R 5G19G11G14G 3R21R22G17G 7R11 0.000000000
                                R10G 6R20G 1E12E24E26E 1E31E21E33E10
                                S26
  21989310.461 7 115554622.747 7        44.200                    21989329.602 8
  90042618.44049        43.200    21989328.64849  21989332.074 9  86290810.245 9
        49.100

  21650805.094 7 115614114.816 7        44.500    21650804.719 7  21650818.773 7
  89922077.895 7        43.800


  24215134.266 3 129443881.192 3        33.000    24215132.879 2  24215160.156 3
 100678473.014 3        33.400


  22409211.047 7 117761205.630 7        41.700
  91762049.42448        30.900    22409231.72748


  24864222.055 3 130662378.295 3        33.500                    24864244.949 5
 101814924.86845        17.400    24864244.25445  24864253.277 6  97572556.663 6
        39.900

  20353131.914 8 106956435.985 8        47.500                    20353148.152 9
  83342734.12649        41.300    20353147.95749  20353155.180 9  79870082.487 9
        54.500

  22440147.156 6 117923760.565 6        40.300                    22440171.652 7
  91888736.35848        33.600    22440170.97348  22440176.191 8  88059971.117 8
        47.300

  20551360.773 9 109974479.104 9        50.300    20551360.254 9  20551377.090 8
  85535715.967 8        46.700


  22415221.008 7 119653985.680 7        42.700    22415220.453 7  22415238.641 6
  93064206.620 6        40.000


  21781346.773 7 114461767.238 7        43.900                    21781366.211 7
  89191040.99449        44.900    21781365.84849


  23666286.156 5 124367186.597 5        35.200                    23666303.883 4
  96909549.58747        27.400    23666303.93847


  20895806.516 9 111660869.578 9        48.700    20895807.461 9  20895824.449 8
  86847349.593 8        46.000


  19288534.383 7 102818730.828 7        44.900    19288533.160 7



  21356776.914 7 112230614.861 7        44.700                    21356797.633 8
  87452506.31049        47.400    21356796.89849  21356801.336 9  83808602.958 9
        50.800

  22031966.797 5 117814819.209 5        35.000    22031966.188 3  22031987.168 5
  91633756.412 5        36.900


  23291732.375 5 122398887.452 5        37.500                    23291758.754 6
  95375852.09046        21.500    23291759.01246  23291762.199 7  91401782.333 7
        43.400

  25023726.133 7 131500567.583 7        43.800
                                                  25023743.871 7  98198511.701 7
        44.600    25023740.938 8 100760198.287 8        45.200    25023742.801 9
  99479301.103 9        48.100
  28597440.945 4 150280549.030 4        34.600
                                                  28597467.547 5 112222490.697 5
        36.900    28597463.434 5 115149973.142 5        36.300

  26270786.305 7 138053912.936 7        42.100
                                                  26270811.340 7 103092135.957 7
        41.800    26270807.418 7 105781564.825 7        43.300    26270809.852 8
 104436865.009 8        46.000
  23982724.500 9 126030065.285 9        49.700
                                                  23982742.566 9  94113409.170 9
        50.900    23982739.320 9  96568532.594 9        50.500    23982741.344 9
  95340903.489 9        54.200
  24469964.570 9 128590537.346 9        48.600
                                                  24469986.504 9  96025355.250 9
        48.100    24469983.066 9  98530368.215 9        49.000    24469985.152 9
  97277881.349 9        52.100
  27267749.055 6 143292991.711 6        38.100
                                                  27267771.023 6 107004443.466 6
        39.900    27267768.008 6 109795926.953 6        40.500    27267769.934 7
 108400186.314 7        44.200
  23656201.875 9 124314178.682 9        48.600
                                                  23656219.586 9  92832074.339 9
        50.900    23656216.297 9  95253771.328 9        51.200    23656218.324 9
  94042841.448 9        54.800
  27086524.109 6 142340659.011 6        38.900
                                                  27086548.238 6 106293275.468 6
        40.700    27086544.535 7 109066195.988 7        41.200    27086546.621 7
 107679730.349 7        44.900
  38095568.156 5 200193606.929 5        36.300



 23  2 14 10 24 26.0000000  0 25G30R 9R 5G19G11G14G 3R21R22G17G 7R11 0.000000000
                                R10G 6R20G 1E12E24E26E 1E31E21E33E10
                                S26
  21989787.609 7 115557130.963 7        44.500                    21989806.789 7
  90044572.89349        43.500    21989806.09049  21989809.441 9  86292683.238 9
        49.100

  21651510.820 7 115617884.469 7        44.300    21651510.316 7  21651524.426 7
  89925009.847 7        43.700


  24214831.203 3 129442262.536 3        33.400    24214830.262 3  24214859.098 3
 100677213.999 3        33.900


  22409003.461 7 117760114.063 7        41.700
  91761198.87048        30.400    22409024.00448


  24863613.961 3 130659176.809 3        32.600                    24863635.945 5
 101812430.27045        18.300    24863635.09045  24863644.285 6  97570165.971 6
        40.200

  20353007.023 8 106955780.436 8        47.300                    20353023.430 9
  83342223.31349        41.400    20353023.05949  20353030.395 9  79869592.954 9
        54.600

  22440150.375 6 117923774.283 6        40.500                    22440174.492 7
  91888747.04648        33.900    22440173.40248  22440178.820 8  88059981.365 8
        47.400

  20551430.281 9 109974849.781 9        50.000    20551429.438 9  20551445.703 8
  85536004.267 8        46.700


  22414865.234 7 119652092.470 7        42.500    22414865.719 7  22414884.215 6
  93062734.102 6        40.500


  21781361.422 7 114461843.953 7        43.900                    21781380.375 7
  89191100.77649        44.700    21781380.60549


  23666944.125 5 124370643.889 5        35.300                    23666961.957 4
  96912243.56947        27.000    23666961.70347


  20895221.234 9 111657737.584 9        48.400    20895221.180 9  20895237.340 8
  86844913.611 8        46.100


  19288707.453 7 102819651.592 7        44.800    19288706.004 7



  21356414.984 8 112228707.897 8        45.000                    21356434.754 8
  87451020.37049        47.400    21356434.07049  21356438.426 9  83807178.928 9
        50.200

  22032521.805 4 117817782.586 4        34.600    22032520.613 3  22032541.793 5
  91636061.280 5        36.500


  23292398.820 6 122402389.209 6        38.000                    23292425.484 6
  95378580.72446        21.100    23292425.44946  23292428.523 7  91404397.277 7
        43.400

  25023453.391 7 131499135.671 7        43.600
                                                  25023471.410 7  98197442.427 7
        44.800    25023468.449 8 100759101.129 8        45.600    25023470.328 9
  99478217.882 9        48.300
  28596944.359 4 150277941.923 4        34.600
                                                  28596971.504 5 112220543.810 5
        36.700    28596967.230 5 115147975.531 5        36.400

  26271256.227 7 138056383.541 7        42.100
                                                  26271281.422 7 103093980.928 7
        42.000    26271277.566 7 105783457.897 7        43.300    26271279.969 8
 104438734.025 8        45.900
  23982859.219 9 126030773.374 9        49.800
                                                  23982877.301 9  94113937.934 9
        50.600    23982874.094 9  96569075.148 9        50.900    23982876.082 9
  95341439.152 9        54.200
  24469623.719 9 128588745.527 9        48.500
                                                  24469645.313 9  96024017.222 9
        48.200    24469642.219 9  98528995.288 9        49.000    24469644.168 9
  97276525.861 9        52.100
  27268179.039 6 143295252.408 6        38.100
                                                  27268201.223 6 107006131.670 6
        39.700    27268198.043 6 109797659.174 6        40.400    27268200.113 7
 108401896.541 7        43.900
  23656386.492 9 124315148.635 9        48.500
                                                  23656404.098 9  92832798.667 9
        50.600    23656400.863 9  95254514.546 9        51.300    23656402.914 9
  94043575.218 9        54.600
  27086116.570 6 142338515.671 6        38.900
                                                  27086140.281 6 106291674.972 6
        40.500    27086136.563 7 109064553.693 7        41.200    27086138.770 7
 107678108.946 7        44.700
  38095561.188 5 200193554.450 5        35.600



 23  2 14 10 24 27.0000000  0 25G30R 9R 5G19G11G14G 3R21R22G17G 7R11 0.000000000
                                R10G 6R20G 1E12E24E26E 1E31E21E33E10
                                S26
  21990264.703 7 115559639.502 7        44.500                    21990284.324 7
  90046527.59449        43.100    21990283.39149  21990286.781 9  86294556.497 9
        48.600

  21652216.883 7 115621654.529 7        44.500    21652216.371 7  21652231.094 7
  89927942.117 7        43.600


  24214529.281 3 129440644.275 3        33.500    24214527.766 3  24214556.566 3
 100675955.335 3        33.600


  22408795.023 7 117759022.588 7        41.500
  91760348.37648        30.300    22408816.35548


  24863004.523 3 130655975.575 3        32.500                    24863026.738 5
 101809935.78545        16.300    24863025.80945  24863035.355 6  97567775.433 6
        40.200

  20352882.656 8 106955125.379 8        47.300                    20352898.797 9
  83341712.87849        41.400    20352898.52749  20352905.723 9  79869103.792 9
        54.700

  22440153.203 6 117923788.614 6        40.500                    22440176.992 7
  91888758.20149        34.000    22440176.15249  22440181.539 8  88059992.069 8
        47.200

  20551499.367 9 109975220.870 9        50.100    20551498.750 9  20551515.531 8
  85536292.910 8        46.800


  22414512.281 7 119650199.739 7        42.100    22414511.199 7  22414529.691 6
  93061261.988 6        40.000


  21781376.125 7 114461920.713 7        43.800                    21781395.375 7
  89191160.58649        44.700    21781395.08649


  23667601.375 5 124374101.217 5        35.400                    23667619.590 4
  96914937.60347        28.400    23667619.73447


  20894634.641 9 111654606.178 9        48.600    20894635.066 8  20894651.484 8
  86842478.082 8        45.800


  19288880.328 8 102820573.219 8        45.100    19288878.824 7



  21356051.734 7 112226801.459 7        44.600                    21356072.230 8
  87449534.83349        47.200    21356071.27049  21356075.672 9  83805755.285 9
        50.100

  22033075.508 4 117820745.961 4        34.600    22033074.887 3  22033095.301 5
  91638366.125 5        36.600


  23293065.195 5 122405891.061 5        37.000                    23293092.137 6
  95381309.42246        21.700    23293091.70746  23293094.906 7  91407012.302 7
        43.400

  25023181.000 7 131497704.143 7        43.200
                                                  25023198.941 7  98196373.418 7
        44.300    25023196.055 8 100758004.233 8        45.400    25023197.914 9
  99477134.937 9        48.200
  28596448.266 4 150275334.787 4        34.600
                                                  28596475.098 5 112218596.945 5
        36.700    28596471.438 5 115145977.835 5        36.400

  26271726.891 7 138058854.229 7        42.100
                                                  26271751.699 7 103095825.901 7
        42.400    26271747.672 7 105785351.043 7        42.900    26271750.148 8
 104440603.088 8        46.200
  23982993.867 9 126031481.844 9        49.800
                                                  23983012.145 9  94114466.983 9
        50.700    23983008.910 9  96569617.988 9        50.500    23983010.898 9
  95341975.103 9        53.900
  24469282.805 9 128586953.952 9        48.400
                                                  24469304.504 9  96022679.365 9
        48.300    24469301.152 9  98527622.520 9        48.800    24469303.234 9
  97275170.551 9        51.900
  27268609.383 5 143297513.321 5        37.700
                                                  27268631.469 6 107007820.030 6
        39.700    27268628.359 6 109799391.588 6        40.200    27268630.332 7
 108403606.909 7        43.700
  23656571.227 9 124316118.921 9        48.500
                                                  23656588.754 9  92833523.227 9
        50.200    23656585.496 9  95255258.015 9        51.300    23656587.547 9
  94044309.233 9        54.200
  27085708.422 6 142336372.628 6        39.100
                                                  27085732.539 6 106290074.609 6
        40.200    27085728.758 7 109062911.635 7        41.300    27085730.961 7
 107676487.734 7        43.900
  38095544.594 5 200193501.934 5        35.900



 23  2 14 10 24 28.0000000  0 25G30R 9R 5G19G11G14G 3R21R22G17G 7R11 0.000000000
                                R10G 6R20G 1E12E24E26E 1E31E21E33E10
                                S26
  21990742.313 7 115562148.271 7        44.600                    21990761.602 7
  90048482.47849        43.500    21990760.76249  21990764.211 9  86296429.935 9
        48.800

  21652922.289 7 115625424.927 7        44.100    21652922.406 7  21652936.809 7
  89930874.651 7        43.500


  24214226.906 4 129439026.218 4        34.300    24214224.938 3  24214252.719 3
 100674696.864 3        33.500


  22408587.406 7 117757931.132 7        41.600
  91759497.89448        30.300    22408608.73048


  24862394.883 3 130652774.481 3        33.500                    24862417.578 5
 101807441.45445        16.300    24862416.69145  24862426.355 6  97565385.014 6
        40.100

  20352757.930 8 106954470.707 8        47.200                    20352774.176 9
  83341202.74749        41.400    20352773.97349  20352781.168 9  79868614.921 9
        54.600

  22440155.336 6 117923803.482 6        40.800                    22440179.703 7
  91888769.79247        28.900    22440178.97347  22440184.418 8  88060003.162 8
        47.000

  20551568.914 9 109975592.243 9        50.400    20551568.508 9  20551585.086 8
  85536581.749 8        47.000


  22414157.000 7 119648307.355 7        42.000    22414156.625 7  22414175.109 6
  93059790.129 6        40.100


  21781390.516 7 114461997.345 7        44.000                    21781410.234 7
  89191220.30649        44.700    21781409.65649


  23668260.070 5 124377558.391 5        35.400                    23668277.133 4
  96917631.49247        27.600    23668277.37947


  20894048.547 9 111651475.201 9        48.600    20894049.285 8  20894065.578 8
  86840042.886 8        45.800


  19289052.445 7 102821495.647 7        44.700    19289051.902 7



  21355689.047 7 112224895.416 7        44.800                    21355709.113 8
  87448049.61349        47.400    21355708.55549  21355712.969 9  83804331.954 9
        50.200

  22033630.203 4 117823709.274 4        34.800    22033629.113 4  22033650.016 5
  91640670.870 5        36.300


  23293731.727 5 122409392.928 5        37.200                    23293757.945 6
  95384038.16146        21.100    23293757.98846  23293761.281 7  91409627.330 7
        43.300

  25022908.680 7 131496272.870 7        43.300
                                                  25022926.559 7  98195304.609 7
        44.500    25022923.711 8 100756907.543 8        45.400    25022925.547 9
  99476052.192 9        48.500
  28595952.297 4 150272727.527 4        34.500
                                                  28595979.016 5 112216649.939 5
        37.200    28595974.875 5 115143980.059 5        36.300

  26272196.891 7 138061324.874 7        42.200
                                                  26272221.750 7 103097670.863 7
        42.300    26272217.930 7 105787244.119 7        43.000    26272220.281 8
 104442472.087 8        46.400
  23983128.961 9 126032190.586 9        49.200
                                                  23983146.945 9  94114996.236 9
        50.600    23983143.672 9  96570161.068 9        50.300    23983145.773 9
  95342511.263 9        53.800
  24468941.797 9 128585162.494 9        48.600
                                                  24468963.691 9  96021341.589 9
        48.200    24468960.418 9  98526249.843 9        49.000    24468962.344 9
  97273815.320 9        51.800
  27269040.023 6 143299774.394 6        38.200
                                                  27269061.605 6 107009508.485 6
        40.200    27269058.531 6 109801124.104 6        40.200    27269060.609 7
 108405317.402 7        44.000
  23656755.727 9 124317089.425 9        48.600
                                                  23656773.484 9  92834247.947 9
        50.300    23656770.141 9  95256001.638 9        51.700    23656772.219 9
  94045043.402 9        54.400
  27085300.586 6 142334229.739 6        39.100
                                                  27085324.727 6 106288474.423 6
        40.500    27085320.832 7 109061269.672 7        41.400    27085323.180 7
 107674866.657 7        44.200
  38095540.109 5 200193449.368 5        35.800



 23  2 14 10 24 29.0000000  0 25G30R 9R 5G19G11G14G 3R21R22G17G 7R11 0.000000000
                                R10G 6R20G 1E12E24E26E 1E31E21E33E10
                                S26
  21991220.141 7 115564657.378 7        44.600                    21991239.063 7
  90050437.62949        43.400    21991238.24249  21991241.660 9  86298303.630 9
        48.800

  21653629.063 7 115629195.805 7        43.900    21653629.016 7  21653643.250 7
  89933807.550 7        43.600


  24213922.391 4 129437408.626 4        34.600    24213922.316 3  24213949.469 3
 100673438.701 3        33.600


  22408380.172 7 117756839.720 7        41.600
  91758647.46148        31.300    22408401.19948


  24861786.086 3 130649573.611 3        32.900                    24861808.906 5
 101804947.27845        16.900    24861807.72345  24861817.102 6  97562994.767 6
        40.500

  20352633.469 8 106953816.539 8        47.600                    20352649.719 9
  83340693.01049        41.400    20352649.34849  20352656.664 9  79868126.415 9
        54.500

  22440158.961 6 117923818.969 6        40.400                    22440182.551 7
  91888781.86047        28.900    22440181.82447  22440187.352 8  88060014.743 8
        47.200

  20551638.680 9 109975964.048 9        50.800    20551637.898 9  20551654.496 8
  85536870.923 8        46.600


  22413801.938 7 119646415.470 7        42.200    22413802.266 7  22413821.465 6
  93058318.666 6        40.100


  21781405.633 7 114462074.006 7        44.000                    21781424.676 7
  89191280.05249        45.000    21781424.19149


  23668917.484 5 124381015.635 5        35.200                    23668935.371 4
  96920325.45547        27.300    23668935.28147


  20893463.680 9 111648344.789 9        48.800    20893463.402 8  20893480.098 8
  86837608.135 8        45.900


  19289225.789 7 102822418.927 7        44.600    19289225.355 7



  21355326.695 7 112222989.916 7        44.800                    21355346.695 8
  87446564.80949        47.500    21355345.98449  21355350.305 9  83802909.015 9
        50.200

  22034183.578 4 117826672.491 4        34.800    22034183.012 3  22034203.641 5
  91642975.611 5        36.500


  23294397.867 5 122412894.911 5        37.100                    23294423.992 6
  95386766.98946        21.700    23294424.48046  23294427.703 7  91412242.430 7
        43.200

  25022636.477 7 131494841.989 7        43.600
                                                  25022654.344 7  98194236.099 7
        44.300    25022651.430 7 100755811.151 7        44.900    25022653.250 9
  99474969.729 9        48.100
  28595456.391 4 150270120.241 4        34.500
                                                  28595482.695 5 112214702.934 5
        36.700    28595478.359 5 115141982.276 5        36.300

  26272667.195 7 138063795.547 7        42.000
                                                  26272691.836 7 103099515.853 7
        42.100    26272688.160 7 105789137.220 7        43.200    26272690.441 8
 104444341.142 8        45.900
  23983263.805 9 126032899.738 9        49.000
                                                  23983281.859 9  94115525.811 9
        50.300    23983278.684 9  96570704.441 9        50.700    23983280.723 9
  95343047.734 9        53.700
  24468600.906 9 128583371.265 9        48.800
                                                  24468622.742 9  96020003.976 9
        48.200    24468619.488 9  98524877.349 9        49.300    24468621.469 9
  97272460.269 9        52.000
  27269470.148 6 143302035.713 6        38.400
                                                  27269491.996 6 107011197.126 6
        39.700    27269488.797 6 109802856.828 6        40.400    27269490.938 7
 108407028.073 7        43.700
  23656940.547 9 124318060.248 9        48.600
                                                  23656958.207 9  92834972.913 9
        50.400    23656954.898 9  95256745.515 9        51.500    23656956.961 9
  94045777.821 9        54.400
  27084892.586 6 142332087.119 6        38.500
                                                  27084917.176 7 106286874.417 7
        41.000    27084913.246 7 109059627.963 7        41.200    27084915.457 7
 107673245.796 7        44.600
  38095531.656 5 200193396.835 5        35.900



 23  2 14 10 24 30.0000000  0 25G30R 9R 5G19G11G14G 3R21R22G17G 7R11 0.000000000
                                R10G 6R20G 1E12E24E26E 1E31E21E33E10
                                S26
  21991697.938 7 115567166.780 7        44.600                    21991716.250 7
  90052393.00949        43.700    21991715.77049  21991719.141 9  86300177.542 9
        48.800

  21654334.211 7 115632967.067 7        44.000    21654334.973 7  21654349.922 7
  89936740.770 7        43.500


  24213620.320 4 129435791.321 4        34.100    24213619.438 3  24213646.063 3
 100672180.739 3        33.500


  22408172.234 7 117755748.376 7        41.500
  91757797.06448        30.500    22408193.40648


  24861177.891 3 130646372.970 3        32.600                    24861199.262 5
 101802453.26245        16.900    24861198.78545  24861208.102 6  97560604.626 6
        40.600

  20352508.859 8 106953162.823 8        47.200                    20352525.379 9
  83340183.62349        41.400    20352525.08249  20352532.234 9  79867638.253 9
        54.400

  22440161.820 6 117923835.054 6        40.800                    22440185.422 7
  91888794.39847        29.600    22440184.87147  22440190.313 8  88060026.751 8
        47.200

  20551707.297 9 109976336.296 9        50.700    20551707.305 9  20551723.941 8
  85537160.455 8        46.500


  22413448.469 7 119644523.992 7        42.400    22413447.809 7  22413467.016 6
  93056847.534 6        40.300


  21781419.727 7 114462150.618 7        44.000                    21781439.145 7
  89191339.74749        44.700    21781438.93049


  23669575.195 5 124384472.812 5        35.600                    23669593.594 5
  96923019.34847        27.800    23669593.06647


  20892877.992 9 111645214.923 9        48.900    20892877.617 8  20892893.504 8
  86835173.788 8        46.300


  19289400.094 7 102823343.082 7        44.700    19289398.473 7



  21354964.414 8 112221084.904 8        45.000                    21354983.914 8
  87445080.38049        47.500    21354983.32849  21354987.801 9  83801486.438 9
        50.200

  22034738.719 5 117829635.629 5        35.000    22034737.191 4  22034757.672 5
  91645280.325 5        36.800


  23295064.500 5 122416396.981 5        37.100                    23295090.488 6
  95389495.88146        21.700    23295090.96546  23295094.156 7  91414857.623 7
        43.400

  25022364.141 7 131493411.398 7        43.700
                                                  25022382.047 7  98193167.800 7
        43.900    25022379.188 7 100754714.985 7        44.800    25022381.020 8
  99473887.511 8        47.900
  28594959.922 5 150267512.904 5        35.100
                                                  28594986.602 5 112212755.832 5
        36.200    28594982.352 5 115139984.408 5        36.300

  26273137.422 7 138066266.215 7        42.100
                                                  26273162.133 7 103101360.862 7
        42.400    26273158.207 7 105791030.363 7        43.300    26273160.613 8
 104446210.222 8        46.100
  23983398.789 9 126033609.224 9        49.500
                                                  23983416.875 9  94116055.614 9
        50.200    23983413.672 9  96571248.076 9        51.000    23983415.730 9
  95343584.451 9        53.600
  24468260.016 9 128581580.224 9        48.900
                                                  24468281.996 9  96018666.519 9
        48.100    24468278.676 9  98523505.001 9        49.000    24468280.633 9
  97271105.367 9        51.900
  27269900.727 5 143304297.251 5        37.600
                                                  27269922.406 6 107012885.971 6
        39.800    27269919.262 6 109804589.672 6        40.200    27269921.285 7
 108408738.933 7        43.500
  23657125.289 9 124319031.358 9        48.900
                                                  23657143.051 9  92835698.100 9
        50.100    23657139.680 9  95257489.616 9        51.200    23657141.762 9
  94046512.462 9        54.500
  27084484.938 6 142329944.769 6        38.900
                                                  27084509.484 6 106285274.636 6
        40.900    27084505.207 7 109057986.403 7        41.500    27084507.773 7
 107671625.129 7        44.700
  38095515.531 5 200193344.287 5        36.000



 23  2 14 10 24 31.0000000  0 25G30R 9R 5G19G11G14G 3R21R22G17G 7R11 0.000000000
                                R10G 6R20G 1E12E24E26E 1E31E21E33E10
                                S26
  21992175.055 7 115569676.519 7        44.500                    21992193.941 8
  90054348.65449        43.600    21992193.40649  21992196.750 9  86302051.686 9
        48.700

  21655041.297 7 115636738.769 7        44.100    21655040.980 7  21655055.523 7
  89939674.311 7        43.700


  24213318.250 4 129434174.367 4        34.200    24213317.313 3  24213342.574 3
 100670923.100 3        33.200


  22407964.648 7 117754657.083 7        41.600
  91756946.71648        30.500    22407985.60948


  24860567.781 3 130643172.409 3        33.600                    24860589.941 5
 101799959.36445        17.400    24860589.88745  24860599.082 6  97558214.681 6
        40.700

  20352384.953 8 106952509.575 8        47.200                    20352401.063 9
  83339674.60249        40.900    20352400.63749  20352407.961 9  79867150.441 9
        54.400

  22440164.445 6 117923851.767 6        40.600                    22440189.031 7
  91888807.42347        28.500    22440188.12947  22440193.605 8  88060039.214 8
        47.800

  20551777.898 9 109976708.997 9        50.800    20551776.871 9  20551793.375 8
  85537450.323 8        46.100


  22413093.172 7 119642632.971 7        42.800    22413093.633 7  22413112.734 6
  93055376.727 6        40.100


  21781434.156 7 114462227.218 7        43.900                    21781454.012 7
  89191399.44349        44.700    21781453.27349


  23670233.742 5 124387930.000 5        35.200                    23670251.594 4
  96925713.27047        27.700    23670250.91847


  20892292.656 9 111642085.563 9        48.800    20892292.074 8  20892308.449 8
  86832739.850 8        46.300


  19289574.148 7 102824268.067 7        44.900    19289572.000 7



  21354601.820 7 112219180.388 7        44.700                    21354621.918 8
  87443596.34549        47.400    21354621.02349  21354625.422 9  83800064.233 9
        50.600

  22035291.430 5 117832598.802 5        35.100    22035290.875 3  22035312.199 5
  91647584.996 5        36.900


  23295730.391 5 122419899.147 5        36.800                    23295757.422 6
  95392224.82546        21.300    23295757.43846  23295760.645 7  91417472.892 7
        43.800

  25022092.078 7 131491981.144 7        43.900
                                                  25022109.820 7  98192099.770 7
        44.200    25022106.938 7 100753619.098 7        44.800    25022108.855 8
  99472805.547 8        47.600
  28594463.891 4 150264905.442 4        34.800
                                                  28594490.105 5 112210808.736 5
        36.300    28594486.559 5 115137986.459 5        36.400

  26273607.141 7 138068736.964 7        41.700
                                                  26273632.301 7 103103205.873 7
        41.900    26273628.281 7 105792923.529 7        42.900    26273630.781 8
 104448079.311 8        45.700
  23983533.820 9 126034319.082 9        49.400
                                                  23983551.949 9  94116585.714 9
        50.300    23983548.637 9  96571791.996 9        50.600    23983550.809 9
  95344121.461 9        53.500
  24467919.531 9 128579789.363 9        48.800
                                                  24467941.129 9  96017329.222 9
        48.000    24467937.793 9  98522132.802 9        49.400    24467939.848 9
  97269750.620 9        52.200
  27270330.930 5 143306559.041 5        37.300
                                                  27270352.813 6 107014574.935 6
        39.900    27270349.863 6 109806322.718 6        40.200    27270351.676 7
 108410449.934 7        43.600
  23657310.133 9 124320002.773 9        49.000
                                                  23657327.887 9  92836423.504 9
        50.500    23657324.543 9  95258233.952 9        51.200    23657326.613 9
  94047247.329 9        54.600
  27084077.719 6 142327802.657 6        39.100
                                                  27084101.926 6 106283675.012 6
        40.800    27084097.938 7 109056345.053 7        41.200    27084100.148 7
 107670004.627 7        44.500
  38095510.375 5 200193291.765 5        35.600



 23  2 14 10 24 32.0000000  0 25G30R 9R 5G19G11G14G 3R21R22G17G 7R11 0.000000000
                                R10G 6R20G 1E12E24E26E 1E31E21E33E10
                                S26
  21992652.484 7 115572186.551 7        44.400                    21992671.605 7
  90056304.52049        43.100    21992671.03549  21992674.449 9  86303926.055 9
        48.600

  21655748.930 7 115640510.856 7        44.300    21655747.691 7  21655761.980 7
  89942608.147 7        43.700


  24213015.930 4 129432557.752 4        34.700    24213014.879 3  24213042.609 3
 100669665.732 3        33.000


  22407757.438 7 117753565.861 7        41.700
  91756096.41848        30.100    22407778.02048


  24859959.461 3 130639972.164 3        33.700                    24859980.793 5
 101797465.64745        16.900    24859980.77045  24859989.949 6  97555824.871 6
        40.600

  20352260.094 8 106951856.781 8        47.000                    20352276.738 9
  83339165.93249        41.100    20352276.50049  20352283.695 9  79866662.972 9
        54.400

  22440168.023 6 117923869.053 6        40.400                    22440192.160 7
  91888820.89347        28.400    22440191.45747  22440196.840 8  88060052.141 8
        47.600

  20551847.023 9 109977082.048 9        50.300    20551846.680 9  20551863.301 8
  85537740.488 8        46.300


  22412740.156 7 119640742.395 7        42.500    22412739.324 7  22412757.738 6
  93053906.268 6        39.800


  21781448.641 7 114462303.789 7        43.900                    21781468.230 7
  89191459.10849        44.700    21781467.88349


  23670891.008 5 124391387.138 5        35.200                    23670909.609 4
  96928407.14747        28.600    23670908.73847


  20891705.945 9 111638956.731 9        48.400    20891706.395 8  20891722.715 8
  86830306.315 8        46.600


  19289747.758 8 102825193.886 8        45.000    19289745.832 7



  21354239.367 7 112217276.336 7        44.900                    21354259.551 8
  87442112.66749        47.300    21354258.65249  21354263.176 9  83798642.385 9
        50.700

  22035844.781 4 117835561.953 4        34.000    22035844.984 3  22035867.387 5
  91649889.652 5        36.500


  23296397.664 5 122423401.417 5        37.100                    23296423.734 6
  95394953.86146        21.100    23296423.89146  23296427.051 7  91420088.189 7
        44.000

  25021820.172 7 131490551.229 7        43.900
                                                  25021837.688 7  98191031.978 7
        44.400    25021834.785 8 100752523.436 8        45.100    25021836.734 8
  99471723.817 8        47.800
  28593967.469 5 150262297.919 5        35.500
                                                  28593994.027 5 112208861.574 5
        35.900    28593990.320 5 115135988.482 5        36.500

  26274077.203 7 138071207.705 7        41.900
                                                  26274102.402 7 103105050.895 7
        42.100    26274098.617 7 105794816.678 7        42.900    26274100.941 8
 104449948.397 8        46.100
  23983669.078 9 126035029.284 9        49.200
                                                  23983687.078 9  94117116.057 9
        50.500    23983683.793 9  96572336.182 9        50.500    23983685.941 9
  95344658.731 9        53.900
  24467578.563 9 128577998.722 9        48.500
                                                  24467600.348 8  96015992.042 8
        47.700    24467597.176 9  98520760.740 9        49.600    24467599.094 9
  97268395.993 9        51.800
  27270761.438 5 143308821.002 5        37.800
                                                  27270783.141 6 107016264.091 6
        39.600    27270780.313 6 109808055.920 6        40.200    27270782.094 7
 108412161.121 7        43.700
  23657495.023 9 124320974.464 9        48.500
                                                  23657512.859 9  92837149.110 9
        50.600    23657509.480 9  95258978.489 9        51.000    23657511.531 9
  94047982.413 9        54.500
  27083670.375 6 142325660.818 6        39.100
                                                  27083694.348 6 106282075.551 6
        40.900    27083690.277 7 109054703.887 7        41.100    27083692.566 7
 107668384.332 7        44.600
  38095496.750 5 200193239.187 5        35.800



 23  2 14 10 24 33.0000000  0 25G30R 9R 5G19G11G14G 3R21R22G17G 7R11 0.000000000
                                R10G 6R20G 1E12E24E26E 1E31E21E33E10
                                S26
  21993130.078 7 115574696.880 7        44.100                    21993149.152 7
  90058260.61949        43.100    21993148.78949  21993152.105 9  86305800.648 9
        48.600

  21656454.406 7 115644283.345 7        44.300    21656454.027 7  21656468.262 7
  89945542.305 7        43.800


  24212711.844 4 129430941.501 4        34.100    24212712.512 3  24212740.887 3
 100668408.631 3        33.200


  22407549.617 7 117752474.679 7        41.800
  91755246.15248        30.700    22407570.23448


  24859351.227 4 130636772.022 4        34.400                    24859372.242 5
 101794972.00145        16.900    24859371.84845  24859380.934 6  97553435.199 6
        40.500

  20352136.586 8 106951204.437 8        47.400                    20352152.660 9
  83338657.61749        41.300    20352152.29749  20352159.617 9  79866175.835 9
        54.500

  22440171.734 6 117923886.929 6        40.600                    22440195.535 7
  91888834.81547        29.100    22440194.59047  22440200.371 8  88060065.473 8
        47.600

  20551916.922 9 109977455.445 9        50.000    20551916.324 9  20551933.016 8
  85538030.921 8        46.400


  22412385.680 7 119638852.231 7        42.100    22412385.348 6  22412404.027 6
  93052436.127 6        39.600


  21781463.711 7 114462380.316 7        43.900                    21781482.617 7
  89191518.74549        44.900    21781482.48849


  23671548.969 4 124394844.250 4        34.600                    23671567.570 4
  96931100.99947        28.600    23671566.68047


  20891121.031 9 111635828.389 9        48.700    20891121.059 8  20891136.992 8
  86827873.181 8        46.500


  19289921.188 8 102826120.536 8        45.000    19289919.926 7



  21353877.016 7 112215372.769 7        44.900                    21353897.309 8
  87440629.37749        47.500    21353896.42249  21353900.824 9  83797220.894 9
        50.300

  22036399.289 4 117838524.965 4        34.500    22036399.133 4  22036420.719 5
  91652194.214 5        36.500


  23297063.727 5 122426903.729 5        37.100                    23297090.148 6
  95397682.91646        21.100    23297090.33246  23297093.641 7  91422703.554 7
        43.700

  25021547.883 7 131489121.598 7        43.800
                                                  25021565.797 7  98189964.405 7
        44.600    25021562.867 7 100751428.018 7        44.800    25021564.695 8
  99470642.324 8        47.800
  28593471.680 5 150259690.312 5        35.600
                                                  28593497.297 5 112206914.351 5
        35.700    28593494.262 5 115133990.478 5        36.500

  26274547.719 7 138073678.460 7        41.900
                                                  26274572.605 7 103106895.925 7
        42.000    26274568.586 7 105796709.843 7        42.700    26274571.102 8
 104451817.513 8        46.000
  23983804.398 9 126035739.841 9        49.100
                                                  23983822.387 9  94117646.666 9
        50.500    23983819.105 9  96572880.625 9        50.300    23983821.172 9
  95345196.257 9        53.700
  24467237.953 9 128576208.239 9        48.500
                                                  24467259.547 8  96014654.996 8
        47.800    24467256.383 9  98519388.823 9        49.500    24467258.367 9
  97267041.516 9        51.700
  27271191.672 5 143311083.153 5        37.900
                                                  27271213.598 6 107017953.382 6
        39.800    27271210.676 6 109809789.292 6        40.100    27271212.543 7
 108413872.455 7        43.400
  23657679.906 9 124321946.433 9        48.600
                                                  23657697.707 9  92837874.933 9
        50.500    23657694.410 9  95259723.236 9        51.300    23657696.480 9
  94048717.700 9        54.500
  27083263.031 6 142323519.178 6        39.300
                                                  27083286.785 6 106280476.259 6
        40.800    27083282.699 7 109053062.878 7        41.300    27083285.012 7
 107666764.184 7        44.700
  38095495.000 5 200193186.652 5        35.500



 23  2 14 10 24 34.0000000  0 25G30R 9R 5G19G11G14G 3R21R22G17G 7R11 0.000000000
                                R10G 6R20G 1E12E24E26E 1E31E21E33E10
                                S26
  21993607.945 7 115577207.537 7        44.300                    21993627.215 7
  90060216.97949        43.500    21993626.49249  21993629.801 9  86307675.500 9
        48.700

  21657162.141 7 115648056.341 7        44.500    21657160.738 7  21657174.797 7
  89948476.860 7        43.700


  24212410.352 4 129429325.684 4        34.100    24212410.371 3  24212437.730 3
 100667151.877 3        33.100


  22407341.797 7 117751383.605 7        42.200
  91754395.97148        31.000    22407362.67248


  24858741.695 3 130633572.202 3        33.900                    24858763.477 5
 101792478.66245        16.900    24858762.96945  24858772.090 6  97551045.670 6
        40.100

  20352012.500 8 106950552.602 8        47.200                    20352028.645 9
  83338149.69749        41.400    20352028.43849  20352035.559 9  79865689.078 9
        54.400

  22440175.125 6 117923905.432 6        40.500                    22440199.332 7
  91888849.23747        29.900    22440197.92647  22440203.715 8  88060079.303 8
        47.400

  20551987.195 9 109977829.306 9        50.700    20551986.301 9  20552002.547 8
  85538321.691 8        46.400


  22412032.477 7 119636962.524 7        42.500    22412031.367 7  22412050.660 6
  93050966.392 6        39.700


  21781477.914 7 114462456.863 7        44.000                    21781497.039 7
  89191578.39049        44.900    21781497.08649


  23672207.383 5 124398301.412 5        35.000                    23672224.898 3
  96933794.88847        27.600    23672224.51247


  20890535.664 9 111632700.613 9        49.100    20890535.859 8  20890552.457 8
  86825440.488 8        46.400


  19290095.406 7 102827048.104 7        44.900    19290093.941 7



  21353515.141 7 112213469.742 7        44.700                    21353535.039 8
  87439146.50349        47.400    21353534.33649  21353538.719 9  83795799.802 9
        50.300

  22036953.055 4 117841487.997 4        34.800    22036953.785 4  22036975.945 5
  91654498.813 5        36.500


  23297729.750 5 122430406.171 5        36.900                    23297756.566 6
  95400412.10646        21.300    23297756.88346  23297760.117 7  91425319.025 7
        43.900

  25021275.703 7 131487692.379 7        43.800
                                                  25021293.840 7  98188897.106 7
        44.400    25021290.797 7 100750332.897 7        44.800    25021292.727 8
  99469561.117 8        47.800
  28592975.773 5 150257082.721 5        35.100
                                                  28593000.980 5 112204966.993 5
        35.600    28592997.828 5 115131992.377 5        36.600

  26275017.773 7 138076149.285 7        41.600
                                                  26275042.840 7 103108741.027 7
        42.100    26275038.832 7 105798603.068 7        43.000    26275041.301 8
 104453686.664 8        46.300
  23983939.813 9 126036450.794 9        49.100
                                                  23983957.691 9  94118177.573 9
        50.500    23983954.375 9  96573425.381 9        50.700    23983956.438 9
  95345734.088 9        53.900
  24466897.055 9 128574417.994 9        48.900
                                                  24466918.926 8  96013318.139 8
        47.800    24466915.664 9  98518017.084 9        49.600    24466917.684 9
  97265687.216 9        51.800
  27271622.258 6 143313345.611 6        38.100
                                                  27271644.254 6 107019642.841 6
        39.900    27271640.953 6 109811522.866 6        40.400    27271643.078 7
 108415583.953 7        43.900
  23657864.953 9 124322918.723 9        48.700
                                                  23657882.828 9  92838601.003 9
        50.600    23657879.418 9  95260468.249 9        51.200    23657881.512 9
  94049453.236 9        55.000
  27082855.422 6 142321377.792 6        39.700
                                                  27082879.430 7 106278877.213 7
        41.100    27082875.266 7 109051422.099 7        41.400    27082877.535 7
 107665144.276 7        44.900
  38095474.203 5 200193134.105 5        36.000



 23  2 14 10 24 35.0000000  0 25G30R 9R 5G19G11G14G 3R21R22G17G 7R11 0.000000000
                                R10G 6R20G 1E12E24E26E 1E31E21E33E10
                                S26
  21994085.508 7 115579718.493 7        44.800                    21994104.914 7
  90062173.56349        43.300    21994104.33649  21994107.707 9  86309550.565 9
        48.400

  21657867.711 7 115651829.709 7        44.100    21657867.301 7  21657882.008 7
  89951411.714 7        43.700


  24212107.305 4 129427710.146 4        34.200    24212108.117 3  24212135.883 3
 100665895.315 3        33.300


  22407134.203 7 117750292.539 7        41.800
  91753545.80248        30.800    22407155.14148


  24858132.516 3 130630372.505 3        33.900                    24858154.457 5
 101789985.41745        17.400    24858154.26245  24858162.957 6  97548656.305 6
        40.200

  20351888.438 8 106949901.199 8        47.000                    20351904.672 9
  83337642.11749        41.300    20351904.36749  20351911.563 9  79865202.640 9
        54.400

  22440178.555 6 117923924.534 6        40.600                    22440203.012 7
  91888864.12547        29.200    22440201.69147  22440207.441 8  88060093.563 8
        47.600

  20552057.141 9 109978203.562 9        50.000    20552056.090 9  20552072.031 8
  85538612.782 8        46.600


  22411678.508 7 119635073.248 7        42.800    22411677.219 6  22411696.379 6
  93049496.962 6        39.600


  21781492.320 7 114462533.380 7        44.100                    21781511.961 7
  89191638.01949        45.000    21781511.70749


  23672865.422 5 124401758.493 5        35.000                    23672882.828 4
  96936488.71147        28.700    23672882.31347


  20889950.344 9 111629573.375 9        49.100    20889950.707 8  20889966.980 8
  86823008.176 8        46.700


  19290269.102 7 102827976.505 7        44.100    19290267.902 7



  21353152.719 7 112211567.162 7        44.900                    21353173.211 8
  87437663.96949        47.400    21353172.23049  21353176.699 9  83794379.060 9
        50.700

  22037508.188 4 117844451.011 4        34.900    22037507.734 4  22037529.703 5
  91656803.322 5        36.900


  23298397.070 5 122433908.722 5        37.100                    23298423.215 6
  95403141.37246        21.500    23298423.32446  23298426.426 7  91427934.541 7
        43.900

  25021004.039 7 131486263.447 7        44.100
                                                  25021021.770 7  98187830.066 7
        44.400    25021018.727 7 100749238.021 7        44.800    25021020.797 8
  99468480.138 8        47.800
  28592479.063 5 150254474.969 5        35.200
                                                  28592504.371 5 112203019.720 5
        35.800    28592501.555 5 115129994.277 5        36.000

  26275488.047 7 138078620.077 7        41.800
                                                  26275513.008 7 103110586.118 7
        42.200    26275509.070 7 105800496.268 7        43.200    26275511.480 8
 104455555.807 8        46.800
  23984074.789 9 126037162.088 9        49.200
                                                  23984093.023 9  94118708.734 9
        50.400    23984089.723 9  96573970.400 9        50.600    23984091.801 9
  95346272.173 9        53.900
  24466556.523 9 128572627.923 9        48.900
                                                  24466578.313 9  96011981.413 9
        48.000    24466575.039 9  98516645.483 9        48.900    24466577.035 9
  97264333.058 9        51.700
  27272052.445 6 143315608.225 6        38.300
                                                  27272074.891 6 107021332.507 6
        39.700    27272071.570 6 109813256.532 6        40.200    27272073.641 7
 108417295.634 7        44.000
  23658050.109 9 124323891.300 9        48.700
                                                  23658067.910 9  92839327.268 9
        50.800    23658064.469 9  95261213.467 9        51.200    23658066.582 9
  94050188.981 9        54.700
  27082448.141 6 142319236.677 6        39.300
                                                  27082472.070 7 106277278.320 7
        41.200    27082467.840 7 109049781.488 7        41.600    27082470.094 8
 107663524.527 8        45.300
  38095465.500 5 200193081.527 5        36.000



 23  2 14 10 24 36.0000000  0 25G30R 9R 5G19G11G14G 3R21R22G17G 7R11 0.000000000
                                R10G 6R20G 1E12E24E26E 1E31E21E33E10
                                S26
  21994563.344 7 115582229.798 7        44.200                    21994582.711 7
  90064130.42149        42.900    21994582.28549  21994585.551 9  86311425.885 9
        48.700

  21658574.961 7 115655603.549 7        44.100    21658574.156 7  21658588.027 7
  89954346.906 7        43.500


  24211806.211 4 129426095.022 4        34.700    24211806.156 4  24211833.227 3
 100664639.120 3        33.300


  22406926.695 7 117749201.585 7        41.800
  91752695.71448        30.700    22406947.47748


  24857523.305 4 130627173.077 4        34.400                    24857545.707 5
 101787492.33945        16.900    24857545.49245  24857553.824 6  97546267.109 6
        40.100

  20351764.961 8 106949250.299 8        47.100                    20351780.703 9
  83337134.92049        41.100    20351780.42649  20351787.715 9  79864716.582 9
        54.500

  22440182.758 6 117923944.283 6        40.500                    22440206.105 7
  91888879.50947        29.300    22440205.47747  22440211.246 8  88060108.294 8
        47.300

  20552126.609 9 109978578.255 9        50.100    20552126.254 9  20552142.539 8
  85538904.214 8        46.400


  22411324.141 7 119633184.464 7        43.000    22411323.723 7  22411341.824 6
  93048027.885 6        39.400


  21781507.391 7 114462609.917 7        44.000                    21781526.352 7
  89191697.66249        45.100    21781526.32449


  23673522.953 5 124405215.558 5        35.100                    23673540.664 3
  96939182.52047        29.700    23673540.19547


  20889365.055 9 111626446.662 9        49.100    20889365.574 8  20889381.770 8
  86820576.323 8        47.100


  19290444.367 7 102828905.801 7        44.900    19290442.012 7



  21352790.656 7 112209665.114 7        44.900                    21352811.348 8
  87436181.86249        47.300    21352810.21149  21352814.688 9  83792958.691 9
        50.200

  22038062.859 4 117847413.937 4        34.200    22038061.938 4  22038082.371 5
  91659107.865 5        36.300


  23299063.531 5 122437411.305 5        37.500                    23299089.617 6
  95405870.63646        21.700    23299090.02046  23299093.082 7  91430550.141 7
        43.900

  25020732.172 7 131484834.880 7        43.900
                                                  25020749.988 7  98186763.273 7
        44.200    25020747.133 7 100748143.386 7        44.900    25020748.949 8
  99467399.429 8        47.900
  28591982.961 5 150251867.269 5        35.600
                                                  28592008.102 5 112201072.331 5
        36.200    28592004.918 5 115127996.110 5        35.000

  26275958.180 7 138081090.933 7        41.500
                                                  26275983.188 7 103112431.208 7
        42.300    26275979.313 7 105802389.526 7        43.300    26275981.664 8
 104457424.979 8        46.800
  23984210.391 9 126037873.764 9        49.400
                                                  23984228.492 9  94119240.183 9
        50.500    23984225.215 9  96574515.714 9        50.300    23984227.223 9
  95346810.558 9        53.900
  24466215.945 9 128570838.086 9        49.000
                                                  24466237.680 9  96010644.846 9
        48.000    24466234.441 9  98515274.049 9        49.000    24466236.438 9
  97262979.053 9        51.900
  27272483.500 6 143317871.112 6        38.400
                                                  27272505.500 6 107023022.302 6
        39.500    27272502.184 6 109814990.447 6        40.000    27272504.242 7
 108419007.489 7        43.600
  23658235.219 9 124324864.191 9        48.600
                                                  23658253.000 9  92840053.775 9
        50.600    23658249.645 9  95261958.928 9        51.300    23658251.711 9
  94050924.959 9        54.500
  27082040.492 6 142317095.816 6        40.000
                                                  27082064.598 7 106275679.623 7
        41.100    27082060.430 7 109048141.097 7        41.200    27082062.688 7
 107661904.969 7        44.900
  38095459.047 5 200193028.999 5        35.900



 23  2 14 10 24 37.0000000  0 25G30R 9R 5G19G11G14G 3R21R22G17G 7R11 0.000000000
                                R10G 6R20G 1E12E24E26E 1E31E21E33E10
                                S26
  21995041.391 7 115584741.343 7        44.200                    21995060.770 7
  90066087.47449        43.100    21995060.10249  21995063.484 9  86313301.386 9
        48.800

  21659281.281 7 115659377.732 7        44.000    21659281.059 7  21659295.789 7
  89957282.379 7        43.600


  24211505.133 5 129424480.223 5        35.200    24211504.969 4  24211531.691 3
 100663383.109 3        33.400


  22406718.867 7 117748110.616 7        41.700
  91751845.61647        29.800    22406739.72347


  24856914.133 4 130623973.745 4        34.200                    24856936.805 5
 101784999.34645        16.300    24856936.78945  24856944.957 6  97543878.005 6
        39.600

  20351640.602 8 106948599.778 8        47.300                    20351656.859 9
  83336628.02649        41.300    20351656.71949  20351663.902 9  79864230.831 9
        54.800

  22440186.453 6 117923964.556 6        40.600                    22440210.281 7
  91888895.29847        29.500    22440209.40647  22440215.031 8  88060123.436 8
        47.200

  20552197.305 9 109978953.309 9        50.000    20552196.527 9  20552212.633 8
  85539195.932 8        46.500


  22410970.070 7 119631296.041 7        43.100    22410969.941 7  22410988.441 6
  93046559.112 6        39.700


  21781521.578 7 114462686.371 7        43.900                    21781540.887 7
  89191757.23549        44.700    21781540.85549


  23674180.555 4 124408672.569 4        34.900                    23674198.980 3
  96941876.30647        28.800    23674198.28947


  20888780.758 9 111623320.452 9        49.300    20888780.496 8  20888796.293 8
  86818144.826 8        47.000


  19290618.008 7 102829835.878 7        44.800    19290616.641 7



  21352429.195 7 112207763.520 7        44.900                    21352449.301 8
  87434700.10349        47.600    21352448.51249  21352452.844 9  83791538.668 9
        50.300

  22038615.336 4 117850376.840 4        34.100    22038615.980 4  22038637.285 5
  91661412.301 5        36.300


  23299730.328 5 122440914.001 5        37.600                    23299756.164 6
  95408600.00146        21.100    23299756.59446  23299759.605 7  91433165.761 7
        43.900

  25020460.555 7 131483406.583 7        43.900
                                                  25020478.152 7  98185696.697 7
        44.300    25020475.285 7 100747048.991 7        44.700    25020477.160 8
  99466318.954 8        47.900
  28591486.672 5 150249259.391 5        35.300
                                                  28591511.695 5 112199124.869 5
        36.000    28591508.457 5 115125997.832 5        35.300

  26276428.039 7 138083561.749 7        41.600
                                                  26276453.398 7 103114276.315 7
        42.700    26276449.176 7 105804282.764 7        42.700    26276451.859 8
 104459294.152 8        46.900
  23984345.828 9 126038585.729 9        49.600
                                                  23984363.965 9  94119771.850 9
        50.500    23984360.605 9  96575061.253 9        50.400    23984362.715 9
  95347349.167 9        54.400
  24465875.383 9 128569048.385 9        49.000
                                                  24465897.063 8  96009308.395 8
        47.700    24465893.762 9  98513902.730 9        49.300    24465895.871 9
  97261625.176 9        52.000
  27272914.086 6 143320134.153 6        38.000
                                                  27272936.098 6 107024712.239 6
        39.600    27272932.930 6 109816724.473 6        40.000    27272934.887 7
 108420719.456 7        43.500
  23658420.344 9 124325837.325 9        48.600
                                                  23658438.188 9  92840780.461 9
        51.000    23658434.793 9  95262704.573 9        51.000    23658436.895 9
  94051661.124 9        54.300
  27081632.633 6 142314955.134 6        39.800
                                                  27081656.984 6 106274081.068 6
        40.900    27081653.035 7 109046500.838 7        41.500    27081655.332 8
 107660285.559 8        45.100
  38095450.938 5 200192976.389 5        35.400



 23  2 14 10 24 38.0000000  0 25G30R 9R 5G19G11G14G 3R21R22G17G 7R11 0.000000000
                                R10G 6R20G 1E12E24E26E 1E31E21E33E10
                                S26
  21995519.828 7 115587253.281 7        44.400                    21995538.883 7
  90068044.82749        43.000    21995538.26249  21995541.504 9  86315177.186 9
        48.300

  21659988.523 7 115663152.425 7        44.300    21659987.625 7  21660001.344 7
  89960218.258 7        43.600


  24211203.898 5 129422865.796 5        35.200    24211202.973 4  24211228.531 3
 100662127.473 3        33.700


  22406511.766 7 117747019.820 7        41.600
  91750995.64548        30.500    22406532.14548


  24856305.445 4 130620774.699 4        34.500                    24856328.242 5
 101782506.62445        16.300    24856327.96945  24856335.793 6  97541489.133 6
        39.800

  20351516.836 8 106947949.857 8        47.500                    20351533.348 9
  83336121.59449        41.400    20351532.93849  20351540.258 9  79863745.487 9
        54.600

  22440189.688 6 117923985.493 6        40.700                    22440214.031 7
  91888911.60547        29.400    22440213.54347  22440219.023 8  88060139.094 8
        47.000

  20552267.516 9 109979328.855 9        50.300    20552266.512 9  20552282.809 8
  85539488.009 8        46.700


  22410616.781 7 119629408.152 7        43.300    22410616.371 7  22410635.297 6
  93045090.749 6        39.800


  21781536.359 7 114462762.873 7        44.000                    21781555.418 7
  89191816.85249        44.900    21781555.35249


  23674838.500 5 124412129.646 5        35.400                    23674857.125 3
  96944570.13147        27.600    23674856.22347


  20888195.273 9 111620194.839 9        49.100    20888195.488 8  20888211.766 8
  86815713.805 8        46.600


  19290793.820 7 102830766.907 7        44.700    19290791.313 7



  21352067.430 7 112205862.482 7        44.900                    21352087.645 8
  87433218.77549        47.400    21352086.56349  21352091.117 9  83790119.063 9
        50.500

  22039170.328 4 117853339.727 4        34.000    22039170.070 4  22039191.328 5
  91663716.781 5        36.400


  23300396.195 5 122444416.837 5        37.400                    23300422.988 6
  95411329.50446        21.300    23300423.27046  23300426.117 7  91435781.541 7
        43.500

  25020188.719 7 131481978.736 7        43.300
                                                  25020206.406 7  98184630.441 7
        44.400    25020203.613 7 100745954.915 7        44.700    25020205.449 8
  99465238.787 8        47.900
  28590990.375 4 150246651.514 4        34.700
                                                  28591015.738 5 112197177.468 5
        36.000    28591011.789 5 115123999.640 5        35.400

  26276898.734 7 138086032.697 7        41.400
                                                  26276923.570 7 103116121.505 7
        42.100    26276919.516 7 105806176.075 7        42.300    26276922.055 8
 104461163.393 8        46.500
  23984481.422 9 126039298.166 9        49.600
                                                  23984499.516 9  94120303.868 9
        50.600    23984496.156 9  96575607.142 9        50.500    23984498.273 9
  95347888.116 9        54.400
  24465534.977 9 128567258.965 9        49.200
                                                  24465556.633 8  96007972.138 8
        47.700    24465553.402 9  98512531.625 9        49.100    24465555.340 9
  97260271.491 9        51.700
  27273344.672 6 143322397.499 6        38.400
                                                  27273366.715 6 107026402.404 6
        39.700    27273363.383 6 109818458.722 6        40.200    27273365.578 7
 108422431.681 7        43.500
  23658605.352 9 124326810.841 9        48.600
                                                  23658623.379 9  92841507.441 9
        51.300    23658620.152 9  95263450.517 9        51.000    23658622.148 9
  94052397.585 9        54.400
  27081225.430 6 142312814.808 6        39.600
                                                  27081249.938 7 106272482.750 7
        41.400    27081245.477 7 109044860.853 7        41.700    27081248.027 8
 107658666.406 8        45.500
  38095438.500 5 200192923.931 5        35.700



 23  2 14 10 24 39.0000000  0 25G30R 9R 5G19G11G14G 3R21R22G17G 7R11 0.000000000
                                R10G 6R20G 1E12E24E26E 1E31E21E33E10
                                S26
  21995998.102 7 115589765.498 7        44.200                    21996016.727 7
  90070002.39549        43.100    21996016.29749  21996019.508 9  86317053.190 9
        48.400

  21660694.953 7 115666927.494 7        44.500    21660694.703 7  21660708.418 7
  89963154.413 7        43.900


  24210902.727 4 129421251.742 4        34.800    24210900.852 4  24210927.504 3
 100660872.065 3        33.600


  22406303.609 7 117745929.028 7        41.800
  91750145.67948        30.500    22406324.57448


  24855696.516 4 130617575.834 4        34.300                    24855719.594 5
 101780013.98045        16.300    24855719.40245  24855726.773 6  97539100.366 6
        39.900

  20351393.148 8 106947300.340 8        47.600                    20351409.664 9
  83335615.48749        41.700    20351409.37149  20351416.617 9  79863260.463 9
        54.600

  22440194.484 7 117924007.053 7        41.100                    22440218.254 7
  91888928.41447        29.600    22440217.51247  22440223.176 8  88060155.177 8
        47.000

  20552338.188 9 109979704.728 9        50.800    20552336.801 9  20552353.477 8
  85539780.352 8        47.000


  22410263.852 7 119627520.668 7        43.300    22410262.789 7  22410281.391 6
  93043622.701 6        40.200


  21781550.750 7 114462839.348 7        43.900                    21781570.359 7
  89191876.44649        44.700    21781569.90249


  23675496.406 5 124415586.694 5        35.600                    23675514.648 3
  96947263.92147        27.900    23675514.09047


  20887610.836 9 111617069.732 9        49.100    20887610.785 8  20887627.031 8
  86813283.184 8        45.900


  19290968.164 7 102831698.722 7        44.600    19290966.035 7



  21351705.680 7 112203961.907 7        44.700                    21351725.832 8
  87431737.81149        47.300    21351724.98049  21351729.508 9  83788699.802 9
        50.700

  22039723.594 4 117856302.504 4        34.500    22039723.758 3  22039746.246 5
  91666021.203 5        36.000


  23301063.430 5 122447919.777 5        37.500                    23301089.402 6
  95414059.07146        21.700    23301089.91446  23301092.730 7  91438397.331 7
        43.400

  25019917.000 7 131480551.170 7        43.300
                                                  25019934.934 7  98183564.388 7
        44.400    25019932.109 7 100744861.066 7        44.700    25019933.781 9
  99464158.841 9        48.100
  28590493.906 4 150244043.569 4        34.300
                                                  28590519.387 5 112195229.958 5
        36.000    28590515.848 5 115122001.318 5        35.500

  26277368.391 7 138088503.624 7        41.800
                                                  26277393.762 7 103117966.647 7
        42.100    26277389.758 7 105808069.365 7        42.800    26277392.258 8
 104463032.623 8        46.500
  23984617.086 9 126040010.913 9        49.600
                                                  23984635.121 9  94120836.123 9
        50.300    23984631.875 9  96576153.283 9        50.500    23984633.914 9
  95348427.310 9        54.200
  24465194.352 9 128565469.718 9        49.300
                                                  24465216.082 9  96006636.019 9
        48.000    24465212.863 9  98511160.638 9        48.600    24465214.852 9
  97258917.940 9        51.400
  27273775.414 6 143324661.039 6        38.400
                                                  27273797.305 6 107028092.679 6
        39.700    27273794.203 6 109820193.139 6        40.100    27273796.316 7
 108424144.017 7        43.500
  23658790.828 9 124327784.605 9        48.500
                                                  23658808.609 9  92842234.596 9
        51.000    23658805.438 9  95264196.642 9        51.200    23658807.465 9
  94053134.227 9        54.500
  27080818.031 6 142310674.669 6        39.300
                                                  27080842.684 7 106270884.600 7
        41.100    27080838.406 7 109043221.015 7        41.200    27080840.773 8
 107657047.410 8        45.100
  38095422.203 5 200192871.358 5        35.600



 23  2 14 10 24 40.0000000  0 25G30R 9R 5G19G11G14G 3R21R22G17G 7R11 -.000000002
                                R10G 6R20G 1E12E24E26E 1E31E21E33E10
                                S26
  21996475.984 7 115592278.009 7        44.400                    21996495.289 7
  90071960.20049        43.300    21996494.46549  21996497.613 9  86318929.416 9
        48.500

  21661401.922 7 115670702.951 7        44.400    21661401.703 7  21661415.758 7
  89966090.887 7        43.600


  24210600.852 4 129419638.010 4        34.900    24210598.430 4  24210625.496 3
 100659616.921 3        33.400


  22406096.594 7 117744838.289 7        41.900
  91749295.76948        31.300    22406116.94548


  24855088.617 4 130614377.167 4        34.300                    24855110.613 5
 101777521.53245        16.300    24855110.60545  24855117.816 6  97536711.746 6
        39.500

  20351270.141 8 106946651.296 8        47.800                    20351286.090 9
  83335109.73649        42.000    20351285.79349  20351293.105 9  79862775.780 9
        54.500

  22440198.766 6 117924029.165 6        40.800                    22440222.246 7
  91888945.64947        29.700    22440221.80947  22440227.313 8  88060171.689 8
        47.200

  20552407.406 9 109980081.007 9        50.800    20552407.223 9  20552424.137 8
  85540073.012 8        47.100


  22409909.359 7 119625633.627 7        42.800    22409909.344 7  22409927.867 6
  93042154.993 6        40.000


  21781565.172 7 114462915.794 7        43.800                    21781584.512 7
  89191936.01549        45.000    21781584.39149


  23676154.578 5 124419043.690 5        35.400                    23676172.340 4
  96949957.69747        28.300    23676172.05147


  20887026.539 9 111613945.127 9        48.600    20887025.961 8  20887041.902 8
  86810852.940 8        45.800


  19291142.695 7 102832631.390 7        44.600    19291141.008 7



  21351344.258 7 112202061.798 7        44.900                    21351364.199 8
  87430257.21149        47.500    21351363.37149  21351367.969 9  83787280.912 9
        50.600

  22040278.367 4 117859265.283 4        34.900    22040277.957 3  22040300.543 5
  91668325.578 5        36.500


  23301730.086 5 122451422.741 5        37.600                    23301756.328 6
  95416788.64746        21.300    23301756.48046  23301759.223 7  91441013.201 7
        43.600

  25019645.516 7 131479123.901 7        43.300
                                                  25019663.297 7  98182498.589 7
        44.600    25019660.469 7 100743767.442 7        44.900    25019662.176 9
  99463079.125 9        48.200
  28589997.563 5 150241435.525 5        35.100
                                                  28590023.176 5 112193282.415 5
        36.200    28590019.441 5 115120002.939 5        36.000

  26277838.711 7 138090974.538 7        41.700
                                                  26277864.027 7 103119811.819 7
        42.100    26277859.977 7 105809962.684 7        43.100    26277862.473 8
 104464901.858 8        46.400
  23984752.867 9 126040724.022 9        49.700
                                                  23984770.879 9  94121368.636 9
        50.400    23984767.563 9  96576699.689 9        50.800    23984769.617 9
  95348966.774 9        54.000
  24464853.797 9 128563680.649 9        49.100
                                                  24464875.648 9  96005300.027 9
        48.200    24464872.391 9  98509789.806 9        49.000    24464874.395 9
  97257564.528 9        51.900
  27274205.930 6 143326924.760 6        38.600
                                                  27274228.121 6 107029783.177 6
        40.300    27274225.098 6 109821927.667 6        40.100    27274227.082 7
 108425856.545 7        44.000
  23658976.125 9 124328758.654 9        48.600
                                                  23658994.004 9  92842961.977 9
        50.900    23658990.664 9  95264942.992 9        51.000    23658992.801 9
  94053871.093 9        54.500
  27080410.633 6 142308534.793 6        39.100
                                                  27080435.391 7 106269286.667 7
        41.200    27080431.293 7 109041581.362 7        41.500    27080433.578 8
 107655428.627 8        45.100
  38095413.375 5 200192818.834 5        35.800



 23  2 14 10 24 41.0000000  0 25G30R 9R 5G19G11G14G 3R21R22G17G 7R11 0.000000000
                                R10G 6R20G 1E12E24E26E 1E31E21E33E10
                                S26
  21996953.789 7 115594790.825 7        44.400                    21996972.852 7
  90073918.23949        43.400    21996972.58249  21996975.883 9  86320805.876 9
        48.700

  21662109.172 7 115674478.831 7        44.500    21662108.844 7  21662122.277 7
  89969027.692 7        43.700


  24210298.117 5 129418024.682 5        35.000    24210296.371 4  24210322.898 3
 100658362.127 3        33.400


  22405888.766 7 117743747.636 7        41.900
  91748445.91848        31.100    22405909.40248


  24854479.703 4 130611178.721 4        34.200                    24854501.578 5
 101775029.22845        16.300    24854502.03545  24854508.891 6  97534323.270 6
        40.000

  20351146.609 8 106946002.702 8        47.500                    20351162.734 9
  83334604.34249        41.600    20351162.39849  20351169.664 9  79862291.453 9
        54.600

  22440203.383 6 117924051.907 6        40.400                    22440227.184 7
  91888963.36747        29.700    22440226.20747  22440231.609 8  88060188.667 8
        47.500

  20552478.016 9 109980457.707 9        50.700    20552477.660 9  20552494.395 8
  85540366.008 8        46.700


  22409555.617 7 119623747.057 7        43.000    22409555.688 7  22409575.113 6
  93040687.665 6        40.300


  21781579.680 7 114462992.195 7        43.900                    21781599.184 7
  89191995.55449        44.900    21781598.99249


  23676812.586 5 124422500.661 5        35.800                    23676829.656 4
  96952651.42547        28.000    23676829.91447


  20886441.297 9 111610821.083 9        48.700    20886441.254 8  20886458.039 8
  86808423.130 8        45.900


  19291318.117 7 102833564.916 7        44.800    19291316.297 7



  21350982.742 7 112200162.212 7        44.900                    21351002.590 8
  87428777.01349        47.700    21351002.05549  21351006.391 9  83785862.393 9
        50.700

  22040832.961 4 117862227.993 4        34.500    22040832.379 3  22040853.734 5
  91670629.906 5        36.200


  23302396.242 5 122454925.821 5        37.600                    23302422.973 6
  95419518.32046        21.500    23302423.10946  23302425.832 7  91443629.109 7
        43.500

  25019373.797 7 131477697.002 7        43.400
                                                  25019391.645 7  98181433.061 7
        44.000    25019388.789 7 100742674.125 7        44.900    25019390.660 8
  99461999.693 8        47.600
  28589501.258 5 150238827.453 5        35.600
                                                  28589527.094 5 112191334.759 5
        36.200    28589523.297 5 115118004.514 5        35.400

  26278309.156 7 138093445.501 7        41.400
                                                  26278333.938 7 103121657.002 7
        42.100    26278330.133 7 105811855.998 7        43.200    26278332.688 8
 104466771.108 8        46.200
  23984888.516 9 126041437.500 9        50.100
                                                  23984906.602 9  94121901.423 9
        50.900    23984903.328 9  96577246.375 9        51.000    23984905.371 9
  95349506.509 9        54.400
  24464513.641 9 128561891.794 9        48.900
                                                  24464535.262 9  96003964.208 9
        48.300    24464532.008 9  98508419.129 9        49.000    24464533.988 9
  97256211.273 9        51.900
  27274636.969 6 143329188.752 6        38.600
                                                  27274658.965 6 107031473.779 6
        40.200    27274655.926 6 109823662.396 6        40.000    27274657.887 7
 108427569.206 7        43.900
  23659161.711 9 124329732.996 9        48.600
                                                  23659179.398 9  92843689.577 9
        50.800    23659176.191 9  95265689.570 9        51.200    23659178.215 9
  94054608.188 9        54.100
  27080004.023 6 142306395.165 6        39.100
                                                  27080028.020 6 106267688.887 6
        40.900    27080024.191 7 109039941.897 7        41.000    27080026.414 7
 107653810.001 7        44.900
  38095408.969 5 200192766.339 5        35.800



 23  2 14 10 24 42.0000000  0 25G30R 9R 5G19G11G14G 3R21R22G17G 7R11 0.000000000
                                R10G 6R20G 1E12E24E26E 1E31E21E33E10
                                S26
  21997432.195 7 115597303.928 7        44.400                    21997451.055 7
  90075876.50149        43.500    21997450.87949  21997454.035 9  86322682.544 9
        48.600

  21662815.547 7 115678255.118 7        44.300    21662816.090 7  21662830.789 7
  89971964.802 7        43.700


  24209995.938 5 129416411.672 5        35.000    24209994.863 4  24210021.066 3
 100657107.488 3        33.700


  22405681.344 7 117742656.979 7        41.700
  91747596.06548        30.600    22405701.86348


  24853871.195 4 130607980.402 4        34.300                    24853892.887 5
 101772537.02145        15.600    24853893.39845  24853900.199 6  97531934.949 6
        39.400

  20351023.305 8 106945354.568 8        47.400                    20351039.418 9
  83334099.30249        41.300    20351038.94549  20351046.367 9  79861807.450 9
        54.500

  22440207.875 6 117924075.222 6        40.800                    22440231.648 7
  91888981.53847        29.300    22440230.71947  22440236.063 8  88060206.071 8
        47.600

  20552548.750 9 109980834.761 9        50.300    20552547.992 9  20552564.625 8
  85540659.275 8        46.200


  22409202.023 7 119621860.852 7        42.700    22409202.145 7  22409221.203 6
  93039220.635 6        40.400


  21781594.195 7 114463068.555 7        43.800                    21781613.836 7
  89192055.05949        44.900    21781613.41449


  23677470.508 5 124425957.605 5        36.100                    23677487.574 3
  96955345.15247        27.600    23677487.60547


  20885856.484 9 111607697.538 9        49.000    20885856.941 8  20885873.348 8
  86805993.709 8        46.400


  19291492.648 7 102834499.249 7        44.700    19291491.500 7



  21350621.391 7 112198263.072 7        44.800                    21350641.242 8
  87427297.16749        47.400    21350640.57849  21350644.977 9  83784444.200 9
        50.500

  22041387.398 4 117865190.695 4        34.300    22041386.438 4  22041408.254 5
  91672934.176 5        35.900


  23303062.891 5 122458428.946 5        37.500                    23303089.645 6
  95422248.03246        22.200    23303089.81346  23303092.488 7  91446245.098 7
        43.700

  25019102.531 7 131476270.401 7        43.500
                                                  25019120.180 7  98180367.734 7
        44.200    25019117.297 7 100741580.999 7        44.900    25019119.168 9
  99460920.477 9        48.000
  28589005.102 5 150236219.220 5        35.300
                                                  28589030.746 5 112189387.075 5
        36.600    28589027.172 5 115116006.029 5        35.700

  26278778.898 7 138095916.483 7        41.400
                                                  26278804.242 7 103123502.231 7
        41.900    26278800.262 7 105813749.353 7        43.100    26278802.891 8
 104468640.392 8        46.200
  23985024.250 9 126042151.302 9        50.100
                                                  23985042.469 9  94122434.466 9
        50.700    23985039.215 9  96577793.325 9        50.500    23985041.211 9
  95350046.502 9        53.800
  24464173.102 9 128560103.096 9        49.200
                                                  24464194.918 9  96002628.500 9
        48.300    24464191.582 9  98507048.575 9        49.100    24464193.609 9
  97254858.144 9        51.900
  27275068.047 6 143331452.878 6        38.600
                                                  27275089.898 6 107033164.541 6
        40.400    27275086.633 6 109825397.261 6        40.200    27275088.727 7
 108429282.027 7        44.000
  23659347.172 9 124330707.619 9        48.500
                                                  23659364.922 9  92844417.385 9
        51.100    23659361.566 9  95266436.359 9        51.000    23659363.695 9
  94055345.480 9        54.400
  27079596.828 6 142304255.753 6        39.000
                                                  27079620.824 7 106266091.240 7
        41.000    27079616.828 7 109038302.611 7        41.500    27079619.281 7
 107652191.535 7        44.600
  38095396.141 5 200192713.790 5        35.900



 23  2 14 10 24 43.0000000  0 25G30R 9R 5G19G11G14G 3R21R22G17G 7R11 0.000000000
                                R10G 6R20G 1E12E24E26E 1E31E21E33E10
                                S26
  21997910.164 7 115599817.361 7        44.500                    21997929.406 7
  90077835.02149        43.400    21997929.06649  21997932.383 9  86324559.449 9
        48.400

  21663523.219 7 115682031.826 7        44.400    21663523.305 7  21663537.426 7
  89974902.236 7        43.500


  24209693.586 5 129414799.010 5        35.500    24209693.340 4  24209721.422 3
 100655853.192 3        33.900


  22405473.813 7 117741566.394 7        41.500
  91746746.26248        31.900    22405494.25448


  24853263.023 4 130604782.294 4        34.400                    24853284.691 5
 101770045.00445        15.600    24853284.91445  24853291.738 6  97529546.779 6
        39.300

  20350899.844 8 106944706.885 8        47.600                    20350916.180 9
  83333594.62349        41.000    20350915.90249  20350923.148 9  79861323.803 9
        54.800

  22440212.398 6 117924099.115 6        40.900                    22440236.086 7
  91889000.15347        29.700    22440235.18847  22440240.645 8  88060223.928 8
        47.300

  20552619.648 9 109981212.222 9        50.500    20552618.457 9  20552634.254 8
  85540952.843 8        46.200


  22408848.508 7 119619975.122 7        42.300    22408848.938 7  22408867.957 6
  93037753.950 6        40.700


  21781608.906 7 114463144.885 7        43.700                    21781628.320 7
  89192114.53949        45.200    21781627.92649


  23678128.508 5 124429414.558 5        36.500                    23678145.945 4
  96958038.88047        27.900    23678145.46147


  20885271.977 9 111604574.533 9        49.100    20885272.355 8  20885288.664 8
  86803564.687 8        46.300


  19291667.961 7 102835434.438 7        44.500    19291667.012 7



  21350259.672 8 112196364.450 8        45.000                    21350279.816 8
  87425817.72749        47.500    21350279.21549  21350283.734 9  83783026.397 9
        50.200

  22041941.375 4 117868153.284 4        34.400    22041940.445 4  22041961.047 5
  91675238.429 5        36.300


  23303729.328 5 122461932.174 5        37.600                    23303756.066 6
  95424977.80546        21.800    23303756.37146  23303758.996 7  91448861.150 7
        43.600

  25018831.172 7 131474844.135 7        43.600
                                                  25018848.895 7  98179302.668 7
        44.500    25018845.973 8 100740488.144 8        45.100    25018847.766 9
  99459841.514 9        48.300
  28588509.289 5 150233611.017 5        35.600
                                                  28588534.797 5 112187439.370 5
        36.200    28588530.570 5 115114007.471 5        35.500

  26279249.063 7 138098387.463 7        41.500
                                                  26279274.457 7 103125347.421 7
        41.900    26279270.512 7 105815642.689 7        43.000    26279273.121 8
 104470509.672 8        46.300
  23985160.234 9 126042865.462 9        50.000
                                                  23985178.344 9  94122967.770 9
        50.400    23985174.988 9  96578340.547 9        50.900    23985177.098 9
  95350586.768 9        54.000
  24463832.820 9 128558314.606 9        48.900
                                                  24463854.578 9  96001292.956 9
        48.500    24463851.227 9  98505678.193 9        49.100    24463853.262 9
  97253505.179 9        52.200
  27275498.969 6 143333717.224 6        38.300
                                                  27275520.707 6 107034855.500 6
        40.200    27275517.258 6 109827132.333 6        40.200    27275519.625 7
 108430995.024 7        44.400
  23659532.703 9 124331682.541 9        49.000
                                                  23659550.469 9  92845145.395 9
        50.800    23659547.141 9  95267183.370 9        51.300    23659549.211 9
  94056082.995 9        54.300
  27079189.453 6 142302116.576 6        39.100
                                                  27079213.844 7 106264493.843 7
        41.200    27079209.926 7 109036663.523 7        41.400    27079212.203 7
 107650573.290 7        44.900
  38095383.047 5 200192661.301 5        35.600



 23  2 14 10 24 44.0000000  0 25G30R 9R 5G19G11G14G 3R21R22G17G 7R11 0.000000000
                                R10G 6R20G 1E12E24E26E 1E31E21E33E10
                                S26
  21998388.781 7 115602331.078 7        44.600                    21998408.266 7
  90079793.75549        43.600    21998407.52049  21998410.844 9  86326436.589 9
        48.200

  21664231.422 7 115685808.955 7        44.400    21664230.738 7  21664244.965 7
  89977839.986 7        43.800


  24209392.664 5 129413186.663 5        35.900    24209391.605 4  24209419.941 4
 100654599.142 4        34.200


  22405265.695 7 117740475.892 7        41.600
  91745896.52848        31.700    22405286.71548


  24852654.602 4 130601584.433 4        34.300                    24852676.016 5
 101767553.16945        16.300    24852676.40245  24852683.098 6  97527158.747 6
        39.200

  20350776.523 8 106944059.682 8        47.500                    20350793.074 9
  83333090.31049        40.900    20350792.77049  20350799.961 9  79860840.507 9
        54.500

  22440216.742 7 117924123.634 7        41.300                    22440240.777 7
  91889019.26047        29.000    22440240.00447  22440245.375 8  88060242.244 8
        47.200

  20552689.219 9 109981590.082 9        50.100    20552689.223 9  20552705.508 8
  85541246.763 8        46.300


  22408495.484 7 119618089.815 7        42.300    22408495.898 7  22408515.398 6
  93036287.578 6        40.400


  21781623.609 7 114463221.199 7        43.800                    21781642.684 7
  89192174.01149        44.900    21781642.55949


  23678786.328 5 124432871.427 5        36.100                    23678803.516 3
  96960732.54547        27.800    23678803.22747


  20884687.766 9 111601452.045 9        48.800    20884688.113 8  20884703.852 8
  86801136.120 8        46.000


  19291843.188 7 102836370.468 7        44.700    19291842.328 7



  21349898.766 7 112194466.301 7        44.800                    21349918.766 8
  87424338.65349        47.300    21349918.03149  21349922.555 9  83781608.961 9
        50.300

  22042495.555 4 117871115.840 4        34.800    22042494.219 3  22042515.418 5
  91677542.687 5        36.300


  23304395.922 5 122465435.523 5        36.700                    23304422.527 6
  95427707.68646        21.700    23304423.00046  23304425.852 7  91451477.267 7
        43.100

  25018559.617 7 131473418.190 7        44.000
                                                  25018577.484 7  98178237.848 7
        44.300    25018574.504 7 100739395.567 7        44.900    25018576.418 9
  99458762.812 9        48.000
  28588013.023 5 150231002.712 5        35.300
                                                  28588038.496 5 112185491.559 5
        36.400    28588034.555 5 115112008.936 5        35.200

  26279719.656 7 138100858.455 7        41.600
                                                  26279744.742 7 103127192.641 7
        41.800    26279740.844 7 105817536.051 7        43.300    26279743.324 8
 104472378.955 8        46.700
  23985296.180 9 126043579.994 9        50.100
                                                  23985314.301 9  94123501.351 9
        50.400    23985311.113 9  96578888.043 9        51.000    23985313.082 9
  95351127.305 9        54.000
  24463492.477 9 128556526.317 9        48.900
                                                  24463514.258 9  95999957.540 9
        48.400    24463510.926 9  98504307.946 9        49.100    24463512.961 9
  97252152.356 9        52.200
  27275929.523 6 143335981.826 6        38.400
                                                  27275951.836 6 107036546.596 6
        40.100    27275948.430 6 109828867.532 6        39.900    27275950.555 7
 108432708.163 7        43.600
  23659718.297 9 124332657.740 9        48.900
                                                  23659736.016 9  92845873.635 9
        51.000    23659732.727 9  95267930.611 9        51.300    23659734.789 9
  94056820.736 9        54.200
  27078782.805 6 142299977.678 6        39.000
                                                  27078806.926 6 106262896.588 6
        40.900    27078802.828 7 109035024.609 7        41.300    27078805.191 7
 107648955.201 7        44.500
  38095376.703 5 200192608.739 5        35.800



 23  2 14 10 24 45.0000000  0 25G30R 9R 5G19G11G14G 3R21R22G17G 7R11 0.000000000
                                R10G 6R20G 1E12E24E26E 1E31E21E33E10
                                S26
  21998867.383 7 115604845.120 7        44.900                    21998886.484 7
  90081752.75749        43.200    21998885.85949  21998889.203 9  86328313.946 9
        48.400

  21664938.445 7 115689586.462 7        44.600    21664938.297 7  21664952.914 7
  89980778.067 7        43.900


  24209091.117 5 129411574.644 5        35.300    24209089.957 4  24209117.613 3
 100653345.317 3        33.800


  22405058.180 7 117739385.423 7        41.600
  91745046.82248        30.700    22405079.19148


  24852046.586 3 130598386.747 3        33.600                    24852068.055 5
 101765061.45645        16.900    24852067.94545  24852074.719 6  97524770.837 6
        39.400

  20350653.789 8 106943412.917 8        47.300                    20350670.125 9
  83332586.34649        41.200    20350669.64549  20350676.867 9  79860357.538 9
        54.500

  22440221.820 7 117924148.731 7        41.100                    22440245.285 7
  91889038.81947        29.500    22440244.59047  22440250.078 8  88060260.980 8
        47.200

  20552760.258 9 109981968.363 9        50.300    20552759.918 9  20552776.047 8
  85541540.979 8        46.400


  22408143.531 7 119616204.922 7        42.500    22408142.484 7  22408162.410 6
  93034821.572 6        40.300


  21781637.797 7 114463297.486 7        43.800                    21781657.512 7
  89192233.45749        44.800    21781657.03949


  23679444.008 5 124436328.261 5        36.000                    23679461.957 3
  96963426.17947        28.600    23679461.21147


  20884103.336 9 111598330.053 9        49.200    20884103.910 8  20884119.270 8
  86798707.924 8        46.700


  19292019.148 7 102837307.330 7        44.500    19292018.223 7



  21349537.711 8 112192568.641 8        45.200                    21349557.590 8
  87422859.95249        47.300    21349556.89149  21349561.488 9  83780191.881 9
        50.400

  22043048.297 4 117874078.356 4        34.900    22043048.395 3  22043070.125 5
  91679846.864 5        36.300


  23305062.852 5 122468938.897 5        37.300                    23305089.402 6
  95430437.59446        21.500    23305089.69546  23305092.551 7  91454093.444 7
        43.100

  25018288.359 7 131471992.615 7        43.900
                                                  25018306.043 7  98177173.275 7
        44.300    25018303.332 7 100738303.209 7        44.700    25018305.129 9
  99457684.348 9        48.300
  28587516.633 5 150228394.334 5        35.600
                                                  28587542.410 5 112183543.766 5
        36.000    28587538.078 4 115110010.270 4        34.900

  26280189.891 7 138103329.480 7        41.200
                                                  26280215.090 7 103129037.894 7
        42.000    26280211.070 7 105819429.430 7        43.000    26280213.543 8
 104474248.272 8        46.500
  23985432.289 9 126044294.889 9        50.400
                                                  23985450.340 9  94124035.199 9
        50.600    23985447.055 9  96579435.805 9        51.200    23985449.117 9
  95351668.111 9        54.200
  24463152.258 9 128554738.204 9        48.800
                                                  24463173.914 9  95998622.262 9
        48.300    24463170.684 9  98502937.836 9        49.100    24463172.684 9
  97250799.664 9        51.900
  27276360.836 5 143338246.641 5        37.900
                                                  27276382.727 6 107038237.847 6
        39.800    27276379.512 6 109830602.879 6        39.900    27276381.543 7
 108434421.481 7        43.600
  23659903.859 9 124333633.240 9        49.000
                                                  23659921.684 9  92846602.089 9
        50.800    23659918.371 9  95268678.067 9        51.100    23659920.418 9
  94057558.684 9        54.300
  27078375.711 6 142297838.956 6        38.700
                                                  27078400.020 6 106261299.540 6
        40.900    27078395.969 7 109033385.873 7        41.200    27078398.211 7
 107647337.313 7        44.500
  38095365.078 5 200192556.184 5        35.600



 23  2 14 10 24 46.0000000  0 25G30R 9R 5G19G11G14G 3R21R22G17G 7R11 0.000000000
                                R10G 6R20G 1E12E24E26E 1E31E21E33E10
                                S26
  21999346.055 7 115607359.433 7        44.900                    21999364.805 7
  90083711.95749        43.300    21999364.44149  21999367.539 9  86330191.528 9
        48.200

  21665646.398 7 115693364.371 7        44.800    21665645.648 7  21665660.301 7
  89983716.423 7        43.700


  24208788.523 5 129409963.078 5        35.900    24208788.449 4  24208815.531 3
 100652091.868 3        33.800


  22404851.305 7 117738295.003 7        41.700
  91744197.14548        30.700    22404871.74648


  24851437.867 3 130595189.191 3        33.600                    24851459.367 5
 101762569.86745        15.600    24851459.37945  24851466.234 6  97522383.095 6
        39.000

  20350531.063 8 106942766.621 8        47.600                    20350546.871 9
  83332082.73549        40.900    20350546.62149  20350553.875 9  79859874.916 9
        54.500

  22440226.156 7 117924174.460 7        41.100                    22440250.672 7
  91889058.86547        29.300    22440249.54747  22440254.867 8  88060280.181 8
        47.000

  20552831.445 9 109982347.031 9        50.300    20552830.641 9  20552847.047 8
  85541835.489 8        46.600


  22407789.398 7 119614320.491 7        42.600    22407789.668 7  22407808.938 6
  93033355.922 6        40.400


  21781652.445 7 114463373.720 7        44.100                    21781671.621 7
  89192292.86549        44.900    21781671.59049


  23680101.797 5 124439785.103 5        35.700                    23680119.211 4
  96966119.82447        28.700    23680119.08647


  20883519.766 9 111595208.620 9        49.300    20883519.691 8  20883535.852 8
  86796280.149 8        46.400


  19292196.148 7 102838245.031 7        44.500    19292194.094 7



  21349176.484 7 112190671.473 7        44.800                    21349196.570 8
  87421381.64849        47.500    21349195.84849  21349200.379 9  83778775.158 9
        50.600

  22043603.508 5 117877040.779 5        35.000    22043602.430 4  22043624.047 5
  91682150.928 5        36.100


  23305729.609 5 122472442.377 5        36.900                    23305755.664 6
  95433167.56246        21.500    23305756.46146  23305759.230 7  91456709.677 7
        43.200

  25018017.500 7 131470567.316 7        44.100
                                                  25018034.852 7  98176108.963 7
        44.300    25018032.047 7 100737211.130 7        44.700    25018033.906 9
  99456606.155 9        48.300
  28587020.734 5 150225785.842 5        35.500
                                                  28587046.336 5 112181595.818 5
        36.300    28587041.543 4 115108011.563 4        34.900

  26280660.180 7 138105800.504 7        41.700
                                                  26280685.250 7 103130883.138 7
        42.000    26280681.367 7 105821322.815 7        43.200    26280683.773 8
 104476117.593 8        46.300
  23985568.289 9 126045010.104 9        50.100
                                                  23985586.379 9  94124569.290 9
        50.900    23985583.227 9  96579983.842 9        51.000    23985585.199 9
  95352209.181 9        54.200
  24462812.086 9 128552950.289 9        48.600
                                                  24462833.816 9  95997287.137 9
        48.500    24462830.465 9  98501567.886 9        49.100    24462832.449 9
  97249447.118 9        52.200
  27276791.867 6 143340511.711 6        38.000
                                                  27276813.512 6 107039929.265 6
        40.200    27276810.516 6 109832338.454 6        40.100    27276812.547 7
 108436134.974 7        43.700
  23660089.688 9 124334609.006 9        48.800
                                                  23660107.266 9  92847330.752 9
        50.200    23660103.969 9  95269425.739 9        51.600    23660106.098 9
  94058296.851 9        54.200
  27077968.648 6 142295700.509 6        38.700
                                                  27077992.852 7 106259702.655 7
        41.200    27077989.047 6 109031747.341 6        40.900    27077991.277 7
 107645719.615 7        44.300
  38095360.359 5 200192503.678 5        35.800



 23  2 14 10 24 47.0000000  0 25G30R 9R 5G19G11G14G 3R21R22G17G 7R11 0.000000000
                                R10G 6R20G 1E12E24E26E 1E31E21E33E10
                                S26
  21999824.219 7 115609874.043 7        44.900                    21999843.285 8
  90085671.39649        43.000    21999842.71549  21999846.063 9  86332069.313 9
        48.500

  21666353.672 7 115697142.685 7        44.900    21666353.063 7  21666367.051 7
  89986655.118 7        43.700


  24208487.438 5 129408351.777 5        35.200    24208487.055 4  24208515.508 3
 100650838.627 3        33.700


  22404643.445 7 117737204.637 7        42.100
  91743347.51548        31.000    22404664.24648


  24850828.672 4 130591991.879 4        34.300                    24850850.738 5
 101760078.46345        15.600    24850850.91845  24850857.719 6  97519995.480 6
        39.200

  20350407.742 8 106942120.777 8        47.900                    20350424.172 9
  83331579.48249        41.200    20350423.77349  20350430.953 9  79859392.628 9
        54.400

  22440231.852 7 117924200.743 7        41.100                    22440255.340 7
  91889079.34747        29.400    22440254.62547  22440259.961 8  88060299.816 8
        47.300

  20552901.703 9 109982726.078 9        50.800    20552901.434 9  20552918.496 8
  85542130.297 8        47.000


  22407436.617 7 119612436.482 7        42.400    22407436.738 7  22407455.996 6
  93031890.562 6        40.700


  21781666.805 7 114463449.924 7        44.100                    21781686.324 7
  89192352.24849        45.400    21781685.98449


  23680759.617 5 124443241.919 5        36.100                    23680776.703 4
  96968813.44647        28.300    23680776.73447


  20882935.188 9 111592087.684 9        49.200    20882935.375 8  20882952.301 8
  86793852.768 8        46.400


  19292372.789 7 102839183.552 7        44.300    19292370.195 7



  21348815.766 7 112188774.766 7        44.900                    21348835.715 8
  87419903.69449        47.400    21348834.96949  21348839.516 9  83777358.796 9
        50.300

  22044157.469 4 117880003.170 4        34.700    22044156.316 4  22044177.918 5
  91684455.011 5        36.000


  23306396.797 5 122475945.908 5        36.800                    23306422.801 6
  95435897.57546        20.400    23306423.10246  23306425.738 7  91459325.946 7
        43.600

  25017746.125 7 131469142.353 7        43.600
                                                  25017763.625 7  98175044.854 7
        44.400    25017760.934 7 100736119.268 7        44.600    25017762.746 9
  99455528.170 9        48.200
  28586523.984 5 150223177.267 5        35.600
                                                  28586550.238 5 112179647.882 5
        35.900    28586545.246 4 115106012.765 4        34.800

  26281130.641 7 138108271.551 7        41.300
                                                  26281155.383 7 103132728.402 7
        42.400    26281151.555 7 105823216.212 7        43.300    26281154.000 8
 104477986.913 8        46.800
  23985704.398 9 126045725.670 9        49.500
                                                  23985722.621 9  94125103.645 9
        50.500    23985719.367 9  96580532.125 9        50.900    23985721.375 9
  95352750.500 9        54.000
  24462471.984 9 128551162.543 9        48.300
                                                  24462493.574 9  95995952.155 9
        48.700    24462490.328 9  98500198.068 9        49.100    24462492.238 9
  97248094.714 9        52.400
  27277222.984 6 143342776.867 6        38.100
                                                  27277244.887 6 107041620.810 6
        39.700    27277241.281 6 109834074.146 6        39.600    27277243.590 7
 108437848.593 7        43.700
  23660275.336 9 124335585.061 9        49.100
                                                  23660293.082 9  92848059.619 9
        50.200    23660289.781 9  95270173.616 9        51.500    23660291.828 9
  94059035.223 9        54.200
  27077562.234 6 142293562.314 6        39.300
                                                  27077585.984 7 106258105.931 7
        41.000    27077581.992 7 109030108.936 7        41.000    27077584.379 7
 107644102.058 7        44.400
  38095352.625 5 200192451.063 5        35.700



 23  2 14 10 24 48.0000000  0 25G30R 9R 5G19G11G14G 3R21R22G17G 7R11 0.000000000
                                R10G 6R20G 1E12E24E26E 1E31E21E33E10
                                S26
  22000302.859 7 115612388.984 7        44.500                    22000321.895 8
  90087631.08949        43.000    22000321.36349  22000324.699 9  86333947.353 9
        48.300

  21667061.445 7 115700921.396 7        44.900    21667060.844 7  21667075.656 7
  89989594.127 7        43.300


  24208185.859 5 129406740.836 5        35.200    24208186.098 4  24208214.125 4
 100649585.636 4        34.700


  22404436.227 7 117736114.348 7        42.000
  91742497.94148        30.100    22404456.68048


  24850220.023 4 130588794.771 4        34.300                    24850242.223 5
 101757587.22544        14.800    24850242.50844  24850249.402 6  97517608.038 6
        39.200

  20350285.195 8 106941475.402 8        47.700                    20350301.375 9
  83331076.59949        41.400    20350300.80949  20350308.172 9  79858910.700 9
        54.500

  22440236.523 7 117924227.641 7        41.100                    22440260.398 7
  91889100.29947        29.700    22440259.76247  22440265.094 8  88060319.895 8
        47.600

  20552972.594 9 109983105.534 9        50.300    20552972.262 9  20552988.953 8
  85542425.438 8        47.000


  22407083.578 7 119610552.917 7        42.000    22407083.719 7  22407103.043 6
  93030425.572 6        40.500


  21781681.922 7 114463526.121 7        44.200                    21781701.063 7
  89192411.62249        45.200    21781700.50449


  23681417.508 5 124446698.683 5        36.500                    23681434.750 4
  96971507.03147        28.900    23681434.33247


  20882351.188 9 111588967.292 9        49.100    20882351.520 8  20882367.867 8
  86791425.796 8        46.300


  19292547.813 7 102840122.915 7        44.500    19292546.543 7



  21348454.484 7 112186878.570 7        44.900                    21348474.727 8
  87418426.14049        47.500    21348474.13749  21348478.629 9  83775942.809 9
        50.500

  22044711.047 4 117882965.473 4        34.900    22044710.016 4  22044732.035 5
  91686759.044 5        36.100


  23307062.805 5 122479449.574 5        36.700                    23307089.266 6
  95438627.73646        20.600    23307089.78146  23307092.465 7  91461942.315 7
        43.200

  25017475.063 7 131467717.738 7        43.400
                                                  25017492.598 7  98173981.001 7
        44.300    25017489.934 7 100735027.676 7        44.500    25017491.652 9
  99454450.443 9        48.300
  28586027.813 5 150220568.695 5        36.000
                                                  28586054.004 5 112177699.887 5
        35.900    28586048.637 4 115104013.943 4        34.500

  26281600.641 7 138110742.628 7        41.300
                                                  26281625.660 7 103134573.655 7
        42.100    26281621.820 7 105825109.597 7        43.400    26281624.238 8
 104479856.239 8        46.400
  23985840.805 9 126046441.613 9        49.800
                                                  23985858.918 9  94125638.270 9
        50.600    23985855.637 9  96581080.721 9        50.800    23985857.605 9
  95353292.100 9        53.800
  24462131.773 9 128549375.015 9        48.500
                                                  24462153.328 9  95994617.310 9
        48.300    24462150.117 9  98498828.390 9        49.100    24462152.063 9
  97246742.460 9        52.400
  27277653.688 6 143345042.329 6        38.300
                                                  27277675.738 6 107043312.551 6
        39.600    27277672.457 6 109835810.006 6        39.700    27277674.664 7
 108439562.386 7        43.500
  23660461.125 9 124336561.408 9        48.700
                                                  23660478.883 9  92848788.719 9
        50.300    23660475.465 9  95270921.731 9        51.000    23660477.641 9
  94059773.836 9        54.400
  27077156.000 6 142291424.350 6        39.500
                                                  27077179.090 7 106256509.381 7
        41.100    27077174.926 7 109028470.786 7        41.200    27077177.539 7
 107642484.697 7        44.400
  38095341.609 5 200192398.431 5        35.500



 23  2 14 10 24 49.0000000  0 25G30R 9R 5G19G11G14G 3R21R22G17G 7R11 0.000000000
                                R10G 6R20G 1E12E24E26E 1E31E21E33E10
                                S26
  22000781.000 7 115614904.202 7        44.300                    22000800.418 8
  90089590.99749        42.800    22000799.89549  22000803.336 9  86335825.600 9
        48.400

  21667767.969 7 115704700.486 7        44.700    21667768.215 7  21667782.605 7
  89992533.427 7        43.700


  24207885.023 5 129405130.194 5        36.400    24207884.703 5  24207913.449 4
 100648332.914 4        34.500


  22404228.508 7 117735024.082 7        41.800
  91741648.40048        31.200    22404249.19148


  24849611.516 4 130585597.813 4        34.900                    24849633.816 5
 101755096.09844        14.800    24849634.19944  24849640.820 6  97515220.714 6
        39.200

  20350161.891 8 106940830.465 8        47.700                    20350178.449 9
  83330574.04649        41.400    20350178.13749  20350185.465 9  79858429.095 9
        54.600

  22440241.539 7 117924255.118 7        41.600                    22440265.359 7
  91889121.70947        29.400    22440264.96147  22440270.281 8  88060340.420 8
        47.600

  20553044.117 9 109983485.340 9        50.500    20553043.344 9  20553060.090 8
  85542720.842 8        46.900


  22406731.570 7 119608669.770 7        42.400    22406731.219 7  22406749.773 6
  93028960.900 6        40.900


  21781696.680 7 114463602.262 7        44.700                    21781715.281 7
  89192470.95549        45.100    21781715.06349


  23682074.703 5 124450155.394 5        35.700                    23682092.125 3
  96974200.58047        28.800    23682092.28147


  20881767.563 9 111585847.392 9        49.100    20881767.848 8  20881784.559 8
  86788999.205 8        46.300


  19292724.398 7 102841063.098 7        44.700    19292722.820 7



  21348093.813 7 112184982.830 7        44.900                    21348114.168 8
  87416948.94649        47.600    21348113.35949  21348117.863 9  83774527.148 9
        50.500

  22045265.516 4 117885927.732 4        34.700    22045264.309 4  22045286.375 5
  91689063.030 5        36.300


  23307729.320 5 122482953.313 5        36.700                    23307756.195 6
  95441357.90046        21.300    23307756.46546  23307759.203 7  91464558.709 7
        43.700

  25017203.945 7 131466293.405 7        43.700
                                                  25017221.578 7  98172917.409 7
        44.400    25017218.695 7 100733936.318 7        44.400    25017220.617 9
  99453372.972 9        48.200
  28585530.586 5 150217960.043 5        36.400
                                                  28585557.395 5 112175751.852 5
        36.200    28585552.336 4 115102015.130 4        34.800

  26282070.867 7 138113213.666 7        41.100
                                                  26282095.895 7 103136418.924 7
        42.100    26282092.164 7 105827003.022 7        43.100    26282094.441 8
 104481725.586 8        46.300
  23985977.117 9 126047157.894 9        49.500
                                                  23985995.129 9  94126173.167 9
        50.300    23985991.891 9  96581629.544 9        50.800    23985993.918 9
  95353833.966 9        53.500
  24461791.492 9 128547587.652 9        48.700
                                                  24461813.117 8  95993282.596 8
        47.900    24461809.840 9  98497458.859 9        49.000    24461811.945 9
  97245390.340 9        52.000
  27278085.203 5 143347307.953 5        37.900
                                                  27278107.035 6 107045004.429 6
        39.600    27278103.641 6 109837546.026 6        40.100    27278105.820 7
 108441276.338 7        43.700
  23660646.984 9 124337538.027 9        48.600
                                                  23660664.719 9  92849518.001 9
        50.700    23660661.484 9  95271670.051 9        51.100    23660663.469 9
  94060512.635 9        54.600
  27076748.883 6 142289286.594 6        39.500
                                                  27076772.270 7 106254913.015 7
        41.300    27076768.273 7 109026832.759 7        41.300    27076770.738 7
 107640867.511 7        44.300
  38095335.781 5 200192345.787 5        35.700



 23  2 14 10 24 50.0000000  0 25G30R 9R 5G19G11G14G 3R21R22G17G 7R11 0.000000000
                                R10G 6R20G 1E12E24E26E 1E31E21E33E10
                                S26
  22001259.773 7 115617419.716 7        44.800                    22001279.523 8
  90091551.14149        43.000    22001278.65249  22001281.961 9  86337704.055 9
        48.400

  21668476.109 7 115708480.015 7        44.600    21668476.195 7  21668490.207 7
  89995473.041 7        43.400


  24207584.031 5 129403519.923 5        36.400    24207583.770 5  24207611.801 3
 100647080.486 3        33.700


  22404021.266 7 117733933.848 7        41.800
  91740798.86648        30.600    22404041.64848


  24849004.313 5 130582401.101 5        35.100                    24849025.430 5
 101752605.13245        16.300    24849025.82045  24849032.340 6  97512833.539 6
        38.700

  20350039.711 8 106940185.997 8        47.800                    20350055.906 9
  83330071.87349        41.200    20350055.51249  20350062.762 9  79857947.824 9
        54.500

  22440247.000 7 117924283.194 7        41.100                    22440270.637 7
  91889143.58647        29.900    22440270.24647  22440275.684 8  88060361.376 8
        47.700

  20553115.070 9 109983865.531 9        50.300    20553114.238 9  20553130.535 8
  85543016.538 8        46.400


  22406378.828 7 119606787.031 7        42.700    22406378.480 7  22406398.156 7
  93027496.564 7        41.000


  21781710.859 7 114463678.360 7        44.900                    21781729.727 7
  89192530.25749        44.900    21781729.43449


  23682732.586 5 124453612.077 5        35.300                    23682750.250 3
  96976894.09347        29.400    23682750.15247


  20881184.172 9 111582728.027 9        49.200    20881183.961 8  20881199.824 8
  86786573.046 8        46.300


  19292901.094 7 102842004.116 7        44.600    19292899.113 7



  21347733.516 7 112183087.565 7        44.900                    21347753.430 8
  87415472.11649        47.600    21347752.82449  21347757.195 9  83773111.872 9
        50.300

  22045819.203 4 117888889.923 4        34.600    22045818.090 4  22045840.066 5
  91691366.915 5        35.700


  23308396.594 5 122486457.091 5        36.400                    23308422.738 6
  95444088.10746        21.700    23308423.30146  23308426.145 7  91467175.173 7
        43.800

  25016932.641 7 131464869.429 7        43.600
                                                  25016950.645 7  98171854.019 7
        44.600    25016947.688 7 100732845.203 7        44.600    25016949.625 9
  99452295.725 9        48.000
  28585034.320 5 150215351.277 5        35.500
                                                  28585060.988 5 112173803.723 5
        36.700    28585055.609 5 115100016.133 5        35.100

  26282541.188 7 138115684.719 7        41.400
                                                  26282566.121 7 103138264.187 7
        42.000    26282562.309 7 105828896.421 7        43.100    26282564.680 8
 104483594.920 8        46.300
  23986113.188 9 126047874.515 9        49.800
                                                  23986131.480 9  94126708.304 9
        50.400    23986128.398 9  96582178.653 9        50.800    23986130.277 9
  95354376.079 9        53.800
  24461451.461 9 128545800.468 9        49.000
                                                  24461473.117 9  95991948.022 9
        48.100    24461469.977 9  98496089.481 9        49.100    24461471.863 9
  97244038.359 9        51.800
  27278516.289 6 143349573.814 6        38.300
                                                  27278538.203 6 107046696.447 6
        39.500    27278534.820 6 109839282.186 6        40.200    27278536.996 7
 108442990.424 7        43.300
  23660832.875 9 124338514.920 9        49.000
                                                  23660850.574 9  92850247.500 9
        51.200    23660847.441 9  95272418.571 9        50.800    23660849.367 9
  94061251.649 9        54.500
  27076341.922 6 142287149.103 6        39.300
                                                  27076365.449 7 106253316.854 7
        41.400    27076361.750 7 109025194.933 7        41.300    27076363.992 7
 107639250.510 7        44.500
  38095317.906 5 200192293.094 5        35.900



 23  2 14 10 24 51.0000000  0 25G30R 9R 5G19G11G14G 3R21R22G17G 7R11 0.000000000
                                R10G 6R20G 1E12E24E26E 1E31E21E33E10
                                S26
  22001738.688 7 115619935.611 7        44.700                    22001758.098 8
  90093511.57649        43.200    22001757.48849  22001760.672 9  86339582.818 9
        48.300

  21669184.773 7 115712260.008 7        44.100    21669183.910 7  21669198.152 7
  89998413.036 7        43.600


  24207282.875 5 129401910.117 5        36.900    24207283.070 4  24207310.449 3
 100645828.413 3        33.500


  22403813.563 7 117732843.779 7        41.700
  91739949.47348        30.200    22403834.17648


  24848395.602 4 130579204.619 4        34.600                    24848417.234 5
 101750114.38245        17.400    24848417.49645  24848423.957 6  97510446.553 6
        38.800

  20349916.953 8 106939542.032 8        47.900                    20349933.434 9
  83329570.08749        41.100    20349932.99649  20349940.254 9  79857466.963 9
        54.500

  22440252.422 7 117924311.969 7        41.200                    22440276.234 7
  91889166.00247        28.900    22440275.74247  22440281.090 8  88060382.855 8
        47.400

  20553185.891 9 109984246.235 9        50.000    20553185.695 9  20553202.078 8
  85543312.644 8        46.300


  22406026.297 7 119604904.842 7        42.900    22406025.941 7  22406045.703 6
  93026032.614 6        40.800


  21781724.820 7 114463754.522 7        44.900                    21781744.125 7
  89192589.60549        44.600    21781744.00449


  23683390.211 5 124457068.877 5        35.900                    23683408.242 4
  96979587.69347        28.500    23683407.88347


  20880600.125 9 111579609.277 9        49.100    20880600.508 8  20880616.168 8
  86784147.366 8        46.100


  19293076.398 7 102842946.067 7        44.300    19293075.754 7



  21347372.984 8 112181192.884 8        45.100                    21347392.977 8
  87413995.74949        47.500    21347392.12549  21347396.633 9  83771697.019 9
        50.400

  22046372.789 5 117891852.137 5        35.100    22046371.973 3  22046394.434 5
  91693670.880 5        35.700


  23309063.141 5 122489961.004 5        36.600                    23309089.539 6
  95446818.42046        22.200    23309089.99646  23309092.844 7  91469791.744 7
        44.000

  25016662.141 7 131463445.822 7        43.400
                                                  25016679.816 7  98170790.975 7
        44.600    25016676.910 7 100731754.406 7        44.400    25016678.730 9
  99451218.794 9        48.200
  28584538.117 5 150212742.474 5        35.700
                                                  28584564.703 5 112171855.610 5
        36.500    28584559.285 4 115098017.172 4        34.400

  26283010.797 7 138118155.886 7        41.500
                                                  26283036.293 7 103140109.544 7
        42.200    26283032.355 7 105830789.921 7        42.800    26283034.918 8
 104485464.335 8        46.200
  23986250.039 9 126048591.558 9        49.500
                                                  23986268.051 9  94127243.765 9
        50.600    23986264.727 9  96582728.089 9        51.000    23986266.730 9
  95354918.536 9        53.600
  24461111.203 9 128544013.580 9        48.900
                                                  24461133.094 9  95990613.658 9
        48.600    24461129.785 9  98494720.296 9        48.800    24461131.820 9
  97242686.591 9        51.800
  27278947.992 6 143351839.955 6        38.300
                                                  27278969.410 6 107048388.717 6
        39.800    27278966.172 6 109841018.548 6        40.000    27278968.215 7
 108444704.755 7        43.400
  23661018.961 9 124339492.197 9        48.900
                                                  23661036.559 9  92850977.285 9
        50.800    23661033.293 9  95273167.385 9        50.900    23661035.332 9
  94061990.943 9        54.300
  27075934.969 6 142285011.922 6        39.300
                                                  27075959.090 7 106251720.887 7
        41.100    27075954.699 7 109023557.360 7        41.400    27075957.289 7
 107637633.732 7        44.400
  38095314.719 5 200192240.548 5        35.200



 23  2 14 10 24 52.0000000  0 25G30R 9R 5G19G11G14G 3R21R22G17G 7R11 0.000000000
                                R10G 6R20G 1E12E24E26E 1E31E21E33E10
                                S26
  22002217.570 7 115622451.761 7        44.400                    22002236.777 8
  90095472.21349        43.400    22002236.28149  22002239.465 9  86341461.772 9
        48.600

  21669892.219 7 115716040.394 7        44.500    21669891.992 7  21669905.766 7
  90001353.336 7        43.800


  24206981.414 5 129400300.623 5        36.400    24206981.313 5  24207008.223 3
 100644576.569 3        33.400


  22403606.797 7 117731753.729 7        41.600
  91739100.08748        30.700    22403626.80548


  24847786.945 4 130576008.256 4        34.600                    24847808.980 5
 101747623.71645        17.800    24847809.10945  24847815.500 6  97508059.699 6
        38.600

  20349794.852 8 106938898.535 8        47.500                    20349810.855 9
  83329068.66149        41.000    20349810.63349  20349817.805 9  79856986.432 9
        54.500

  22440257.805 6 117924341.277 6        40.900                    22440281.938 7
  91889188.84047        29.300    22440281.20747  22440286.742 8  88060404.754 8
        47.500

  20553257.625 9 109984627.310 9        50.000    20553256.598 9  20553273.199 8
  85543609.041 8        46.400


  22405674.109 7 119603023.034 7        42.400    22405673.297 7  22405692.168 6
  93024569.013 6        40.900


  21781738.891 8 114463830.638 8        45.200                    21781758.570 7
  89192648.91549        45.000    21781758.59449


  23684047.625 5 124460525.578 5        36.000                    23684066.016 4
  96982281.22747        28.700    23684065.67647


  20880016.945 9 111576491.001 9        49.100    20880016.883 8  20880032.852 8
  86781722.044 8        46.000


  19293254.047 7 102843888.857 7        44.300    19293253.031 7



  21347012.672 8 112179298.649 8        45.000                    21347032.824 8
  87412519.71949        47.700    21347031.79749  21347036.203 9  83770282.491 9
        50.300

  22046927.195 4 117894814.286 4        34.900    22046925.703 3  22046947.758 5
  91695974.773 5        35.800


  23309729.805 5 122493465.039 5        37.300                    23309756.254 6
  95449548.85046        22.200    23309756.73446  23309759.594 7  91472408.378 7
        43.900

  25016391.125 7 131462022.545 7        43.700
                                                  25016408.863 7  98169728.132 7
        44.500    25016405.848 7 100730663.848 7        44.900    25016407.887 9
  99450142.092 9        48.300
  28584041.117 4 150210133.644 4        34.900
                                                  28584068.191 5 112169907.424 5
        36.200    28584063.176 4 115096018.235 4        34.500

  26283481.516 7 138120627.042 7        41.100
                                                  26283506.621 7 103141954.861 7
        42.300    26283503.008 7 105832683.382 7        42.900    26283505.180 8
 104487333.745 8        46.400
  23986386.422 9 126049308.957 9        49.700
                                                  23986404.484 9  94127779.474 9
        50.900    23986401.250 9  96583277.762 9        51.100    23986403.242 9
  95355461.233 9        53.700
  24460771.359 9 128542226.842 9        49.100
                                                  24460792.957 9  95989279.418 9
        48.300    24460789.707 9  98493351.247 9        49.100    24460791.801 9
  97241334.937 9        51.700
  27279378.797 6 143354106.258 6        38.600
                                                  27279400.684 6 107050081.111 6
        39.900    27279397.496 6 109842755.128 6        40.500    27279399.488 7
 108446419.223 7        43.500
  23661204.836 9 124340469.719 9        49.100
                                                  23661222.539 9  92851707.249 9
        50.600    23661219.254 9  95273916.410 9        51.200    23661221.355 9
  94062730.439 9        54.200
  27075528.164 6 142282874.941 6        39.800
                                                  27075552.105 7 106250125.093 7
        41.200    27075548.141 7 109021919.938 7        41.600    27075550.621 7
 107636017.128 7        44.900
  38095309.547 5 200192187.955 5        35.500



 23  2 14 10 24 53.0000000  0 25G30R 9R 5G19G11G14G 3R21R22G17G 7R11 0.000000000
                                R10G 6R20G 1E12E24E26E 1E31E21E33E10
                                S26
  22002696.727 7 115624968.241 7        44.500                    22002715.531 7
  90097433.10549        43.400    22002715.05949  22002718.352 9  86343340.949 9
        48.500

  21670600.992 7 115719821.193 7        44.700    21670600.023 7  21670613.645 7
  90004293.954 7        43.900


  24206680.766 5 129398691.488 5        36.300    24206680.723 4  24206706.945 3
 100643325.037 3        33.100


  22403398.680 7 117730663.715 7        41.400
  91738250.73848        31.100    22403419.34048


  24847179.031 4 130572812.189 4        34.300                    24847200.340 5
 101745133.24245        17.400    24847200.77745  24847207.438 6  97505673.005 6
        39.000

  20349672.188 8 106938255.484 8        47.900                    20349688.473 9
  83328567.58249        41.100    20349688.25049  20349695.398 9  79856506.228 9
        54.500

  22440263.711 6 117924371.198 6        40.700                    22440287.125 7
  91889212.14647        29.400    22440286.89147  22440292.438 8  88060427.081 8
        47.300

  20553328.211 9 109985008.770 9        50.500    20553328.020 9  20553344.469 8
  85543905.733 8        46.600


  22405321.563 7 119601141.682 7        42.300    22405320.699 7  22405339.230 6
  93023105.731 6        40.900


  21781753.594 7 114463906.688 7        44.600                    21781773.324 7
  89192708.18149        45.100    21781772.92249


  23684705.664 5 124463982.272 5        35.900                    23684723.383 3
  96984974.75947        29.000    23684723.32847


  20879433.414 9 111573373.255 9        49.000    20879433.465 8  20879449.789 8
  86779297.144 8        46.000


  19293431.883 7 102844832.464 7        44.600    19293430.094 7



  21346652.258 7 112177404.921 7        44.900                    21346671.863 8
  87411044.08949        47.500    21346671.34449  21346675.859 9  83768868.340 9
        50.400

  22047479.969 4 117897776.345 4        34.300    22047479.484 3  22047499.750 5
  91698278.583 5        36.400


  23310396.680 5 122496969.110 5        37.300                    23310423.566 6
  95452279.29446        22.000    23310423.53146  23310426.461 7  91475025.061 7
        44.200

  25016120.406 7 131460599.575 7        43.900
                                                  25016138.137 7  98168665.514 7
        44.300    25016135.266 7 100729573.513 7        44.500    25016137.105 9
  99449065.630 9        48.400
  28583544.633 4 150207524.669 4        34.900
                                                  28583571.629 5 112167959.141 5
        36.200    28583567.090 5 115094019.129 5        35.100

  26283952.023 7 138123098.219 7        41.400
                                                  26283976.742 7 103143800.228 7
        42.300    26283973.070 7 105834576.861 7        42.600    26283975.438 8
 104489203.153 8        45.800
  23986522.930 9 126050026.677 9        49.800
                                                  23986541.031 9  94128315.435 9
        50.200    23986537.793 9  96583827.709 9        50.900    23986539.836 9
  95356004.184 9        53.500
  24460431.500 9 128540440.281 9        49.100
                                                  24460453.063 9  95987945.309 9
        48.100    24460449.871 9  98491982.345 9        49.000    24460451.828 9
  97239983.429 9        51.600
  27279810.039 6 143356372.784 6        38.700
                                                  27279832.035 6 107051773.629 6
        40.200    27279828.453 6 109844491.810 6        40.200    27279830.785 7
 108448133.830 7        43.600
  23661390.961 9 124341447.519 9        49.300
                                                  23661408.617 9  92852437.425 9
        51.000    23661405.348 9  95274665.622 9        51.000    23661407.426 9
  94063470.139 9        54.500
  27075121.414 6 142280738.214 6        39.900
                                                  27075145.555 7 106248529.492 7
        41.200    27075141.398 7 109020282.685 7        41.400    27075144.027 7
 107634400.716 7        44.900
  38095296.156 5 200192135.329 5        35.700



 23  2 14 10 24 54.0000000  0 25G30R 9R 5G19G11G14G 3R21R22G17G 7R11 0.000000000
                                R10G 6R20G 1E12E24E26E 1E31E21E33E10
                                S26
  22003175.203 7 115627485.007 7        44.200                    22003194.902 7
  90099394.22149        43.200    22003193.98049  22003197.246 9  86345220.354 9
        48.700

  21671308.891 7 115723602.412 7        44.700    21671308.094 7  21671322.789 7
  90007234.899 7        44.000


  24206379.586 5 129397082.707 5        36.800    24206379.449 4  24206406.949 3
 100642073.705 3        33.300


  22403191.211 7 117729573.762 7        41.300
  91737401.43248        30.800    22403211.87948


  24846571.211 3 130569616.250 3        33.400                    24846592.215 5
 101742642.89445        15.600    24846592.33245  24846599.500 6  97503286.440 6
        39.500

  20349549.859 8 106937612.902 8        47.800                    20349566.078 9
  83328066.87349        41.300    20349565.99649  20349573.121 9  79856026.386 9
        54.600

  22440269.641 6 117924401.693 6        40.500                    22440293.168 7
  91889235.92347        28.700    22440292.69947  22440298.246 8  88060449.876 8
        47.600

  20553400.031 9 109985390.623 9        50.700    20553399.512 9  20553416.418 8
  85544202.742 8        46.500


  22404969.258 7 119599260.774 7        42.000    22404968.371 7  22404987.016 6
  93021642.790 6        40.800


  21781768.430 7 114463982.727 7        44.300                    21781787.684 7
  89192767.43449        45.200    21781787.39149


  23685364.016 5 124467438.844 5        36.300                    23685381.203 3
  96987668.18047        29.200    23685381.10547


  20878850.602 9 111570256.058 9        49.100    20878849.891 9  20878866.637 8
  86776872.658 8        45.900


  19293609.164 7 102845776.913 7        44.700    19293607.348 7



  21346291.422 7 112175511.660 7        44.800                    21346311.977 8
  87409568.82149        47.500    21346310.94149  21346315.621 9  83767454.545 9
        50.500

  22048035.266 4 117900738.430 4        34.800    22048033.641 3  22048055.574 5
  91700582.433 5        36.200


  23311063.719 5 122500473.261 5        37.400                    23311089.906 6
  95455009.80846        22.200    23311090.32046  23311093.281 7  91477641.815 7
        43.500

  25015849.703 7 131459176.945 7        43.600
                                                  25015867.266 7  98167603.175 7
        44.200    25015864.527 7 100728483.451 7        44.900    25015866.395 9
  99447989.418 9        48.500
  28583048.047 3 150204915.640 3        33.900
                                                  28583075.023 5 112166010.850 5
        35.600    28583070.820 5 115092019.979 5        35.500

  26284422.586 7 138125569.372 7        41.300
                                                  26284447.230 7 103145645.590 7
        41.800    26284443.203 7 105836470.361 7        42.700    26284445.676 8
 104491072.589 8        45.800
  23986659.383 9 126050744.774 9        49.800
                                                  23986677.828 9  94128851.681 9
        50.300    23986674.379 9  96584377.951 9        50.600    23986676.461 9
  95356547.426 9        53.700
  24460091.508 9 128538653.938 9        48.800
                                                  24460113.234 9  95986611.363 9
        48.300    24460109.855 9  98490613.594 9        48.800    24460111.895 9
  97238632.089 9        51.700
  27280241.508 6 143358639.519 6        38.200
                                                  27280263.398 6 107053466.347 6
        40.700    27280259.930 6 109846228.684 6        40.200    27280262.121 7
 108449848.615 7        44.000
  23661577.164 9 124342425.625 9        49.200
                                                  23661594.688 9  92853167.823 9
        50.900    23661591.422 9  95275415.085 9        51.000    23661593.547 9
  94064210.067 9        54.000
  27074714.969 6 142278601.737 6        40.000
                                                  27074739.203 7 106246934.076 7
        41.300    27074735.141 7 109018645.676 7        41.600    27074737.461 8
 107632784.489 8        45.000
  38095284.953 5 200192082.709 5        35.200



 23  2 14 10 24 55.0000000  0 25G30R 9R 5G19G11G14G 3R21R22G17G 7R11 0.000000000
                                R10G 6R20G 1E12E24E26E 1E31E21E33E10
                                S26
  22003654.734 7 115630002.049 7        44.100                    22003673.504 7
  90101355.55549        43.400    22003672.84049  22003676.223 9  86347099.963 9
        49.000

  21672017.094 7 115727383.972 7        44.500    21672016.230 7  21672030.699 7
  90010176.118 7        44.300


  24206080.555 5 129395474.208 5        37.300    24206078.609 4  24206107.672 3
 100640822.662 3        32.700


  22402983.859 7 117728483.817 7        41.400
  91736552.13948        31.100    22403004.57048


  24845962.195 3 130566420.508 3        33.700                    24845984.160 5
 101740152.75645        15.600    24845984.02345  24845991.684 6  97500899.995 6
        39.800

  20349427.867 8 106936970.738 8        47.800                    20349443.949 9
  83327566.48749        41.800    20349443.69949  20349450.953 9  79855546.848 9
        54.500

  22440275.336 7 117924432.770 7        41.000                    22440299.457 7
  91889260.13147        29.400    22440298.74647  22440304.148 8  88060473.073 8
        47.500

  20553471.266 9 109985772.857 9        50.700    20553470.770 9  20553487.512 8
  85544500.021 8        46.700


  22404615.789 7 119597380.246 7        41.600    22404616.168 7  22404635.133 7
  93020180.164 7        41.000


  21781783.102 7 114464058.725 7        43.800                    21781802.137 7
  89192826.66049        45.100    21781801.94549


  23686021.344 5 124470895.466 5        36.400                    23686039.133 3
  96990361.65147        28.700    23686038.77347


  20878266.320 9 111567139.352 9        49.300    20878267.012 9  20878282.895 8
  86774448.560 8        46.100


  19293785.992 7 102846722.184 7        44.900    19293784.609 7



  21345931.375 7 112173618.847 7        44.700                    21345951.715 8
  87408093.91249        47.700    21345950.91849  21345955.387 9  83766041.096 9
        50.700

  22048587.547 4 117903700.387 4        34.300    22048587.551 3  22048608.953 5
  91702886.171 5        36.400


  23311730.188 5 122503977.516 5        36.900                    23311756.902 6
  95457740.38746        21.500    23311757.16446  23311760.180 7  91480258.597 7
        43.700

  25015578.930 7 131457754.593 7        44.000
                                                  25015596.867 7  98166541.022 7
        44.100    25015593.910 7 100727393.597 7        44.600    25015595.719 9
  99446913.425 9        48.200
  28582550.594 3 150202306.579 3        33.900
                                                  28582578.070 5 112164062.469 5
        35.700    28582574.156 5 115090020.781 5        35.500

  26284892.484 6 138128040.540 6        40.800
                                                  26284917.305 7 103147490.925 7
        41.800    26284913.504 7 105838363.862 7        42.500    26284915.930 8
 104492941.992 8        46.200
  23986796.367 9 126051463.190 9        50.000
                                                  23986814.539 9  94129388.170 9
        49.900    23986811.273 9  96584928.423 9        50.800    23986813.184 9
  95357090.904 9        53.600
  24459751.523 9 128536867.744 9        49.100
                                                  24459773.215 9  95985277.513 9
        48.300    24459770.020 9  98489244.956 9        49.400    24459771.996 9
  97237280.840 9        51.900
  27280672.820 6 143360906.485 6        38.900
                                                  27280694.820 6 107055159.209 6
        40.500    27280691.387 6 109847965.678 6        40.400    27280693.516 7
 108451563.551 7        43.800
  23661763.156 9 124343403.968 9        48.600
                                                  23661780.996 9  92853898.414 9
        50.500    23661777.652 9  95276164.726 9        50.900    23661779.727 9
  94064950.181 9        54.200
  27074308.281 6 142276465.457 6        39.600
                                                  27074332.742 7 106245338.790 7
        41.400    27074328.293 7 109017008.766 7        41.600    27074330.938 7
 107631168.391 7        44.700
  38095279.484 5 200192029.995 5        36.100



 23  2 14 10 24 56.0000000  0 25G30R 9R 5G19G11G14G 3R21R22G17G 7R11 0.000000000
                                R10G 6R20G 1E12E24E26E 1E31E21E33E10
                                S26
  22004133.664 7 115632519.405 7        44.200                    22004152.824 7
  90103317.12949        42.900    22004152.00849  22004155.289 9  86348979.804 9
        48.400

  21672725.109 7 115731165.998 7        44.100    21672724.344 7  21672738.984 7
  90013117.696 7        44.400


  24205779.430 5 129393866.091 5        36.600    24205777.457 5  24205806.418 3
 100639571.880 3        33.000


  22402776.328 7 117727393.976 7        41.400
  91735702.91548        30.600    22402797.39548


  24845354.000 4 130563224.982 4        34.400                    24845376.316 5
 101737662.76345        15.600    24845375.82445  24845383.934 6  97498513.720 6
        39.700

  20349305.656 8 106936329.064 8        47.600                    20349321.859 9
  83327066.48649        41.200    20349321.55549  20349328.875 9  79855067.671 9
        54.700

  22440281.547 6 117924464.460 6        40.900                    22440305.223 7
  91889284.82647        29.200    22440304.91847  22440310.184 8  88060496.733 8
        47.200

  20553542.320 9 109986155.499 9        50.500    20553542.266 9  20553558.672 8
  85544797.635 8        46.400


  22404263.773 7 119595500.166 7        41.600    22404263.625 7  22404282.625 7
  93018717.902 7        41.400


  21781797.250 7 114464134.713 7        43.900                    21781816.508 7
  89192885.87149        45.000    21781816.34449


  23686679.422 5 124474352.039 5        36.300                    23686697.215 3
  96993055.08347        27.600    23686696.73847


  20877684.117 9 111564023.175 9        48.800    20877683.668 9  20877700.266 8
  86772024.880 8        46.300


  19293964.016 7 102847668.323 7        44.900    19293961.938 7



  21345571.227 7 112171726.547 7        44.900                    21345591.684 8
  87406619.39049        47.600    21345590.76649  21345595.285 9  83764627.997 9
        50.800

  22049142.016 4 117906662.276 4        34.300    22049141.652 3  22049162.637 5
  91705189.881 5        36.500


  23312397.008 5 122507481.843 5        36.700                    23312423.973 6
  95460471.01046        21.500    23312423.92646  23312426.996 7  91482875.468 7
        43.500

  25015308.414 7 131456332.604 7        43.700
                                                  25015326.063 7  98165479.161 7
        44.000    25015323.254 7 100726304.023 7        44.100    25015325.121 8
  99445837.701 8        47.600
  28582055.297 3 150199697.351 3        33.800
                                                  28582081.734 5 112162114.090 5
        35.700    28582077.484 5 115088021.569 5        35.400

  26285362.609 7 138130511.741 7        41.200
                                                  26285387.730 7 103149336.299 7
        42.100    26285383.727 7 105840257.370 7        42.700    26285386.184 8
 104494811.445 8        46.100
  23986933.172 9 126052181.977 9        49.700
                                                  23986951.160 9  94129924.921 9
        49.900    23986947.969 9  96585479.181 9        50.600    23986949.953 9
  95357634.664 9        53.700
  24459411.906 9 128535081.761 9        48.900
                                                  24459433.363 9  95983943.834 9
        48.100    24459430.109 9  98487876.479 9        49.000    24459432.109 9
  97235929.765 9        52.000
  27281104.234 6 143363173.636 6        38.600
                                                  27281126.160 6 107056852.218 6
        40.700    27281122.727 6 109849702.851 6        40.500    27281124.922 7
 108453278.635 7        43.700
  23661949.352 9 124344382.625 9        48.500
                                                  23661967.254 9  92854629.231 9
        50.500    23661963.887 9  95276914.597 9        51.200    23661965.969 9
  94065690.530 9        54.400
  27073901.445 6 142274329.427 6        39.700
                                                  27073926.168 7 106243743.710 7
        41.400    27073922.160 7 109015372.078 7        41.300    27073924.461 7
 107629552.500 7        44.700
  38095272.359 5 200191977.339 5        35.900



 23  2 14 10 24 57.0000000  0 25G30R 9R 5G19G11G14G 3R21R22G17G 7R11 0.000000000
                                R10G 6R20G 1E12E24E26E 1E31E21E33E10
                                S26
  22004612.367 7 115635037.055 7        44.200                    22004631.605 7
  90105278.93749        42.800    22004631.02049  22004634.375 9  86350859.872 9
        48.300

  21673432.328 7 115734948.442 7        44.100    21673432.867 7  21673446.797 7
  90016059.589 7        43.900


  24205478.820 5 129392258.352 5        36.600    24205476.938 5  24205504.367 3
 100638321.382 3        33.000


  22402569.398 7 117726304.171 7        41.800
  91734853.72848        31.400    22402589.89548


  24844745.930 4 130560029.605 4        34.200                    24844767.809 5
 101735172.86645        17.400    24844767.83645  24844775.973 6  97496127.588 6
        40.000

  20349183.828 8 106935687.844 8        47.400                    20349199.781 9
  83326566.83549        41.000    20349199.64549  20349206.828 9  79854588.858 9
        54.600

  22440287.703 6 117924496.753 6        40.900                    22440311.609 7
  91889309.99747        28.500    22440310.89847  22440316.402 8  88060520.866 8
        47.300

  20553614.617 9 109986538.528 9        50.500    20553614.023 9  20553631.051 8
  85545095.551 8        46.500


  22403911.383 7 119593620.556 7        41.900    22403911.656 7  22403931.051 7
  93017255.971 7        41.400


  21781811.383 7 114464210.663 7        43.900                    21781830.836 7
  89192945.05549        44.900    21781830.94549


  23687337.133 5 124477808.569 5        36.000                    23687354.895 4
  96995748.48447        28.100    23687354.71147


  20877100.789 9 111560907.548 9        49.100    20877100.652 8  20877116.914 8
  86769601.629 8        46.500


  19294140.930 7 102848615.301 7        44.900    19294139.746 7



  21345211.594 7 112169834.747 7        44.900                    21345231.441 8
  87405145.26149        47.500    21345230.84049  21345235.359 9  83763215.296 9
        50.700

  22049694.680 4 117909624.210 4        34.400    22049695.742 4  22049716.543 5
  91707493.551 5        36.200


  23313064.438 5 122510986.248 5        36.800                    23313090.461 6
  95463201.71246        21.700    23313090.84446  23313093.906 7  91485492.400 7
        43.800

  25015037.648 7 131454910.935 7        44.000
                                                  25015055.492 7  98164417.538 7
        44.400    25015052.742 7 100725214.702 7        44.600    25015054.582 8
  99444762.220 8        47.700
  28581558.008 4 150197088.150 4        34.000
                                                  28581585.164 5 112160165.596 5
        35.900    28581580.707 5 115086022.26415        35.000

  26285832.945 6 138132982.964 6        40.800
                                                  26285857.949 7 103151181.686 7
        42.400    26285853.930 7 105842150.907 7        42.800    26285856.422 8
 104496680.902 8        46.100
  23987069.836 9 126052901.135 9        49.700
                                                  23987088.074 9  94130461.957 9
        50.100    23987084.750 9  96586030.224 9        50.600    23987086.813 9
  95358178.704 9        53.900
  24459071.836 9 128533295.979 9        49.100
                                                  24459093.594 9  95982610.301 9
        48.100    24459090.453 9  98486508.158 9        49.100    24459092.285 9
  97234578.836 9        52.200
  27281535.594 6 143365441.009 6        38.900
                                                  27281557.707 6 107058545.376 6
        40.300    27281554.051 6 109851440.200 6        40.400    27281556.379 7
 108454993.895 7        43.400
  23662135.813 9 124345361.566 9        48.500
                                                  23662153.523 9  92855360.261 9
        50.500    23662150.191 9  95277664.708 9        51.400    23662152.258 9
  94066431.094 9        54.400
  27073495.328 6 142272193.658 6        39.200
                                                  27073519.703 7 106242148.832 7
        41.300    27073515.645 7 109013735.576 7        41.300    27073518.031 7
 107627936.824 7        44.700
  38095257.875 5 200191924.725 5        35.900



 23  2 14 10 24 58.0000000  0 25G30R 9R 5G19G11G14G 3R21R22G17G 7R11 0.000000000
                                R10G 6R20G 1E12E24E26E 1E31E21E33E10
                                S26
  22005092.313 7 115637555.006 7        44.300                    22005110.781 7
  90107240.97649        42.900    22005110.23449  22005113.547 9  86352740.163 9
        48.200

  21674141.000 7 115738731.268 7        44.300    21674141.555 7  21674155.887 7
  90019001.788 7        43.700


  24205177.477 5 129390650.974 5        36.800    24205175.992 5  24205205.691 3
 100637071.162 3        33.600


  22402361.797 7 117725214.422 7        41.800
  91734004.57248        31.500    22402382.52348


  24844138.492 3 130556834.421 3        33.800                    24844159.699 5
 101732683.08145        16.300    24844159.95345  24844168.246 6  97493741.615 6
        40.500

  20349061.508 8 106935047.084 8        47.300                    20349078.027 9
  83326067.54649        40.900    20349077.72749  20349084.852 9  79854110.371 9
        54.500

  22440293.984 7 117924529.656 7        41.100                    22440317.500 7
  91889335.62147        29.600    22440317.05547  22440322.602 8  88060545.412 8
        47.000

  20553685.906 9 109986921.957 9        50.700    20553685.473 9  20553701.953 8
  85545393.778 8        46.700


  22403559.039 7 119591741.345 7        42.400    22403559.824 7  22403578.555 7
  93015794.362 7        41.300


  21781825.914 7 114464286.588 7        43.900                    21781845.566 7
  89193004.22349        45.100    21781845.09049


  23687995.266 5 124481265.105 5        36.000                    23688013.070 4
  96998441.89847        27.200    23688012.45347


  20876516.938 9 111557792.425 9        49.200    20876517.844 8  20876533.711 8
  86767178.741 8        46.600


  19294319.242 7 102849563.115 7        44.900    19294317.480 7



  21344851.555 7 112167943.398 7        44.900                    21344871.563 8
  87403671.48649        47.300    21344870.91849  21344875.496 9  83761802.939 9
        51.000

  22050248.953 4 117912585.980 4        34.800    22050249.816 4  22050269.762 5
  91709797.201 5        36.700


  23313730.906 5 122514490.728 5        36.900                    23313757.629 6
  95465932.46046        21.300    23313757.73046  23313760.754 7  91488109.371 7
        43.500

  25014767.219 7 131453489.599 7        43.600
                                                  25014785.117 7  98163356.138 7
        44.500    25014782.289 7 100724125.626 7        44.300    25014784.102 9
  99443686.982 9        48.000
  28581062.391 4 150194478.825 4        34.400
                                                  28581088.848 5 112158217.082 5
        35.900    28581084.449 5 115084022.930 5        35.400

  26286303.156 7 138135454.210 7        41.500
                                                  26286328.102 7 103153027.084 7
        42.000    26286324.184 7 105844044.427 7        43.200    26286326.684 8
 104498550.371 8        46.100
  23987206.719 9 126053620.635 9        49.800
                                                  23987224.898 9  94130999.245 9
        50.100    23987221.648 9  96586581.528 9        50.800    23987223.727 9
  95358722.998 9        53.900
  24458732.188 9 128531510.400 9        48.800
                                                  24458753.719 9  95981276.927 9
        48.200    24458750.559 9  98485139.993 9        49.200    24458752.500 9
  97233228.066 9        52.200
  27281967.305 6 143367708.582 6        39.100
                                                  27281989.102 6 107060238.694 6
        40.200    27281985.645 6 109853177.689 6        39.900    27281987.906 7
 108456709.311 7        43.300
  23662322.125 9 124346340.801 9        48.600
                                                  23662339.684 9  92856091.502 9
        50.700    23662336.457 9  95278415.030 9        51.300    23662338.598 9
  94067171.874 9        54.400
  27073088.867 6 142270058.103 6        39.400
                                                  27073113.414 7 106240554.112 7
        41.200    27073109.117 7 109012099.270 7        41.300    27073111.660 7
 107626321.301 7        44.800
  38095244.484 5 200191872.031 5        35.600



 23  2 14 10 24 59.0000000  0 25G30R 9R 5G19G11G14G 3R21R22G17G 7R11 0.000000002
                                R10G 6R20G 1E12E24E26E 1E31E21E33E10
                                S26
  22005570.906 7 115640073.248 7        44.500                    22005590.043 8
  90109203.24549        42.900    22005589.27049  22005592.805 9  86354620.670 9
        48.200

  21674849.836 7 115742514.496 7        44.300    21674849.641 7  21674863.781 7
  90021944.293 7        43.600


  24204875.242 5 129389043.906 5        36.100    24204875.383 4  24204904.063 3
 100635821.195 3        33.700


  22402154.344 7 117724124.716 7        41.700
  91733155.45648        31.200    22402175.29348


  24843530.484 4 130553639.445 4        34.400                    24843551.543 5
 101730193.52645        17.400    24843552.17245  24843560.340 6  97491355.746 6
        40.500

  20348939.391 8 106934406.775 8        47.600                    20348956.125 9
  83325568.60749        40.800    20348955.78149  20348963.004 9  79853632.213 9
        54.500

  22440300.008 7 117924563.102 7        41.200                    22440323.988 7
  91889361.68747        28.300    22440323.49247  22440329.016 8  88060570.407 8
        46.800

  20553757.938 9 109987305.732 9        50.400    20553757.270 9  20553773.930 8
  85545692.268 8        46.300


  22403208.703 7 119589862.559 7        43.000    22403207.684 7  22403226.395 6
  93014333.090 6        40.900


  21781840.477 7 114464362.460 7        43.800                    21781859.559 7
  89193063.34249        45.400    21781859.73449


  23688652.961 5 124484721.538 5        35.800                    23688671.371 4
  97001135.22047        28.700    23688670.18847


  20875934.977 9 111554677.813 9        49.400    20875934.785 8  20875950.969 8
  86764756.292 8        46.200


  19294496.398 7 102850511.743 7        44.900    19294495.195 7



  21344491.758 7 112166052.567 7        44.900                    21344511.719 8
  87402198.11549        47.500    21344511.15249  21344515.668 9  83760390.954 9
        50.800

  22050803.117 4 117915547.776 4        34.700    22050803.438 4  22050823.910 5
  91712100.795 5        36.300


  23314398.328 5 122517995.277 5        37.300                    23314424.547 6
  95468663.28246        22.000    23314424.64546  23314427.816 7  91490726.403 7
        43.800

  25014496.641 7 131452068.593 7        44.200
                                                  25014514.566 7  98162294.994 7
        44.400    25014511.926 7 100723036.785 7        44.800    25014513.695 9
  99442612.003 9        48.300
  28580565.984 3 150191869.435 3        33.800
                                                  28580592.184 5 112156268.476 5
        36.200    28580587.816 5 115082023.472 5        35.600

  26286773.227 7 138137925.422 7        41.400
                                                  26286798.438 7 103154872.486 7
        42.100    26286794.465 7 105845937.982 7        43.000    26286796.945 8
 104500419.837 8        46.000
  23987343.719 9 126054340.455 9        49.800
                                                  23987361.949 9  94131536.783 9
        50.300    23987358.695 9  96587133.088 9        50.900    23987360.707 9
  95359267.549 9        54.100
  24458392.359 9 128529724.976 9        49.000
                                                  24458413.984 9  95979943.662 9
        48.000    24458410.707 9  98483771.943 9        49.200    24458412.727 9
  97231877.409 9        52.000
  27282398.500 6 143369976.367 6        38.500
                                                  27282420.754 6 107061932.187 6
        40.000    27282417.246 6 109854915.373 6        39.700    27282419.441 7
 108458424.884 7        43.600
  23662508.516 9 124347320.307 9        48.600
                                                  23662526.250 9  92856822.945 9
        50.800    23662522.793 9  95279165.553 9        51.200    23662524.977 9
  94067912.858 9        54.500
  27072682.320 6 142267922.798 6        39.400
                                                  27072706.816 7 106238959.553 7
        41.400    27072702.727 7 109010463.124 7        41.600    27072705.320 7
 107624705.945 7        44.900
  38095240.656 5 200191819.341 5        35.000



 23  2 14 10 25  0.0000000  0 25G30R 9R 5G19G11G14G 3R21R22G17G 7R11 0.000000002
                                R10G 6R20G 1E12E24E26E 1E31E21E33E10
                                S26
  22006050.055 7 115642591.773 7        44.700                    22006069.398 7
  90111165.73049        42.800    22006068.69549  22006071.996 9  86356501.393 9
        48.100

  21675558.945 7 115746298.091 7        44.200    21675558.199 7  21675572.527 7
  90024887.101 7        44.000


  24204573.625 5 129387437.164 5        35.800    24204575.109 4  24204602.398 4
 100634571.507 4        34.300


  22401947.406 7 117723035.040 7        41.800
  91732306.37148        30.400    22401967.94948


  24842921.555 4 130550444.659 4        34.300                    24842944.434 5
 101727704.04045        17.400    24842944.15645  24842952.434 6  97488970.050 6
        40.800

  20348818.023 8 106933766.912 8        47.600                    20348834.289 9
  83325070.01749        41.200    20348833.93049  20348841.289 9  79853154.397 9
        54.700

  22440306.336 7 117924597.162 7        41.000                    22440330.199 7
  91889388.23047        28.900    22440330.03547  22440335.375 8  88060595.850 8
        47.000

  20553829.828 9 109987689.886 9        50.500    20553829.164 9  20553845.391 8
  85545991.052 8        46.200


  22402856.609 7 119587984.198 7        42.600    22402855.871 7  22402874.484 6
  93012872.119 6        40.200


  21781854.914 7 114464438.288 7        43.900                    21781874.395 7
  89193122.44049        45.400    21781874.18449


  23689310.641 5 124488177.972 5        35.200                    23689328.719 4
  97003828.53947        28.600    23689327.90647


  20875352.164 9 111551563.720 9        49.300    20875352.020 8  20875368.184 8
  86762334.223 8        46.000


  19294674.477 7 102851461.197 7        44.400    19294673.684 7



  21344131.703 7 112164162.182 7        44.900                    21344152.086 8
  87400725.09249        47.500    21344151.33649  21344155.988 9  83758979.304 9
        50.700

  22051357.016 5 117918509.404 5        35.000    22051357.355 3  22051379.141 5
  91714404.347 5        36.700


  23315065.188 5 122521499.868 5        36.900                    23315091.512 6
  95471394.16646        21.300    23315091.60246  23315094.758 7  91493343.487 7
        43.600

  25014226.555 7 131450647.857 7        43.800
                                                  25014244.340 7  98161234.066 7
        44.000    25014241.488 7 100721948.201 7        44.700    25014243.336 9
  99441537.233 9        48.000
  28580069.352 3 150189259.935 3        33.800
                                                  28580095.727 5 112154319.832 5
        36.200    28580091.438 5 115080023.974 5        35.600

  26287243.500 7 138140396.651 7        41.500
                                                  26287268.488 7 103156717.885 7
        42.000    26287264.656 7 105847831.495 7        43.000    26287267.211 8
 104502289.307 8        46.000
  23987480.750 9 126055060.620 9        50.100
                                                  23987498.965 9  94132074.581 9
        50.400    23987495.609 9  96587684.906 9        51.000    23987497.742 9
  95359812.351 9        53.900
  24458052.547 9 128527939.724 9        48.800
                                                  24458074.293 9  95978610.515 9
        48.400    24458071.008 9  98482404.034 9        48.900    24458073.012 9
  97230526.884 9        52.100
  27282830.328 6 143372244.353 6        38.400
                                                  27282852.148 6 107063625.834 6
        40.000    27282848.770 6 109856653.167 6        39.900    27282851.016 7
 108460140.604 7        43.500
  23662694.914 9 124348300.081 9        48.900
                                                  23662712.574 9  92857554.597 9
        50.700    23662709.277 9  95279916.283 9        51.500    23662711.434 9
  94068654.048 9        54.100
  27072276.461 6 142265787.692 6        39.600
                                                  27072300.719 7 106237365.163 7
        41.600    27072296.371 7 109008827.155 7        41.400    27072299.004 7
 107623090.772 7        44.800
  38095224.969 5 200191766.620 5        35.400



 23  2 14 10 25  1.0000000  0 25G30R 9R 5G19G11G14G 3R21R22G17G 7R11 0.000000000
                                R10G 6R20G 1E12E24E26E 1E31E21E33E10
                                S26
  22006529.219 7 115645110.603 7        44.800                    22006548.906 7
  90113128.45349        43.000    22006547.96949  22006551.313 9  86358382.321 9
        48.400

  21676268.086 7 115750082.104 7        44.300    21676266.805 7  21676280.895 7
  90027830.231 7        44.000


  24204275.109 5 129385830.741 5        36.200    24204274.723 4  24204303.047 4
 100633322.073 4        34.400


  22401739.570 7 117721945.429 7        41.700
  91731457.32248        30.800    22401760.59848


  24842314.625 4 130547250.080 4        34.300                    24842336.551 5
 101725214.78345        17.400    24842336.18045  24842344.633 6  97486584.455 6
        40.900

  20348696.320 8 106933127.498 8        47.600                    20348712.688 9
  83324571.77449        41.200    20348712.30949  20348719.570 9  79852676.919 9
        54.500

  22440313.109 6 117924631.801 6        40.700                    22440336.953 7
  91889415.22047        28.600    22440336.67247  22440341.953 8  88060621.701 8
        47.100

  20553901.500 9 109988074.467 9        50.700    20553900.805 9  20553917.453 8
  85546290.161 8        46.000


  22402504.398 7 119586106.240 7        42.300    22402504.211 7  22402521.992 6
  93011411.505 6        40.500


  21781869.445 7 114464514.093 7        43.700                    21781888.703 7
  89193181.51049        45.000    21781888.48049


  23689968.375 5 124491634.349 5        35.600                    23689986.602 4
  97006521.82547        28.100    23689985.67647


  20874769.195 9 111548450.122 9        49.300    20874769.602 8  20874785.570 8
  86759912.551 8        46.000


  19294853.477 7 102852411.496 7        44.600    19294852.090 7



  21343772.211 7 112162272.283 7        44.900                    21343792.688 8
  87399252.44649        47.500    21343791.62149  21343796.223 9  83757568.021 9
        50.700

  22051911.656 4 117921471.053 4        34.800    22051910.605 3  22051932.320 5
  91716707.820 5        36.700


  23315732.273 5 122525004.570 5        37.000                    23315758.938 6
  95474125.09746        21.700    23315758.56646  23315761.629 7  91495960.625 7
        43.200

  25013956.297 7 131449227.460 7        43.500
                                                  25013973.871 7  98160173.371 7
        44.200    25013971.102 7 100720859.837 7        44.700    25013973.035 9
  99440462.706 9        48.300
  28579573.016 4 150186650.380 4        34.500
                                                  28579599.434 5 112152371.129 5
        36.500    28579594.707 5 115078024.459 5        35.300

  26287713.586 7 138142867.876 7        41.500
                                                  26287738.836 7 103158563.305 7
        42.300    26287734.844 7 105849725.046 7        42.900    26287737.473 8
 104504158.775 8        46.100
  23987618.102 9 126055781.156 9        49.900
                                                  23987636.223 9  94132612.618 9
        50.200    23987632.844 9  96588236.997 9        50.800    23987634.855 9
  95360357.425 9        53.900
  24457713.125 9 128526154.678 9        49.000
                                                  24457734.613 9  95977277.536 9
        48.300    24457731.426 9  98481036.274 9        49.000    24457733.340 9
  97229176.509 9        52.000
  27283261.953 6 143374512.526 6        38.700
                                                  27283283.844 6 107065319.574 6
        40.400    27283280.492 6 109858391.129 6        39.700    27283282.609 7
 108461856.469 7        43.500
  23662881.398 9 124349280.127 9        48.800
                                                  23662899.246 9  92858286.453 9
        50.500    23662895.844 9  95280667.238 9        51.200    23662897.926 9
  94069395.457 9        54.100
  27071870.203 6 142263652.841 6        39.900
                                                  27071894.500 7 106235770.955 7
        41.500    27071890.301 7 109007191.360 7        41.300    27071892.770 7
 107621475.760 7        44.900
  38095216.484 5 200191713.874 5        35.700



 23  2 14 10 25  2.0000000  0 25G30R 9R 5G19G11G14G 3R21R22G17G 7R11 0.000000000
                                R10G 6R20G 1E12E24E26E 1E31E21E33E10
                                S26
  22007008.422 7 115647629.735 7        44.700                    22007027.996 7
  90115091.40849        42.900    22007027.25849  22007030.668 9  86360263.494 9
        48.700

  21676976.117 7 115753866.554 7        44.100    21676975.551 7  21676990.270 7
  90030773.673 7        43.800


  24203974.898 5 129384224.734 5        36.700    24203973.738 4  24204000.582 4
 100632072.907 4        34.300


  22401532.391 7 117720855.876 7        41.600
  91730608.32848        31.200    22401553.28148


  24841706.273 4 130544055.668 4        34.800                    24841728.949 6
 101722725.63445        16.300    24841728.53545  24841736.824 6  97484199.024 6
        40.500

  20348575.008 8 106932488.577 8        47.500                    20348591.113 9
  83324073.91249        41.300    20348590.82449  20348597.957 9  79852199.800 9
        54.600

  22440320.547 6 117924667.082 6        40.600                    22440343.512 7
  91889442.71147        29.100    22440343.34447  22440348.723 8  88060648.039 8
        47.000

  20553974.125 9 109988459.468 9        50.300    20553973.070 9  20553989.164 8
  85546589.608 8        46.300


  22402152.641 7 119584228.751 7        42.100    22402152.105 7  22402171.473 6
  93009951.238 6        40.600


  21781884.063 7 114464589.871 7        43.700                    21781903.027 7
  89193240.56349        45.000    21781903.07049


  23690625.453 5 124495090.702 5        35.400                    23690643.578 4
  97009215.08347        28.800    23690643.31347


  20874186.844 9 111545337.101 9        49.200    20874186.848 8  20874202.645 8
  86757491.321 8        46.200


  19295031.328 7 102853362.671 7        44.700    19295030.355 7



  21343412.688 7 112160382.888 7        44.900                    21343432.977 8
  87397780.19649        47.500    21343432.16049  21343436.762 9  83756157.105 9
        50.700

  22052465.195 4 117924432.697 4        34.000    22052464.332 3  22052486.406 5
  91719011.291 5        36.600


  23316398.781 5 122528509.356 5        36.900                    23316425.078 6
  95476856.11146        22.200    23316425.63746  23316428.609 7  91498577.839 7
        43.500

  25013686.031 7 131447807.412 7        43.800
                                                  25013703.715 7  98159112.941 7
        44.200    25013700.707 7 100719771.761 7        44.600    25013702.813 9
  99439388.462 9        48.500
  28579076.227 4 150184040.834 4        34.400
                                                  28579102.910 5 112150422.389 5
        36.700    28579098.160 5 115076024.911 5        35.300

  26288183.797 7 138145339.139 7        41.100
                                                  26288209.082 7 103160408.718 7
        42.100    26288205.234 7 105851618.620 7        42.700    26288207.770 8
 104506028.272 8        46.000
  23987755.188 9 126056502.052 9        49.600
                                                  23987773.242 9  94133150.964 9
        50.200    23987770.102 9  96588789.379 9        50.600    23987772.043 9
  95360902.780 9        53.800
  24457373.320 9 128524369.833 9        48.900
                                                  24457394.887 9  95975944.698 9
        48.500    24457391.645 9  98479668.679 9        48.800    24457393.664 9
  97227826.299 9        52.300
  27283693.695 6 143376780.956 6        38.600
                                                  27283715.840 6 107067013.545 6
        40.000    27283711.902 6 109860129.277 6        40.000    27283714.277 7
 108463572.522 7        43.300
  23663068.086 9 124350260.480 9        48.600
                                                  23663085.605 9  92859018.532 9
        50.300    23663082.313 9  95281418.421 9        51.000    23663084.480 9
  94070137.085 9        54.200
  27071464.203 6 142261518.256 6        39.800
                                                  27071488.324 7 106234176.949 7
        41.600    27071484.086 7 109005555.768 7        41.400    27071486.570 7
 107619860.965 7        44.900
  38095207.516 5 200191661.169 5        35.700



 23  2 14 10 25  3.0000000  0 25G30R 9R 5G19G11G14G 3R21R22G17G 7R11 0.000000000
                                R10G 6R20G 1E12E24E26E 1E31E21E33E10
                                S26
  22007488.141 7 115650149.185 7        44.400                    22007507.629 7
  90117054.61949        43.000    22007506.82849  22007510.145 9  86362144.900 9
        49.000

  21677684.969 7 115757651.405 7        44.400    21677684.348 7  21677698.285 7
  90033717.447 7        43.700


  24203675.000 5 129382619.091 5        35.700    24203673.727 5  24203701.227 4
 100630824.103 4        34.300


  22401324.508 7 117719766.383 7        41.600
  91729759.38048        31.400    22401345.95748


  24841099.023 5 130540861.494 5        35.200                    24841121.230 5
 101720236.64045        16.900    24841120.79745  24841128.949 6  97481813.779 6
        40.600

  20348453.773 8 106931850.105 8        47.800                    20348469.777 9
  83323576.40949        41.300    20348469.22349  20348476.488 9  79851723.024 9
        54.600

  22440326.586 6 117924702.929 6        40.600                    22440350.570 7
  91889470.64947        28.700    22440350.29747  22440355.609 8  88060674.828 8
        47.200

  20554046.141 9 109988844.858 9        50.400    20554044.918 9  20554061.063 8
  85546889.361 8        46.400


  22401801.320 7 119582351.710 7        42.800    22401800.613 7  22401819.449 6
  93008491.322 6        40.300


  21781898.391 7 114464665.646 7        43.900                    21781917.609 7
  89193299.61049        45.300    21781917.41449


  23691283.523 5 124498547.056 5        35.700                    23691300.727 4
  97011908.34947        27.700    23691300.99247


  20873605.016 9 111542224.595 9        49.400    20873604.449 8  20873620.359 8
  86755070.495 8        46.400


  19295210.602 7 102854314.702 7        44.500    19295208.699 7



  21343053.055 7 112158493.977 7        44.700                    21343073.359 8
  87396308.32149        47.500    21343072.64549  21343077.254 9  83754746.569 9
        50.500

  22053018.125 3 117927394.280 3        33.900    22053018.156 3  22053039.172 5
  91721314.716 5        36.500


  23317065.383 5 122532014.251 5        36.500                    23317091.484 6
  95479587.18546        21.500    23317092.57046  23317095.469 7  91501195.115 7
        43.500

  25013416.094 7 131446387.697 7        44.000
                                                  25013433.660 7  98158052.773 7
        44.200    25013430.594 8 100718683.910 8        45.100    25013432.633 9
  99438314.447 9        48.800
  28578579.563 4 150181431.087 4        34.800
                                                  28578606.734 5 112148473.619 5
        36.200    28578601.457 5 115074025.244 5        35.500

  26288654.281 6 138147810.449 6        40.600
                                                  26288679.438 7 103162254.145 7
        42.200    26288675.387 7 105853512.190 7        42.700    26288678.035 8
 104507897.776 8        45.700
  23987892.508 9 126057223.310 9        49.900
                                                  23987910.527 9  94133689.563 9
        50.100    23987907.258 9  96589342.030 9        50.500    23987909.281 9
  95361448.406 9        53.900
  24457033.719 9 128522585.178 9        49.000
                                                  24457055.324 9  95974612.032 9
        48.400    24457052.074 9  98478301.226 9        49.000    24457054.043 9
  97226476.237 9        52.200
  27284125.570 5 143379049.557 5        37.800
                                                  27284147.094 6 107068707.665 6
        39.900    27284143.867 6 109861867.569 6        39.800    27284145.973 7
 108465288.724 7        43.300
  23663254.555 9 124351241.134 9        48.800
                                                  23663272.258 9  92859750.836 9
        50.600    23663269.004 9  95282169.818 9        51.200    23663271.098 9
  94070878.935 9        54.200
  27071058.039 6 142259383.930 6        39.900
                                                  27071082.113 7 106232583.137 7
        41.700    27071078.027 6 109003920.355 6        40.900    27071080.430 8
 107618246.363 8        45.000
  38095193.953 5 200191608.428 5        35.700



 23  2 14 10 25  4.0000000  0 25G30R 9R 5G19G11G14G 3R21R22G17G 7R11 0.000000000
                                R10G 6R20G 1E12E24E26E 1E31E21E33E10
                                S26
  22007967.570 7 115652668.950 7        44.100                    22007986.934 7
  90119018.07349        43.000    22007986.30549  22007989.527 9  86364026.553 9
        48.700

  21678393.672 7 115761436.695 7        44.100    21678393.113 7  21678407.293 7
  90036661.562 7        43.500


  24203373.883 5 129381013.811 5        35.800    24203373.203 5  24203401.359 4
 100629575.506 4        34.000


  22401117.297 7 117718676.939 7        41.700
  91728910.46648        31.700    22401138.39148


  24840491.453 5 130537667.516 5        35.000                    24840513.172 5
 101717747.88045        16.900    24840512.98445  24840521.176 6  97479428.641 6
        40.600

  20348331.805 8 106931212.125 8        47.400                    20348348.184 9
  83323079.28149        41.300    20348347.94549  20348355.102 9  79851246.615 9
        54.400

  22440333.188 6 117924739.476 6        40.200                    22440357.473 7
  91889499.12647        29.600    22440357.17247  22440362.457 8  88060702.107 8
        47.000

  20554117.883 9 109989230.642 9        50.300    20554117.129 9  20554134.102 8
  85547189.422 8        46.500


  22401449.289 7 119580475.153 7        42.400    22401449.098 7  22401468.090 6
  93007031.764 6        40.500


  21781913.039 7 114464741.423 7        43.900                    21781932.070 7
  89193358.66049        44.900    21781931.75049


  23691941.750 5 124502003.399 5        35.600                    23691958.742 4
  97014601.60047        28.200    23691958.83247


  20873022.367 9 111539112.654 9        49.300    20873021.832 8  20873039.137 8
  86752650.119 8        46.500


  19295389.500 7 102855267.605 7        44.500    19295387.773 7



  21342694.102 7 112156605.606 7        44.800                    21342713.938 8
  87394836.85849        47.500    21342713.44149  21342717.918 9  83753336.408 9
        50.500

  22053574.500 4 117930355.804 4        34.800    22053572.301 3  22053593.797 5
  91723618.132 5        36.600


  23317732.281 5 122535519.245 5        36.500                    23317758.379 6
  95482318.34446        22.000    23317759.61746  23317762.535 7  91503812.460 7
        43.400

  25013146.250 7 131444968.336 7        43.800
                                                  25013163.574 7  98156992.863 7
        44.400    25013160.617 8 100717596.362 8        45.000    25013162.547 9
  99437240.719 9        48.500
  28578082.781 4 150178821.367 4        34.600
                                                  28578109.688 5 112146524.763 5
        36.200    28578104.980 5 115072025.601 5        35.700

  26289124.914 6 138150281.793 6        40.600
                                                  26289149.773 7 103164099.626 7
        41.900    26289145.711 7 105855405.808 7        42.800    26289148.313 8
 104509767.330 8        45.600
  23988029.680 9 126057944.926 9        50.100
                                                  23988047.855 9  94134228.453 9
        50.100    23988044.613 9  96589894.971 9        50.600    23988046.609 9
  95361994.321 9        53.900
  24456693.805 9 128520800.742 9        48.800
                                                  24456715.785 9  95973279.506 9
        48.500    24456712.445 9  98476933.944 9        49.100    24456714.484 9
  97225126.335 9        52.600
  27284556.859 6 143381318.434 6        38.000
                                                  27284579.016 6 107070401.946 6
        39.900    27284575.191 6 109863606.079 6        40.200    27284577.715 7
 108467005.123 7        43.500
  23663441.297 9 124352222.081 9        48.800
                                                  23663458.953 9  92860483.367 9
        50.300    23663455.656 9  95282921.463 9        51.300    23663457.762 9
  94071621.019 9        54.000
  27070651.828 6 142257249.858 6        39.800
                                                  27070676.113 7 106230989.507 7
        41.500    27070671.598 7 109002285.154 7        41.200    27070674.305 8
 107616631.951 8        45.100
  38095191.859 5 200191555.699 5        35.900



 23  2 14 10 25  5.0000000  0 25G30R 9R 5G19G11G14G 3R21R22G17G 7R11 0.000000000
                                R10G 6R20G 1E12E24E26E 1E31E21E33E10
                                S26
  22008447.305 7 115655188.975 7        44.300                    22008466.539 7
  90120981.72449        43.100    22008465.87949  22008469.168 9  86365908.391 9
        48.700

  21679102.648 7 115765222.330 7        44.300    21679102.223 7  21679116.883 7
  90039605.961 7        43.400


  24203074.281 5 129379408.804 5        35.700    24203073.035 4  24203100.738 4
 100628327.135 4        34.500


  22400910.172 7 117717587.571 7        41.600
  91728061.62848        30.700    22400930.92648


  24839883.555 5 130534473.723 5        35.000                    24839905.422 5
 101715259.25245        16.300    24839905.36745  24839913.477 6  97477043.697 6
        40.400

  20348210.703 8 106930574.553 8        47.400                    20348227.063 9
  83322582.47749        41.100    20348226.51249  20348233.789 9  79850770.511 9
        54.400

  22440340.484 6 117924776.472 6        40.100                    22440364.648 7
  91889527.93647        29.800    22440364.21547  22440369.570 8  88060729.730 8
        46.900

  20554190.273 9 109989616.797 9        50.100    20554189.199 9  20554205.387 8
  85547489.769 8        46.600


  22401097.930 7 119578598.976 7        41.800    22401097.695 7  22401115.324 6
  93005572.496 6        40.100


  21781927.273 7 114464817.104 7        44.100                    21781946.309 7
  89193417.63249        45.100    21781946.12149


  23692599.445 4 124505459.671 4        34.900                    23692616.902 4
  97017294.79447        28.100    23692616.74647


  20872440.000 9 111536001.197 9        49.600    20872439.676 8  20872456.180 8
  86750230.096 8        47.000


  19295567.625 7 102856221.295 7        44.400    19295566.508 7



  21342334.914 8 112154717.635 8        45.000                    21342354.957 8
  87393365.71849        47.600    21342354.08249  21342358.711 9  83751926.573 9
        50.600

  22054127.570 5 117933317.197 5        35.000    22054126.004 4  22054148.234 5
  91725921.486 5        36.800


  23318399.602 5 122539024.218 5        37.300                    23318425.566 6
  95485049.49346        22.000    23318426.55146  23318429.570 7  91506429.850 7
        43.500

  25012875.781 7 131443549.254 7        44.000
                                                  25012893.520 7  98155933.161 7
        44.600    25012890.473 7 100716509.019 7        44.900    25012892.512 9
  99436167.191 9        48.200
  28577586.180 5 150176211.532 5        35.200
                                                  28577613.254 5 112144575.812 5
        36.200    28577608.559 5 115070025.816 5        36.000

  26289594.695 6 138152753.053 6        40.500
                                                  26289619.973 7 103165945.057 7
        41.700    26289616.051 7 105857299.389 7        43.100    26289618.586 8
 104511636.837 8        45.500
  23988166.906 9 126058666.878 9        49.900
                                                  23988185.270 9  94134767.561 9
        50.200    23988181.887 9  96590448.151 9        50.800    23988183.988 9
  95362540.459 9        53.800
  24456354.633 9 128519016.483 9        48.400
                                                  24456376.289 9  95971947.112 9
        48.500    24456372.906 9  98475566.762 9        49.200    24456374.953 9
  97223776.547 9        52.300
  27284988.930 6 143383587.460 6        38.300
                                                  27285010.805 6 107072096.344 6
        40.000    27285007.191 6 109865344.691 6        39.800    27285009.504 7
 108468721.632 7        43.400
  23663627.984 9 124353203.284 9        49.100
                                                  23663645.672 9  92861216.079 9
        50.600    23663642.371 9  95283673.298 9        51.500    23663644.488 9
  94072363.298 9        54.300
  27070245.750 6 142255115.973 6        39.100
                                                  27070269.867 7 106229396.010 7
        41.600    27070265.594 7 109000650.108 7        41.000    27070268.227 8
 107615017.656 8        45.000
  38095174.391 5 200191502.942 5        35.800



 23  2 14 10 25  6.0000000  0 25G30R 9R 5G19G11G14G 3R21R22G17G 7R11 0.000000000
                                R10G 6R20G 1E12E24E26E 1E31E21E33E10
                                S26
  22008926.930 7 115657709.350 7        44.100                    22008946.215 7
  90122945.65649        43.500    22008945.38349  22008948.781 9  86367790.492 9
        48.100

  21679812.555 7 115769008.448 7        44.600    21679811.445 7  21679826.172 7
  90042550.709 7        43.600


  24202773.969 5 129377804.216 5        36.200    24202772.922 4  24202800.242 5
 100627079.160 5        35.000


  22400703.367 7 117716498.276 7        41.600
  91727212.83348        30.800    22400723.61748


  24839275.625 3 130531280.133 3        33.900                    24839297.359 5
 101712770.69345        16.900    24839297.80145  24839305.887 6  97474658.875 6
        40.400

  20348089.477 8 106929937.529 8        47.800                    20348105.617 9
  83322086.09549        40.900    20348105.32849  20348112.539 9  79850294.804 9
        54.400

  22440348.023 6 117924814.185 6        40.300                    22440371.777 7
  91889557.32647        28.900    22440371.41447  22440376.762 8  88060757.880 8
        47.100

  20554261.555 9 109990003.404 9        50.200    20554261.484 9  20554277.266 8
  85547790.457 8        46.900


  22400746.336 7 119576723.288 7        41.700    22400745.875 7  22400764.867 6
  93004113.621 6        39.900


  21781941.328 7 114464892.845 7        43.700                    21781960.688 7
  89193476.65349        44.900    21781960.57849


  23693256.859 5 124508915.987 5        35.100                    23693274.652 4
  97019988.01947        28.400    23693274.44947


  20871858.109 9 111532890.331 9        49.500    20871857.512 8  20871873.867 8
  86747810.539 8        46.900


  19295747.391 7 102857175.914 7        44.400    19295745.629 7



  21341975.438 7 112152830.230 7        44.900                    21341995.633 8
  87391895.01549        47.600    21341994.96949  21341999.480 9  83750517.152 9
        50.600

  22054681.258 5 117936278.655 5        35.000    22054679.691 4  22054701.953 5
  91728224.838 5        36.900


  23319066.320 5 122542529.429 5        37.100                    23319092.758 6
  95487780.82346        21.100    23319093.54746  23319096.602 7  91509047.348 7
        43.500

  25012605.953 7 131442130.574 7        44.100
                                                  25012623.594 7  98154873.737 7
        44.500    25012620.453 8 100715421.962 8        45.000    25012622.547 9
  99435093.958 9        48.200
  28577089.641 5 150173601.694 5        35.600
                                                  28577116.480 5 112142626.892 5
        36.500    28577112.012 5 115068026.074 5        36.000

  26290064.867 6 138155224.432 6        40.700
                                                  26290090.387 7 103167790.562 7
        41.900    26290086.188 7 105859193.045 7        43.100    26290088.875 8
 104513506.419 8        45.600
  23988304.703 9 126059389.233 9        49.900
                                                  23988322.723 9  94135306.983 9
        50.200    23988319.422 9  96591001.655 9        51.200    23988321.445 9
  95363086.924 9        53.800
  24456014.906 9 128517232.455 9        48.600
                                                  24456036.785 9  95970614.881 9
        48.000    24456033.555 9  98474199.798 9        49.000    24456035.457 9
  97222426.958 9        52.300
  27285420.836 6 143385856.779 6        38.600
                                                  27285442.516 6 107073790.960 6
        39.600    27285438.922 6 109867083.499 6        39.700    27285441.328 7
 108470438.337 7        43.100
  23663814.805 9 124354184.826 9        48.800
                                                  23663832.434 9  92861949.051 9
        50.600    23663829.141 9  95284425.386 9        51.200    23663831.285 9
  94073105.822 9        54.100
  27069839.609 6 142252982.373 6        39.400
                                                  27069864.098 7 106227802.760 7
        41.400    27069859.801 6 108999015.293 6        40.800    27069862.199 7
 107613403.632 7        44.800
  38095165.141 5 200191450.244 5        35.800



