     2.11           O                   G                   RINEX VERSION / TYPE
WALKEGNOS           ISMB                  20180216  082111  PGM / RUN BY / DATE 
                                                            COMMENT             
                                                            MARKER NAME         
1                                                           MARKER NUMBER       
NavSAS              ISMB / POLITO                           OBSERVER / AGENCY   
1                                    NVSFW ver              REC # / TYPE / VERS 
1                   PATCH                                   ANT # / TYPE        
        0.0000        0.0000        0.0000                  APPROX POSITION XYZ 
        0.0000        0.0000        0.0000                  ANTENNA: DELTA H/E/N
     1     0                                                WAVELENGTH FACT L1/2
     4    L1    C1    D1    S1                              # / TYPES OF OBSERV 
     1.000                                                  INTERVAL            
  2018    02    16     8    21   11.0000000     GPS         TIME OF FIRST OBS   
                                                            END OF HEADER       
 18  2 16  8 21 11.0000000  2  1
            *** FROM NOW ON KINEMATIC DATA! ***             COMMENT             
 18  2 16  8 21 11.0000000  0  8G05G09G23G10G11G30G01G03             0.000546606
   -203255.666    23980648.573        3636.170          53.000  
     36820.584    20098808.202        -627.678          53.000  
    121770.822    22294412.168       -2047.276          53.000  
     77928.631    21032269.987       -1309.333          53.000  
   -139355.406    21104941.803        2304.829          53.000  
   -209975.435    22396952.002        3611.844          53.000  
    -80694.133    22084920.317        1375.606          53.000  
    170002.224    24704980.784       -3014.242          53.000  
 18  2 16  8 21 12.0000000  0  8G05G09G23G10G11G30G01G03             0.000546805
   -206891.667    23979956.667        3636.296          53.000  
     37448.702    20098927.711        -628.096          53.000  
    123818.513    22294801.856       -2047.633          53.000  
     79238.441    21032519.242       -1309.765          53.000  
   -141659.913    21104503.243        2304.577          53.000  
   -213586.906    22396264.759        3611.478          53.000  
    -82069.290    22084658.643        1375.168          53.000  
    173016.909    24705554.469       -3014.676          53.000  
 18  2 16  8 21 13.0000000  0  8G05G09G23G10G11G30G01G03             0.000547003
   -210527.781    23979264.743        3635.897          53.000  
     38077.285    20099047.326        -629.085          53.000  
    125866.584    22295191.579       -2048.531          53.000  
     80548.752    21032768.604       -1310.780          53.000  
   -143964.146    21104064.737        2303.824          53.000  
   -217197.942    22395577.606        3610.503          53.000  
    -83443.996    22084397.059        1374.208          53.000  
    176032.038    24706128.225       -3015.606          53.000  
 18  2 16  8 21 14.0000000  0  8G05G09G23G10G11G30G01G03             0.000547201
   -214164.194    23978572.747        3636.805          53.000  
     38706.151    20099166.977        -628.792          53.000  
    127914.855    22295581.338       -2048.180          53.000  
     81859.393    21033018.020       -1310.761          53.000  
   -146268.225    21103626.303        2304.340          53.000  
   -220808.706    22394890.488        3610.783          53.000  
    -84818.424    22084135.492        1374.442          53.000  
    179047.444    24706702.035       -3015.350          53.000  
 18  2 16  8 21 15.0000000  0  8G05G09G23G10G11G30G01G03             0.000547400
   -217800.884    23977880.751        3637.002          53.000  
     39335.308    20099286.681        -629.239          53.000  
    129963.319    22295971.151       -2048.426          53.000  
     83170.398    21033267.490       -1311.007          53.000  
   -148572.262    21103187.851        2304.081          53.000  
   -224419.192    22394203.425        3610.432          53.000  
    -86192.582    22083874.015        1374.233          53.000  
    182063.124    24707275.899       -3015.685          53.000  
 18  2 16  8 21 16.0000000  0  8G05G09G23G10G11G30G01G03             0.000547598
   -221437.465    23977188.737        3636.477          53.000  
     39965.123    20099406.529        -630.155          52.000  
    132012.359    22296361.053       -2049.377          53.000  
     84482.140    21033517.102       -1312.123          52.000  
   -150875.753    21102749.488        2303.197          53.000  
   -228028.993    22393516.521        3609.393          53.000  
    -87566.043    22083612.644        1373.047          52.000  
    185079.472    24707849.888       -3016.712          53.000  
 18  2 16  8 21 17.0000000  0  8G05G09G23G10G11G30G01G03             0.000547796
   -225073.960    23976496.742        3636.650          53.000  
     40595.606    20099526.484        -630.634          52.000  
    134061.953    22296751.098       -2049.688          53.000  
     85794.642    21033766.857       -1312.700          53.000  
   -153178.697    21102311.250        2302.835          53.000  
   -231638.109    22392829.725        3608.941          52.000  
    -88938.854    22083351.435        1372.664          53.000  
    188096.473    24708424.020       -3017.145          53.000  
 18  2 16  8 21 18.0000000  0  8G05G09G23G10G11G30G01G03             0.000547994
   -228710.683    23975804.710        3636.801          53.000  
     41226.404    20099646.528        -630.950          53.000  
    136111.760    22297141.143       -2049.913          53.000  
     87107.551    21034016.666       -1313.262          53.000  
   -155481.375    21101873.066        2302.649          53.000  
   -235246.869    22392143.001        3608.591          53.000  
    -90311.323    22083090.244        1372.322          53.000  
    191113.793    24708998.205       -3017.454          52.000  
 18  2 16  8 21 19.0000000  0  8G05G09G23G10G11G30G01G03             0.000548193
   -232347.234    23975112.714        3636.572          53.000  
     41857.924    20099766.697        -631.743          53.000  
    138162.179    22297531.349       -2050.584          53.000  
     88421.342    21034266.672       -1314.009          53.000  
   -157783.456    21101434.989        2301.905          53.000  
   -238854.852    22391456.437        3607.727          53.000  
    -91683.040    22082829.231        1371.472          53.000  
    194131.838    24709572.515       -3018.270          53.000  
 18  2 16  8 21 20.0000000  0  8G05G09G23G10G11G30G01G03             0.000548391
   -235983.744    23974420.736        3636.661          53.000  
     42490.036    20099886.991        -632.232          53.000  
    140213.070    22297921.626       -2050.978          53.000  
     89735.862    21034516.785       -1314.656          53.000  
   -160084.987    21100997.019        2301.439          53.000  
   -242462.174    22390769.999        3607.140          53.000  
    -93054.135    22082568.307        1370.932          53.000  
    197150.475    24710146.951       -3018.767          53.000  
 18  2 16  8 21 21.0000000  0  8G05G09G23G10G11G30G01G03             0.000548588
   -239620.416    23973728.669        3636.845          53.000  
     43122.509    20100007.357        -632.547          53.000  
    142264.202    22298311.957       -2051.169          53.000  
     91050.901    21034767.022       -1315.198          53.000  
   -162386.176    21100559.121        2301.112          53.000  
   -246069.059    22390083.614        3606.747          53.000  
    -94424.819    22082307.509        1370.553          53.000  
    200169.477    24710721.422       -3019.100          53.000  
 18  2 16  8 21 22.0000000  0  8G05G09G23G10G11G30G01G03             0.000548786
   -243257.102    23973036.620        3636.576          53.000  
     43755.509    20100127.812        -633.443          53.000  
    144315.721    22298702.342       -2051.879          53.000  
     92366.609    21035017.403       -1316.464          53.000  
   -164686.817    21100121.312        2300.197          53.000  
   -249675.331    22389397.372        3605.770          53.000  
    -95794.943    22082046.782        1369.700          53.000  
    203188.994    24711296.018       -3019.901          53.000  
 18  2 16  8 21 23.0000000  0  8G05G09G23G10G11G30G01G03             0.000548984
   -246893.875    23972344.570        3637.012          53.000  
     44388.929    20100248.339        -633.546          53.000  
    146367.531    22299092.798       -2051.811          53.000  
     93682.987    21035267.909       -1316.506          53.000  
   -166987.042    21099683.575        2300.160          53.000  
   -253281.079    22388711.237        3605.613          53.000  
    -97164.571    22081786.162        1369.592          53.000  
    206208.944    24711870.704       -3019.996          53.000  
 18  2 16  8 21 24.0000000  0  8G05G09G23G10G11G30G01G03             0.000549182
   -250530.692    23971652.485        3636.912          53.000  
     45022.802    20100368.954        -634.012          53.000  
    148419.657    22299483.308       -2052.244          53.000  
     95000.010    21035518.522       -1317.251          53.000  
   -169286.754    21099245.980        2299.553          53.000  
   -256886.254    22388025.192        3604.945          53.000  
    -98533.661    22081525.632        1368.846          53.000  
    209229.349    24712445.461       -3020.582          53.000  
 18  2 16  8 21 25.0000000  0  8G05G09G23G10G11G30G01G03             0.000549379
   -254167.609    23970960.400        3636.935          53.000  
     45657.089    20100489.642        -634.567          53.000  
    150472.033    22299873.889       -2052.542          52.000  
     96317.665    21035769.242       -1317.972          53.000  
   -171585.987    21098808.439        2298.990          53.000  
   -260490.903    22387339.254        3604.349          53.000  
    -99902.284    22081265.227        1368.423          53.000  
    212250.149    24713020.308       -3021.030          53.000  
 18  2 16  8 21 26.0000000  0  8G05G09G23G10G11G30G01G03             0.000549577
   -257804.535    23970268.315        3637.090          52.000  
     46291.842    20100610.419        -634.784          53.000  
    152524.734    22300264.488       -2052.697          52.000  
     97636.007    21036020.123       -1318.778          53.000  
   -173884.628    21098371.023        2298.415          53.000  
   -264094.938    22386653.423        3603.861          53.000  
   -101270.318    22081004.911        1367.876          53.000  
    215271.421    24713595.261       -3021.352          53.000  
 18  2 16  8 21 27.0000000  0  8G05G09G23G10G11G30G01G03             0.000549780
   -261441.675    23969576.176        3637.418          52.000  
     46926.864    20100731.267        -634.937          53.000  
    154577.536    22300655.122       -2052.675          53.000  
     98954.938    21036271.094       -1318.939          53.000  
   -176182.892    21097933.679        2298.299          52.000  
   -267698.568    22385967.681        3603.618          52.000  
   -102637.991    22080744.666        1367.648          53.000  
    218292.946    24714170.233       -3021.467          53.000  
 18  2 16  8 21 28.0000000  0  8G05G09G23G10G11G30G01G03             0.000549977
   -265078.822    23968884.038        3637.243          53.000  
     47562.352    20100852.204        -635.640          53.000  
    156630.627    22301045.811       -2053.120          53.000  
    100274.592    21036522.225       -1319.860          53.000  
   -178480.544    21097496.442        2297.475          53.000  
   -271301.579    22385282.065        3602.814          53.000  
   -104005.091    22080484.493        1366.947          53.000  
    221314.916    24714745.258       -3022.108          53.000  
 18  2 16  8 21 29.0000000  0  8G05G09G23G10G11G30G01G03             0.000550173
   -268716.060    23968191.881        3637.213          53.000  
     48198.183    20100973.195        -635.977          53.000  
    158683.901    22301436.535       -2053.403          53.000  
    101594.891    21036773.481       -1320.621          53.000  
   -180777.662    21097059.330        2296.819          53.000  
   -274904.074    22384596.537        3602.200          53.000  
   -105371.697    22080224.445        1366.272          53.000  
    224337.222    24715320.372       -3022.534          53.000  
 18  2 16  8 21 30.0000000  0  8G05G09G23G10G11G30G01G03             0.000550370
   -272353.333    23967499.724        3637.293          53.000  
     48834.446    20101094.276        -636.475          53.000  
    160737.404    22301827.277       -2053.595          52.000  
    102915.885    21037024.881       -1321.648          52.000  
   -183074.161    21096622.343        2296.030          52.000  
   -278505.980    22383911.117        3601.593          53.000  
   -106737.760    22079964.505        1365.797          53.000  
    227359.915    24715895.612       -3022.874          53.000  
 18  2 16  8 21 31.0000000  0  8G05G09G23G10G11G30G01G03             0.000550566
   -275990.642    23966807.568        3637.359          53.000  
     49471.085    20101215.428        -636.786          53.000  
    162791.109    22302218.090       -2053.787          52.000  
    104237.656    21037276.405       -1322.023          53.000  
   -185370.040    21096185.445        2295.642          52.000  
   -282107.325    22383225.805        3601.038          53.000  
   -108103.276    22079704.636        1365.209          53.000  
    230382.966    24716470.870       -3023.208          53.000  
 18  2 16  8 21 32.0000000  0  8G05G09G23G10G11G30G01G03             0.000550763
   -279627.785    23966115.447        3637.223          53.000  
     50108.318    20101336.687        -637.379          53.000  
    164845.194    22302608.957       -2054.073          52.000  
    105560.333    21037528.108       -1322.876          53.000  
   -187665.097    21095748.709        2294.896          53.000  
   -285707.904    22382540.635        3600.396          52.000  
   -109468.062    22079444.945        1364.662          53.000  
    233406.560    24717046.234       -3023.649          52.000  
 18  2 16  8 21 33.0000000  0  8G05G09G23G10G11G30G01G03             0.000550959
   -283264.777    23965423.326        3637.149          52.000  
     50746.092    20101458.036        -637.811          53.000  
    166899.634    22302999.896       -2054.352          53.000  
    106883.940    21037780.008       -1323.776          53.000  
   -189959.305    21095312.133        2294.086          53.000  
   -289307.733    22381855.626        3599.729          53.000  
   -110832.094    22079185.380        1363.947          53.000  
    236430.667    24717621.688       -3024.094          52.000  
 18  2 16  8 21 34.0000000  0  8G05G09G23G10G11G30G01G03             0.000551155
   -286901.685    23964731.259        3636.885          53.000  
     51384.349    20101579.509        -638.411          53.000  
    168954.336    22303390.870       -2054.796          53.000  
    108208.342    21038032.032       -1325.012          52.000  
   -192252.763    21094875.700        2292.934          53.000  
   -292906.890    22381170.706        3598.840          53.000  
   -112195.478    22078925.939        1363.059          53.000  
    239455.194    24718197.249       -3024.716          53.000  
 18  2 16  8 21 35.0000000  0  8G05G09G23G10G11G30G01G03             0.000551350
   -290538.656    23964039.174        3636.977          53.000  
     52022.921    20101701.036        -638.744          53.000  
    171009.135    22303781.898       -2054.847          53.000  
    109533.535    21038284.200       -1325.472          53.000  
   -194545.549    21094439.392        2292.530          53.000  
   -296505.536    22380485.912        3598.373          53.000  
   -113558.344    22078666.588        1362.584          53.000  
    242479.977    24718772.846       -3024.936          53.000  
 18  2 16  8 21 36.0000000  0  8G05G09G23G10G11G30G01G03             0.000551547
   -294175.825    23963347.053        3637.248          53.000  
     52661.658    20101822.582        -638.827          53.000  
    173063.873    22304172.908       -2054.693          53.000  
    110859.277    21038536.475       -1325.957          53.000  
   -196837.839    21094003.191        2292.100          53.000  
   -300103.811    22379801.189        3598.092          53.000  
   -114920.835    22078407.309        1362.277          52.000  
    245504.852    24719348.461       -3024.953          53.000  
 18  2 16  8 21 37.0000000  0  8G05G09G23G10G11G30G01G03             0.000551743
   -297813.119    23962654.896        3637.292          53.000  
     53300.617    20101944.162        -639.124          53.000  
    175118.606    22304563.900       -2054.813          53.000  
    112185.665    21038788.893       -1326.766          53.000  
   -199129.525    21093567.115        2291.352          53.000  
   -303701.646    22379116.537        3597.507          53.000  
   -116282.872    22078148.136        1361.721          53.000  
    248529.875    24719924.112       -3025.185          53.000  
 18  2 16  8 21 38.0000000  0  8G05G09G23G10G11G30G01G03             0.000551939
   -301450.330    23961962.757        3637.214          53.000  
     53939.997    20102065.833        -639.454          53.000  
    177173.515    22304954.927       -2054.920          53.000  
    113512.856    21039041.436       -1327.831          53.000  
   -201420.439    21093131.165        2290.356          53.000  
   -307298.865    22378432.010        3596.984          53.000  
   -117644.265    22077889.071        1361.108          53.000  
    251555.223    24720499.834       -3025.442          53.000  
 18  2 16  8 21 39.0000000  0  8G05G09G23G10G11G30G01G03             0.000552135
   -305087.191    23961270.708        3636.939          53.000  
     54580.052    20102187.628        -640.121          53.000  
    179228.854    22305346.063       -2055.270          53.000  
    114841.256    21039294.211       -1328.626          53.000  
   -203710.211    21092695.429        2289.577          53.000  
   -310895.188    22377747.645        3596.152          53.000  
   -119004.731    22077630.185        1360.297          53.000  
    254581.150    24721075.645       -3025.944          53.000  
 18  2 16  8 21 40.0000000  0  8G05G09G23G10G11G30G01G03             0.000552330
   -308723.992    23960578.623        3637.112          53.000  
     55220.472    20102309.512        -640.281          53.000  
    181284.310    22305737.215       -2055.159          53.000  
    116170.456    21039547.165       -1329.219          53.000  
   -205999.208    21092259.853        2289.026          53.000  
   -314490.932    22377063.386        3595.796          53.000  
   -120364.565    22077371.406        1359.880          53.000  
    257607.335    24721651.510       -3025.958          53.000  
 18  2 16  8 21 41.0000000  0  8G05G09G23G10G11G30G01G03             0.000552526
   -312360.734    23959886.573        3636.815          53.000  
     55861.236    20102431.433        -640.790          53.000  
    183339.856    22306128.368       -2055.461          52.000  
    117500.484    21039800.244       -1330.279          53.000  
   -208287.390    21091824.421        2287.940          53.000  
   -318086.115    22376379.253        3595.038          53.000  
   -121723.774    22077112.787        1359.001          53.000  
    260633.750    24722227.429       -3026.387          53.000  
 18  2 16  8 21 42.0000000  0  8G05G09G23G10G11G30G01G03             0.000552722
   -315997.509    23959194.506        3636.741          53.000  
     56502.257    20102553.407        -641.230          53.000  
    185395.383    22306519.539       -2055.534          53.000  
    118831.199    21040053.466       -1331.373          53.000  
   -210574.895    21091389.114        2286.871          53.000  
   -321680.834    22375695.191        3594.481          53.000  
   -123082.459    22076854.240        1358.438          53.000  
    263660.282    24722803.347       -3026.605          53.000  
 18  2 16  8 21 43.0000000  0  8G05G09G23G10G11G30G01G03             0.000552918
   -319633.980    23958502.510        3636.389          53.000  
     57143.841    20102675.506        -641.732          53.000  
    187451.214    22306910.746       -2055.854          53.000  
    120163.064    21040306.920       -1332.191          53.000  
   -212861.269    21090954.021        2286.032          53.000  
   -325274.768    22375011.290        3593.653          53.000  
   -124440.273    22076595.854        1357.496          53.000  
    266687.246    24723379.355       -3027.066          53.000  
 18  2 16  8 21 45.0000000  0  8G05G09G23G10G11G30G01G03             0.000553309
   -326905.998    23957118.680        3636.161          53.000  
     58428.674    20102920.008        -642.505          53.000  
    191563.701    22307693.337       -2056.062          53.000  
    122829.956    21040814.400       -1334.010          53.000  
   -217430.870    21090084.461        2284.230          53.000  
   -332460.340    22373643.934        3592.490          53.000  
   -127153.299    22076079.600        1356.125          53.000  
    272742.363    24724531.604       -3027.477          53.000  
 18  2 16  8 21 46.0000000  0  8G05G09G23G10G11G30G01G03             0.000553504
   -330541.560    23956426.863        3635.432          53.000  
     59071.873    20103042.410        -643.358          53.000  
    193620.308    22308084.687       -2056.704          53.000  
    124164.927    21041068.426       -1335.709          53.000  
   -219714.113    21089649.975        2282.451          53.000  
   -336052.025    22372960.462        3591.325          53.000  
   -128508.526    22075821.697        1354.791          53.000  
    275770.452    24725107.844       -3028.232          53.000  
 18  2 16  8 21 47.0000000  0  8G05G09G23G10G11G30G01G03             0.000553700
   -334176.899    23955735.081        3635.277          53.000  
     59715.515    20103164.885        -643.754          53.000  
    195677.051    22308476.072       -2056.714          53.000  
    125500.938    21041322.667       -1336.324          53.000  
   -221996.312    21089215.669        2281.865          53.000  
   -339643.081    22372277.115        3590.820          53.000  
   -129862.995    22075563.954        1354.182          53.000  
    278798.781    24725684.120       -3028.329          53.000  
 18  2 16  8 21 48.0000000  0  8G05G09G23G10G11G30G01G03             0.000553894
   -337812.029    23955043.336        3635.189          53.000  
     60359.558    20103287.430        -644.039          53.000  
    197733.907    22308867.475       -2056.728          53.000  
    126837.896    21041577.086       -1337.170          53.000  
   -224277.537    21088781.577        2281.045          53.000  
   -343233.528    22371593.875        3590.346          53.000  
   -131216.699    22075306.336        1353.521          53.000  
    281827.318    24726260.432       -3028.418          53.000  
 18  2 16  8 21 49.0000000  0  8G05G09G23G10G11G30G01G03             0.000554089
   -341447.124    23954351.590        3635.197          53.000  
     61003.822    20103410.012        -644.254          53.000  
    199790.677    22309258.878       -2056.592          53.000  
    128175.611    21041831.648       -1337.915          53.000  
   -226557.983    21088347.627        2280.258          53.000  
   -346823.564    22370910.742        3589.975          53.000  
   -132569.821    22075048.844        1352.988          53.000  
    284855.863    24726836.743       -3028.413          53.000  
 18  2 16  8 21 50.0000000  0  8G05G09G23G10G11G30G01G03             0.000554294
   -345082.031    23953659.898        3634.867          53.000  
     61648.440    20103532.665        -644.758          53.000  
    201847.500    22309650.263       -2056.769          53.000  
    129514.202    21042086.371       -1339.272          53.000  
   -228837.522    21087913.839        2278.853          53.000  
   -350413.054    22370227.681        3589.260          53.000  
   -133922.216    22074791.494        1352.141          53.000  
    287884.536    24727413.091       -3028.667          53.000  
 18  2 16  8 21 51.0000000  0  8G05G09G23G10G11G30G01G03             0.000554489
   -348716.711    23952968.260        3634.672          53.000  
     62293.446    20103655.407        -645.099          53.000  
    203904.403    22310041.667       -2056.838          53.000  
    130853.815    21042341.290       -1339.912          53.000  
   -231115.991    21087480.247        2278.142          53.000  
   -354001.976    22369544.727        3588.699          53.000  
   -135273.840    22074534.305        1351.354          53.000  
    290913.361    24727989.456       -3028.791          53.000  
 18  2 16  8 21 52.0000000  0  8G05G09G23G10G11G30G01G03             0.000554685
   -352351.177    23952276.657        3634.150          53.000  
     62938.811    20103778.221        -645.784          53.000  
    205961.350    22310433.087       -2057.212          53.000  
    132194.348    21042596.406       -1341.182          53.000  
   -233393.503    21087046.834        2276.861          53.000  
   -357590.366    22368861.880        3587.873          53.000  
   -136624.717    22074277.241        1350.268          53.000  
    293942.292    24728565.839       -3029.222          53.000  
 18  2 16  8 21 53.0000000  0  8G05G09G23G10G11G30G01G03             0.000554880
   -355985.331    23951585.090        3634.267          53.000  
     63584.618    20103901.124        -645.783          53.000  
    208018.421    22310824.526       -2056.866          53.000  
    133535.885    21042851.683       -1341.756          53.000  
   -235669.972    21086613.653        2276.235          53.000  
   -361178.148    22368179.140        3587.744          53.000  
   -137974.753    22074020.321        1349.887          53.000  
    296971.401    24729142.258       -3028.917          53.000  
 18  2 16  8 21 54.0000000  0  8G05G09G23G10G11G30G01G03             0.000555077
   -359619.241    23950893.595        3633.787          53.000  
     64230.797    20104024.081        -646.385          53.000  
    210075.544    22311215.983       -2057.131          53.000  
    134878.314    21043107.139       -1343.061          53.000  
   -237945.496    21086180.633        2274.785          53.000  
   -364765.399    22367496.490        3586.998          53.000  
   -139324.011    22073763.579        1348.879          53.000  
    300000.610    24729718.695       -3029.263          53.000  
 18  2 16  8 21 55.0000000  0  8G05G09G23G10G11G30G01G03             0.000555272
   -363252.957    23950202.135        3633.622          52.000  
     64877.280    20104147.091        -646.641          53.000  
    212132.647    22311607.440       -2057.055          53.000  
    136221.709    21043362.773       -1343.755          53.000  
   -240219.996    21085747.810        2274.122          53.000  
   -368352.196    22366813.947        3586.565          53.000  
   -140672.554    22073506.961        1348.225          52.000  
    303029.832    24730295.132       -3029.245          53.000  
 18  2 16  8 21 56.0000000  0  8G05G09G23G10G11G30G01G03             0.000555468
   -366885.963    23949510.800        3632.766          53.000  
     65524.572    20104270.280        -647.588          53.000  
    214190.239    22311999.004       -2057.705          53.000  
    137566.477    21043618.675       -1345.329          52.000  
   -242493.080    21085315.254        2272.549          53.000  
   -371938.044    22366131.565        3585.492          53.000  
   -142019.862    22073250.577        1346.833          53.000  
    306059.561    24730871.676       -3029.854          53.000  
 18  2 16  8 21 57.0000000  0  8G05G09G23G10G11G30G01G03             0.000555663
   -370518.649    23948819.519        3632.625          53.000  
     66172.273    20104393.541        -647.773          53.000  
    216247.913    22312390.550       -2057.599          53.000  
    138912.220    21043874.756       -1346.080          53.000  
   -244765.116    21084882.913        2271.687          53.000  
   -375523.351    22365449.308        3585.166          53.000  
   -143366.332    22072994.353        1346.187          53.000  
    309089.388    24731448.238       -3029.724          53.000  
 18  2 16  8 21 58.0000000  0  8G05G09G23G10G11G30G01G03             0.000555858
   -374150.913    23948128.327        3632.047          53.000  
     66820.480    20104516.909        -648.425          53.000  
    218305.760    22312782.149       -2057.936          52.000  
    140259.012    21044131.034       -1347.514          53.000  
   -247036.060    21084450.769        2270.170          53.000  
   -379108.033    22364767.175        3584.389          53.000  
   -144711.863    22072738.290        1345.047          52.000  
    312119.397    24732024.835       -3030.089          53.000  
 18  2 16  8 21 59.0000000  0  8G05G09G23G10G11G30G01G03             0.000556053
   -377782.838    23947437.207        3631.919          53.000  
     67469.104    20104640.330        -648.640          53.000  
    220363.690    22313173.767       -2057.772          53.000  
    141606.857    21044387.526       -1348.084          53.000  
   -249305.873    21084018.839        2269.556          53.000  
   -382692.197    22364085.151        3584.122          53.000  
   -146056.549    22072482.387        1344.445          53.000  
    315149.480    24732601.451       -3029.925          53.000  
 18  2 16  8 22  0.0000000  0  8G05G09G23G10G11G30G01G03             0.000556248
   -381414.642    23946746.105        3631.663          53.000  
     68117.912    20104763.787        -648.978          53.000  
    222421.475    22313565.348       -2057.779          53.000  
    142955.449    21044644.143       -1349.025          53.000  
   -251574.880    21083587.052        2268.561          53.000  
   -386276.070    22363403.161        3583.648          53.000  
   -147400.601    22072226.646        1343.669          53.000  
    318179.400    24733178.031       -3029.902          53.000  
 18  2 16  8 22  1.0000000  0  8G05G09G23G10G11G30G01G03             0.000556442
   -385046.131    23946055.038        3631.226          53.000  
     68767.088    20104887.316        -649.458          53.000  
    224479.294    22313956.930       -2057.905          53.000  
    144304.981    21044900.956       -1350.060          53.000  
   -253842.896    21083155.461        2267.469          53.000  
   -389859.494    22362721.262        3583.104          53.000  
   -148743.840    22071971.030        1342.756          53.000  
    321209.327    24733754.610       -3030.001          52.000  
 18  2 16  8 22  2.0000000  0  8G05G09G23G10G11G30G01G03             0.000556637
   -388677.330    23945364.043        3631.242          53.000  
     69416.604    20105010.898        -649.472          53.000  
    226537.122    22314348.530       -2057.622          53.000  
    145655.382    21045157.949       -1350.748          53.000  
   -256109.976    21082724.049        2266.596          53.000  
   -393442.504    22362039.451        3583.010          53.000  
   -150086.283    22071715.574        1342.262          53.000  
    324239.225    24734331.190       -3029.667          53.000  
 18  2 16  8 22  3.0000000  0  8G05G09G23G10G11G30G01G03             0.000556833
   -392308.093    23944673.137        3630.740          53.000  
     70066.601    20105134.605        -650.028          53.000  
    228595.097    22314740.147       -2057.848          53.000  
    147006.877    21045415.137       -1351.793          53.000  
   -258375.890    21082292.852        2265.614          53.000  
   -397024.973    22361357.730        3582.396          53.000  
   -151427.795    22071460.279        1341.263          53.000  
    327269.221    24734907.770       -3029.856          53.000  
 18  2 16  8 22  4.0000000  0  8G05G09G23G10G11G30G01G03             0.000557027
   -395938.270    23943982.339        3629.826          53.000  
     70717.217    20105258.419        -650.919          53.000  
    230653.357    22315131.801       -2058.428          53.000  
    148359.544    21045672.541       -1353.249          53.000  
   -260640.569    21081861.905        2264.085          53.000  
   -400606.775    22360676.116        3581.468          53.000  
   -152768.230    22071205.217        1339.890          53.000  
    330299.441    24735484.403       -3030.343          53.000  
 18  2 16  8 22  5.0000000  0  8G05G09G23G10G11G30G01G03             0.000557221
   -399568.100    23943291.594        3629.506          53.000  
     71368.221    20105382.288        -651.358          53.000  
    232711.656    22315523.472       -2058.054          53.000  
    149713.139    21045930.123       -1354.181          53.000  
   -262904.274    21081431.136        2263.493          53.000  
   -404188.163    22359994.610        3581.243          53.000  
   -154107.825    22070950.297        1339.136          53.000  
    333329.636    24736061.037       -3030.124          53.000  
 18  2 16  8 22  6.0000000  0  8G05G09G23G10G11G30G01G03             0.000557416
   -403197.609    23942600.920        3629.362          53.000  
     72019.565    20105506.245        -651.489          53.000  
    234769.994    22315915.179       -2058.319          53.000  
    151067.596    21046187.865       -1355.019          53.000  
   -265167.042    21081000.546        2262.195          53.000  
   -407769.170    22359313.174        3580.849          53.000  
   -155446.608    22070695.539        1338.387          53.000  
    336359.775    24736637.652       -3030.092          53.000  
 18  2 16  8 22  7.0000000  0  8G05G09G23G10G11G30G01G03             0.000557611
   -406826.629    23941910.354        3628.910          53.000  
     72671.424    20105630.274        -651.962          53.000  
    236828.499    22316306.903       -2058.453          53.000  
    152423.144    21046445.805       -1355.867          53.000  
   -267428.657    21080570.171        2261.286          53.000  
   -411349.668    22358631.829        3580.395          53.000  
   -156784.427    22070440.959        1337.521          52.000  
    339389.999    24737214.286       -3030.112          53.000  
 18  2 16  8 22  8.0000000  0  8G05G09G23G10G11G30G01G03             0.000557805
   -410455.348    23941219.824        3628.675          53.000  
     73323.605    20105754.392        -652.234          53.000  
    238887.002    22316698.628       -2058.424          53.000  
    153779.534    21046703.905       -1356.751          53.000  
   -269689.380    21080139.974        2260.340          53.000  
   -414929.845    22357950.518        3580.110          53.000  
   -158121.456    22070186.522        1336.745          53.000  
    342420.113    24737790.901       -3029.994          53.000  
 18  2 16  8 22  9.0000000  0  8G05G09G23G10G11G30G01G03             0.000558000
   -414083.576    23940529.400        3627.947          53.000  
     73976.292    20105878.600        -652.900          53.000  
    240945.680    22317090.371       -2058.774          53.000  
    155136.941    21046962.220       -1357.940          53.000  
   -271949.021    21079709.974        2259.111          53.000  
   -418509.537    22357269.333        3579.426          53.000  
   -159457.521    22069932.281        1335.562          53.000  
    345450.290    24738367.552       -3030.223          53.000  
 18  2 16  8 22 10.0000000  0  8G05G09G23G10G11G30G01G03             0.000558194
   -417711.232    23939839.066        3627.772          53.000  
     74629.568    20106002.914        -653.137          53.000  
    243004.620    22317482.185       -2058.655          52.000  
    156495.418    21047220.713       -1358.652          53.000  
   -274207.559    21079280.188        2258.372          53.000  
   -422088.681    22356588.256        3579.295          52.000  
   -160792.542    22069678.237        1334.906          53.000  
    348480.608    24738944.186       -3030.010          52.000  
 18  2 16  8 22 11.0000000  0  8G05G09G23G10G11G30G01G03             0.000558388
   -421338.750    23939148.768        3627.586          52.000  
     75282.998    20106127.265        -653.328          53.000  
    245063.394    22317873.963       -2058.535          53.000  
    157854.580    21047479.367       -1359.313          53.000  
   -276465.346    21078850.545        2257.597          53.000  
   -425667.717    22355907.178        3579.135          52.000  
   -162126.951    22069424.301        1334.217          53.000  
    351510.619    24739520.783       -3029.698          53.000  
 18  2 16  8 22 12.0000000  0  8G05G09G23G10G11G30G01G03             0.000558583
   -424965.959    23938458.541        3627.088          53.000  
     75936.753    20106251.669        -653.895          53.000  
    247122.170    22318265.741       -2058.747          53.000  
    159214.541    21047738.164       -1360.363          53.000  
   -278722.290    21078421.063        2256.509          53.000  
   -429246.492    22355226.154        3578.675          52.000  
   -163460.590    22069170.525        1333.281          53.000  
    354540.491    24740097.345       -3029.749          53.000  
 18  2 16  8 22 13.0000000  0  8G05G09G23G10G11G30G01G03             0.000558777
   -428592.735    23937768.404        3626.836          53.000  
     76590.948    20106376.163        -654.127          53.000  
    249181.076    22318657.538       -2058.689          53.000  
    160575.421    21047997.140       -1361.048          52.000  
   -280978.277    21077991.760        2255.772          52.000  
   -432824.898    22354545.219        3578.489          52.000  
   -164793.325    22068916.892        1332.549          52.000  
    357570.341    24740673.889       -3029.556          53.000  
 18  2 16  8 22 14.0000000  0  8G05G09G23G10G11G30G01G03             0.000558971
   -432219.148    23937078.302        3626.173          53.000  
     77245.528    20106500.728        -654.844          53.000  
    251240.047    22319049.352       -2059.057          53.000  
    161937.127    21048256.259       -1362.174          53.000  
   -283233.409    21077562.636        2254.621          53.000  
   -436403.019    22353864.320        3577.906          53.000  
   -166125.238    22068663.456        1331.440          53.000  
    360600.094    24741250.433       -3029.778          53.000  
 18  2 16  8 22 15.0000000  0  8G05G09G23G10G11G30G01G03             0.000559165
   -435845.139    23936388.308        3625.954          53.000  
     77900.542    20106625.382        -655.028          53.000  
    253299.149    22319441.184       -2058.949          53.000  
    163299.726    21048515.556       -1362.810          53.000  
   -285487.610    21077133.672        2253.950          53.000  
   -439980.810    22353183.492        3577.837          53.000  
   -167456.272    22068410.180        1330.819          53.000  
    363629.797    24741826.959       -3029.455          53.000  
 18  2 16  8 22 16.0000000  0  8G05G09G23G10G11G30G01G03             0.000559360
   -439470.900    23935698.331        3626.027          53.000  
     78555.806    20106750.072        -654.982          53.000  
    255358.194    22319832.998       -2058.608          53.000  
    164663.017    21048774.996       -1363.194          53.000  
   -287741.083    21076704.851        2253.526          53.000  
   -443558.472    22352502.682        3578.028          53.000  
   -168786.615    22068157.030        1330.414          53.000  
    366659.268    24742403.450       -3028.934          53.000  
 18  2 16  8 22 17.0000000  0  8G05G09G23G10G11G30G01G03             0.000559554
   -443096.258    23935008.444        3625.378          53.000  
     79211.499    20106874.851        -655.670          53.000  
    257417.368    22320224.847       -2058.994          53.000  
    166027.147    21049034.580       -1364.325          53.000  
   -289993.709    21076276.191        2252.452          53.000  
   -447135.835    22351821.926        3577.460          53.000  
   -170116.097    22067904.040        1329.252          53.000  
    369688.676    24742979.940       -3029.134          53.000  
 18  2 16  8 22 18.0000000  0  8G05G09G23G10G11G30G01G03             0.000559748
   -446721.123    23934318.646        3624.624          53.000  
     79867.711    20106999.720        -656.490          53.000  
    259476.762    22320616.751       -2059.480          53.000  
    167392.190    21049294.324       -1365.461          53.000  
   -292245.403    21075847.710        2251.339          53.000  
   -450712.833    22351141.259        3576.824          53.000  
   -171444.640    22067651.229        1328.088          53.000  
    372718.101    24743556.413       -3029.401          53.000  
 18  2 16  8 22 19.0000000  0  8G05G09G23G10G11G30G01G03             0.000559942
   -450345.460    23933628.956        3624.386          53.000  
     80524.476    20107124.696        -656.712          53.000  
    261536.422    22321008.690       -2059.444          53.000  
    168758.170    21049554.246       -1366.164          53.000  
   -294496.139    21075419.425        2250.557          53.000  
   -454289.435    22350460.646        3576.730          53.000  
   -172772.202    22067398.615        1327.389          53.000  
    375747.591    24744132.903       -3029.189          53.000  
 18  2 16  8 22 20.0000000  0  8G05G09G23G10G11G30G01G03             0.000560136
   -453969.524    23932939.301        3623.928          53.000  
     81181.554    20107249.761        -657.220          53.000  
    263596.112    22321400.629       -2059.730          53.000  
    170124.850    21049814.312       -1367.026          53.000  
   -296746.182    21074991.230        2249.649          53.000  
   -457865.903    22349780.068        3576.417          53.000  
   -174099.043    22067146.125        1326.495          53.000  
    378776.887    24744709.376       -3029.186          53.000  
 18  2 16  8 22 21.0000000  0  8G05G09G23G10G11G30G01G03             0.000560330
   -457593.236    23932249.735        3623.798          53.000  
     81839.023    20107374.880        -657.387          53.000  
    265655.906    22321792.604       -2059.606          53.000  
    171492.280    21050074.521       -1367.580          53.000  
   -298995.471    21074563.213        2249.145          53.000  
   -461442.165    22349099.545        3576.398          53.000  
   -175425.085    22066893.797        1325.896          53.000  
    381806.074    24745285.795       -3028.875          52.000  
 18  2 16  8 22 22.0000000  0  8G05G09G23G10G11G30G01G03             0.000560524
   -461216.548    23931560.223        3623.488          53.000  
     82496.942    20107500.070        -657.788          53.000  
    267715.874    22322184.597       -2059.693          53.000  
    172860.485    21050334.908       -1368.109          53.000  
   -301243.996    21074135.321        2248.736          53.000  
   -465018.184    22348419.056        3576.266          53.000  
   -176750.288    22066641.611        1325.162          53.000  
    384835.200    24745862.232       -3028.693          53.000  
 18  2 16  8 22 23.0000000  0  8G05G09G23G10G11G30G01G03             0.000560718
   -464839.285    23930870.836        3622.468          53.000  
     83155.487    20107625.368        -658.825          53.000  
    269776.202    22322576.661       -2060.480          53.000  
    174229.634    21050595.439       -1369.615          53.000  
   -303491.595    21073707.626        2247.094          53.000  
   -468593.788    22347738.640        3575.400          53.000  
   -178074.468    22066389.640        1323.689          53.000  
    387864.455    24746438.686       -3029.273          53.000  
 18  2 16  8 22 24.0000000  0  8G05G09G23G10G11G30G01G03             0.000560911
   -468461.595    23930181.539        3622.281          53.000  
     83814.523    20107750.791        -659.082          53.000  
    271836.756    22322968.779       -2060.468          53.000  
    175599.593    21050856.148       -1370.193          53.000  
   -305738.404    21073280.074        2246.552          53.000  
   -472169.131    22347058.277        3575.425          53.000  
   -179397.784    22066137.812        1323.120          53.000  
    390893.693    24747015.123       -3029.035          53.000  
 18  2 16  8 22 25.0000000  0  8G05G09G23G10G11G30G01G03             0.000561105
   -472083.546    23929492.312        3621.660          53.000  
     84473.987    20107876.267        -659.777          53.000  
    273897.484    22323360.915       -2060.927          53.000  
    176970.264    21051116.964       -1371.137          53.000  
   -307984.528    21072852.647        2245.624          53.000  
   -475744.282    22346377.932        3574.954          53.000  
   -180720.295    22065886.145        1322.022          52.000  
    393922.858    24747591.560       -3029.240          53.000  
 18  2 16  8 22 26.0000000  0  8G05G09G23G10G11G30G01G03             0.000561298
   -475705.203    23928803.140        3621.674          53.000  
     85133.827    20108001.815        -659.869          53.000  
    275958.332    22323753.068       -2060.755          53.000  
    178341.585    21051377.923       -1371.336          53.000  
   -310230.039    21072425.345        2245.632          53.000  
   -479319.308    22345697.622        3575.136          53.000  
   -182042.071    22065634.638        1321.553          53.000  
    396951.890    24748167.961       -3028.820          53.000  
 18  2 16  8 22 27.0000000  0  8G05G09G23G10G11G30G01G03             0.000561492
   -479326.434    23928114.057        3621.174          53.000  
     85794.179    20108127.488        -660.419          53.000  
    278019.455    22324145.293       -2061.112          53.000  
    179713.650    21051639.008       -1372.332          53.000  
   -312474.860    21071998.168        2244.549          53.000  
   -482894.082    22345017.366        3574.815          53.000  
   -183362.986    22065383.275        1320.642          53.000  
    399980.935    24748744.380       -3028.864          53.000  
 18  2 16  8 22 28.0000000  0  8G05G09G23G10G11G30G01G03             0.000561679
   -482947.234    23927425.027        3620.743          53.000  
     86455.060    20108253.250        -660.940          53.000  
    280080.863    22324537.572       -2061.377          53.000  
    181086.503    21051900.253       -1373.110          53.000  
   -314718.949    21071571.134        2243.827          53.000  
   -486468.595    22344337.146        3574.556          53.000  
   -184683.029    22065132.090        1319.772          52.000  
    403010.013    24749320.799       -3028.906          53.000  
 18  2 16  8 22 29.0000000  0  8G05G09G23G10G11G30G01G03             0.000561874
   -486567.447    23926736.123        3620.062          53.000  
     87116.642    20108379.137        -661.835          53.000  
    282142.740    22324929.940       -2062.002          52.000  
    182460.263    21052161.676       -1374.105          53.000  
   -316962.187    21071144.261        2242.919          52.000  
   -490042.700    22343657.015        3574.031          52.000  
   -186002.053    22064881.084        1318.655          52.000  
    406039.288    24749897.236       -3029.247          52.000  
 18  2 16  8 22 30.0000000  0  8G05G09G23G10G11G30G01G03             0.000562068
   -490187.183    23926047.308        3619.700          53.000  
     87778.814    20108505.149        -662.302          52.000  
    284204.984    22325322.379       -2062.240          52.000  
    183834.835    21052423.243       -1374.591          53.000  
   -319204.664    21070717.549        2242.655          53.000  
   -493616.496    22342976.938        3573.842          53.000  
   -187320.160    22064630.256        1317.872          52.000  
    409068.667    24750473.708       -3029.233          53.000  
 18  2 16  8 22 31.0000000  0  8G05G09G23G10G11G30G01G03             0.000562262
   -493806.629    23925358.564        3619.397          53.000  
     88441.405    20108631.233        -662.702          53.000  
    286267.428    22325714.837       -2062.425          53.000  
    185209.981    21052684.899       -1375.370          53.000  
   -321446.668    21070290.908        2241.749          53.000  
   -497190.174    22342296.897        3573.724          53.000  
   -188637.538    22064379.572        1317.138          53.000  
    412097.981    24751050.181       -3029.188          52.000  
 18  2 16  8 22 32.0000000  0  8G05G09G23G10G11G30G01G03             0.000562456
   -497425.942    23924669.821        3619.475          53.000  
     89104.270    20108757.389        -662.781          53.000  
    288329.942    22326107.312       -2062.324          53.000  
    186585.584    21052946.663       -1375.670          53.000  
   -323688.298    21069864.321        2241.582          53.000  
   -500763.884    22341616.838        3573.948          53.000  
   -189954.348    22064128.994        1316.754          53.000  
    415127.079    24751626.600       -3028.774          53.000  
 18  2 16  8 22 33.0000000  0  8G05G09G23G10G11G30G01G03             0.000562650
   -501044.794    23923981.184        3618.680          53.000  
     89767.751    20108883.633        -663.665          53.000  
    290392.861    22326499.894       -2063.009          52.000  
    187961.937    21053208.569       -1376.597          53.000  
   -325929.253    21069437.895        2240.660          53.000  
   -504337.300    22340936.850        3573.392          53.000  
   -191270.263    22063878.596        1315.602          53.000  
    418156.317    24752203.054       -3029.204          53.000  
 18  2 16  8 22 34.0000000  0  8G05G09G23G10G11G30G01G03             0.000562844
   -504663.396    23923292.548        3618.406          53.000  
     90431.655    20109009.967        -664.178          53.000  
    292456.008    22326892.495       -2063.307          53.000  
    189338.890    21053470.600       -1377.105          53.000  
   -328169.715    21069011.540        2240.550          53.000  
   -507910.615    22340256.880        3573.228          53.000  
   -192585.480    22063628.322        1314.827          52.000  
    421185.504    24752779.491       -3029.197          53.000  
 18  2 16  8 22 35.0000000  0  8G05G09G23G10G11G30G01G03             0.000563038
   -508281.612    23922604.019        3617.989          53.000  
     91096.116    20109136.408        -664.756          53.000  
    294519.524    22327285.166       -2063.728          52.000  
    190716.458    21053732.757       -1378.006          53.000  
   -330409.691    21068585.292        2239.523          53.000  
   -511483.698    22339576.946        3572.931          53.000  
   -193899.880    22063378.192        1313.942          53.000  
    424214.787    24753355.946       -3029.358          53.000  
 18  2 16  8 22 36.0000000  0  8G05G09G23G10G11G30G01G03             0.000563232
   -511899.310    23921915.579        3617.691          53.000  
     91761.295    20109262.993        -665.345          53.000  
    296583.574    22327677.945       -2064.136          53.000  
    192094.868    21053995.056       -1378.704          53.000  
   -332648.938    21068159.169        2238.990          53.000  
   -515056.402    22338897.083        3572.713          53.000  
   -195213.317    22063128.258        1313.155          53.000  
    427244.327    24753932.472       -3029.461          53.000  
 18  2 16  8 22 37.0000000  0  8G05G09G23G10G11G30G01G03             0.000563426
   -515516.667    23921227.228        3617.321          53.000  
     92427.013    20109389.666        -665.951          53.000  
    298647.984    22328070.778       -2064.510          53.000  
    193473.894    21054257.481       -1379.299          53.000  
   -334887.678    21067733.154        2238.480          53.000  
   -518628.907    22338217.256        3572.395          53.000  
   -196525.982    22062878.467        1312.356          53.000  
    430273.959    24754508.980       -3029.705          53.000  
 18  2 16  8 22 38.0000000  0  8G05G09G23G10G11G30G01G03             0.000563619
   -519133.617    23920538.931        3616.852          53.000  
     93093.350    20109516.483        -666.524          53.000  
    300712.851    22328463.718       -2064.997          52.000  
    194853.647    21054520.030       -1379.822          53.000  
   -337125.812    21067307.264        2238.409          53.000  
   -522201.135    22337537.501        3572.175          53.000  
   -197837.796    22062628.836        1311.482          53.000  
    433303.762    24755085.542       -3029.779          53.000  
 18  2 16  8 22 39.0000000  0  8G05G09G23G10G11G30G01G03             0.000563813
   -522750.478    23919850.670        3617.187          53.000  
     93760.022    20109643.335        -666.480          53.000  
    302777.887    22328856.693       -2064.800          52.000  
    196233.732    21054782.651       -1380.057          53.000  
   -339363.800    21066881.391        2238.107          53.000  
   -525773.383    22336857.727        3572.599          53.000  
   -199149.072    22062379.295        1311.356          53.000  
    436333.467    24755662.086       -3029.266          53.000  
 18  2 16  8 22 40.0000000  0  8G05G09G23G10G11G30G01G03             0.000564007
   -526366.995    23919162.463        3616.370          53.000  
     94427.276    20109770.294        -667.534          53.000  
    304843.347    22329249.723       -2065.698          53.000  
    197614.453    21055045.397       -1381.054          53.000  
   -341601.281    21066455.608        2237.150          53.000  
   -529345.399    22336177.990        3571.908          53.000  
   -200459.568    22062129.915        1310.134          53.000  
    439363.329    24756238.648       -3029.895          53.000  
 18  2 16  8 22 41.0000000  0  8G05G09G23G10G11G30G01G03             0.000564200
   -529983.167    23918474.326        3615.941          53.000  
     95095.135    20109897.379        -668.203          53.000  
    306909.259    22329642.859       -2066.177          53.000  
    198995.812    21055308.251       -1381.723          53.000  
   -343838.284    21066029.915        2236.689          53.000  
   -532917.167    22335498.305        3571.623          53.000  
   -201769.273    22061880.696        1309.293          53.000  
    442393.383    24756815.246       -3030.171          53.000  
 18  2 16  8 22 42.0000000  0  8G05G09G23G10G11G30G01G03             0.000564393
   -533599.181    23917786.226        3616.032          52.000  
     95763.425    20110024.570        -668.382          53.000  
    308975.471    22330036.031       -2066.289          53.000  
    200377.636    21055571.211       -1381.678          53.000  
   -346074.941    21065604.292        2237.087          53.000  
   -536488.853    22334818.621        3571.753          53.000  
   -203078.371    22061631.584        1308.929          53.000  
    445423.458    24757391.861       -3029.931          53.000  
 18  2 16  8 22 43.0000000  0  8G05G09G23G10G11G30G01G03             0.000564587
   -537214.836    23917098.197        3615.485          52.000  
     96432.369    20110151.869        -669.228          52.000  
    311042.186    22330429.310       -2066.922          53.000  
    201760.055    21055834.297       -1382.728          53.000  
   -348311.245    21065178.741        2235.945          53.000  
   -540060.254    22334139.009        3571.329          52.000  
   -204386.660    22061382.633        1307.979          53.000  
    448453.794    24757968.513       -3030.392          53.000  
 18  2 16  8 22 44.0000000  0  8G05G09G23G10G11G30G01G03             0.000564780
   -540830.127    23916410.222        3615.101          53.000  
     97101.973    20110279.293        -669.908          53.000  
    313109.439    22330822.679       -2067.490          53.000  
    203143.134    21056097.490       -1383.356          53.000  
   -350547.045    21064753.298        2235.476          53.000  
   -543631.346    22333459.432        3570.984          53.000  
   -205694.135    22061133.825        1307.141          53.000  
    451484.404    24758545.217       -3030.712          53.000  
 18  2 16  8 22 45.0000000  0  8G05G09G23G10G11G30G01G03             0.000564973
   -544445.088    23915722.318        3615.041          53.000  
     97772.223    20110406.824        -670.376          53.000  
    315177.217    22331216.173       -2067.845          53.000  
    204526.852    21056360.790       -1383.870          53.000  
   -352782.394    21064327.926        2235.271          53.000  
   -547202.143    22332779.927        3570.827          53.000  
   -207000.821    22060885.177        1306.516          53.000  
    454515.289    24759121.958       -3030.821          53.000  
 18  2 16  8 22 46.0000000  0  8G05G09G23G10G11G30G01G03             0.000565166
   -548060.100    23915034.397        3615.102          53.000  
     98442.748    20110534.427        -670.596          53.000  
    317245.151    22331609.702       -2067.964          53.000  
    205910.832    21056624.143       -1383.875          53.000  
   -355017.625    21063902.554        2235.718          53.000  
   -550773.028    22332100.421        3570.996          53.000  
   -208307.109    22060636.601        1306.146          53.000  
    457546.083    24759698.716       -3030.698          53.000  
 18  2 16  8 22 47.0000000  0  8G05G09G23G10G11G30G01G03             0.000565359
   -551675.015    23914346.511        3615.209          53.000  
     99113.715    20110662.101        -670.801          53.000  
    319313.415    22332003.268       -2068.106          53.000  
    207295.145    21056887.568       -1384.222          53.000  
   -357252.796    21063477.217        2235.252          53.000  
   -554343.822    22331420.916        3571.091          53.000  
   -209612.841    22060388.132        1305.816          53.000  
    460576.969    24760275.475       -3030.583          52.000  
 18  2 16  8 22 48.0000000  0  8G05G09G23G10G11G30G01G03             0.000565553
   -555289.963    23913658.607        3614.911          53.000  
     99785.013    20110789.865        -671.510          53.000  
    321381.900    22332396.886       -2068.688          53.000  
    208679.749    21057151.047       -1384.844          53.000  
   -359487.864    21063051.917        2234.858          53.000  
   -557914.639    22330741.411        3570.747          53.000  
   -210918.141    22060139.753        1305.018          53.000  
    463607.842    24760852.233       -3030.921          52.000  
 18  2 16  8 22 49.0000000  0  8G05G09G23G10G11G30G01G03             0.000565746
   -558904.610    23912970.757        3614.635          53.000  
    100456.976    20110917.736        -672.139          53.000  
    323450.950    22332790.612       -2069.209          53.000  
    210064.947    21057414.633       -1385.368          53.000  
   -361722.539    21062626.670        2234.557          53.000  
   -561485.141    22330061.977        3570.473          53.000  
   -212222.681    22059891.499        1304.314          53.000  
    466639.052    24761429.063       -3031.219          53.000  
 18  2 16  8 22 50.0000000  0  8G05G09G23G10G11G30G01G03             0.000565938
   -562519.016    23912282.960        3614.417          53.000  
    101129.567    20111045.731        -672.749          53.000  
    325520.528    22333184.446       -2069.686          53.000  
    211450.732    21057678.344       -1385.734          53.000  
   -363956.800    21062201.494        2234.757          53.000  
   -565055.355    22329382.597        3570.186          53.000  
   -213526.513    22059643.405        1303.637          52.000  
    469670.577    24762005.947       -3031.566          53.000  
 18  2 16  8 22 51.0000000  0  8G05G09G23G10G11G30G01G03             0.000566121
   -566133.371    23911595.164        3614.375          53.000  
    101802.602    20111173.781        -673.191          53.000  
    327590.467    22333578.333       -2070.097          53.000  
    212836.820    21057942.127       -1386.289          53.000  
   -366191.061    21061776.337        2234.082          53.000  
   -568625.467    22328703.234        3570.097          53.000  
   -214829.827    22059395.383        1303.127          53.000  
    472702.241    24762582.848       -3031.662          52.000  
 18  2 16  8 22 52.0000000  0  8G05G09G23G10G11G30G01G03             0.000566313
   -569747.722    23910907.367        3614.335          52.000  
    102476.064    20111301.955        -673.675          53.000  
    329660.736    22333972.291       -2070.424          53.000  
    214223.259    21058205.963       -1386.610          53.000  
   -368425.182    21061351.197        2233.975          53.000  
   -572195.487    22328023.872        3569.968          53.000  
   -216132.656    22059147.468        1302.615          53.000  
    475734.040    24763159.803       -3031.862          52.000  
 18  2 16  8 22 53.0000000  0  8G05G09G23G10G11G30G01G03             0.000566505
   -573361.844    23910219.624        3613.998          52.000  
    103150.160    20111430.219        -674.409          52.000  
    331731.563    22334366.356       -2071.077          53.000  
    215610.239    21058469.888       -1387.271          53.000  
   -370658.977    21060926.128        2233.610          53.000  
   -575765.200    22327344.599        3569.575          53.000  
   -217434.793    22058899.696        1301.799          53.000  
    478766.195    24763736.794       -3032.320          52.000  
 18  2 16  8 22 54.0000000  0  8G05G09G23G10G11G30G01G03             0.000566697
   -576975.942    23909531.881        3614.028          53.000  
    103824.721    20111558.572        -674.825          53.000  
    333802.777    22334760.494       -2071.450          53.000  
    216997.612    21058733.885       -1387.428          53.000  
   -372892.552    21060501.096        2233.878          53.000  
   -579334.767    22326665.326        3569.429          53.000  
   -218736.423    22058651.996        1301.346          52.000  
    481798.548    24764313.838       -3032.478          53.000  
 18  2 16  8 22 55.0000000  0  8G05G09G23G10G11G30G01G03             0.000566888
   -580589.960    23908844.156        3614.195          53.000  
    104499.822    20111687.033        -675.145          53.000  
    335874.453    22335154.720       -2071.712          52.000  
    218385.361    21058997.989       -1387.753          53.000  
   -375126.110    21060076.045        2233.528          53.000  
   -582904.114    22325986.106        3569.451          52.000  
   -220037.481    22058404.421        1300.998          53.000  
    484831.186    24764890.936       -3032.543          52.000  
 18  2 16  8 22 56.0000000  0  8G05G09G23G10G11G30G01G03             0.000567080
   -584203.809    23908156.467        3614.023          53.000  
    105175.539    20111815.618        -675.780          53.000  
    337946.676    22335549.054       -2072.249          52.000  
    219773.630    21059262.165       -1388.304          53.000  
   -377359.352    21059651.066        2233.236          53.000  
   -586473.145    22325306.923        3569.107          53.000  
   -221337.893    22058156.953        1300.342          53.000  
    487864.204    24765468.088       -3032.967          53.000  
 18  2 16  8 22 57.0000000  0  8G05G09G23G10G11G30G01G03             0.000567272
   -587817.680    23907468.777        3614.022          53.000  
    105851.709    20111944.275        -676.282          53.000  
    340019.281    22335943.476       -2072.662          53.000  
    221162.255    21059526.412       -1388.707          53.000  
   -379592.492    21059226.123        2233.162          53.000  
   -590042.021    22324627.793        3568.905          53.000  
   -222637.832    22057909.574        1299.822          53.000  
    490897.445    24766045.293       -3033.264          53.000  
 18  2 16  8 22 58.0000000  0  8G05G09G23G10G11G30G01G03             0.000567464
   -591431.647    23906781.052        3614.034          53.000  
    106528.259    20112073.039        -676.731          53.000  
    342092.202    22336337.953       -2073.060          53.000  
    222551.160    21059790.713       -1388.884          53.000  
   -381825.526    21058801.198        2233.451          53.000  
   -593610.810    22323948.662        3568.766          53.000  
   -223937.384    22057662.284        1299.375          53.000  
    493930.843    24766622.534       -3033.445          53.000  
 18  2 16  8 22 59.0000000  0  8G05G09G23G10G11G30G01G03             0.000567656
   -595045.706    23906093.327        3614.440          53.000  
    107205.212    20112201.875        -676.849          53.000  
    344165.465    22336732.465       -2073.140          52.000  
    223940.310    21060055.049       -1389.029          53.000  
   -384058.682    21058376.255        2233.321          53.000  
   -597179.472    22323269.568        3568.894          53.000  
   -225236.526    22057415.066        1299.268          53.000  
    496964.448    24767199.811       -3033.382          53.000  
 18  2 16  8 23  0.0000000  0  8G05G09G23G10G11G30G01G03             0.000567848
   -598659.783    23905405.602        3614.312          53.000  
    107882.643    20112330.800        -677.448          53.000  
    346239.143    22337127.067       -2073.670          53.000  
    225329.829    21060319.457       -1389.501          53.000  
   -386291.691    21057951.311        2233.094          53.000  
   -600747.925    22322590.510        3568.568          53.000  
   -226535.190    22057167.956        1298.669          53.000  
    499998.337    24767777.141       -3033.797          53.000  
 18  2 16  8 23  1.0000000  0  8G05G09G23G10G11G30G01G03             0.000568039
   -602273.886    23904717.841        3614.295          53.000  
    108560.561    20112459.797        -678.021          53.000  
    348313.249    22337521.758       -2074.180          53.000  
    226719.724    21060583.955       -1389.954          53.000  
   -388524.580    21057526.404        2232.933          53.000  
   -604316.145    22321911.505        3568.236          53.000  
   -227833.370    22056920.916        1298.078          53.000  
    503032.537    24768354.543       -3034.226          53.000  
 18  2 16  8 23  2.0000000  0  8G05G09G23G10G11G30G01G03             0.000568231
   -605887.834    23904030.134        3613.945          53.000  
    109239.144    20112588.936        -678.830          53.000  
    350387.963    22337916.574       -2074.966          53.000  
    228110.189    21060848.541       -1390.553          53.000  
   -390757.090    21057101.586        2232.867          53.000  
   -607883.951    22321232.571        3567.671          53.000  
   -229130.903    22056673.984        1297.292          53.000  
    506067.229    24768932.016       -3034.854          53.000  
 18  2 16  8 23  3.0000000  0  8G05G09G23G10G11G30G01G03             0.000568423
   -609501.520    23903342.463        3613.649          53.000  
    109918.530    20112718.200        -679.738          53.000  
    352463.423    22338311.515       -2075.781          53.000  
    229501.311    21061113.271       -1391.452          53.000  
   -392989.315    21056676.803        2231.953          53.000  
   -611451.190    22320553.745        3567.014          53.000  
   -230427.647    22056427.231        1296.412          53.000  
    509102.573    24769509.614       -3035.622          53.000  
 18  2 16  8 23  4.0000000  0  8G05G09G23G10G11G30G01G03             0.000568614
   -613115.153    23902654.809        3613.718          53.000  
    110598.495    20112847.608        -680.187          53.000  
    354539.405    22338706.563       -2076.162          53.000  
    230892.910    21061378.090       -1391.759          53.000  
   -395221.297    21056252.074        2231.875          53.000  
   -615018.072    22319874.990        3566.773          53.000  
   -231723.833    22056180.585        1296.001          53.000  
    512138.349    24770087.320       -3035.916          53.000  
 18  2 16  8 23  5.0000000  0  8G05G09G23G10G11G30G01G03             0.000568805
   -616728.928    23901967.138        3613.958          53.000  
    111278.855    20112977.069        -680.439          53.000  
    356615.730    22339101.683       -2076.373          53.000  
    232284.807    21061642.962       -1391.916          53.000  
   -397453.225    21055827.346        2231.967          53.000  
   -618584.768    22319196.271        3566.728          53.000  
   -233019.644    22055934.010        1295.767          53.000  
    515174.390    24770665.061       -3036.045          53.000  
 18  2 16  8 23  6.0000000  0  8G05G09G23G10G11G30G01G03             0.000568996
   -620342.598    23901279.484        3613.747          53.000  
    111959.871    20113106.655        -681.205          53.000  
    358692.651    22339496.910       -2077.048          53.000  
    233677.274    21061907.942       -1392.512          53.000  
   -399684.792    21055402.688        2232.007          53.000  
   -622151.007    22318517.641        3566.155          53.000  
   -234314.829    22055687.543        1295.029          53.000  
    518210.963    24771242.891       -3036.702          53.000  
 18  2 16  8 23  7.0000000  0  8G05G09G23G10G11G30G01G03             0.000569188
   -623956.274    23900591.812        3613.507          53.000  
    112641.433    20113236.349        -681.979          53.000  
    360770.076    22339892.245       -2077.829          53.000  
    235070.174    21062173.011       -1393.304          53.000  
   -401916.291    21054978.067        2231.132          53.000  
   -625716.881    22317839.083        3565.526          53.000  
   -235609.487    22055441.183        1294.205          53.000  
    521247.977    24771820.829       -3037.398          53.000  
 18  2 16  8 23  8.0000000  0  8G05G09G23G10G11G30G01G03             0.000569378
   -627569.853    23899904.159        3614.128          53.000  
    113323.650    20113366.167        -681.952          53.000  
    362848.086    22340287.668       -2077.708          53.000  
    236463.628    21062438.169       -1393.177          53.000  
   -404147.455    21054553.499        2231.508          53.000  
   -629282.274    22317160.614        3565.695          53.000  
   -236903.529    22055194.930        1294.304          53.000  
    524285.540    24772398.856       -3037.267          53.000  
 18  2 16  8 23  9.0000000  0  8G05G09G23G10G11G30G01G03             0.000569570
   -631183.828    23899216.434        3614.285          53.000  
    114006.035    20113496.021        -682.315          53.000  
    364926.213    22340683.110       -2078.035          53.000  
    237857.189    21062703.364       -1393.484          53.000  
   -406378.770    21054128.877        2231.480          53.000  
   -632847.662    22316482.145        3565.528          53.000  
   -238197.434    22054948.730        1293.959          53.000  
    527323.178    24772976.901       -3037.561          53.000  
 18  2 16  8 23 10.0000000  0  8G05G09G23G10G11G30G01G03             0.000569761
   -634798.079    23898528.655        3614.353          53.000  
    114688.712    20113625.947        -682.902          53.000  
    367004.574    22341078.605       -2078.511          53.000  
    239250.984    21062968.593       -1393.989          53.000  
   -408610.057    21053704.291        2231.618          53.000  
   -636412.894    22315803.712        3565.095          53.000  
   -239491.073    22054702.549        1293.462          53.000  
    530361.025    24773554.982       -3037.994          53.000  
 18  2 16  8 23 11.0000000  0  8G05G09G23G10G11G30G01G03             0.000569952
   -638412.399    23897840.876        3614.486          53.000  
    115371.879    20113755.944        -683.267          53.000  
    369083.370    22341474.189       -2078.886          53.000  
    240645.181    21063233.913       -1394.307          53.000  
   -410841.284    21053279.705        2231.155          53.000  
   -639977.768    22315125.350        3564.836          53.000  
   -240784.249    22054456.457        1293.058          53.000  
    533399.299    24774133.152       -3038.356          53.000  
 18  2 16  8 23 12.0000000  0  8G05G09G23G10G11G30G01G03             0.000570143
   -642026.708    23897153.080        3614.475          53.000  
    116055.636    20113886.066        -683.899          53.000  
    371162.688    22341869.881       -2079.405          53.000  
    242039.918    21063499.303       -1394.816          53.000  
   -413072.208    21052855.191        2230.919          53.000  
   -643542.165    22314447.078        3564.320          53.000  
   -242076.871    22054210.472        1292.519          53.000  
    536438.093    24774711.412       -3038.878          53.000  
 18  2 16  8 23 13.0000000  0  8G05G09G23G10G11G30G01G03             0.000570334
   -645641.017    23896465.301        3614.367          53.000  
    116739.958    20114016.296        -684.536          53.000  
    373242.512    22342265.662       -2080.024          53.000  
    243435.184    21063764.819       -1395.479          53.000  
   -415302.841    21052430.712        2230.534          53.000  
   -647106.098    22313768.877        3563.755          53.000  
   -243368.949    22053964.612        1291.885          53.000  
    539477.400    24775289.778       -3039.526          53.000  
 18  2 16  8 23 14.0000000  0  8G05G09G23G10G11G30G01G03             0.000570525
   -649255.492    23895777.487        3614.794          52.000  
    117424.696    20114146.597        -684.733          53.000  
    375322.681    22342661.514       -2080.119          53.000  
    244830.837    21064030.389       -1395.664          53.000  
   -417533.261    21052006.270        2230.792          53.000  
   -650669.704    22313090.747        3563.652          53.000  
   -244660.642    22053718.823        1291.732          53.000  
    542517.072    24775868.217       -3039.648          53.000  
 18  2 16  8 23 15.0000000  0  8G05G09G23G10G11G30G01G03             0.000570715
   -652870.105    23895089.654        3614.742          53.000  
    118109.863    20114276.987        -685.366          53.000  
    377403.216    22343057.420       -2080.709          52.000  
    246226.900    21064296.047       -1396.226          53.000  
   -419763.616    21051581.862        2230.233          53.000  
   -654232.950    22312412.689        3563.083          53.000  
   -245951.921    22053473.088        1291.108          53.000  
    545557.133    24776446.726       -3040.190          53.000  
 18  2 16  8 23 16.0000000  0  8G05G09G23G10G11G30G01G03             0.000570906
   -656484.912    23894401.768        3615.077          53.000  
    118795.406    20114407.449        -685.548          53.000  
    379484.050    22343453.398       -2080.768          53.000  
    247623.325    21064561.778       -1396.305          53.000  
   -421993.833    21051157.455        2230.300          53.000  
   -657795.879    22311734.685        3562.988          53.000  
   -247242.847    22053227.425        1290.967          53.000  
    548597.538    24777025.289       -3040.392          53.000  
 18  2 16  8 23 17.0000000  0  8G05G09G23G10G11G30G01G03             0.000571097
   -660099.776    23893713.883        3614.904          53.000  
    119481.466    20114537.000        -686.262          53.000  
    381565.330    22343849.465       -2081.464          53.000  
    249020.278    21064827.615       -1397.138          53.000  
   -424223.745    21050733.120        2229.780          53.000  
   -661358.329    22311056.752        3562.246          53.000  
   -248533.268    22052981.869        1290.213          53.000  
    551638.432    24777603.960       -3041.085          53.000  
 18  2 16  8 23 18.0000000  0  8G05G09G23G10G11G30G01G03             0.000571288
   -663714.847    23893025.961        3615.389          53.000  
    120167.895    20114668.604        -686.424          53.000  
    383646.899    22344245.567       -2081.532          53.000  
    250417.620    21065093.524       -1397.474          53.000  
   -426453.432    21050308.837        2229.945          53.000  
   -664920.440    22310378.909        3562.125          53.000  
   -249823.329    22052736.367        1290.069          53.000  
    554679.670    24778182.684       -3041.215          53.000  
 18  2 16  8 23 19.0000000  0  8G05G09G23G10G11G30G01G03             0.000571479
   -667330.209    23892337.968        3615.592          53.000  
    120854.592    20114799.280        -686.754          53.000  
    385728.646    22344641.706       -2081.742          52.000  
    251815.268    21065359.504       -1397.693          53.000  
   -428683.135    21049884.537        2229.714          53.000  
   -668482.300    22309701.101        3561.808          53.000  
   -251113.132    22052490.936        1289.777          53.000  
    557721.161    24778761.479       -3041.529          53.000  
 18  2 16  8 23 20.0000000  0  8G05G09G23G10G11G30G01G03             0.000571669
   -670945.727    23891649.957        3615.590          53.000  
    121541.699    20114930.046        -687.305          52.000  
    387810.720    22345037.898       -2082.236          53.000  
    253213.372    21065625.539       -1398.308          53.000  
   -430912.581    21049460.273        2229.315          53.000  
   -672043.746    22309023.382        3561.231          53.000  
   -252402.518    22052245.576        1289.161          53.000  
    560763.048    24779340.329       -3042.127          53.000  
 18  2 16  8 23 21.0000000  0  8G05G09G23G10G11G30G01G03             0.000571860
   -674561.430    23890961.928        3615.744          53.000  
    122229.178    20115060.865        -687.701          52.000  
    389893.075    22345434.161       -2082.533          52.000  
    254611.912    21065891.680       -1398.745          53.000  
   -433141.791    21049036.081        2229.057          53.000  
   -675604.803    22308345.735        3560.815          53.000  
   -253691.525    22052000.288        1288.767          53.000  
    563805.297    24779919.267       -3042.466          52.000  
 18  2 16  8 23 22.0000000  0  8G05G09G23G10G11G30G01G03             0.000572051
   -678177.208    23890273.863        3616.046          53.000  
    122917.142    20115191.774        -687.968          53.000  
    391975.818    22345830.514       -2082.723          53.000  
    256011.006    21066157.910       -1399.272          53.000  
   -435370.600    21048611.959        2228.950          53.000  
   -679165.350    22307668.196        3560.512          53.000  
   -254980.033    22051755.107        1288.488          53.000  
    566848.027    24780498.277       -3042.738          52.000  
 18  2 16  8 23 23.0000000  0  8G05G09G23G10G11G30G01G03             0.000572242
   -681792.748    23889585.834        3615.124          53.000  
    123605.886    20115322.825        -689.410          53.000  
    394059.236    22346226.992       -2084.058          53.000  
    257411.001    21066424.320       -1400.684          53.000  
   -437598.800    21048187.927        2227.530          52.000  
   -682725.071    22306990.799        3559.001          53.000  
   -256267.737    22051510.069        1286.982          53.000  
    569891.533    24781077.448       -3044.187          53.000  
 18  2 16  8 23 24.0000000  0  8G05G09G23G10G11G30G01G03             0.000572431
   -685408.183    23888897.841        3615.747          53.000  
    124295.282    20115454.019        -689.332          53.000  
    396143.197    22346623.559       -2083.857          53.000  
    258811.741    21066690.854       -1400.713          53.000  
   -439826.425    21047764.038        2227.701          53.000  
   -686284.088    22306313.545        3559.048          53.000  
   -257554.763    22051265.156        1287.064          53.000  
    572935.689    24781656.744       -3044.118          53.000  
 18  2 16  8 23 25.0000000  0  8G05G09G23G10G11G30G01G03             0.000572623
   -689024.121    23888209.741        3616.297          53.000  
    124984.713    20115585.214        -689.340          53.000  
    398227.084    22347020.109       -2083.755          53.000  
    260212.654    21066957.424       -1400.874          53.000  
   -442054.068    21047340.132        2227.754          53.000  
   -689842.995    22305636.327        3558.914          53.000  
   -258841.712    22051020.261        1287.039          52.000  
    575979.881    24782236.040       -3044.103          53.000  
 18  2 16  8 23 26.0000000  0  8G05G09G23G10G11G30G01G03             0.000572814
   -692640.069    23887521.659        3615.936          53.000  
    125674.660    20115716.515        -690.212          53.000  
    400311.361    22347416.747       -2084.470          53.000  
    261614.210    21067224.137       -1402.103          52.000  
   -444281.184    21046916.314        2226.836          53.000  
   -693401.308    22304959.198        3557.972          53.000  
   -260128.098    22050775.474        1286.086          53.000  
    579024.589    24782815.425       -3044.997          53.000  
 18  2 16  8 23 27.0000000  0  8G05G09G23G10G11G30G01G03             0.000573004
   -696256.010    23886833.576        3616.045          53.000  
    126365.137    20115847.906        -690.639          52.000  
    402396.049    22347813.440       -2084.753          53.000  
    263016.481    21067490.993       -1402.475          53.000  
   -446507.829    21046492.586        2226.488          53.000  
   -696958.999    22304282.177        3557.504          53.000  
   -261413.898    22050530.793        1285.638          53.000  
    582069.829    24783394.917       -3045.390          53.000  
 18  2 16  8 23 28.0000000  0  8G05G09G23G10G11G30G01G03             0.000573194
   -699872.182    23886145.440        3616.285          53.000  
    127055.891    20115979.351        -690.876          53.000  
    404480.884    22348210.168       -2084.908          53.000  
    264419.209    21067757.920       -1402.905          53.000  
   -448734.187    21046068.947        2226.271          53.000  
   -700516.300    22303605.244        3557.120          53.000  
   -262699.351    22050286.166        1285.309          53.000  
    585115.345    24783974.445       -3045.634          53.000  
 18  2 16  8 23 29.0000000  0  8G05G09G23G10G11G30G01G03             0.000573384
   -703488.456    23885457.286        3616.366          53.000  
    127747.050    20116110.885        -691.299          53.000  
    406565.985    22348606.949       -2085.206          53.000  
    265822.535    21068024.955       -1403.574          53.000  
   -450960.085    21045645.362        2225.693          53.000  
   -704073.078    22302928.402        3556.545          53.000  
   -263984.323    22050041.646        1284.777          53.000  
    588161.266    24784554.063       -3046.074          52.000  
 18  2 16  8 23 30.0000000  0  8G05G09G23G10G11G30G01G03             0.000573575
   -707104.790    23884769.132        3616.683          53.000  
    128438.642    20116242.490        -691.470          53.000  
    408651.374    22349003.785       -2085.216          53.000  
    267226.480    21068292.133       -1404.155          53.000  
   -453185.468    21045221.902        2225.374          53.000  
   -707629.297    22302251.666        3556.254          53.000  
   -265268.778    22049797.216        1284.526          53.000  
    591207.615    24785133.770       -3046.224          53.000  
 18  2 16  8 23 31.0000000  0  8G05G09G23G10G11G30G01G03             0.000573765
   -710721.230    23884080.960        3616.340          53.000  
    129130.612    20116374.167        -692.257          53.000  
    410736.988    22349400.656       -2085.807          53.000  
    268631.079    21068559.400       -1404.926          53.000  
   -455410.414    21044798.495        2224.637          53.000  
   -711184.998    22301575.038        3555.334          53.000  
   -266552.757    22049552.875        1283.640          53.000  
    594254.341    24785713.548       -3047.031          53.000  
 18  2 16  8 23 32.0000000  0  8G05G09G23G10G11G30G01G03             0.000573955
   -714337.638    23883392.771        3616.769          53.000  
    129823.088    20116505.933        -692.325          53.000  
    412822.958    22349797.616       -2085.765          53.000  
    270036.418    21068826.828       -1405.280          53.000  
   -457634.738    21044375.232        2224.430          53.000  
   -714740.038    22300898.552        3555.112          53.000  
   -267836.119    22049308.641        1283.476          53.000  
    597301.561    24786293.416       -3047.035          53.000  
 18  2 16  8 23 33.0000000  0  8G05G09G23G10G11G30G01G03             0.000574151
   -717954.312    23882704.563        3616.731          53.000  
    130515.761    20116637.735        -692.839          53.000  
    414908.956    22350194.558       -2086.077          53.000  
    271442.223    21069094.345       -1406.078          53.000  
   -459858.715    21043952.022        2223.740          53.000  
   -718294.722    22300222.120        3554.409          53.000  
   -269119.162    22049064.497        1282.848          53.000  
    600348.970    24786873.319       -3047.574          53.000  
 18  2 16  8 23 34.0000000  0  8G05G09G23G10G11G30G01G03             0.000574340
   -721570.862    23882016.355        3616.869          53.000  
    131209.004    20116769.662        -693.117          53.000  
    416995.359    22350591.608       -2086.211          53.000  
    272848.854    21069362.023       -1406.899          52.000  
   -462081.954    21043528.955        2223.164          53.000  
   -721848.667    22299545.831        3553.961          52.000  
   -270401.501    22048820.460        1282.387          53.000  
    603396.934    24787453.330       -3047.852          53.000  
 18  2 16  8 23 35.0000000  0  8G05G09G23G10G11G30G01G03             0.000574530
   -725187.574    23881328.112        3616.720          53.000  
    131902.526    20116901.625        -693.671          53.000  
    419081.861    22350988.658       -2086.577          53.000  
    274256.122    21069629.826       -1407.499          53.000  
   -464304.717    21043105.977        2222.556          53.000  
   -725402.156    22298869.632        3553.203          53.000  
   -271683.417    22048576.529        1281.642          53.000  
    606445.158    24788033.394       -3048.426          53.000  
 18  2 16  8 23 36.0000000  0  8G05G09G23G10G11G30G01G03             0.000574719
   -728804.196    23880639.887        3616.822          53.000  
    132596.566    20117033.712        -694.034          53.000  
    421168.696    22351385.761       -2086.762          53.000  
    275664.202    21069897.790       -1408.244          53.000  
   -466526.754    21042683.125        2221.952          52.000  
   -728954.941    22298193.575        3552.665          52.000  
   -272964.664    22048332.707        1281.137          53.000  
    609493.868    24788613.547       -3048.742          53.000  
 18  2 16  8 23 37.0000000  0  8G05G09G23G10G11G30G01G03             0.000574908
   -732420.915    23879951.661        3616.690          53.000  
    133290.925    20117165.836        -694.606          53.000  
    423255.656    22351782.882       -2087.101          53.000  
    277072.932    21070165.861       -1409.110          53.000  
   -468748.237    21042260.379        2221.152          53.000  
   -732507.216    22297517.590        3551.945          52.000  
   -274245.422    22048088.973        1280.435          52.000  
    612542.863    24789193.755       -3049.211          53.000  
 18  2 16  8 23 38.0000000  0  8G05G09G23G10G11G30G01G03             0.000575097
   -736037.511    23879263.436        3616.707          52.000  
    133985.807    20117298.067        -695.066          53.000  
    425342.947    22352180.093       -2087.330          53.000  
    278482.511    21070434.093       -1410.309          53.000  
   -470968.912    21041837.813        2220.003          53.000  
   -736058.761    22296841.766        3551.215          53.000  
   -275525.475    22047845.401        1279.815          53.000  
    615592.347    24789774.051       -3049.614          53.000  
 18  2 16  8 23 39.0000000  0  8G05G09G23G10G11G30G01G03             0.000575285
   -739654.201    23878575.193        3616.862          53.000  
    134680.978    20117430.351        -695.160          53.000  
    427430.320    22352577.321       -2087.254          53.000  
    279892.800    21070702.467       -1410.319          53.000  
   -473189.013    21041415.317        2220.010          53.000  
   -739609.816    22296166.013        3550.929          53.000  
   -276805.047    22047601.899        1279.512          53.000  
    618642.075    24790354.401       -3049.687          53.000  
 18  2 16  8 23 40.0000000  0  8G05G09G23G10G11G30G01G03             0.000575474
   -743270.866    23877886.967        3616.785          53.000  
    135376.548    20117562.707        -695.572          53.000  
    429517.883    22352974.549       -2087.511          53.000  
    281303.869    21070970.967       -1411.218          53.000  
   -475408.389    21040993.001        2219.240          53.000  
   -743160.259    22295490.385        3550.281          53.000  
   -278084.009    22047358.523        1278.754          53.000  
    621692.151    24790934.823       -3050.102          53.000  
 18  2 16  8 23 41.0000000  0  8G05G09G23G10G11G30G01G03             0.000575663
   -746887.639    23877198.724        3616.545          53.000  
    136072.373    20117695.116        -696.212          53.000  
    431605.483    22353371.814       -2087.925          53.000  
    282715.583    21071239.610       -1412.292          53.000  
   -477627.178    21040570.756        2218.220          53.000  
   -746710.228    22294814.847        3549.418          53.000  
   -279362.499    22047115.237        1277.987          53.000  
    624742.422    24791515.262       -3050.663          53.000  
 18  2 16  8 23 42.0000000  0  8G05G09G23G10G11G30G01G03             0.000575852
   -750504.205    23876510.516        3616.442          53.000  
    136768.751    20117827.633        -696.645          53.000  
    433693.405    22353769.131       -2088.086          53.000  
    284128.223    21071508.414       -1413.426          53.000  
   -479845.065    21040148.708        2217.157          53.000  
   -750259.428    22294139.469        3548.805          53.000  
   -280640.208    22046872.093        1277.302          53.000  
    627793.173    24792095.809       -3051.036          53.000  
 18  2 16  8 23 43.0000000  0  8G05G09G23G10G11G30G01G03             0.000576040
   -754120.347    23875822.398        3616.082          53.000  
    137465.885    20117960.293        -697.335          53.000  
    435781.855    22354166.556       -2088.544          53.000  
    285542.111    21071777.468       -1414.212          53.000  
   -482061.775    21039726.891        2216.381          53.000  
   -753807.647    22293464.252        3547.884          53.000  
   -281916.914    22046629.145        1276.345          53.000  
    630844.601    24792676.463       -3051.601          53.000  
 18  2 16  8 23 44.0000000  0  8G05G09G23G10G11G30G01G03             0.000576228
   -757736.619    23875134.244        3616.419          53.000  
    138163.208    20118092.970        -697.330          53.000  
    437870.258    22354563.963       -2088.308          53.000  
    286956.621    21072046.647       -1414.675          53.000  
   -484277.903    21039305.182        2215.981          53.000  
   -757355.450    22292789.125        3547.680          53.000  
   -283193.176    22046386.288        1276.107          53.000  
    633896.130    24793257.170       -3051.486          53.000  
 18  2 16  8 23 45.0000000  0  8G05G09G23G10G11G30G01G03             0.000576417
   -761353.226    23874446.019        3616.607          53.000  
    138860.499    20118225.666        -697.425          53.000  
    439958.380    22354961.335       -2088.150          53.000  
    288371.559    21072315.897       -1415.296          53.000  
   -486493.635    21038883.527        2215.402          53.000  
   -760903.055    22292114.033        3547.334          53.000  
   -284469.201    22046143.483        1275.730          53.000  
    636947.532    24793837.842       -3051.510          53.000  
 18  2 16  8 23 46.0000000  0  8G05G09G23G10G11G30G01G03             0.000576606
   -764969.785    23873757.811        3616.435          53.000  
    139558.128    20118358.432        -697.864          53.000  
    442046.587    22355358.706       -2088.325          52.000  
    289787.242    21072585.291       -1416.347          53.000  
   -488708.607    21038462.015        2214.247          53.000  
   -764450.094    22291439.067        3546.672          53.000  
   -285744.610    22045900.786        1275.010          53.000  
    639999.161    24794418.550       -3051.815          53.000  
 18  2 16  8 23 47.0000000  0  8G05G09G23G10G11G30G01G03             0.000576794
   -768586.082    23873069.657        3616.421          53.000  
    140256.297    20118491.289        -698.182          53.000  
    444135.079    22355756.131       -2088.348          53.000  
    291204.045    21072854.898       -1416.973          53.000  
   -490922.508    21038040.735        2213.777          53.000  
   -767996.366    22290764.225        3546.161          53.000  
   -287019.186    22045658.250        1274.452          53.000  
    643051.217    24794999.329       -3051.991          53.000  
 18  2 16  8 23 48.0000000  0  8G05G09G23G10G11G30G01G03             0.000576983
   -772202.244    23872381.521        3616.222          53.000  
    140954.854    20118624.216        -698.571          53.000  
    446223.703    22356153.574       -2088.584          53.000  
    292621.710    21073124.685       -1417.893          53.000  
   -493135.542    21037619.615        2212.803          53.000  
   -771542.012    22290089.509        3545.471          53.000  
   -288293.057    22045415.839        1273.620          53.000  
    646103.532    24795580.161       -3052.313          53.000  
 18  2 16  8 23 49.0000000  0  8G05G09G23G10G11G30G01G03             0.000577171
   -775818.425    23871693.367        3616.277          53.000  
    141653.648    20118757.198        -698.778          53.000  
    448312.284    22356551.034       -2088.453          53.000  
    294040.102    21073394.597       -1418.620          53.000  
   -495347.854    21037198.621        2212.096          53.000  
   -775087.199    22289414.899        3545.055          53.000  
   -289566.389    22045173.535        1273.172          53.000  
    649155.938    24796161.012       -3052.343          53.000  
 18  2 16  8 23 50.0000000  0  8G05G09G23G10G11G30G01G03             0.000577360
   -779434.591    23871005.231        3615.995          53.000  
    142352.688    20118890.215        -699.306          53.000  
    450400.842    22356948.477       -2088.696          52.000  
    295459.221    21073664.651       -1419.919          53.000  
   -497559.417    21036777.770        2210.717          53.000  
   -778631.908    22288740.362        3544.305          53.000  
   -290839.136    22044931.338        1272.296          53.000  
    652208.444    24796741.880       -3052.708          53.000  
 18  2 16  8 23 51.0000000  0  8G05G09G23G10G11G30G01G03             0.000577548
   -783050.541    23870317.131        3615.852          53.000  
    143052.164    20119023.321        -699.678          53.000  
    452489.551    22357345.956       -2088.778          53.000  
    296879.369    21073934.902       -1420.561          53.000  
   -499769.941    21036357.115        2210.114          53.000  
   -782175.962    22288065.949        3543.710          53.000  
   -292111.116    22044689.284        1271.615          53.000  
    655261.221    24797322.802       -3052.917          53.000  
 18  2 16  8 23 52.0000000  0  8G05G09G23G10G11G30G01G03             0.000577737
   -786666.307    23869629.084        3615.690          53.000  
    143752.026    20119156.517        -700.033          53.000  
    454578.367    22357743.416       -2088.858          52.000  
    298300.433    21074205.314       -1421.435          53.000  
   -501979.537    21035936.657        2209.198          53.000  
   -785719.402    22287391.644        3543.139          52.000  
   -293382.352    22044447.374        1270.888          53.000  
    658314.208    24797903.795       -3053.074          53.000  
 18  2 16  8 23 53.0000000  0  8G05G09G23G10G11G30G01G03             0.000577925
   -790282.046    23868941.037        3615.936          53.000  
    144452.108    20119289.748        -699.980          53.000  
    456667.105    22358140.895       -2088.470          53.000  
    299722.253    21074475.887       -1421.932          53.000  
   -504188.346    21035516.324        2208.701          53.000  
   -789262.409    22286717.427        3543.015          53.000  
   -294653.008    22044205.588        1270.579          53.000  
    661367.228    24798484.771       -3052.807          53.000  
 18  2 16  8 23 54.0000000  0  8G05G09G23G10G11G30G01G03             0.000578114
   -793897.503    23868253.044        3615.545          53.000  
    145152.650    20119423.051        -700.545          53.000  
    458756.011    22358538.409       -2088.768          53.000  
    301145.031    21074746.620       -1423.236          53.000  
   -506396.154    21035096.206        2207.245          53.000  
   -792804.739    22286043.354        3542.208          53.000  
   -295922.835    22043963.927        1269.677          53.000  
    664420.508    24799065.782       -3053.153          53.000  
 18  2 16  8 23 55.0000000  0  8G05G09G23G10G11G30G01G03             0.000578302
   -797512.733    23867565.087        3615.087          53.000  
    145853.584    20119556.443        -701.153          53.000  
    460845.009    22358935.924       -2089.071          53.000  
    302568.839    21075017.551       -1424.250          53.000  
   -508602.899    21034676.284        2206.295          53.000  
   -796346.471    22285369.370        3541.403          53.000  
   -297191.883    22043722.427        1268.618          53.000  
    667473.971    24799646.847       -3053.576          53.000  
 18  2 16  8 23 56.0000000  0  8G05G09G23G10G11G30G01G03             0.000578501
   -801127.593    23866877.201        3615.084          53.000  
    146555.038    20119689.925        -701.292          53.000  
    462934.222    22359333.491       -2088.882          53.000  
    303993.721    21075288.695       -1424.967          53.000  
   -510808.540    21034256.558        2205.580          53.000  
   -799887.479    22284695.547        3541.059          53.000  
   -298460.022    22043481.106        1268.091          53.000  
    670527.727    24800227.966       -3053.462          53.000  
 18  2 16  8 23 57.0000000  0  8G05G09G23G10G11G30G01G03             0.000578690
   -804742.295    23866189.351        3614.589          53.000  
    147256.794    20119823.478        -701.928          53.000  
    465023.430    22359731.059       -2089.219          53.000  
    305419.465    21075559.983       -1426.174          53.000  
   -513013.258    21033837.011        2204.273          53.000  
   -803427.988    22284021.814        3540.228          53.000  
   -299727.458    22043239.910        1267.060          53.000  
    673581.550    24800809.084       -3053.875          53.000  
 18  2 16  8 23 58.0000000  0  8G05G09G23G10G11G30G01G03             0.000578878
   -808356.748    23865501.536        3614.558          53.000  
    147958.925    20119957.085        -702.099          53.000  
    467112.701    22360128.645       -2089.066          53.000  
    306846.110    21075831.485       -1427.023          53.000  
   -515217.021    21033417.643        2203.245          53.000  
   -806967.935    22283348.187        3539.923          53.000  
   -300994.110    22042998.875        1266.499          53.000  
    676635.499    24801390.238       -3053.775          53.000  
 18  2 16  8 23 59.0000000  0  8G05G09G23G10G11G30G01G03             0.000579067
   -811970.809    23864813.793        3613.976          53.000  
    148661.567    20120090.781        -702.832          53.000  
    469202.167    22360526.249       -2089.469          53.000  
    308273.927    21076103.183       -1428.223          53.000  
   -517419.554    21032998.507        2202.117          53.000  
   -810507.190    22282674.686        3539.008          53.000  
   -302259.835    22042758.000        1265.342          53.000  
    679689.694    24801971.428       -3054.214          53.000  
 18  2 16  8 24  0.0000000  0  8G05G09G23G10G11G30G01G03             0.000579256
   -815584.655    23864126.104        3613.747          53.000  
    149364.521    20120224.548        -703.067          53.000  
    471291.628    22360923.852       -2089.422          53.000  
    309702.613    21076375.060       -1429.055          53.000  
   -519621.160    21032579.568        2201.201          53.000  
   -814045.955    22282001.292        3538.540          53.000  
   -303524.819    22042517.287        1264.626          53.000  
    682743.930    24802552.636       -3054.222          53.000  
 18  2 16  8 24  1.0000000  0  8G05G09G23G10G11G30G01G03             0.000579445
   -819198.243    23863438.451        3613.366          53.000  
    150067.835    20120358.405        -703.591          53.000  
    473381.124    22361321.474       -2089.586          53.000  
    311132.234    21076647.116       -1430.135          53.000  
   -521821.773    21032160.790        2200.073          53.000  
   -817584.202    22281327.987        3537.917          53.000  
   -304789.017    22042276.716        1263.736          53.000  
    685798.234    24803133.862       -3054.406          53.000  
 18  2 16  8 24  2.0000000  0  8G05G09G23G10G11G30G01G03             0.000579633
   -822811.677    23862750.833        3613.418          53.000  
    150771.381    20120492.280        -703.540          53.000  
    475470.526    22361719.077       -2089.011          53.000  
    312562.640    21076919.315       -1431.011          53.000  
   -524021.544    21031742.190        2199.339          53.000  
   -821122.063    22280654.736        3537.995          53.000  
   -306052.536    22042036.288        1263.261          53.000  
    688852.470    24803715.070       -3053.883          53.000  
 18  2 16  8 24  3.0000000  0  8G05G09G23G10G11G30G01G03             0.000579822
   -826424.868    23862063.286        3612.976          52.000  
    151475.248    20120626.208        -704.069          53.000  
    477559.934    22362116.681       -2089.409          53.000  
    313993.988    21077191.692       -1431.760          53.000  
   -526220.269    21031323.787        2198.363          53.000  
   -824659.451    22279981.592        3537.143          53.000  
   -307315.296    22041796.004        1262.362          53.000  
    691906.728    24804296.278       -3054.321          53.000  
 18  2 16  8 24  4.0000000  0  8G05G09G23G10G11G30G01G03             0.000580011
   -830037.658    23861375.793        3612.890          53.000  
    152179.580    20120760.244        -704.271          53.000  
    479649.474    22362514.320       -2089.301          53.000  
    315426.393    21077464.267       -1432.606          53.000  
   -528417.882    21030905.580        2197.409          53.000  
   -828196.243    22279308.555        3536.797          53.000  
   -308577.136    22041555.880        1261.698          53.000  
    694961.116    24804877.503       -3054.180          53.000  
 18  2 16  8 24  5.0000000  0  8G05G09G23G10G11G30G01G03             0.000580199
   -833650.136    23860688.372        3612.499          53.000  
    152884.279    20120894.351        -704.718          53.000  
    481739.053    22362911.960       -2089.420          53.000  
    316859.732    21077737.019       -1433.641          53.000  
   -530614.484    21030487.570        2196.274          53.000  
   -831732.543    22278635.626        3536.211          53.000  
   -309838.149    22041315.917        1260.739          53.000  
    698015.538    24805458.747       -3054.276          53.000  
 18  2 16  8 24  6.0000000  0  8G05G09G23G10G11G30G01G03             0.000580388
   -837262.310    23860001.004        3611.871          53.000  
    153589.328    20121028.529        -705.372          53.000  
    483828.651    22363309.581       -2089.758          53.000  
    318293.966    21078009.969       -1435.011          53.000  
   -532810.125    21030069.774        2194.748          53.000  
   -835268.381    22277962.768        3535.442          53.000  
   -311098.354    22041076.114        1259.597          53.000  
    701069.962    24806039.973       -3054.578          53.000  
 18  2 16  8 24  7.0000000  0  8G05G09G23G10G11G30G01G03             0.000580576
   -840874.257    23859313.655        3611.975          53.000  
    154294.644    20121162.743        -705.271          53.000  
    485918.183    22363707.203       -2089.325          53.000  
    319729.082    21078283.061       -1435.316          53.000  
   -535004.797    21029652.158        2194.425          53.000  
   -838803.858    22277289.999        3535.464          53.000  
   -312357.837    22040836.437        1259.322          53.000  
    704124.292    24806621.198       -3054.105          53.000  
 18  2 16  8 24  8.0000000  0  8G05G09G23G10G11G30G01G03             0.000580765
   -844485.980    23858626.358        3611.423          53.000  
    155000.224    20121297.029        -705.905          53.000  
    488007.648    22364104.824       -2089.598          53.000  
    321165.042    21078556.314       -1436.542          53.000  
   -537198.556    21029234.684        2193.198          53.000  
   -842338.983    22276617.284        3534.807          53.000  
   -313616.583    22040596.903        1258.230          53.000  
    707178.517    24807202.388       -3054.355          53.000  
 18  2 16  8 24  9.0000000  0  8G05G09G23G10G11G30G01G03             0.000580953
   -848097.279    23857939.151        3611.028          53.000  
    155706.247    20121431.386        -706.335          53.000  
    490097.222    22364502.464       -2089.589          53.000  
    322601.991    21078829.764       -1437.492          53.000  
   -539391.239    21028817.424        2192.168          53.000  
   -845873.584    22275944.676        3534.263          53.000  
   -314874.412    22040357.565        1257.330          53.000  
    710232.803    24807783.596       -3054.370          53.000  
 18  2 16  8 24 10.0000000  0  8G05G09G23G10G11G30G01G03             0.000581141
   -851708.105    23857252.034        3610.793          53.000  
    156412.765    20121565.833        -706.550          53.000  
    492186.970    22364900.139       -2089.634          53.000  
    324039.960    21079103.392       -1438.330          53.000  
   -541582.836    21028400.379        2191.121          53.000  
   -849407.626    22275272.157        3533.967          52.000  
   -316131.276    22040118.388        1256.595          53.000  
    713287.195    24808364.840       -3054.228          53.000  
 18  2 16  8 24 11.0000000  0  8G05G09G23G10G11G30G01G03             0.000581330
   -855318.583    23856564.988        3610.419          53.000  
    157119.648    20121700.351        -706.926          53.000  
    494276.743    22365297.796       -2089.646          52.000  
    325478.894    21079377.199       -1439.219          53.000  
   -543773.381    21027983.548        2190.214          52.000  
   -852941.261    22274599.728        3533.568          53.000  
   -317387.304    22039879.372        1255.763          53.000  
    716341.545    24808946.065       -3054.181          53.000  
 18  2 16  8 24 12.0000000  0  8G05G09G23G10G11G30G01G03             0.000581518
   -858928.636    23855878.013        3609.886          53.000  
    157826.967    20121834.958        -707.482          53.000  
    496366.630    22365695.489       -2089.919          53.000  
    326918.800    21079651.203       -1440.318          53.000  
   -545962.876    21027566.878        2189.024          53.000  
   -856474.417    22273927.388        3532.951          53.000  
   -318642.417    22039640.517        1254.692          53.000  
    719395.920    24809527.309       -3054.314          53.000  
 18  2 16  8 24 13.0000000  0  8G05G09G23G10G11G30G01G03             0.000581706
   -862538.404    23855191.092        3609.660          53.000  
    158534.580    20121969.601        -707.714          53.000  
    498456.473    22366093.182       -2089.795          53.000  
    328359.536    21079925.367       -1441.070          53.000  
   -548151.468    21027150.405        2188.176          53.000  
   -860007.259    22273255.120        3532.690          53.000  
   -319896.764    22039401.823        1253.985          53.000  
    722450.174    24810108.517       -3054.187          53.000  
 18  2 16  8 24 14.0000000  0  8G05G09G23G10G11G30G01G03             0.000581894
   -866147.733    23854504.279        3609.302          53.000  
    159242.638    20122104.351        -708.074          53.000  
    500546.435    22366490.893       -2089.787          53.000  
    329801.210    21080199.692       -1441.943          53.000  
   -550339.076    21026734.128        2187.261          53.000  
   -863539.652    22272582.941        3532.366          53.000  
   -321150.197    22039163.289        1253.189          53.000  
    725504.433    24810689.725       -3054.076          53.000  
 18  2 16  8 24 15.0000000  0  8G05G09G23G10G11G30G01G03             0.000582082
   -869756.557    23853817.536        3608.875          53.000  
    159951.205    20122239.191        -708.528          53.000  
    502636.585    22366888.622       -2089.919          53.000  
    331243.945    21080474.232       -1442.961          53.000  
   -552525.521    21026318.066        2186.218          53.000  
   -867071.542    22271910.833        3531.945          53.000  
   -322402.646    22038924.952        1252.283          53.000  
    728558.767    24811270.950       -3054.072          52.000  
 18  2 16  8 24 16.0000000  0  8G05G09G23G10G11G30G01G03             0.000582270
   -873365.084    23853130.865        3608.520          53.000  
    160660.067    20122374.084        -708.895          53.000  
    504726.708    22367286.368       -2089.977          53.000  
    332687.470    21080748.932       -1443.848          53.000  
   -554711.111    21025902.164        2185.227          53.000  
   -870603.153    22271238.797        3531.588          53.000  
   -323654.326    22038686.758        1251.429          53.000  
    731612.947    24811852.158       -3053.980          53.000  
 18  2 16  8 24 17.0000000  0  8G05G09G23G10G11G30G01G03             0.000582458
   -876973.515    23852444.212        3608.483          53.000  
    161369.025    20122508.996        -708.913          53.000  
    506816.606    22367684.061       -2089.726          53.000  
    334131.576    21081023.722       -1444.325          53.000  
   -556896.058    21025486.370        2184.717          53.000  
   -874134.704    22270566.779        3531.636          52.000  
   -324905.442    22038448.689        1250.915          53.000  
    734666.766    24812433.277       -3053.546          53.000  
 18  2 16  8 24 18.0000000  0  8G05G09G23G10G11G30G01G03             0.000582647
   -880581.367    23851757.667        3607.086          53.000  
    162078.562    20122644.014        -710.302          53.000  
    508906.765    22368081.808       -2090.794          53.000  
    335576.738    21081298.744       -1446.190          53.000  
   -559079.903    21025070.790        2182.736          53.000  
   -877665.723    22269894.850        3530.263          53.000  
   -326155.520    22038210.799        1249.187          53.000  
    737720.697    24813014.413       -3054.382          53.000  
 18  2 16  8 24 19.0000000  0  8G05G09G23G10G11G30G01G03             0.000582834
   -884188.524    23851071.228        3606.843          53.000  
    162788.792    20122779.157        -710.500          53.000  
    510997.305    22368479.626       -2090.693          53.000  
    337023.070    21081573.981       -1446.850          53.000  
   -561262.499    21024655.461        2182.033          53.000  
   -881196.113    22269223.046        3530.135          53.000  
   -327404.435    22037973.141        1248.405          53.000  
    740774.864    24813595.621       -3054.205          53.000  
 18  2 16  8 24 20.0000000  0  8G05G09G23G10G11G30G01G03             0.000583022
   -887795.333    23850384.879        3606.633          52.000  
    163499.375    20122914.372        -710.698          53.000  
    513087.883    22368877.444       -2090.566          53.000  
    338470.219    21081849.361       -1447.497          53.000  
   -563444.227    21024240.310        2181.308          53.000  
   -884726.230    22268551.296        3530.021          53.000  
   -328652.546    22037735.643        1247.749          52.000  
    743828.900    24814176.775       -3053.922          52.000  
 18  2 16  8 24 21.0000000  0  8G05G09G23G10G11G30G01G03             0.000583210
   -891401.725    23849698.601        3606.236          53.000  
    164210.381    20123049.676        -711.157          53.000  
    515178.577    22369275.298       -2090.687          53.000  
    339918.219    21082124.901       -1448.316          53.000  
   -565625.066    21023825.301        2180.477          53.000  
   -888256.014    22267879.600        3529.677          53.000  
   -329899.780    22037498.307        1246.879          53.000  
    746882.878    24814757.929       -3053.877          53.000  
 18  2 16  8 24 22.0000000  0  8G05G09G23G10G11G30G01G03             0.000583397
   -895007.634    23849012.431        3605.815          53.000  
    164921.876    20123185.070        -711.595          53.000  
    517269.460    22369673.187       -2090.847          53.000  
    341367.129    21082400.620       -1449.133          53.000  
   -567804.954    21023410.490        2179.612          53.000  
   -891785.412    22267207.975        3529.330          53.000  
   -331146.074    22037261.149        1245.957          52.000  
    749936.862    24815339.084       -3053.852          53.000  
 18  2 16  8 24 23.0000000  0  8G05G09G23G10G11G30G01G03             0.000583585
   -898612.915    23848326.386        3605.068          53.000  
    165634.007    20123320.571        -712.330          53.000  
    519360.680    22370071.148       -2091.278          53.000  
    342817.086    21082676.553       -1450.393          53.000  
   -569983.733    21022995.875        2178.319          53.000  
   -895314.299    22266536.439        3528.740          53.000  
   -332391.296    22037024.206        1244.813          53.000  
    752990.990    24815920.274       -3054.109          53.000  
 18  2 16  8 24 24.0000000  0  8G05G09G23G10G11G30G01G03             0.000583772
   -902217.860    23847640.376        3604.692          53.000  
    166346.484    20123456.143        -712.718          53.000  
    521451.951    22370469.091       -2091.368          53.000  
    344267.798    21082952.594       -1451.152          53.000  
   -572161.730    21022581.403        2177.501          53.000  
   -898842.968    22265864.957        3528.488          53.000  
   -333635.735    22036787.388        1244.006          53.000  
    756044.969    24816501.428       -3053.979          52.000  
 18  2 16  8 24 25.0000000  0  8G05G09G23G10G11G30G01G03             0.000583960
   -905822.508    23846954.438        3604.596          53.000  
    167059.285    20123591.787        -712.861          53.000  
    523543.261    22370867.052       -2091.254          53.000  
    345719.213    21083228.795       -1451.716          53.000  
   -574339.010    21022167.092        2176.998          53.000  
   -902371.462    22265193.510        3528.505          53.000  
   -334879.418    22036550.731        1243.400          53.000  
    759098.779    24817082.546       -3053.665          53.000  
 18  2 16  8 24 26.0000000  0  8G05G09G23G10G11G30G01G03             0.000584146
   -909426.784    23846268.553        3604.036          53.000  
    167772.475    20123727.502        -713.408          53.000  
    525634.672    22371265.031       -2091.507          53.000  
    347171.373    21083505.140       -1452.462          53.000  
   -576515.515    21021752.906        2176.215          53.000  
   -905899.731    22264522.100        3528.137          53.000  
   -336122.297    22036314.216        1242.434          53.000  
    762152.472    24817663.647       -3053.692          53.000  
 18  2 16  8 24 27.0000000  0  8G05G09G23G10G11G30G01G03             0.000584334
   -913030.698    23845582.758        3603.913          53.000  
    168486.062    20123863.289        -713.589          53.000  
    527726.201    22371663.028       -2091.395          53.000  
    348624.270    21083781.609       -1453.108          53.000  
   -578691.264    21021338.881        2175.492          53.000  
   -909427.776    22263850.725        3528.122          53.000  
   -337364.370    22036077.881        1241.863          53.000  
    765206.061    24818244.730       -3053.359          53.000  
 18  2 16  8 24 28.0000000  0  8G05G09G23G10G11G30G01G03             0.000584521
   -916634.138    23844897.034        3603.341          53.000  
    169200.158    20123999.183        -714.207          53.000  
    529817.968    22372061.096       -2091.749          52.000  
    350078.013    21084058.258       -1454.075          53.000  
   -580866.151    21020925.016        2174.540          53.000  
   -912955.499    22263179.421        3527.729          53.000  
   -338605.525    22035841.688        1240.825          53.000  
    768259.657    24818825.830       -3053.473          53.000  
 18  2 16  8 24 29.0000000  0  8G05G09G23G10G11G30G01G03             0.000584708
   -920237.162    23844211.400        3602.792          53.000  
    169914.713    20124135.148        -714.793          53.000  
    531909.926    22372459.200       -2092.079          53.000  
    351532.526    21084335.049       -1454.919          53.000  
   -583040.272    21020511.277        2173.706          53.000  
   -916482.960    22262508.171        3527.325          53.000  
   -339845.827    22035605.674        1239.825          53.000  
    771313.206    24819406.895       -3053.557          53.000  
 18  2 16  8 24 30.0000000  0  8G05G09G23G10G11G30G01G03             0.000584895
   -923839.682    23843525.872        3602.387          53.000  
    170629.826    20124271.239        -715.301          53.000  
    534002.180    22372857.340       -2092.329          53.000  
    352987.904    21084612.001       -1455.590          53.000  
   -585213.538    21020097.716        2173.189          53.000  
   -920010.076    22261836.975        3527.033          53.000  
   -341085.194    22035369.821        1239.013          53.000  
    774366.806    24819987.978       -3053.534          53.000  
 18  2 16  8 24 31.0000000  0  8G05G09G23G10G11G30G01G03             0.000585082
   -927441.925    23842840.399        3602.130          53.000  
    171345.276    20124407.383        -715.588          53.000  
    536094.513    22373255.497       -2092.324          53.000  
    354443.867    21084889.078       -1456.264          53.000  
   -587386.218    21019684.280        2172.374          53.000  
   -923537.082    22261165.815        3527.024          53.000  
   -342323.845    22035134.128        1238.381          53.000  
    777420.242    24820569.025       -3053.298          53.000  
 18  2 16  8 24 32.0000000  0  8G05G09G23G10G11G30G01G03             0.000585270
   -931043.780    23842154.997        3601.656          53.000  
    172061.180    20124543.634        -716.142          53.000  
    538187.055    22373653.691       -2092.646          53.000  
    355900.556    21085166.262       -1457.084          53.000  
   -589558.185    21019270.952        2171.548          53.000  
   -927063.862    22260494.690        3526.648          53.000  
   -343561.671    22034898.579        1237.439          53.000  
    780473.630    24821150.072       -3053.356          53.000  
 18  2 16  8 24 33.0000000  0  8G05G09G23G10G11G30G01G03             0.000585457
   -934645.358    23841469.630        3601.137          53.000  
    172777.443    20124679.939        -716.754          53.000  
    540279.713    22374051.920       -2093.035          53.000  
    357357.857    21085443.572       -1457.940          53.000  
   -591729.576    21018857.749        2170.767          53.000  
   -930590.534    22259823.583        3526.295          53.000  
   -344798.784    22034663.172        1236.435          53.000  
    783526.876    24821731.083       -3053.496          53.000  
 18  2 16  8 24 34.0000000  0  8G05G09G23G10G11G30G01G03             0.000585637
   -938246.456    23840784.371        3601.199          53.000  
    173494.272    20124816.351        -716.755          53.000  
    542372.699    22374450.220       -2092.803          53.000  
    358815.962    21085721.042       -1458.006          53.000  
   -593900.192    21018444.706        2170.892          53.000  
   -934116.894    22259152.530        3526.549          53.000  
   -346034.991    22034427.926        1236.105          53.000  
    786580.188    24822312.095       -3052.986          53.000  
 18  2 16  8 24 35.0000000  0  8G05G09G23G10G11G30G01G03             0.000585825
   -941846.000    23840099.219        3600.508          53.000  
    174211.758    20124952.888        -717.567          53.000  
    544466.115    22374848.574       -2093.398          53.000  
    360274.894    21085998.655       -1459.212          53.000  
   -596070.027    21018031.807        2169.591          53.000  
   -937642.866    22258481.566        3526.013          53.000  
   -347270.206    22034192.877        1234.956          53.000  
    789633.662    24822893.159       -3053.299          53.000  
 18  2 16  8 24 36.0000000  0  8G05G09G23G10G11G30G01G03             0.000586013
   -945446.992    23839414.157        3599.990          53.000  
    174929.908    20125089.550        -718.220          53.000  
    546559.969    22375247.018       -2093.828          53.000  
    361734.683    21086276.429       -1459.983          53.000  
   -598239.051    21017619.050        2168.767          53.000  
   -941168.449    22257810.673        3525.659          53.000  
   -348504.441    22033958.007        1234.027          53.000  
    792687.304    24823474.260       -3053.444          53.000  
 18  2 16  8 24 37.0000000  0  8G05G09G23G10G11G30G01G03             0.000586200
   -949046.768    23838729.148        3599.696          53.000  
    175648.389    20125226.266        -718.614          53.000  
    548653.940    22375645.479       -2094.013          53.000  
    363194.992    21086554.328       -1460.538          53.000  
   -600407.610    21017206.401        2168.327          53.000  
   -944693.985    22257139.781        3525.575          53.000  
   -349738.031    22033723.279        1233.331          53.000  
    795740.795    24824055.325       -3053.367          53.000  
 18  2 16  8 24 38.0000000  0  8G05G09G23G10G11G30G01G03             0.000586388
   -952646.432    23838044.139        3600.023          53.000  
    176367.123    20125363.036        -718.437          53.000  
    550747.953    22376043.958       -2093.651          53.000  
    364655.719    21086832.281       -1460.297          53.000  
   -602575.805    21016793.805        2168.790          53.000  
   -948219.554    22256468.888        3525.956          53.000  
   -350971.071    22033488.641        1233.148          53.000  
    798794.053    24824636.336       -3052.761          53.000  
 18  2 16  8 24 39.0000000  0  8G05G09G23G10G11G30G01G03             0.000586576
   -956245.820    23837359.183        3599.256          53.000  
    177086.277    20125499.895        -719.358          53.000  
    552842.181    22376442.473       -2094.343          53.000  
    366116.958    21087110.323       -1461.586          53.000  
   -604743.584    21016381.299        2167.431          53.000  
   -951745.018    22255798.014        3525.439          53.000  
   -352203.411    22033254.128        1232.012          53.000  
    801847.250    24825217.347       -3053.148          53.000  
 18  2 16  8 24 40.0000000  0  8G05G09G23G10G11G30G01G03             0.000586764
   -959844.705    23836674.335        3598.760          53.000  
    177806.095    20125636.879        -720.073          53.000  
    554936.879    22376841.078       -2094.843          53.000  
    367578.996    21087388.543       -1462.409          53.000  
   -606910.631    21015968.935        2166.695          53.000  
   -955270.115    22255127.228        3524.983          53.000  
   -353434.813    22033019.794        1231.058          53.000  
    804900.640    24825798.395       -3053.391          53.000  
 18  2 16  8 24 41.0000000  0  8G05G09G23G10G11G30G01G03             0.000586951
   -963443.033    23835989.594        3598.042          53.000  
    178526.631    20125773.988        -720.882          53.000  
    557032.109    22377239.789       -2095.482          53.000  
    369041.873    21087666.907       -1463.324          53.000  
   -609076.930    21015556.697        2165.881          53.000  
   -958794.812    22254456.497        3524.485          53.000  
   -354665.223    22032785.656        1229.888          53.000  
    807954.287    24826379.495       -3053.767          53.000  
 18  2 16  8 24 42.0000000  0  8G05G09G23G10G11G30G01G03             0.000587138
   -967041.115    23835304.907        3598.132          53.000  
    179247.607    20125911.186        -720.989          53.000  
    559127.594    22377638.554       -2095.430          53.000  
    370505.293    21087945.378       -1463.299          53.000  
   -611242.766    21015144.548        2166.213          53.000  
   -962319.393    22253785.801        3524.716          53.000  
   -355894.961    22032551.643        1229.545          53.000  
    811007.909    24826960.560       -3053.417          53.000  
 18  2 16  8 24 43.0000000  0  8G05G09G23G10G11G30G01G03             0.000587326
   -970639.039    23834620.255        3597.873          53.000  
    179968.941    20126048.456        -721.500          52.000  
    561223.261    22378037.337       -2095.770          53.000  
    371969.081    21088223.956       -1464.029          53.000  
   -613408.368    21014732.453        2165.345          53.000  
   -965843.935    22253115.087        3524.503          53.000  
   -357124.103    22032317.738        1228.858          53.000  
    814061.440    24827541.643       -3053.483          53.000  
 18  2 16  8 24 44.0000000  0  8G05G09G23G10G11G30G01G03             0.000587513
   -974236.310    23833935.711        3597.181          53.000  
    180691.134    20126185.887        -722.389          53.000  
    563319.619    22378436.281       -2096.470          53.000  
    373433.811    21088502.695       -1465.028          53.000  
   -615573.135    21014320.518        2164.506          53.000  
   -969367.953    22252444.481        3524.022          53.000  
   -358352.163    22032084.047        1227.791          53.000  
    817115.388    24828122.797       -3053.933          53.000  
 18  2 16  8 24 45.0000000  0  8G05G09G23G10G11G30G01G03             0.000587700
   -977833.367    23833251.220        3597.179          53.000  
    181413.770    20126323.407        -722.643          53.000  
    565416.259    22378835.261       -2096.568          53.000  
    374899.018    21088781.523       -1465.272          52.000  
   -617737.544    21013908.637        2164.384          53.000  
   -972891.854    22251773.892        3524.049          53.000  
   -359579.563    22031850.481        1227.293          53.000  
    820169.344    24828703.933       -3053.776          53.000  
 18  2 16  8 24 46.0000000  0  8G05G09G23G10G11G30G01G03             0.000587888
   -981430.359    23832566.747        3597.073          53.000  
    182136.709    20126460.962        -722.948          53.000  
    567513.046    22379234.258       -2096.728          53.000  
    376364.588    21089060.405       -1465.421          53.000  
   -619901.688    21013496.810        2164.569          53.000  
   -976415.793    22251103.303        3524.062          53.000  
   -360806.471    22031617.022        1226.765          53.000  
    823223.175    24829285.070       -3053.663          53.000  
 18  2 16  8 24 47.0000000  0  8G05G09G23G10G11G30G01G03             0.000588075
   -985026.864    23831882.346        3596.290          52.000  
    182860.388    20126598.661        -723.990          53.000  
    569610.428    22379633.381       -2097.637          53.000  
    377830.853    21089339.430       -1466.682          53.000  
   -622065.318    21013085.089        2163.223          53.000  
   -979939.331    22250432.786        3523.371          53.000  
   -362032.447    22031383.724        1225.561          53.000  
    826277.331    24829866.260       -3054.305          53.000  
 18  2 16  8 24 48.0000000  0  8G05G09G23G10G11G30G01G03             0.000588262
   -988623.248    23831197.980        3596.405          52.000  
    183584.458    20126736.431        -724.171          52.000  
    571708.053    22380032.539       -2097.650          53.000  
    379297.506    21089618.544       -1466.815          53.000  
   -624228.689    21012673.423        2163.211          53.000  
   -983462.820    22249762.304        3523.548          53.000  
   -363257.862    22031150.533        1225.229          53.000  
    829331.471    24830447.485       -3054.100          53.000  
 18  2 16  8 24 49.0000000  0  8G05G09G23G10G11G30G01G03             0.000588449
   -992219.366    23830513.650        3595.997          52.000  
    184309.079    20126874.326        -724.972          52.000  
    573806.098    22380431.804       -2098.342          53.000  
    380764.713    21089897.729       -1467.482          53.000  
   -626391.659    21012261.828        2162.820          53.000  
   -986986.105    22249091.841        3523.260          52.000  
   -364482.566    22030917.485        1224.295          53.000  
    832385.753    24831028.693       -3054.256          52.000  
 18  2 16  8 24 50.0000000  0  8G05G09G23G10G11G30G01G03             0.000588636
   -995815.316    23829829.338        3595.944          53.000  
    185034.153    20127012.293        -725.191          53.000  
    575904.464    22380831.105       -2098.429          53.000  
    382232.380    21090177.022       -1467.531          53.000  
   -628554.293    21011850.286        2163.113          53.000  
   -990509.264    22248421.413        3523.189          53.000  
   -365706.666    22030684.545        1223.896          53.000  
    835440.121    24831609.901       -3054.324          53.000  
 18  2 16  8 24 51.0000000  0  8G05G09G23G10G11G30G01G03             0.000588823
   -999411.097    23829145.097        3595.972          53.000  
    185759.714    20127150.349        -725.503          53.000  
    578003.195    22381230.478       -2098.630          53.000  
    383700.422    21090456.386       -1468.092          53.000  
   -630716.777    21011438.781        2162.472          53.000  
   -994032.291    22247751.003        3523.297          53.000  
   -366930.143    22030451.729        1223.468          53.000  
    838494.590    24832191.163       -3054.219          53.000  
 18  2 16  8 24 52.0000000  0  8G05G09G23G10G11G30G01G03             0.000589010
  -1003006.825    23828460.839        3595.789          53.000  
    186485.653    20127288.495        -726.029          53.000  
    580102.180    22381629.904       -2098.996          53.000  
    385168.804    21090735.804       -1468.501          53.000  
   -632879.068    21011027.293        2162.189          53.000  
   -997555.271    22247080.593        3523.039          53.000  
   -368153.120    22030219.003        1222.837          53.000  
    841549.078    24832772.406       -3054.433          52.000  
 18  2 16  8 24 53.0000000  0  8G05G09G23G10G11G30G01G03             0.000589197
  -1006602.441    23827776.616        3595.527          53.000  
    187212.041    20127426.729        -726.660          53.000  
    582201.507    22382029.384       -2099.550          53.000  
    386637.586    21091015.312       -1469.055          53.000  
   -635041.141    21010615.876        2161.869          53.000  
  -1001078.146    22246410.219        3522.776          53.000  
   -369375.535    22029986.366        1222.111          53.000  
    844603.656    24833353.668       -3054.692          53.000  
 18  2 16  8 24 54.0000000  0  8G05G09G23G10G11G30G01G03             0.000589384
  -1010197.846    23827092.447        3595.601          53.000  
    187938.989    20127565.053        -726.907          53.000  
    584301.286    22382428.953       -2099.683          53.000  
    388106.885    21091294.908       -1469.019          53.000  
   -637202.837    21010204.514        2162.346          53.000  
  -1004600.792    22245739.898        3522.823          53.000  
   -370597.283    22029753.872        1221.718          53.000  
    847658.454    24833934.983       -3054.625          53.000  
 18  2 16  8 24 55.0000000  0  8G05G09G23G10G11G30G01G03             0.000589570
  -1013793.256    23826408.242        3595.631          53.000  
    188666.302    20127703.467        -727.259          53.000  
    586401.329    22382828.594       -2099.949          53.000  
    389576.402    21091574.558       -1469.522          53.000  
   -639364.578    21009793.133        2161.788          53.000  
  -1008123.412    22245069.542        3522.835          53.000  
   -371818.577    22029521.450        1221.290          53.000  
    850713.290    24834516.316       -3054.657          53.000  
 18  2 16  8 24 56.0000000  0  8G05G09G23G10G11G30G01G03             0.000589757
  -1017388.414    23825724.126        3595.317          53.000  
    189394.243    20127841.970        -727.978          53.000  
    588501.907    22383228.324       -2100.591          53.000  
    391046.473    21091854.298       -1470.107          53.000  
   -641525.946    21009381.860        2161.344          53.000  
  -1011645.725    22244399.275        3522.439          53.000  
   -373039.161    22029289.171        1220.520          53.000  
    853768.432    24835097.702       -3055.024          53.000  
 18  2 16  8 24 57.0000000  0  8G05G09G23G10G11G30G01G03             0.000589933
  -1020983.482    23825040.011        3594.783          53.000  
    190122.667    20127980.598        -728.920          53.000  
    590602.870    22383628.126       -2101.417          53.000  
    392516.931    21092134.109       -1470.908          52.000  
   -643687.121    21008970.604        2160.742          53.000  
  -1015167.881    22243729.043        3521.797          53.000  
   -374259.190    22029056.981        1219.498          52.000  
    856823.756    24835679.107       -3055.688          53.000  
 18  2 16  8 24 58.0000000  0  8G05G09G23G10G11G30G01G03             0.000590118
  -1024578.386    23824355.913        3594.970          53.000  
    190851.658    20128119.333        -729.131          53.000  
    592704.314    22384028.034       -2101.537          53.000  
    393987.890    21092414.045       -1470.860          53.000  
   -645847.954    21008559.402        2161.289          53.000  
  -1018689.787    22243058.866        3521.914          53.000  
   -375478.593    22028824.951        1219.227          53.000  
    859879.350    24836260.565       -3055.578          53.000  
 18  2 16  8 24 59.0000000  0  8G05G09G23G10G11G30G01G03             0.000590304
  -1028173.390    23823671.815        3594.963          53.000  
    191580.970    20128258.121        -729.608          53.000  
    594805.995    22384427.961       -2101.841          53.000  
    395459.004    21092693.999       -1471.426          53.000  
   -648008.932    21008148.182        2160.756          53.000  
  -1022211.691    22242388.670        3521.886          53.000  
   -376697.622    22028592.976        1218.713          53.000  
    862934.987    24836842.023       -3055.727          53.000  
 18  2 16  8 25  0.0000000  0  8G05G09G23G10G11G30G01G03             0.000590490
  -1031768.273    23822987.718        3595.000          53.000  
    192310.829    20128397.017        -729.956          53.000  
    596908.148    22384827.995       -2102.218          53.000  
    396930.552    21092974.025       -1471.621          53.000  
   -650169.667    21007737.016        2160.706          53.000  
  -1025733.344    22241718.528        3521.734          53.000  
   -377916.063    22028361.107        1218.342          53.000  
    865990.904    24837423.534       -3055.894          53.000  
 18  2 16  8 25  1.0000000  0  8G05G09G23G10G11G30G01G03             0.000590675
  -1035362.941    23822303.674        3594.770          53.000  
    193041.350    20128536.020        -730.672          53.000  
    599010.883    22385228.136       -2102.856          53.000  
    398402.656    21093254.139       -1472.190          53.000  
   -652330.067    21007325.903        2160.410          53.000  
  -1029254.639    22241048.440        3521.325          53.000  
   -379133.811    22028129.382        1217.642          53.000  
    869047.219    24838005.117       -3056.276          53.000  
 18  2 16  8 25  2.0000000  0  8G05G09G23G10G11G30G01G03             0.000590861
  -1038957.637    23821619.612        3594.835          52.000  
    193772.290    20128675.131        -731.062          52.000  
    601113.965    22385628.348       -2103.161          53.000  
    399875.297    21093534.379       -1473.762          53.000  
   -654489.728    21006914.934        2156.398          53.000  
  -1032775.794    22240378.405        3521.169          53.000  
   -380351.105    22027897.728        1217.185          53.000  
    872103.724    24838586.754       -3056.495          53.000  
 18  2 16  8 25  3.0000000  0  8G05G09G23G10G11G30G01G03             0.000591047
  -1042552.531    23820935.514        3594.988          53.000  
    194503.502    20128814.277        -731.417          53.000  
    603217.250    22386028.597       -2103.409          53.000  
    401348.225    21093814.673       -1472.858          53.000  
   -656649.186    21006503.000        2159.332          53.000  
  -1036296.972    22239708.334        3521.007          53.000  
   -381568.112    22027666.145        1216.806          53.000  
    875160.265    24839168.373       -3056.639          53.000  
 18  2 16  8 25  4.0000000  0  8G05G09G23G10G11G30G01G03             0.000591233
  -1046147.136    23820251.488        3594.519          53.000  
    195235.472    20128953.566        -732.310          53.000  
    605321.230    22386428.952       -2104.281          53.000  
    402821.936    21094095.109       -1473.963          53.000  
   -658807.830    21006093.227        2158.370          53.000  
  -1039817.660    22239038.353        3520.405          53.000  
   -382784.346    22027434.706        1215.887          53.000  
    878217.345    24839750.117       -3057.359          53.000  
 18  2 16  8 25  5.0000000  0  8G05G09G23G10G11G30G01G03             0.000591418
  -1049741.583    23819567.480        3594.359          53.000  
    195968.086    20129092.980        -732.922          53.000  
    607425.789    22386829.433       -2104.845          53.000  
    404296.280    21094375.653       -1474.726          52.000  
   -660965.840    21005682.561        2157.690          53.000  
  -1043337.961    22238368.461        3520.135          53.000  
   -383999.932    22027203.373        1215.259          53.000  
    881274.865    24840331.950       -3057.754          53.000  
 18  2 16  8 25  6.0000000  0  8G05G09G23G10G11G30G01G03             0.000591604
  -1053335.880    23818883.525        3594.550          53.000  
    196701.345    20129232.519        -733.228          53.000  
    609530.928    22387230.038       -2105.077          53.000  
    405771.256    21094656.322       -1474.929          53.000  
   -663123.239    21005272.020        2157.514          53.000  
  -1046857.876    22237698.641        3520.083          53.000  
   -385214.873    22026972.166        1214.967          53.000  
    884332.834    24840913.873       -3057.854          53.000  
 18  2 16  8 25  7.0000000  0  8G05G09G23G10G11G30G01G03             0.000591789
  -1056930.241    23818199.534        3594.650          53.000  
    197435.045    20129372.130        -733.622          53.000  
    611636.453    22387630.698       -2105.449          53.000  
    407246.666    21094937.080       -1475.354          53.000  
   -665280.210    21004861.569        2157.035          53.000  
  -1050377.590    22237028.857        3519.931          53.000  
   -386429.381    22026741.066        1214.564          53.000  
    887391.064    24841495.813       -3058.065          53.000  
 18  2 16  8 25  8.0000000  0  8G05G09G23G10G11G30G01G03             0.000591975
  -1060524.528    23817515.580        3594.268          53.000  
    198169.335    20129511.883        -734.598          53.000  
    613742.500    22388031.482       -2106.286          53.000  
    408722.657    21095217.963       -1476.284          53.000  
   -667436.597    21004451.206        2156.077          53.000  
  -1053896.943    22236359.143        3519.180          53.000  
   -387643.307    22026510.055        1213.633          53.000  
    890449.718    24842077.861       -3058.887          53.000  
 18  2 16  8 25  9.0000000  0  8G05G09G23G10G11G30G01G03             0.000592160
  -1064118.719    23816831.625        3594.468          53.000  
    198904.234    20129651.726        -734.884          53.000  
    615849.111    22388432.356       -2106.601          53.000  
    410199.240    21095498.935       -1476.555          53.000  
   -669592.394    21004040.969        2155.816          53.000  
  -1057415.905    22235689.502        3519.085          53.000  
   -388856.641    22026279.170        1213.381          53.000  
    893508.815    24842659.998       -3058.975          53.000  
 18  2 16  8 25 10.0000000  0  8G05G09G23G10G11G30G01G03             0.000592345
  -1067713.109    23816147.635        3594.697          53.000  
    199639.464    20129791.641        -735.195          53.000  
    617955.986    22388833.283       -2106.823          53.000  
    411676.138    21095779.979       -1476.853          53.000  
   -671747.872    21003630.822        2155.510          53.000  
  -1060934.742    22235019.896        3518.959          53.000  
   -390069.657    22026048.320        1213.061          53.000  
    896568.105    24843242.170       -3059.169          53.000  
 18  2 16  8 25 11.0000000  0  8G05G09G23G10G11G30G01G03             0.000592530
  -1071307.825    23815463.573        3594.893          53.000  
    200374.903    20129931.591        -735.529          53.000  
    620063.019    22389234.228       -2107.136          53.000  
    413153.229    21096061.059       -1477.215          53.000  
   -673903.162    21003220.674        2155.172          53.000  
  -1064453.565    22234350.290        3518.813          53.000  
   -391282.489    22025817.541        1212.752          53.000  
    899627.469    24843824.343       -3059.393          53.000  
 18  2 16  8 25 12.0000000  0  8G05G09G23G10G11G30G01G03             0.000592716
  -1074902.651    23814779.493        3594.908          53.000  
    201110.767    20130071.631        -736.028          53.000  
    622170.417    22389635.262       -2107.532          53.000  
    414630.714    21096342.210       -1477.634          53.000  
   -676058.052    21002810.598        2154.720          52.000  
  -1067972.143    22233680.738        3518.480          53.000  
   -392494.916    22025586.816        1212.280          53.000  
    902687.136    24844406.587       -3059.803          53.000  
 18  2 16  8 25 13.0000000  0  8G05G09G23G10G11G30G01G03             0.000592901
  -1078497.418    23814095.449        3594.707          53.000  
    201847.237    20130211.760        -736.787          53.000  
    624278.372    22390036.386       -2108.309          53.000  
    416108.788    21096623.487       -1478.363          53.000  
   -678212.357    21002400.647        2153.996          53.000  
  -1071490.284    22233011.257        3517.887          53.000  
   -393706.756    22025356.217        1211.520          53.000  
    905747.291    24844988.921       -3060.376          53.000  
 18  2 16  8 25 14.0000000  0  8G05G09G23G10G11G30G01G03             0.000593086
  -1082092.002    23813411.423        3594.741          53.000  
    202584.445    20130352.049        -737.336          53.000  
    626386.999    22390437.635       -2108.732          53.000  
    417587.571    21096904.888       -1478.893          53.000  
   -680365.950    21001990.839        2153.463          53.000  
  -1075007.841    22232341.883        3517.474          53.000  
   -394917.894    22025125.742        1211.020          53.000  
    908808.086    24845571.398       -3060.880          53.000  
 18  2 16  8 25 15.0000000  0  8G05G09G23G10G11G30G01G03             0.000593271
  -1085687.290    23812727.271        3595.846          53.000  
    203321.498    20130492.303        -736.785          53.000  
    628495.415    22390838.848       -2108.087          53.000  
    419066.172    21097186.271       -1478.276          53.000  
   -682519.724    21001580.995        2154.059          53.000  
  -1078525.694    22231672.456        3518.182          53.000  
   -396129.206    22024895.232        1211.624          53.000  
    911868.633    24846153.803       -3060.231          53.000  
 18  2 16  8 25 16.0000000  0  8G05