     2.11           O                   G                   RINEX VERSION / TYPE
WALKEGNOS           ISMB                  20180216  082106  PGM / RUN BY / DATE 
                                                            COMMENT             
                                                            MARKER NAME         
1                                                           MARKER NUMBER       
NavSAS              ISMB / POLITO                           OBSERVER / AGENCY   
1                                    NVSFW ver              REC # / TYPE / VERS 
1                   PATCH                                   ANT # / TYPE        
        0.0000        0.0000        0.0000                  APPROX POSITION XYZ 
        0.0000        0.0000        0.0000                  ANTENNA: DELTA H/E/N
     1     0                                                WAVELENGTH FACT L1/2
     4    L1    C1    D1    S1                              # / TYPES OF OBSERV 
     1.000                                                  INTERVAL            
  2018    02    16     8    21    6.0000000     GPS         TIME OF FIRST OBS   
                                                            END OF HEADER       
 18  2 16  8 21  6.0000000  2  1
            *** FROM NOW ON KINEMATIC DATA! ***             COMMENT             
 18  2 16  8 21  6.0000000  0  8G30G09G10G23G05G01G03G11            -0.000120218
   -194765.955    22600000.962        3587.494          38.000  
     32607.265    20297822.855        -651.661          38.000  
     67526.480    21230636.191       -1333.512          38.000  
    108892.613    22492075.709       -2071.719          38.000  
   -192334.234    24183719.780        3609.103          38.000  
    -74096.098    22285841.720        1351.442          38.000  
    157639.064    24901724.606       -3038.493          38.000  
   -121609.325    21306746.632        2279.617          38.000  
 18  2 16  8 21  8.0000000  0  8G30G09G10G23G05G01G03G11            -0.000119855
   -201939.961    22598635.840        3586.582          38.000  
     33911.804    20298071.163        -652.845          38.000  
     70194.377    21231143.850       -1334.274          38.000  
    113036.921    22492864.340       -2072.628          38.000  
   -199552.727    24182346.081        3609.218          38.000  
    -76797.892    22285327.593        1350.506          38.000  
    163717.002    24902881.160       -3039.509          38.000  
   -126167.827    21305879.305        2278.946          38.000  
 18  2 16  8 21  9.0000000  0  8G30G09G10G23G05G01G03G11            -0.000119673
   -205526.252    22597953.351        3586.352          38.000  
     34564.915    20298195.425        -653.081          38.000  
     71529.176    21231397.769       -1334.644          38.000  
    115109.838    22493258.834       -2072.863          38.000  
   -203161.986    24181659.286        3609.521          38.000  
    -78147.968    22285070.690        1350.023          38.000  
    166756.761    24903459.599       -3039.563          38.000  
   -128446.606    21305445.660        2278.932          38.000  
 18  2 16  8 21 10.0000000  0  8G30G09G10G23G05G01G03G11            -0.000119492
   -209112.069    22597271.022        3585.731          38.000  
     35218.564    20298319.811        -653.463          38.000  
     72864.482    21231651.902       -1335.174          38.000  
    117183.216    22493653.418       -2073.388          38.000  
   -206771.289    24180972.454        3609.677          38.000  
    -79497.549    22284813.858        1349.630          38.000  
    169797.047    24904038.180       -3040.276          38.000  
   -130725.021    21305012.140        2278.745          38.000  
 18  2 16  8 21 11.0000000  0  8G30G09G10G23G05G01G03G11            -0.000119311
   -212697.509    22596588.801        3585.366          38.000  
     35872.686    20298444.269        -654.173          38.000  
     74200.281    21231906.071       -1335.785          38.000  
    119256.977    22494048.056       -2073.753          38.000  
   -210380.705    24180285.640        3609.472          38.000  
    -80846.690    22284557.063        1349.068          38.000  
    172837.750    24904616.779       -3040.857          38.000  
   -133003.349    21304578.619        2278.295          38.000  
 18  2 16  8 21 12.0000000  0  8G30G09G10G23G05G01G03G11            -0.000119128
   -216282.398    22595906.669        3584.625          38.000  
     36527.392    20298568.834        -654.921          38.000  
     75536.672    21232160.401       -1336.493          38.000  
    121331.257    22494442.818       -2074.534          39.000  
   -213990.136    24179598.737        3609.438          38.000  
    -82195.259    22284300.463        1348.150          38.000  
    175879.010    24905195.538       -3041.550          39.000  
   -135281.267    21304145.135        2277.630          38.000  
 18  2 16  8 21 13.0000000  0  8G30G09G10G23G05G01G03G11            -0.000118948
   -219866.786    22595224.608        3584.338          38.000  
     37182.614    20298693.524        -655.240          38.000  
     76873.623    21232414.874       -1336.905          38.000  
    123405.971    22494837.634       -2074.661          38.000  
   -217599.603    24178911.905        3609.614          38.000  
    -83543.330    22284043.918        1348.012          38.000  
    178920.780    24905774.387       -3041.847          38.000  
   -137558.856    21303711.721        2277.563          38.000  
 18  2 16  8 21 14.0000000  0  8G30G09G10G23G05G01G03G11            -0.000118766
   -223450.633    22594542.690        3583.558          38.000  
     37838.380    20298818.321        -655.865          38.000  
     78211.193    21232669.489       -1338.006          38.000  
    125481.150    22495232.522       -2075.380          38.000  
   -221209.108    24178225.056        3609.572          38.000  
    -84890.845    22283787.533        1347.324          38.000  
    181963.092    24906353.308       -3042.465          38.000  
   -139836.017    21303278.380        2277.103          38.000  
 18  2 16  8 21 15.0000000  0  8G30G09G10G23G05G01G03G11            -0.000118585
   -227034.003    22593860.790        3583.127          38.000  
     38494.685    20298943.207        -656.636          38.000  
     79549.304    21232924.159       -1338.197          38.000  
    127556.750    22495627.499       -2075.717          38.000  
   -224818.672    24177538.188        3609.706          38.000  
    -86237.885    22283531.202        1346.969          38.000  
    185005.901    24906932.336       -3042.993          38.000  
   -142112.938    21302844.967        2276.830          38.000  
 18  2 16  8 21 16.0000000  0  8G30G09G10G23G05G01G03G11            -0.000118401
   -230616.816    22593179.016        3582.626          38.000  
     39151.489    20299068.165        -657.044          38.000  
     80888.030    21233178.917       -1338.734          38.000  
    129632.767    22496022.565       -2076.124          38.000  
   -228428.276    24176851.303        3609.723          38.000  
    -87584.344    22283274.960        1346.198          38.000  
    188049.242    24907511.471       -3043.460          38.000  
   -144389.448    21302411.750        2276.406          38.000  
 18  2 16  8 21 18.0000000  0  8G30G09G10G23G05G01G03G11            -0.000118040
   -237780.841    22591815.752        3581.547          38.000  
     40466.617    20299318.403        -658.121          38.000  
     83567.286    21233688.721       -1340.141          38.000  
    133786.005    22496812.912       -2076.811          38.000  
   -235647.652    24175477.443        3609.970          38.000  
    -90275.794    22282762.780        1345.346          38.000  
    194137.405    24908670.081       -3044.531          38.000  
   -148941.219    21301545.531        2275.639          38.000  
 18  2 16  8 21 19.0000000  0  8G30G09G10G23G05G01G03G11            -0.000117859
   -241362.269    22591134.228        3581.391          39.000  
     41124.695    20299443.612        -658.136          38.000  
     84907.657    21233943.747       -1340.392          38.000  
    135862.999    22497208.192       -2076.944          38.000  
   -239257.634    24174790.505        3610.329          39.000  
    -91620.939    22282506.807        1345.062          38.000  
    197182.009    24909249.412       -3044.516          39.000  
   -151216.745    21301112.493        2275.661          38.000  
 18  2 16  8 21 20.0000000  0  8G30G09G10G23G05G01G03G11            -0.000117678
   -244943.129    22590452.775        3580.648          39.000  
     41783.259    20299568.909        -658.741          38.000  
     86248.628    21234198.917       -1341.230          38.000  
    137940.338    22497603.491       -2077.406          38.000  
   -242867.686    24174103.512        3610.306          38.000  
    -92965.590    22282250.940        1344.506          39.000  
    200227.106    24909828.815       -3045.238          38.000  
   -153491.816    21300679.598        2275.008          38.000  
 18  2 16  8 21 21.0000000  0  8G30G09G10G23G05G01G03G11            -0.000117497
   -248523.313    22589771.482        3580.081          38.000  
     42442.424    20299694.332        -659.109          38.000  
     87590.361    21234454.248       -1341.725          38.000  
    140018.172    22497998.861       -2077.723          38.000  
   -246477.637    24173416.538        3610.086          38.000  
    -94309.556    22281995.145        1343.828          39.000  
    203272.797    24910408.379       -3045.574          39.000  
   -155766.310    21300246.775        2274.580          38.000  
 18  2 16  8 21 22.0000000  0  8G30G09G10G23G05G01G03G11            -0.000117315
   -252102.921    22589090.297        3579.205          38.000  
     43102.088    20299819.880        -659.861          38.000  
     88932.736    21234709.703       -1342.944          38.000  
    142096.363    22498394.320       -2078.423          38.000  
   -250087.669    24172729.563        3609.978          38.000  
    -95653.015    22281739.475        1343.152          38.000  
    206318.995    24910988.068       -3046.479          38.000  
   -158040.280    21299814.077        2273.777          39.000  
 18  2 16  8 21 23.0000000  0  8G30G09G10G23G05G01G03G11            -0.000117136
   -255682.021    22588409.220        3579.140          38.000  
     43762.170    20299945.517        -660.085          38.000  
     90275.772    21234965.302       -1343.001          38.000  
    144174.824    22498789.851       -2078.328          38.000  
   -253697.784    24172042.588        3610.422          38.000  
    -96995.998    22281483.912        1343.067          38.000  
    209365.590    24911567.846       -3046.530          39.000  
   -160313.847    21299381.468        2273.597          38.000  
 18  2 16  8 21 24.0000000  0  8G30G09G10G23G05G01G03G11            -0.000116946
   -259260.492    22587728.249        3578.304          38.000  
     44422.743    20300071.225        -660.704          38.000  
     91619.487    21235221.025       -1343.855          38.000  
    146253.644    22499185.435       -2078.825          38.000  
   -257307.915    24171355.632        3610.276          38.000  
    -98338.383    22281228.510        1342.130          38.000  
    212412.691    24912147.714       -3047.205          38.000  
   -162586.850    21298948.930        2272.872          38.000  
 18  2 16  8 21 25.0000000  0  8G30G09G10G23G05G01G03G11            -0.000116770
   -262838.545    22587047.403        3578.064          38.000  
     45083.630    20300196.987        -660.985          38.000  
     92963.758    21235476.802       -1344.366          38.000  
    148332.623    22499581.056       -2078.820          38.000  
   -260918.225    24170668.621        3610.540          38.000  
    -99680.409    22280973.162        1342.097          38.000  
    215460.098    24912727.600       -3047.393          38.000  
   -164859.496    21298516.500        2272.698          38.000  
 18  2 16  8 21 26.0000000  0  8G30G09G10G23G05G01G03G11            -0.000116588
   -266416.020    22586366.647        3577.336          38.000  
     45744.954    20300322.821        -661.495          38.000  
     94308.656    21235732.705       -1345.478          38.000  
    150411.903    22499976.712       -2079.405          38.000  
   -264528.579    24169981.647        3610.346          38.000  
   -101021.875    22280717.903        1341.229          38.000  
    218507.936    24913307.574       -3047.938          38.000  
   -167131.578    21298084.176        2271.813          38.000  
 18  2 16  8 21 27.0000000  0  8G30G09G10G23G05G01G03G11            -0.000116408
   -269992.844    22585685.963        3576.588          38.000  
     46406.767    20300448.762        -662.015          38.000  
     95654.387    21235988.786       -1346.030          38.000  
    152491.490    22500372.403       -2079.722          38.000  
   -268138.931    24169294.672        3610.404          38.000  
   -102362.741    22280462.769        1340.431          38.000  
    221556.266    24913887.621       -3048.680          38.000  
   -169403.037    21297651.925        2271.280          39.000  
 18  2 16  8 21 28.0000000  0  8G30G09G10G23G05G01G03G11            -0.000116227
   -273568.882    22585005.439        3575.939          38.000  
     47069.223    20300574.846        -662.515          38.000  
     97001.009    21236245.027       -1346.737          38.000  
    154571.562    22500768.220       -2080.107          38.000  
   -271749.095    24168607.662        3610.302          38.000  
   -103702.867    22280207.760        1339.849          38.000  
    224605.199    24914467.810       -3048.955          38.000  
   -171673.721    21297219.870        2270.603          38.000  
 18  2 16  8 21 29.0000000  0  8G30G09G10G23G05G01G03G11            -0.000116046
   -277144.397    22584325.022        3575.191          38.000  
     47732.032    20300701.001        -662.890          38.000  
     98348.278    21236501.359       -1347.520          38.000  
    156651.786    22501164.108       -2080.163          38.000  
   -275359.376    24167920.651        3610.407          38.000  
   -105042.524    22279952.841        1339.354          38.000  
    227654.465    24915048.089       -3049.322          38.000  
   -173943.877    21296787.868        2270.055          38.000  
 18  2 16  8 21 30.0000000  0  8G30G09G10G23G05G01G03G11            -0.000115871
   -280719.453    22583644.695        3574.814          38.000  
     48395.153    20300827.228        -663.266          38.000  
     99696.143    21236757.850       -1348.540          39.000  
    158732.176    22501560.014       -2080.476          39.000  
   -278969.767    24167233.588        3610.414          38.000  
   -106381.702    22279698.028        1338.930          38.000  
    230704.046    24915628.421       -3049.819          38.000  
   -176213.502    21296355.974        2269.286          38.000  
 18  2 16  8 21 31.0000000  0  8G30G09G10G23G05G01G03G11            -0.000115692
   -284293.889    22582964.510        3574.173          38.000  
     49058.706    20300953.490        -663.815          38.000  
    101044.807    21237014.485       -1348.922          38.000  
    160812.785    22501955.938       -2080.860          38.000  
   -282580.172    24166546.559        3610.283          38.000  
   -107720.320    22279443.288        1338.211          38.000  
    233754.003    24916208.825       -3050.219          38.000  
   -178482.476    21295924.187        2268.710          38.000  
 18  2 16  8 21 32.0000000  0  8G30G09G10G23G05G01G03G11            -0.000115512
   -287867.752    22582284.433        3573.801          38.000  
     49722.648    20301079.824        -663.963          38.000  
    102394.223    21237271.228       -1349.680          38.000  
    162893.584    22502351.916       -2080.737          38.000  
   -286190.609    24165859.513        3610.647          38.000  
   -109058.398    22279188.690        1338.053          38.000  
    236804.308    24916789.264       -3050.393          38.000  
   -180750.806    21295492.543        2268.150          38.000  
 18  2 16  8 21 33.0000000  0  8G30G09G10G23G05G01G03G11            -0.000115332
   -291440.928    22581604.517        3572.996          38.000  
     50387.060    20301206.266        -664.374          38.000  
    103744.460    21237528.130       -1350.461          38.000  
    164974.673    22502747.947       -2081.120          38.000  
   -289800.959    24165172.485        3610.572          38.000  
   -110395.790    22278934.199        1337.358          38.000  
    239855.048    24917369.811       -3050.653          38.000  
   -183018.368    21295060.970        2267.357          38.000  
 18  2 16  8 21 34.0000000  0  8G30G09G10G23G05G01G03G11            -0.000115153
   -295013.652    22580924.618        3572.533          38.000  
     51051.756    20301332.760        -664.656          38.000  
    105095.297    21237785.158       -1351.340          38.000  
    167055.807    22503143.960       -2081.028          38.000  
   -293411.420    24164485.439        3610.499          38.000  
   -111732.735    22278679.798        1336.748          39.000  
    242906.016    24917950.393       -3050.961          38.000  
   -185285.398    21294629.540        2266.578          38.000  
 18  2 16  8 21 35.0000000  0  8G30G09G10G23G05G01G03G11            -0.000114974
   -298585.747    22580244.863        3571.971          38.000  
     51716.896    20301459.327        -665.184          38.000  
    106447.033    21238042.383       -1351.693          38.000  
    169137.163    22503540.063       -2081.299          38.000  
   -297021.827    24163798.411        3610.447          38.000  
   -113069.052    22278425.504        1336.245          38.000  
    245957.356    24918531.047       -3051.409          38.000  
   -187551.626    21294198.272        2266.051          38.000  
 18  2 16  8 21 36.0000000  0  8G30G09G10G23G05G01G03G11            -0.000114794
   -302157.268    22579565.215        3571.271          38.000  
     52382.356    20301585.947        -665.354          39.000  
    107799.527    21238299.786       -1352.638          38.000  
    171218.640    22503936.165       -2081.468          38.000  
   -300632.265    24163111.400        3610.510          38.000  
   -114404.796    22278171.335        1335.650          38.000  
    249008.976    24919111.773       -3051.730          38.000  
   -189817.182    21293767.110        2265.314          38.000  
 18  2 16  8 21 37.0000000  0  8G30G09G10G23G05G01G03G11            -0.000114615
   -305728.219    22578885.674        3570.581          38.000  
     53048.210    20301712.620        -665.931          38.000  
    109152.807    21238557.279       -1353.671          38.000  
    173300.261    22504332.304       -2081.705          38.000  
   -304242.661    24162424.390        3610.343          38.000  
   -115739.942    22277917.273        1334.863          38.000  
    252060.875    24919692.480       -3051.960          38.000  
   -192081.967    21293336.145        2264.325          38.000  
 18  2 16  8 21 38.0000000  0  8G30G09G10G23G05G01G03G11            -0.000114437
   -309298.472    22578206.276        3570.045          38.000  
     53714.567    20301839.419        -666.403          38.000  
    110506.957    21238814.968       -1354.691          38.000  
    175382.152    22504728.478       -2081.977          38.000  
   -307852.920    24161737.398        3610.382          38.000  
   -117074.362    22277663.354        1334.172          38.000  
    255113.210    24920273.331       -3052.422          38.000  
   -194345.924    21292905.340        2263.491          38.000  
 18  2 16  8 21 39.0000000  0  8G30G09G10G23G05G01G03G11            -0.000114259
   -312868.117    22577527.002        3569.518          38.000  
     54381.302    20301966.324        -666.745          38.000  
    111862.060    21239072.836       -1355.323          38.000  
    177464.166    22505124.652       -2081.819          38.000  
   -311463.086    24161050.387        3610.390          38.000  
   -118408.138    22277409.543        1333.631          38.000  
    258165.812    24920854.253       -3052.530          38.000  
   -196608.996    21292474.697        2262.919          38.000  
 18  2 16  8 21 40.0000000  0  8G30G09G10G23G05G01G03G11            -0.000114079
   -316437.152    22576847.837        3568.577          38.000  
     55048.443    20302093.302        -667.740          38.000  
    113217.953    21239330.847       -1356.544          38.000  
    179546.317    22505520.880       -2082.375          38.000  
   -315073.179    24160363.413        3609.745          38.000  
   -119741.280    22277155.874        1332.659          38.000  
    261218.701    24921435.192       -3053.318          38.000  
   -198871.297    21292044.214        2261.691          38.000  
 18  2 16  8 21 41.0000000  0  8G30G09G10G23G05G01G03G11            -0.000113901
   -320005.511    22576168.778        3568.307          38.000  
     55716.027    20302220.315        -667.625          38.000  
    114574.800    21239589.036       -1357.054          38.000  
    181628.687    22505917.143       -2082.220          38.000  
   -318683.101    24159676.474        3610.027          38.000  
   -121073.661    22276902.330        1332.225          38.000  
    264271.952    24922016.204       -3053.316          38.000  
   -201132.662    21291613.875        2261.185          38.000  
 18  2 16  8 21 42.0000000  0  8G30G09G10G23G05G01G03G11            -0.000113720
   -323573.355    22575489.827        3567.777          38.000  
     56383.904    20302347.417        -667.804          38.000  
    115932.387    21239847.351       -1358.016          38.000  
    183711.084    22506313.407       -2082.170          38.000  
   -322293.031    24158989.499        3610.201          38.000  
   -122405.477    22276648.894        1331.771          38.000  
    267325.325    24922597.251       -3053.086          38.000  
   -203393.296    21291183.732        2260.175          38.000  
 18  2 16  8 21 43.0000000  0  8G30G09G10G23G05G01G03G11            -0.000113542
   -327140.544    22574811.018        3567.236          38.000  
     57052.248    20302474.645        -668.297          38.000  
    117291.027    21240105.880       -1358.931          38.000  
    185793.677    22506709.706       -2082.378          38.000  
   -325902.719    24158302.578        3609.848          38.000  
   -123736.531    22276395.601        1330.879          38.000  
    270379.073    24923178.369       -3053.727          38.000  
   -205652.901    21290753.731        2259.288          38.000  
 18  2 16  8 21 44.0000000  0  8G30G09G10G23G05G01G03G11            -0.000113362
   -330707.285    22574132.299        3566.602          38.000  
     57720.810    20302601.872        -668.629          38.000  
    118650.343    21240364.552       -1359.575          38.000  
    187876.197    22507106.005       -2082.381          38.000  
   -329512.466    24157615.640        3609.795          38.000  
   -125067.074    22276142.379        1330.453          38.000  
    273432.853    24923759.470       -3053.834          38.000  
   -207911.828    21290323.892        2258.671          38.000  
 18  2 16  8 21 45.0000000  0  8G30G09G10G23G05G01G03G11            -0.000113183
   -334273.514    22573453.669        3566.093          38.000  
     58389.662    20302729.171        -668.756          38.000  
    120010.482    21240623.403       -1360.290          38.000  
    189958.758    22507502.304       -2082.403          38.000  
   -333122.146    24156928.736        3609.787          38.000  
   -126396.971    22275889.300        1329.831          38.000  
    276486.783    24924340.642       -3053.984          38.000  
   -210169.925    21289894.178        2257.933          38.000  
 18  2 16  8 21 46.0000000  0  8G30G09G10G23G05G01G03G11            -0.000113007
   -337839.273    22572775.093        3565.356          38.000  
     59058.810    20302856.488        -669.477          38.000  
    121371.412    21240882.378       -1361.879          38.000  
    192041.288    22507898.603       -2082.551          38.000  
   -336731.771    24156241.869        3609.443          38.000  
   -127726.246    22275636.328        1328.663          38.000  
    279540.782    24924921.796       -3054.140          38.000  
   -212427.199    21289464.589        2255.839          38.000  
 18  2 16  8 21 47.0000000  0  8G30G09G10G23G05G01G03G11            -0.000112826
   -341404.333    22572096.696        3564.799          38.000  
     59728.435    20302983.912        -669.689          38.000  
    122733.409    21241141.586       -1362.451          38.000  
    194124.035    22508294.938       -2082.667          38.000  
   -340341.129    24155555.020        3609.350          38.000  
   -129054.735    22275383.535        1328.150          38.000  
    282595.113    24925503.004       -3054.365          38.000  
   -214683.436    21289035.268        2255.815          38.000  
 18  2 16  8 21 48.0000000  0  8G30G09G10G23G05G01G03G11            -0.000112643
   -344968.818    22571418.388        3564.363          38.000  
     60398.441    20303111.407        -670.036          38.000  
    124096.317    21241400.955       -1363.078          38.000  
    196206.845    22508691.291       -2082.573          38.000  
   -343950.287    24154868.206        3609.193          38.000  
   -130382.480    22275130.885        1327.581          38.000  
    285649.623    24926084.212       -3054.474          38.000  
   -216938.690    21288606.143        2254.929          38.000  
 18  2 16  8 21 49.0000000  0  8G30G09G10G23G05G01G03G11            -0.000112463
   -348532.646    22570740.222        3563.403          38.000  
     61068.904    20303238.992        -670.659          38.000  
    125460.235    21241660.503       -1364.374          38.000  
    198289.826    22509087.662       -2083.128          38.000  
   -347559.183    24154181.446        3608.668          38.000  
   -131709.382    22274878.378        1326.257          38.000  
    288704.372    24926665.527       -3054.923          38.000  
   -219192.937    21288177.197        2253.634          38.000  
 18  2 16  8 21 50.0000000  0  8G30G09G10G23G05G01G03G11            -0.000112285
   -352095.712    22570062.200        3562.763          38.000  
     61739.956    20303366.720        -671.239          38.000  
    126825.264    21241920.265       -1365.789          38.000  
    200373.066    22509484.086       -2083.251          38.000  
   -351167.648    24153494.757        3608.238          38.000  
   -133035.363    22274626.049        1325.640          38.000  
    291759.471    24927246.878       -3055.242          38.000  
   -221446.054    21287748.448        2252.297          38.000  
 18  2 16  8 21 51.0000000  0  8G30G09G10G23G05G01G03G11            -0.000112109
   -355658.288    22569384.232        3562.638          38.000  
     62411.304    20303494.501        -671.057          38.000  
    128191.215    21242180.170       -1365.918          38.000  
    202456.324    22509880.528       -2082.904          38.000  
   -354775.992    24152808.122        3608.593          38.000  
   -134360.642    22274373.864        1325.232          38.000  
    294814.640    24927828.246       -3054.869          38.000  
   -223698.167    21287319.859        2251.944          38.000  
 18  2 16  8 21 52.0000000  0  8G30G09G10G23G05G01G03G11            -0.000111924
   -359220.364    22568706.406        3561.815          39.000  
     63082.979    20303622.300        -671.655          38.000  
    129558.065    21242440.271       -1367.190          38.000  
    204539.585    22510276.952       -2083.164          38.000  
   -358384.150    24152121.487        3608.064          38.000  
   -135685.202    22274121.839        1324.239          38.000  
    297869.884    24928409.651       -3055.230          38.000  
   -225949.384    21286891.467        2250.895          38.000  
 18  2 16  8 21 53.0000000  0  8G30G09G10G23G05G01G03G11            -0.000111745
   -362781.995    22568028.670        3561.617          38.000  
     63754.953    20303750.171        -671.917          38.000  
    130925.753    21242700.534       -1367.863          38.000  
    206622.810    22510673.359       -2083.008          38.000  
   -361992.145    24151434.923        3608.111          38.000  
   -137009.095    22273869.904        1323.816          38.000  
    300925.141    24928991.055       -3054.923          38.000  
   -228199.689    21286463.254        2250.125          38.000  
 18  2 16  8 21 54.0000000  0  8G30G09G10G23G05G01G03G11            -0.000111565
   -366343.139    22567351.005        3561.080          38.000  
     64427.235    20303878.113        -672.251          38.000  
    132294.292    21242960.957       -1369.036          38.000  
    208706.052    22511069.819       -2083.106          38.000  
   -365599.944    24150748.395        3607.877          38.000  
   -138332.229    22273618.111        1322.766          38.000  
    303980.464    24929572.459       -3055.256          38.000  
   -230449.108    21286035.184        2248.843          38.000  
 18  2 16  8 21 55.0000000  0  8G30G09G10G23G05G01G03G11            -0.000111386
   -369903.899    22566673.412        3560.690          38.000  
     65099.766    20304006.073        -672.616          38.000  
    133663.727    21243221.576       -1369.604          38.000  
    210789.189    22511466.207       -2082.976          38.000  
   -369207.621    24150061.903        3607.711          38.000  
   -139654.732    22273366.408        1322.317          38.000  
    307035.723    24930153.846       -3055.133          38.000  
   -232697.552    21285607.310        2248.094          38.000  
 18  2 16  8 21 56.0000000  0  8G30G09G10G23G05G01G03G11            -0.000111210
   -373463.952    22565995.943        3559.810          38.000  
     65772.845    20304134.141        -673.377          38.000  
    135034.281    21243482.357       -1370.987          38.000  
    212872.563    22511862.685       -2083.361          38.000  
   -372814.831    24149375.447        3607.092          38.000  
   -140976.253    22273114.937        1321.096          38.000  
    310091.232    24930735.286       -3055.365          38.000  
   -234944.853    21285179.686        2246.788          38.000  
 18  2 16  8 21 57.0000000  0  8G30G09G10G23G05G01G03G11            -0.000111030
   -377023.430    22565318.582        3559.230          38.000  
     66446.375    20304262.333        -673.739          38.000  
    136405.848    21243743.370       -1372.073          38.000  
    214956.079    22512259.127       -2083.666          38.000  
   -376421.714    24148689.098        3606.793          38.000  
   -142296.902    22272863.628        1320.151          38.000  
    313146.907    24931316.762       -3055.839          38.000  
   -237191.063    21284752.241        2245.669          38.000  
 18  2 16  8 21 58.0000000  0  8G30G09G10G23G05G01G03G11            -0.000110853
   -380582.515    22564641.328        3559.128          38.000  
     67120.183    20304390.561        -673.795          38.000  
    137778.236    21244004.526       -1372.737          38.000  
    217039.507    22512655.605       -2083.132          38.000  
   -380028.364    24148002.731        3606.754          38.000  
   -143616.840    22272612.461        1319.781          38.000  
    316202.499    24931898.274       -3055.355          38.000  
   -239436.412    21284324.957        2244.816          38.000  
 18  2 16  8 21 59.0000000  0  8G30G09G10G23G05G01G03G11            -0.000110674
   -384141.115    22563964.146        3558.504          38.000  
     67794.363    20304518.861        -674.125          38.000  
    139151.645    21244265.860       -1373.524          38.000  
    219123.010    22513052.065       -2083.310          38.000  
   -383634.733    24147316.435        3606.524          38.000  
   -144935.973    22272361.454        1319.040          38.000  
    319258.148    24932479.750       -3055.474          38.000  
   -241680.678    21283897.888        2244.122          38.000  
 18  2 16  8 22  0.0000000  0  8G30G09G10G23G05G01G03G11            -0.000110494
   -387699.360    22563287.035        3558.228          38.000  
     68468.806    20304647.214        -674.346          38.000  
    140525.875    21244527.373       -1374.475          38.000  
    221206.429    22513448.525       -2083.208          38.000  
   -387240.898    24146630.193        3606.286          39.000  
   -146254.383    22272110.555        1318.291          38.000  
    322313.699    24933061.190       -3055.233          39.000  
   -243924.048    21283470.979        2243.286          38.000  
 18  2 16  8 22  1.0000000  0  8G30G09G10G23G05G01G03G11            -0.000110316
   -391257.218    22562610.014        3557.773          38.000  
     69143.558    20304775.621        -674.968          38.000  
    141900.978    21244789.047       -1375.482          38.000  
    223289.817    22513845.021       -2083.298          38.000  
   -390846.800    24145944.023        3605.731          38.000  
   -147572.040    22271859.817        1317.213          38.000  
    325369.205    24933642.648       -3055.409          38.000  
   -246166.490    21283044.267        2242.069          38.000  
 18  2 16  8 22  2.0000000  0  8G30G09G10G23G05G01G03G11            -0.000110136
   -394814.754    22561933.046        3557.444          38.000  
     69818.537    20304904.063        -675.035          38.000  
    143276.843    21245050.882       -1376.321          38.000  
    225373.097    22514241.481       -2082.959          38.000  
   -394452.550    24145257.870        3605.770          39.000  
   -148889.031    22271609.204        1316.812          38.000  
    328424.567    24934224.070       -3055.198          38.000  
   -248408.121    21282617.679        2241.309          38.000  
 18  2 16  8 22  3.0000000  0  8G30G09G10G23G05G01G03G11            -0.000109960
   -398371.839    22561256.185        3556.893          38.000  
     70493.916    20305032.577        -675.645          38.000  
    144653.718    21245312.895       -1377.326          38.000  
    227456.470    22514637.941       -2083.314          38.000  
   -398057.927    24144571.771        3605.211          38.000  
   -150205.159    22271358.716        1315.796          38.000  
    331479.947    24934805.492       -3055.419          38.000  
   -250648.640    21282191.342        2240.016          39.000  
 18  2 16  8 22  4.0000000  0  8G30G09G10G23G05G01G03G11            -0.000109779
   -401928.305    22560579.396        3556.149          38.000  
     71169.881    20305161.199        -676.385          38.000  
    146031.717    21245575.123       -1378.492          38.000  
    229540.067    22515034.473       -2083.705          38.000  
   -401662.765    24143885.779        3604.551          38.000  
   -151520.249    22271108.478        1314.584          38.000  
    334535.513    24935386.932       -3055.770          38.000  
   -252887.970    21281765.220        2238.772          38.000  
 18  2 16  8 22  5.0000000  0  8G30G09G10G23G05G01G03G11            -0.000109598
   -405484.224    22559902.714        3555.894          38.000  
     71846.342    20305289.927        -676.675          38.000  
    147410.786    21245837.566       -1379.340          38.000  
    231623.851    22515430.986       -2083.713          38.000  
   -405267.127    24143199.895        3604.270          38.000  
   -152834.385    22270858.366        1313.887          38.000  
    337591.164    24935968.390       -3055.397          38.000  
   -255126.215    21281339.276        2237.982          38.000  
 18  2 16  8 22  6.0000000  0  8G30G09G10G23G05G01G03G11            -0.000109420
   -409039.677    22559226.139        3555.365          38.000  
     72523.231    20305418.709        -676.882          38.000  
    148790.786    21246100.169       -1380.398          38.000  
    233707.724    22515827.536       -2083.755          38.000  
   -408871.091    24142514.081        3604.030          38.000  
   -154147.606    22270608.450        1312.947          38.000  
    340646.845    24936549.830       -3055.375          38.000  
   -257363.430    21280913.582        2236.805          38.000  
 18  2 16  8 22  7.0000000  0  8G30G09G10G23G05G01G03G11            -0.000109242
   -412594.914    22558549.600        3555.090          38.000  
     73200.344    20305547.563        -677.193          38.000  
    150171.618    21246362.951       -1381.313          38.000  
    235791.495    22516224.067       -2083.759          38.000  
   -412474.852    24141828.304        3603.744          38.000  
   -155460.168    22270358.694        1312.230          38.000  
    343702.336    24937131.271       -3055.316          38.000  
   -259599.787    21280487.996        2235.990          38.000  
 18  2 16  8 22  8.0000000  0  8G30G09G10G23G05G01G03G11            -0.000109062
   -416149.791    22557873.132        3554.901          38.000  
     73877.837    20305676.470        -677.448          38.000  
    151553.294    21246625.893       -1381.956          38.000  
    237875.302    22516620.581       -2083.626          38.000  
   -416078.242    24141142.598        3603.258          38.000  
   -156771.898    22270109.100        1311.393          38.000  
    346757.760    24937712.675       -3055.186          38.000  
   -261835.205    21280062.606        2235.167          38.000  
 18  2 16  8 22 10.0000000  0  8G30G09G10G23G05G01G03G11            -0.000108706
   -423258.222    22556520.447        3553.782          39.000  
     75234.214    20305934.570        -678.775          38.000  
    154319.582    21247152.333       -1384.140          38.000  
    242043.317    22517413.733       -2084.112          38.000  
   -423283.740    24139771.437        3602.164          38.000  
   -159392.580    22269610.429        1309.393          39.000  
    352868.647    24938875.555       -3055.393          38.000  
   -266302.966    21279212.398        2232.752          39.000  
 18  2 16  8 22 11.0000000  0  8G30G09G10G23G05G01G03G11            -0.000108528
   -426811.807    22555844.230        3553.682          38.000  
     75913.079    20306063.763        -678.688          38.000  
    155704.188    21247415.793       -1384.652          38.000  
    244127.533    22517810.336       -2083.960          39.000  
   -426885.814    24139085.981        3602.181          38.000  
   -160701.544    22269361.370        1308.775          39.000  
    355924.106    24939457.013       -3054.970          38.000  
   -268535.331    21278787.579        2232.338          38.000  
 18  2 16  8 22 12.0000000  0  8G30G09G10G23G05G01G03G11            -0.000108349
   -430365.127    22555168.066        3552.975          38.000  
     76592.288    20306193.045        -679.454          39.000  
    157089.605    21247679.397       -1386.084          38.000  
    246211.779    22518206.957       -2084.451          38.000  
   -430487.569    24138400.561        3601.417          38.000  
   -162009.726    22269112.437        1307.612          38.000  
    358979.448    24940038.418       -3055.406          39.000  
   -270766.810    21278362.958        2230.897          38.000  
 18  2 16  8 22 13.0000000  0  8G30G09G10G23G05G01G03G11            -0.000108172
   -433917.984    22554491.991        3552.621          38.000  
     77272.036    20306322.399        -679.991          38.000  
    158476.024    21247943.180       -1386.741          38.000  
    248296.231    22518603.595       -2084.575          38.000  
   -434088.803    24137715.266        3601.102          38.000  
   -163316.919    22268863.718        1306.719          38.000  
    362034.845    24940619.858       -3055.357          38.000  
   -272997.251    21277938.497        2229.938          39.000  
 18  2 16  8 22 14.0000000  0  8G30G09G10G23G05G01G03G11            -0.000107995
   -437470.600    22553815.953        3552.373          38.000  
     77952.119    20306451.824        -680.207          38.000  
    159863.263    21248207.141       -1387.753          38.000  
    250380.707    22519000.252       -2084.470          38.000  
   -437689.693    24137030.043        3600.703          38.000  
   -164623.317    22268615.106        1305.987          38.000  
    365090.109    24941201.280       -3055.224          38.000  
   -275226.868    21277514.215        2229.002          38.000  
 18  2 16  8 22 15.0000000  0  8G30G09G10G23G05G01G03G11            -0.000107817
   -441022.982    22553139.932        3552.181          38.000  
     78632.545    20306581.303        -680.562          38.000  
    161251.258    21248471.245       -1388.380          38.000  
    252465.215    22519396.909       -2084.585          38.000  
   -441290.287    24136344.873        3600.387          38.000  
   -165928.948    22268366.673        1305.250          38.000  
    368145.216    24941782.667       -3055.091          38.000  
   -277455.672    21277090.076        2228.389          38.000  
 18  2 16  8 22 16.0000000  0  8G30G09G10G23G05G01G03G11            -0.000107640
   -444575.017    22552463.964        3551.977          38.000  
     79313.442    20306710.854        -681.111          38.000  
    162640.191    21248735.546       -1389.471          38.000  
    254549.893    22519793.619       -2084.724          38.000  
   -444890.401    24135659.774        3599.907          38.000  
   -167233.667    22268118.365        1304.472          38.000  
    371200.327    24942364.053       -3055.086          38.000  
   -279683.514    21276666.133        2227.529          38.000  
 18  2 16  8 22 17.0000000  0  8G30G09G10G23G05G01G03G11            -0.000107462
   -448126.865    22551788.051        3551.911          38.000  
     79994.663    20306840.476        -681.415          38.000  
    164029.830    21249000.007       -1389.946          38.000  
    256634.589    22520190.311       -2084.671          38.000  
   -448490.247    24134974.748        3599.763          38.000  
   -168537.624    22267870.254        1303.694          38.000  
    374255.243    24942945.368       -3054.703          38.000  
   -281910.617    21276242.334        2226.825          38.000  
 18  2 16  8 22 18.0000000  0  8G30G09G10G23G05G01G03G11            -0.000107282
   -451678.504    22551112.155        3551.439          38.000  
     80676.219    20306970.151        -681.917          38.000  
    165420.227    21249264.612       -1390.867          38.000  
    258719.336    22520587.021       -2085.021          38.000  
   -452089.759    24134289.792        3599.279          38.000  
   -169840.814    22267622.268        1302.737          38.000  
    377310.027    24943526.683       -3054.833          38.000  
   -284136.953    21275818.677        2225.900          38.000  
 18  2 16  8 22 19.0000000  0  8G30G09G10G23G05G01G03G11            -0.000107102
   -455229.776    22550436.384        3551.306          38.000  
     81358.314    20307099.970        -682.038          38.000  
    166811.546    21249529.377       -1391.595          38.000  
    260804.324    22520983.767       -2084.745          38.000  
   -455688.773    24133604.926        3599.066          38.000  
   -171143.038    22267374.460        1302.001          38.000  
    380364.837    24944107.980       -3054.511          38.000  
   -286362.376    21275395.181        2225.270          38.000  
 18  2 16  8 22 20.0000000  0  8G30G09G10G23G05G01G03G11            -0.000106926
   -458780.781    22549760.649        3550.922          38.000  
     82040.855    20307229.860        -682.732          38.000  
    168203.680    21249794.286       -1392.645          39.000  
    262889.472    22521380.549       -2085.203          38.000  
   -459287.359    24132920.149        3598.397          38.000  
   -172444.418    22267126.831        1300.867          38.000  
    383419.612    24944689.296       -3054.774          38.000  
   -288586.922    21274971.882        2223.908          38.000  
 18  2 16  8 22 21.0000000  0  8G30G09G10G23G05G01G03G11            -0.000106747
   -462331.467    22549084.986        3550.688          38.000  
     82723.900    20307359.875        -683.202          38.000  
    169596.674    21250059.372       -1393.294          38.000  
    264974.841    22521777.366       -2085.371          38.000  
   -462885.508    24132235.444        3598.184          38.000  
   -173744.911    22266879.363        1300.404          38.000  
    386474.361    24945270.575       -3054.596          38.000  
   -290810.679    21274548.726        2223.652          38.000  
 18  2 16  8 22 22.0000000  0  8G30G09G10G23G05G01G03G11            -0.000106573
   -465882.132    22548409.340        3550.650          38.000  
     83407.142    20307489.890        -683.180          38.000  
    170990.218    21250324.549       -1393.589          38.000  
    267060.136    22522174.184       -2084.984          38.000  
   -466483.482    24131550.757        3598.044          38.000  
   -175044.761    22266632.038        1299.800          38.000  
    389528.830    24945851.818       -3054.186          38.000  
   -293033.859    21274125.676        2223.390          38.000  
 18  2 16  8 22 23.0000000  0  8G30G09G10G23G05G01G03G11            -0.000106393
   -469432.772    22547733.677        3550.628          38.000  
     84090.680    20307619.994        -683.737          38.000  
    172384.359    21250589.832       -1394.570          38.000  
    269145.457    22522571.019       -2085.321          38.000  
   -470081.232    24130866.123        3597.629          38.000  
   -176343.941    22266384.820        1298.785          38.000  
    392583.067    24946433.026       -3054.102          38.000  
   -295256.469    21273702.734        2222.340          38.000  
 18  2 16  8 22 24.0000000  0  8G30G09G10G23G05G01G03G11            -0.000106214
   -472983.011    22547058.085        3550.382          38.000  
     84774.833    20307750.188        -684.281          38.000  
    173779.405    21250855.295       -1395.181          38.000  
    271231.121    22522967.908       -2085.617          38.000  
   -473678.453    24130181.597        3597.354          38.000  
   -177642.158    22266137.799        1297.929          39.000  
    395637.413    24947014.288       -3054.141          38.000  
   -297478.170    21273279.989        2221.509          38.000  
 18  2 16  8 22 25.0000000  0  8G30G09G10G23G05G01G03G11            -0.000106045
   -476533.032    22546382.528        3550.004          38.000  
     85459.404    20307880.453        -684.666          38.000  
    175175.201    21251120.900       -1395.943          38.000  
    273316.973    22523364.797       -2085.843          38.000  
   -477275.280    24129497.124        3596.933          38.000  
   -178939.560    22265890.920        1297.187          38.000  
    398691.697    24947595.513       -3054.121          39.000  
   -299699.166    21272857.333        2220.723          38.000  
 18  2 16  8 22 26.0000000  0  8G30G09G10G23G05G01G03G11            -0.000105870
   -480082.802    22545707.044        3549.768          38.000  
     86144.512    20308010.825        -685.326          38.000  
    176571.797    21251386.666       -1396.794          38.000  
    275403.078    22523761.775       -2086.091          38.000  
   -480871.662    24128812.758        3596.189          39.000  
   -180236.073    22265644.167        1296.224          38.000  
    401745.997    24948176.757       -3054.345          38.000  
   -301919.425    21272434.820        2220.263          38.000  
 18  2 16  8 22 27.0000000  0  8G30G09G10G23G05G01G03G11            -0.000105690
   -483632.348    22545031.595        3549.451          38.000  
     86830.096    20308141.287        -685.833          38.000  
    177969.092    21251652.575       -1397.743          38.000  
    277489.433    22524158.789       -2086.486          38.000  
   -484467.668    24128128.464        3595.975          38.000  
   -181531.745    22265397.592        1295.225          38.000  
    404800.273    24948757.983       -3054.311          38.000  
   -304138.997    21272012.432        2219.041          39.000  
 18  2 16  8 22 28.0000000  0  8G30G09G10G23G05G01G03G11            -0.000105507
   -487181.645    22544356.181        3549.445          38.000  
     87516.174    20308271.856        -686.037          38.000  
    179367.140    21251918.573       -1398.150          38.000  
    279576.051    22524555.821       -2086.527          38.000  
   -488063.256    24127444.241        3595.586          38.000  
   -182826.594    22265151.196        1294.732          38.000  
    407854.548    24949339.208       -3053.921          38.000  
   -306357.884    21271590.205        2218.686          38.000  
 18  2 16  8 22 29.0000000  0  8G30G09G10G23G05G01G03G11            -0.000105331
   -490730.703    22543680.839        3549.080          38.000  
     88202.806    20308402.514        -686.667          38.000  
    180765.946    21252184.750       -1398.900          38.000  
    281662.970    22524952.978       -2086.862          38.000  
   -491658.426    24126760.090        3595.160          38.000  
   -184120.565    22264904.943        1293.753          38.000  
    410908.870    24949920.416       -3054.129          38.000  
   -308576.086    21271168.121        2218.014          38.000  
 18  2 16  8 22 31.0000000  0  8G30G09G10G23G05G01G03G11            -0.000104975
   -497828.366    22542330.209        3548.560          38.000  
     89577.383    20308664.099        -687.793          38.000  
    183565.490    21252717.479       -1400.556          38.000  
    285837.471    22525747.399       -2087.466          38.000  
   -498847.798    24125391.966        3594.320          38.000  
   -186706.248    22264412.902        1292.150          38.000  
    417017.388    24951082.814       -3054.334          38.000  
   -313010.741    21270324.256        2216.603          38.000  
 18  2 16  8 22 32.0000000  0  8G30G09G10G23G05G01G03G11            -0.000104797
   -501377.006    22541654.921        3548.907          38.000  
     90265.322    20308795.043        -687.751          38.000  
    184966.168    21252984.031       -1400.784          38.000  
    287925.077    22526144.663       -2087.563          38.000  
   -502442.028    24124708.029        3594.413          38.000  
   -187997.959    22264167.078        1291.525          38.000  
    420071.557    24951664.022       -3053.810          38.000  
   -315227.297    21269902.458        2216.470          38.000  
 18  2 16  8 22 33.0000000  0  8G30G09G10G23G05G01G03G11            -0.000104618
   -504925.580    22540979.651        3548.710          38.000  
     90953.628    20308926.023        -688.194          38.000  
    186367.348    21253250.673       -1401.202          38.000  
    290012.806    22526541.945       -2087.541          38.000  
   -506036.043    24124024.110        3593.968          38.000  
   -189289.047    22263921.379        1290.983          38.000  
    423125.623    24952245.158       -3053.785          38.000  
   -317443.435    21269480.749        2216.058          38.000  
 18  2 16  8 22 34.0000000  0  8G30G09G10G23G05G01G03G11            -0.000104440
   -508473.956    22540304.416        3547.991          38.000  
     91642.468    20309057.110        -689.227          38.000  
    187769.240    21253517.475       -1402.320          38.000  
    292100.900    22526939.298       -2088.476          38.000  
   -509629.709    24123340.245        3593.232          38.000  
   -190579.339    22263675.840        1289.609          38.000  
    426179.752    24952826.348       -3054.367          38.000  
   -319658.955    21269059.129        2215.447          38.000  
 18  2 16  8 22 35.0000000  0  8G30G09G10G23G05G01G03G11            -0.000104263
   -512022.098    22539629.235        3547.975          38.000  
     92331.874    20309188.305        -689.632          38.000  
    189171.748    21253784.367       -1402.873          38.000  
    294189.369    22527336.705       -2088.693          38.000  
   -513222.982    24122656.469        3593.044          38.000  
   -191868.787    22263430.445        1288.956          38.000  
    429233.976    24953407.556       -3054.223          38.000  
   -321873.984    21268637.635        2214.653          38.000  
 18  2 16  8 22 36.0000000  0  8G30G09G10G23G05G01G03G11            -0.000104086
   -515570.274    22538954.036        3548.050          38.000  
     93021.599    20309319.552        -690.078          38.000  
    190574.704    21254051.366       -1403.462          38.000  
    296277.941    22527734.166       -2088.834          38.000  
   -516816.144    24121972.693        3592.957          38.000  
   -193157.689    22263185.175        1288.421          38.000  
    432288.054    24953988.746       -3054.195          38.000  
   -324088.698    21268216.176        2214.313          38.000  
 18  2 16  8 22 37.0000000  0  8G30G09G10G23G05G01G03G11            -0.000103907
   -519118.329    22538278.855        3548.095          38.000  
     93711.750    20309450.890        -690.156          38.000  
    191978.165    21254318.472       -1403.677          38.000  
    298366.781    22528131.662       -2088.663          38.000  
   -520409.080    24121288.970        3593.191          38.000  
   -194445.931    22262940.012        1288.139          38.000  
    435342.114    24954569.936       -3053.869          38.000  
   -326303.004    21267794.807        2214.292          38.000  
 18  2 16  8 22 38.0000000  0  8G30G09G10G23G05G01G03G11            -0.000103729
   -522666.308    22537603.692        3548.051          38.000  
     94402.353    20309582.316        -690.718          38.000  
    193382.169    21254585.650       -1404.000          38.000  
    300455.928    22528529.212       -2089.197          38.000  
   -524001.771    24120605.283        3592.817          38.000  
   -195733.482    22262695.010        1287.397          38.000  
    438396.187    24955151.108       -3053.924          38.000  
   -328516.868    21267373.544        2214.228          38.000  
 18  2 16  8 22 39.0000000  0  8G30G09G10G23G05G01G03G11            -0.000103551
   -526214.143    22536928.564        3547.830          38.000  
     95093.423    20309713.815        -691.097          38.000  
    194786.671    21254852.917       -1404.883          38.000  
    302545.358    22528926.852       -2089.476          38.000  
   -527594.209    24119921.668        3592.490          38.000  
   -197020.348    22262450.133        1286.723          38.000  
    441450.285    24955732.298       -3053.811          38.000  
   -330730.467    21266952.318        2213.476          38.000  
 18  2 16  8 22 40.0000000  0  8G30G09G10G23G05G01G03G11            -0.000103372
   -529761.804    22536253.473        3547.687          38.000  
     95785.035    20309845.420        -691.654          38.000  
    196191.740    21255120.291       -1405.256          38.000  
    304635.170    22529324.527       -2089.779          38.000  
   -531186.386    24119238.089        3592.340          38.000  
   -198306.495    22262205.381        1286.003          38.000  
    444504.509    24956313.488       -3054.033          38.000  
   -332943.584    21266531.163        2212.997          38.000  
 18  2 16  8 22 41.0000000  0  8G30G09G10G23G05G01G03G11            -0.000103193
   -533309.240    22535578.399        3547.371          38.000  
     96477.235    20309977.133        -692.527          38.000  
    197597.421    21255387.772       -1405.754          38.000  
    306725.428    22529722.255       -2090.488          39.000  
   -534778.210    24118554.599        3591.763          38.000  
   -199591.862    22261960.790        1285.143          38.000  
    447558.889    24956894.696       -3054.170          38.000  
   -335156.266    21266110.097        2212.607          38.000  
 18  2 16  8 22 42.0000000  0  8G30G09G10G23G05G01G03G11            -0.000103016
   -536856.577    22534903.379        3547.304          38.000  
     97169.868    20310108.934        -692.808          38.000  
    199003.607    21255655.361       -1406.235          38.000  
    308815.972    22530120.074       -2090.589          38.000  
   -538369.885    24117871.108        3591.709          38.000  
   -200876.613    22261716.323        1284.560          38.000  
    450613.339    24957475.940       -3054.465          38.000  
   -337368.555    21265689.103        2212.585          38.000  
 18  2 16  8 22 43.0000000  0  8G30G09G10G23G05G01G03G11            -0.000102837
   -540403.721    22534228.376        3547.097          38.000  
     97863.080    20310240.844        -693.498          38.000  
    200410.301    21255923.039       -1407.087          38.000  
    310906.954    22530517.963       -2091.182          38.000  
   -541961.258    24117187.690        3591.111          38.000  
   -202160.622    22261471.982        1283.603          38.000  
    453667.927    24958057.201       -3054.628          38.000  
   -339580.617    21265268.163        2211.838          38.000  
 18  2 16  8 22 44.0000000  0  8G30G09G10G23G05G01G03G11            -0.000102655
   -543950.602    22533553.428        3546.693          38.000  
     98556.892    20310372.878        -694.296          38.000  
    201817.562    21256190.824       -1407.540          38.000  
    312998.411    22530915.942       -2091.574          38.000  
   -545552.361    24116504.343        3590.944          38.000  
   -203443.906    22261227.766        1282.920          38.000  
    456722.733    24958638.516       -3054.901          38.000  
   -341792.204    21264847.311        2211.351          38.000  
 18  2 16  8 22 45.0000000  0  8G30G09G10G23G05G01G03G11            -0.000102481
   -547497.199    22532878.515        3546.609          38.000  
     99251.333    20310505.019        -694.648          38.000  
    203225.486    21256458.752       -1408.123          38.000  
    315090.398    22531314.046       -2092.051          38.000  
   -549143.115    24115821.049        3590.868          38.000  
   -204726.392    22260983.693        1282.315          38.000  
    459777.828    24959219.867       -3055.056          38.000  
   -344003.352    21264426.549        2211.118          38.000  
 18  2 16  8 22 46.0000000  0  8G30G09G10G23G05G01G03G11            -0.000102305
   -551043.751    22532203.602        3546.728          38.000  
     99946.182    20310637.268        -694.761          38.000  
    204633.797    21256726.752       -1408.166          38.000  
    317182.654    22531712.204       -2092.161          38.000  
   -552733.807    24115137.773        3590.939          38.000  
   -206008.363    22260739.728        1282.055          38.000  
    462832.950    24959801.235       -3054.934          38.000  
   -346214.250    21264005.823        2211.563          38.000  
 18  2 16  8 22 47.0000000  0  8G30G09G10G23G05G01G03G11            -0.000102126
   -554590.203    22531528.724        3546.243          38.000  
    100641.507    20310769.588        -695.641          38.000  
    206042.462    21256994.805       -1409.003          38.000  
    319275.267    22532110.450       -2092.871          38.000  
   -556324.366    24114454.516        3590.476          38.000  
   -207289.732    22260495.887        1281.005          38.000  
    465888.185    24960382.604       -3055.373          38.000  
   -348425.072    21263585.133        2210.505          38.000  
 18  2 16  8 22 48.0000000  0  8G30G09G10G23G05G01G03G11            -0.000101944
   -558136.400    22530853.919        3546.136          38.000  
    101337.426    20310902.033        -696.225          38.000  
    207451.674    21257262.947       -1409.433          38.000  
    321368.359    22532508.751       -2093.160          38.000  
   -559914.697    24113771.311        3590.385          38.000  
   -208570.416    22260252.171        1280.420          38.000  
    468943.674    24960964.044       -3055.484          38.000  
   -350635.524    21263164.532        2210.310          38.000  
 18  2 16  8 22 50.0000000  0  8G30G09G10G23G05G01G03G11            -0.000101599
   -565228.125    22529504.450        3545.984          38.000  
    102730.951    20311167.209        -696.813          38.000  
    210271.658    21257799.590       -1409.960          38.000  
    325556.005    22533305.620       -2094.007          38.000  
   -567094.750    24112405.028        3590.123          38.000  
   -211129.790    22259765.098        1279.397          38.000  
    475055.410    24962127.032       -3055.864          38.000  
   -355055.435    21262323.455        2210.222          38.000  
 18  2 16  8 22 51.0000000  0  8G30G09G10G23G05G01G03G11            -0.000101426
   -568773.727    22528829.751        3545.691          38.000  
    103428.508    20311299.923        -697.509          38.000  
    211682.253    21258068.018       -1410.746          38.000  
    327650.437    22533704.153       -2094.457          38.000  
   -570684.593    24111721.913        3589.911          38.000  
   -212408.599    22259521.739        1278.718          38.000  
    478111.589    24962708.597       -3056.230          38.000  
   -357265.222    21261902.961        2209.859          38.000  
 18  2 16  8 22 52.0000000  0  8G30G09G10G23G05G01G03G11            -0.000101252
   -572319.224    22528155.053        3545.501          38.000  
    104126.482    20311432.725        -697.970          38.000  
    213093.208    21258336.536       -1411.108          38.000  
    329745.237    22534102.775       -2094.946          38.000  
   -574274.428    24111038.816        3589.853          38.000  
   -213686.906    22259278.488        1278.133          38.000  
    481167.887    24963290.162       -3056.211          38.000  
   -359474.810    21261482.503        2209.529          38.000  
 18  2 16  8 22 53.0000000  0  8G30G09G10G23G05G01G03G11            -0.000101075
   -575864.563    22527480.408        3545.247          38.000  
    104824.959    20311565.635        -698.791          38.000  
    214504.564    21258605.108       -1411.602          38.000  
    331840.433    22534501.487       -2095.463          38.000  
   -577864.190    24110355.737        3589.777          38.000  
   -214964.696    22259035.327        1277.711          38.000  
    484224.420    24963871.799       -3056.630          38.000  
   -361684.243    21261062.045        2209.305          38.000  
 18  2 16  8 22 54.0000000  0  8G30G09G10G23G05G01G03G11            -0.000100897
   -579409.517    22526805.817        3544.973          38.000  
    105524.136    20311698.688        -699.421          38.000  
    215916.551    21258873.804       -1411.873          38.000  
    333936.254    22534900.341       -2095.852          38.000  
   -581453.671    24109672.676        3589.537          38.000  
   -216241.698    22258792.308        1276.893          38.000  
    487281.375    24964453.507       -3056.854          38.000  
   -363893.196    21260641.658        2209.438          38.000  
 18  2 16  8 22 55.0000000  0  8G30G09G10G23G05G01G03G11            -0.000100721
   -582954.204    22526131.297        3544.646          38.000  
    106223.893    20311831.866        -699.867          38.000  
    217328.949    21259142.608       -1412.410          38.000  
    336032.587    22535299.285       -2096.389          38.000  
   -585043.035    24108989.632        3589.476          38.000  
   -217518.095    22258549.432        1276.383          38.000  
    490338.678    24965035.322       -3057.235          38.000  
   -366102.092    21260221.307        2208.747          38.000  
 18  2 16  8 22 56.0000000  0  8G30G09G10G23G05G01G03G11            -0.000100547
   -586498.715    22525456.813        3544.548          38.000  
    106924.126    20311965.151        -700.222          38.000  
    218741.745    21259411.465       -1412.842          38.000  
    338129.342    22535698.300       -2096.827          38.000  
   -588632.359    24108306.607        3589.618          38.000  
   -218793.980    22258306.646        1275.807          38.000  
    493396.224    24965617.174       -3057.585          38.000  
   -368310.818    21259801.010        2208.674          38.000  
 18  2 16  8 22 57.0000000  0  8G30G09G10G23G05G01G03G11            -0.000100370
   -590043.142    22524782.328        3544.414          38.000  
    107624.767    20312098.489        -700.923          38.000  
    220154.815    21259680.358       -1413.002          38.000  
    340226.395    22536097.351       -2097.104          38.000  
   -592221.782    24107623.545        3589.635          38.000  
   -220069.461    22258063.931        1275.184          38.000  
    496453.905    24966199.007       -3057.705          38.000  
   -370519.511    21259380.695        2208.706          38.000  
 18  2 16  8 22 58.0000000  0  8G30G09G10G23G05G01G03G11            -0.000100193
   -593587.299    22524107.916        3544.038          38.000  
    108325.945    20312231.917        -701.497          38.000  
    221568.368    21259949.341       -1413.616          38.000  
    342323.937    22536496.527       -2097.593          38.000  
   -595811.109    24106940.538        3589.440          38.000  
   -221344.381    22257821.323        1274.639          38.000  
    499511.944    24966780.947       -3058.021          38.000  
   -372727.903    21258960.451        2208.773          38.000  
 18  2 16  8 22 59.0000000  0  8G30G09G10G23G05G01G03G11            -0.000100017
   -597131.057    22523433.539        3543.605          38.000  
    109027.786    20312365.470        -702.160          38.000  
    222982.414    21260218.430       -1414.304          38.000  
    344422.117    22536895.793       -2098.510          39.000  
   -599400.251    24106257.548        3589.032          39.000  
   -222618.628    22257578.841        1273.967          38.000  
    502570.467    24967362.977       -3058.765          38.000  
   -374936.140    21258540.225        2207.756          38.000  
 18  2 16  8 23  0.0000000  0  8G30G09G10G23G05G01G03G11            -0.000099841
   -600674.521    22522759.233        3543.603          38.000  
    109730.226    20312499.149        -702.546          38.000  
    224396.921    21260487.609       -1414.455          38.000  
    346520.779    22537295.165       -2098.694          38.000  
   -602989.353    24105574.576        3589.379          38.000  
   -223892.299    22257336.465        1273.620          38.000  
    505629.327    24967945.061       -3058.731          38.000  
   -377144.179    21258120.053        2208.102          38.000  
 18  2 16  8 23  1.0000000  0  8G30G09G10G23G05G01G03G11            -0.000099667
   -604217.904    22522084.946        3543.496          38.000  
    110432.964    20312632.880        -702.746          38.000  
    225811.655    21260756.824       -1414.743          38.000  
    348619.716    22537694.592       -2098.880          38.000  
   -606578.610    24104891.604        3589.469          38.000  
   -225165.657    22257094.161        1273.403          38.000  
    508688.358    24968527.162       -3058.813          38.000  
   -379352.246    21257699.881        2208.308          38.000  
 18  2 16  8 23  2.0000000  0  8G30G09G10G23G05G01G03G11            -0.000099491
   -607761.367    22521410.622        3543.478          38.000  
    111135.895    20312766.648        -703.030          38.000  
    227226.456    21261026.074       -1414.647          38.000  
    350718.769    22538094.018       -2099.013          38.000  
   -610168.223    24104208.507        3589.844          39.000  
   -226438.828    22256851.893        1273.057          38.000  
    511747.411    24969109.317       -3059.076          38.000  
   -381560.387    21257279.691        2208.594          38.000  
 18  2 16  8 23  3.0000000  0  8G30G09G10G23G05G01G03G11            -0.000099314
   -611304.457    22520736.388        3543.075          38.000  
    111839.420    20312900.505        -703.634          38.000  
    228641.730    21261295.396       -1415.360          38.000  
    352818.392    22538493.551       -2099.757          38.000  
   -613757.751    24103525.446        3589.665          38.000  
   -227711.433    22256609.696        1272.565          38.000  
    514806.890    24969691.507       -3059.543          38.000  
   -383768.483    21256859.483        2208.178          38.000  
 18  2 16  8 23  4.0000000  0  8G30G09G10G23G05G01G03G11            -0.000099137
   -614847.130    22520062.244        3542.922          38.000  
    112543.596    20313034.522        -704.051          38.000  
    230057.538    21261564.843       -1415.606          38.000  
    354918.573    22538893.228       -2100.074          38.000  
   -617347.188    24102842.402        3589.820          38.000  
   -228983.419    22256367.642        1272.163          38.000  
    517866.870    24970273.805       -3059.778          38.000  
   -385976.256    21256439.346        2208.015          38.000  
 18  2 16  8 23  5.0000000  0  8G30G09G10G23G05G01G03G11            -0.000098962
   -618389.712    22519388.081        3542.508          38.000  
    113248.085    20313168.612        -704.753          38.000  
    231473.560    21261834.326       -1416.230          38.000  
    357019.027    22539292.922       -2100.561          38.000  
   -620936.841    24102159.270        3589.743          38.000  
   -230255.092    22256125.660        1271.344          38.000  
    520927.044    24970856.121       -3060.379          38.000  
   -388184.048    21256019.210        2207.669          38.000  
 18  2 16  8 23  6.0000000  0  8G30G09G10G23G05G01G03G11            -0.000098785
   -621931.922    22518714.008        3542.538          38.000  
    113953.112    20313302.808        -704.729          38.000  
    232890.054    21262103.862       -1416.176          38.000  
    359119.983    22539692.724       -2100.813          38.000  
   -624526.479    24101476.173        3590.082          38.000  
   -231526.249    22255883.749        1271.296          38.000  
    523987.636    24971438.562       -3060.397          38.000  
   -390391.588    21255599.109        2208.322          38.000  
 18  2 16  8 23  7.0000000  0  8G30G09G10G23G05G01G03G11            -0.000098609
   -625473.947    22518039.989        3541.940          38.000  
    114658.534    20313437.076        -705.558          38.000  
    234306.791    21262373.470       -1416.800          38.000  
    361221.237    22540092.579       -2101.398          38.000  
   -628116.322    24100793.076        3590.046          38.000  
   -232797.082    22255641.910        1270.759          38.000  
    527048.496    24972021.020       -3060.920          38.000  
   -392599.240    21255179.008        2207.514          38.000  
 18  2 16  8 23  8.0000000  0  8G30G09G10G23G05G01G03G11            -0.000098433
   -629015.571    22517366.041        3541.314          38.000  
    115364.525    20313571.415        -706.374          38.000  
    235724.025    21262643.185       -1417.646          38.000  
    363323.027    22540492.523       -2102.157          38.000  
   -631706.108    24100109.961        3589.639          38.000  
   -234067.348    22255400.196        1269.920          38.000  
    530109.834    24972603.604       -3061.663          38.000  
   -394806.645    21254758.943        2207.164          38.000  
 18  2 16  8 23  9.0000000  0  8G30G09G10G23G05G01G03G11            -0.000098258
   -632556.773    22516692.164        3541.259          38.000  
    116071.080    20313705.844        -706.524          38.000  
    237141.753    21262912.972       -1417.668          38.000  
    365425.338    22540892.557       -2102.362          38.000  
   -635295.918    24099426.864        3590.131          38.000  
   -235337.070    22255158.571        1269.732          38.000  
    533171.640    24973186.242       -3061.668          38.000  
   -397013.779    21254338.950        2207.232          38.000  
 18  2 16  8 23 10.0000000  0  8G30G09G10G23G05G01G03G11            -0.000098084
   -636097.615    22516018.377        3540.841          38.000  
    116778.147    20313840.380        -707.008          38.000  
    238559.948    21263182.830       -1418.203          38.000  
    367528.086    22541292.698       -2102.704          38.000  
   -638885.760    24098743.731        3589.963          38.000  
   -236606.306    22254917.053        1269.173          38.000  
    536233.885    24973768.968       -3062.155          38.000  
   -399220.664    21253918.992        2207.300          38.000  
 18  2 16  8 23 11.0000000  0  8G30G09G10G23G05G01G03G11            -0.000097906
   -639638.265    22515344.625        3540.944          38.000  
    117485.538    20313975.005        -707.088          38.000  
    239978.366    21263452.723       -1418.056          38.000  
    369631.095    22541692.893       -2102.541          38.000  
   -642475.863    24098060.563        3590.734          39.000  
   -237875.277    22254675.589        1269.327          38.000  
    539296.378    24974351.766       -3062.027          38.000  
   -401427.677    21253498.981        2207.480          38.000  
 18  2 16  8 23 12.0000000  0  8G30G09G10G23G05G01G03G11            -0.000097730
   -643178.605    22514670.909        3540.182          38.000  
    118193.361    20314109.701        -708.005          38.000  
    241397.169    21263722.706       -1419.014          38.000  
    371734.475    22542093.159       -2103.466          38.000  
   -646066.123    24097377.376        3590.484          38.000  
   -239143.836    22254434.214        1268.480          38.000  
    542359.240    24974934.600       -3062.933          38.000  
   -403634.554    21253079.041        2206.888          38.000  
 18  2 16  8 23 13.0000000  0  8G30G09G10G23G05G01G03G11            -0.000097555
   -646718.590    22513997.265        3540.007          38.000  
    118901.635    20314244.488        -708.271          38.000  
    242816.380    21263992.743       -1419.213          38.000  
    373838.248    22542493.514       -2103.730          38.000  
   -649656.475    24096694.172        3590.626          38.000  
   -240411.956    22254192.875        1268.135          38.000  
    545422.506    24975517.488       -3063.312          38.000  
   -405841.208    21252659.119        2206.558          38.000  
 18  2 16  8 23 14.0000000  0  8G30G09G10G23G05G01G03G11            -0.000097381
   -650258.297    22513323.710        3539.633          38.000  
    119610.256    20314379.345        -708.662          38.000  
    244235.928    21264262.887       -1419.578          38.000  
    375942.309    22542893.905       -2104.009          38.000  
   -653247.061    24096010.914        3590.827          38.000  
   -241679.756    22253951.608        1267.696          38.000  
    548486.056    24976100.447       -3063.590          38.000  
   -408047.756    21252239.197        2206.924          38.000  
 18  2 16  8 23 15.0000000  0  8G30G09G10G23G05G01G03G11            -0.000097205
   -653797.482    22512650.245        3539.089          38.000  
    120319.484    20314514.328        -709.291          38.000  
    245656.055    21264533.138       -1420.233          38.000  
    378046.918    22543294.386       -2104.732          38.000  
   -656837.605    24095327.674        3590.797          38.000  
   -242946.978    22253710.465        1267.186          38.000  
    551550.187    24976683.531       -3064.138          38.000  
   -410254.030    21251819.328        2206.094          38.000  
 18  2 16  8 23 16.0000000  0  8G30G09G10G23G05G01G03G11            -0.000097029
   -657336.239    22511976.850        3539.046          38.000  
    121029.207    20314649.417        -709.504          38.000  
    247076.679    21264803.496       -1420.553          38.000  
    380151.932    22543694.956       -2104.900          38.000  
   -660428.218    24094644.381        3590.819          38.000  
   -244213.712    22253469.448        1266.875          38.000  
    554614.778    24977266.687       -3064.465          38.000  
   -412460.078    21251399.531        2206.338          38.000  
 18  2 16  8 23 17.0000000  0  8G30G09G10G23G05G01G03G11            -0.000096853
   -660874.853    22511303.474        3538.372          38.000  
    121739.123    20314784.525        -710.411          38.000  
    248497.450    21265073.855       -1421.138          38.000  
    382257.045    22544095.544       -2105.465          38.000  
   -664019.253    24093961.016        3590.975          38.000  
   -245480.296    22253228.430        1266.266          39.000  
    557679.504    24977849.878       -3065.020          38.000  
   -414666.131    21250979.699        2205.666          38.000  
 18  2 16  8 23 18.0000000  0  8G30G09G10G23G05G01G03G11            -0.000096677
   -664412.808    22510630.223        3538.018          38.000  
    122449.689    20314919.758        -710.501          38.000  
    249918.937    21265344.356       -1421.591          38.000  
    384362.763    22544496.256       -2105.610          38.000  
   -667610.175    24093277.686        3591.237          38.000  
   -246746.207    22252987.538        1265.975          38.000  
    560744.893    24978433.212       -3065.378          38.000  
   -416871.697    21250559.973        2205.906          38.000  
 18  2 16  8 23 19.0000000  0  8G30G09G10G23G05G01G03G11            -0.000096502
   -667950.302    22509957.061        3537.480          38.000  
    123160.749    20315055.062        -711.152          38.000  
    251340.952    21265614.965       -1421.987          38.000  
    386468.877    22544897.041       -2106.120          38.000  
   -671201.171    24092594.357        3591.243          38.000  
   -248011.648    22252746.717        1265.332          38.000  
    563810.746    24979016.618       -3065.825          38.000  
   -419077.028    21250140.301        2205.379          38.000  
 18  2 16  8 23 20.0000000  0  8G30G09G10G23G05G01G03G11            -0.000096326
   -671487.343    22509283.989        3537.109          38.000  
    123872.266    20315190.456        -711.398          38.000  
    252763.468    21265885.662       -1422.459          38.000  
    388575.352    22545297.897       -2106.276          38.000  
   -674792.290    24091911.010        3591.427          38.000  
   -249276.625    22252505.986        1265.020          38.000  
    566877.043    24979600.095       -3066.247          38.000  
   -421282.077    21249720.683        2205.338          38.000  
 18  2 16  8 23 21.0000000  0  8G30G09G10G23G05G01G03G11            -0.000096151
   -675023.940    22508610.970        3536.296          38.000  
    124584.215    20315325.921        -712.444          38.000  
    254186.474    21266156.467       -1423.400          38.000  
    390682.173    22545698.806       -2107.083          38.000  
   -678383.515    24091227.627        3591.097          38.000  
   -250541.180    22252265.361        1264.241          38.000  
    569943.760    24980183.679       -3067.099          38.000  
   -423486.815    21249301.136        2204.490          38.000  
 18  2 16  8 23 22.0000000  0  8G30G09G10G23G05G01G03G11            -0.000095977
   -678560.127    22507938.022        3535.979          38.000  
    125296.533    20315461.493        -712.577          38.000  
    255609.920    21266427.362       -1423.904          38.000  
    392789.268    22546099.769       -2107.245          38.000  
   -681974.948    24090544.226        3591.435          38.000  
   -251805.328    22252024.809        1263.895          38.000  
    573010.841    24980767.335       -3067.377          38.000  
   -425691.258    21248881.643        2204.323          38.000  
 18  2 16  8 23 23.0000000  0  8G30G09G10G23G05G01G03G11            -0.000095801
   -682095.826    22507265.200        3535.378          38.000  
    126009.290    20315597.101        -712.904          38.000  
    257033.923    21266698.346       -1424.187          38.000  
    394896.692    22546500.803       -2107.456          38.000  
   -685566.482    24089860.772        3591.730          38.000  
   -253069.005    22251784.345        1263.394          38.000  
    576078.358    24981351.063       -3067.677          38.000  
   -427895.436    21248462.239        2204.042          38.000  
 18  2 16  8 23 24.0000000  0  8G30G09G10G23G05G01G03G11            -0.000095625
   -685631.093    22506592.449        3535.073          38.000  
    126722.426    20315732.834        -713.111          38.000  
    258458.413    21266969.419       -1424.489          38.000  
    397004.422    22546901.874       -2107.751          38.000  
   -689158.153    24089177.299        3591.860          38.000  
   -254332.300    22251543.935        1263.260          38.000  
    579146.270    24981934.879       -3067.986          38.000  
   -430099.328    21248042.853        2203.917          38.000  
 18  2 16  8 23 25.0000000  0  8G30G09G10G23G05G01G03G11            -0.000095450
   -689165.956    22505919.788        3534.882          38.000  
    127435.922    20315868.639        -713.523          38.000  
    259883.377    21267240.563       -1424.901          38.000  
    399112.356    22547302.998       -2107.933          38.000  
   -692750.038    24088493.791        3592.141          38.000  
   -255595.173    22251303.597        1262.823          38.000  
    582214.511    24982518.750       -3068.249          38.000  
   -432302.910    21247623.539        2203.554          38.000  
 18  2 16  8 23 26.0000000  0  8G30G09G10G23G05G01G03G11            -0.000095275
   -692700.398    22505247.216        3534.523          38.000  
    128149.735    20316004.479        -713.750          38.000  
    261308.812    21267511.815       -1425.603          38.000  
    401220.515    22547704.121       -2108.162          38.000  
   -696342.111    24087810.266        3592.358          38.000  
   -256857.695    22251063.330        1262.514          38.000  
    585283.092    24983102.692       -3068.477          38.000  
   -434506.155    21247204.278        2203.298          38.000  
 18  2 16  8 23 27.0000000  0  8G30G09G10G23G05G01G03G11            -0.000095099
   -696234.216    22504574.768        3533.849          38.000  
    128864.072    20316140.391        -714.220          39.000  
    262734.951    21267783.210       -1426.181          38.000  
    403329.068    22548105.352       -2108.516          38.000  
   -699934.200    24087126.722        3592.505          38.000  
   -258119.637    22250823.188        1262.043          38.000  
    588352.190    24983686.723       -3068.892          38.000  
   -436708.944    21246785.053        2202.929          38.000  
 18  2 16  8 23 28.0000000  0  8G30G09G10G23G05G01G03G11            -0.000094923
   -699767.439    22503902.429        3533.078          38.000  
    129578.917    20316276.428        -715.008          38.000  
    264161.747    21268054.747       -1426.848          38.000  
    405437.979    22548506.655       -2108.931          38.000  
   -703526.295    24086443.142        3592.356          38.000  
   -259381.010    22250583.172        1261.299          38.000  
    591421.798    24984270.879       -3069.686          38.000  
   -438911.207    21246366.006        2202.082          38.000  
 18  2 16  8 23 29.0000000  0  8G30G09G10G23G05G01G03G11            -0.000094749
   -703300.218    22503230.160        3532.773          38.000  
    130294.065    20316412.500        -715.077          38.000  
    265589.085    21268326.374       -1427.395          38.000  
    407547.071    22548908.011       -2108.922          38.000  
   -707118.565    24085759.527        3592.609          38.000  
   -260641.984    22250343.226        1260.982          38.000  
    594491.702    24984855.071       -3069.786          38.000  
   -441113.121    21245946.996        2201.947          38.000  
 18  2 16  8 23 30.0000000  0  8G30G09G10G23G05G01G03G11            -0.000094573
   -706832.449    22502558.017        3531.836          38.000  
    131009.655    20316548.680        -715.903          38.000  
    267017.002    21268598.091       -1428.455          38.000  
    409656.454    22549309.421       -2109.736          38.000  
   -710710.909    24085075.894        3592.331          38.000  
   -261902.461    22250103.388        1260.211          38.000  
    597562.042    24985439.334       -3070.506          38.000  
   -443314.503    21245528.128        2200.915          38.000  
 18  2 16  8 23 31.0000000  0  8G30G09G10G23G05G01G03G11            -0.000094398
   -710364.219    22501885.927        3531.606          38.000  
    131725.550    20316684.914        -716.043          38.000  
    268445.540    21268869.932       -1428.635          38.000  
    411765.985    22549710.848       -2109.436          38.000  
   -714303.415    24084392.225        3592.717          38.000  
   -263162.500    22249863.622        1259.878          38.000  
    600632.705    24986023.669       -3070.799          38.000  
   -445515.526    21245109.278        2200.860          38.000  
 18  2 16  8 23 32.0000000  0  8G30G09G10G23G05G01G03G11            -0.000094214
   -713895.528    22501213.945        3530.941          38.000  
    132441.753    20316821.218        -716.350          38.000  
    269874.617    21269141.881       -1429.347          38.000  
    413875.687    22550112.312       -2109.655          38.000  
   -717896.082    24083708.556        3592.673          39.000  
   -264422.140    22249623.891        1259.570          38.000  
    603703.649    24986608.040       -3070.987          38.000  
   -447716.122    21244690.517        2200.508          38.000  
 18  2 16  8 23 33.0000000  0  8G30G09G10G23G05G01G03G11            -0.000094040
   -717426.260    22500542.087        3530.541          38.000  
    133158.381    20316957.577        -716.804          38.000  
    271304.376    21269413.990       -1430.052          38.000  
    415985.649    22550513.847       -2109.978          38.000  
   -721488.796    24083024.905        3592.687          38.000  
   -265681.217    22249384.285        1258.875          39.000  
    606775.025    24987192.500       -3071.572          38.000  
   -449916.140    21244271.828        2199.711          38.000  
 18  2 16  8 23 34.0000000  0  8G30G09G10G23G05G01G03G11            -0.000093872
   -720956.479    22499870.301        3530.186          39.000  
    133875.346    20317094.025        -716.843          38.000  
    272734.718    21269686.171       -1430.570          38.000  
    418095.776    22550915.399       -2110.037          38.000  
   -725081.630    24082341.219        3593.083          39.000  
   -266939.823    22249144.769        1258.525          38.000  
    609846.711    24987777.014       -3071.643          38.000  
   -452115.652    21243853.264        2199.356          38.000  
 18  2 16  8 23 35.0000000  0  8G30G09G10G23G05G01G03G11            -0.000093698
   -724486.154    22499198.623        3529.521          38.000  
    134592.696    20317230.526        -717.528          38.000  
    274165.814    21269958.513       -1431.275          38.000  
    420206.089    22551316.988       -2110.279          38.000  
   -728674.522    24081657.514        3592.853          39.000  
   -268197.940    22248905.360        1257.888          38.000  
    612918.750    24988361.617       -3072.282          38.000  
   -454314.607    21243434.807        2198.830          39.000  
 18  2 16  8 23 36.0000000  0  8G30G09G10G23G05G01G03G11            -0.000093521
   -728015.153    22498527.087        3528.608          38.000  
    135310.507    20317367.117        -717.996          38.000  
    275597.664    21270230.980       -1432.207          38.000  
    422316.700    22551718.594       -2110.691          38.000  
   -732267.365    24080973.792        3592.774          38.000  
   -269455.394    22248666.076        1257.137          38.000  
    615991.230    24988946.291       -3072.663          38.000  
   -456512.865    21243016.494        2198.036          38.000  
 18  2 16  8 23 37.0000000  0  8G30G09G10G23G05G01G03G11            -0.000093344
   -731543.713    22497855.605        3528.410          38.000  
    136028.611    20317503.779        -718.368          38.000  
    277030.129    21270503.554       -1432.827          38.000  
    424427.413    22552120.236       -2110.941          38.000  
   -735860.359    24080290.087        3592.981          38.000  
   -270712.418    22248426.845        1256.632          38.000  
    619063.961    24989531.037       -3072.789          38.000  
   -458710.622    21242598.269        2197.556          39.000  
 18  2 16  8 23 38.0000000  0  8G30G09G10G23G05G01G03G11            -0.000093174
   -735071.666    22497184.248        3527.757          38.000  
    136747.086    20317640.477        -718.711          39.000  
    278463.300    21270776.271       -1433.805          38.000  
    426538.280    22552521.949       -2110.890          38.000  
   -739453.350    24079606.365        3592.986          39.000  
   -271968.883    22248187.740        1256.218          38.000  
    622137.053    24990115.801       -3073.353          38.000  
   -460907.707    21242180.188        2196.635          38.000  
 18  2 16  8 23 39.0000000  0  8G30G09G10G23G05G01G03G11            -0.000092999
   -738599.043    22496512.980        3527.189          38.000  
    137465.912    20317777.247        -718.973          38.000  
    279897.257    21271049.149       -1434.126          39.000  
    428649.319    22552923.663       -2110.957          38.000  
   -743046.392    24078922.642        3593.101          38.000  
   -273224.797    22247948.724        1255.695          39.000  
    625210.437    24990700.636       -3073.552          39.000  
   -463104.132    21241762.231        2196.253          39.000  
 18  2 16  8 23 40.0000000  0  8G30G09G10G23G05G01G03G11            -0.000092826
   -742125.834    22495841.837        3526.527          38.000  
    138185.133    20317914.106        -719.314          39.000  
    281331.971    21271322.152       -1434.890          38.000  
    430760.537    22553325.430       -2111.243          38.000  
   -746639.404    24078238.920        3593.088          38.000  
   -274480.107    22247709.868        1255.052          38.000  
    628284.151    24991285.543       -3073.735          38.000  
   -465299.869    21241344.418        2195.608          38.000  
 18  2 16  8 23 41.0000000  0  8G30G09G10G23G05G01G03G11            -0.000092652
   -745651.988    22495170.838        3526.021          38.000  
    138904.787    20318051.054        -719.723          38.000  
    282767.510    21271595.316       -1435.692          38.000  
    432871.948    22553727.197       -2111.200          38.000  
   -750232.353    24077555.198        3593.085          38.000  
   -275734.777    22247471.120        1254.609          38.000  
    631358.247    24991870.539       -3073.988          39.000  
   -467494.829    21240926.747        2194.855          38.000  
 18  2 16  8 23 42.0000000  0  8G30G09G10G23G05G01G03G11            -0.000092478
   -749177.618    22494499.927        3525.195          38.000  
    139624.700    20318188.038        -719.970          38.000  
    284203.712    21271868.604       -1436.987          38.000  
    434983.439    22554129.000       -2111.551          38.000  
   -753825.353    24076871.493        3592.874          38.000  
   -276988.924    22247232.515        1253.808          38.000  
    634432.556    24992455.553       -3074.408          38.000  
   -469689.163    21240509.202        2193.702          38.000  
 18  2 16  8 23 43.0000000  0  8G30G09G10G23G05G01G03G11            -0.000092305
   -752702.636    22493829.124        3524.856          38.000  
    140345.069    20318325.129        -720.438          38.000  
    285640.826    21272142.054       -1437.469          38.000  
    437095.106    22554530.821       -2111.635          38.000  
   -757418.275    24076187.788        3592.937          38.000  
   -278242.412    22246993.982        1253.265          38.000  
    637507.213    24993040.620       -3074.735          38.000  
   -471882.636    21240091.817        2193.278          38.000  
 18  2 16  8 23 44.0000000  0  8G30G09G10G23G05G01G03G11            -0.000092130
   -756227.053    22493158.482        3524.430          38.000  
    141065.763    20318462.256        -720.461          38.000  
    287078.706    21272415.629       -1437.886          38.000  
    439206.881    22554932.677       -2111.544          38.000  
   -761011.183    24075504.084        3593.206          38.000  
   -279495.308    22246755.555        1252.903          38.000  
    640582.109    24993625.759       -3074.672          38.000  
   -474075.401    21239674.575        2192.712          38.000  
 18  2 16  8 23 45.0000000  0  8G30G09G10G23G05G01G03G11            -0.000091956
   -759751.120    22492487.875        3524.132          39.000  
    141786.586    20318599.401        -720.492          38.000  
    288517.174    21272689.346       -1438.497          38.000  
    441318.547    22555334.516       -2111.338          38.000  
   -764604.259    24074820.326        3593.674          38.000  
   -280747.803    22246517.236        1252.758          38.000  
    643657.041    24994210.880       -3074.591          38.000  
   -476267.601    21239257.387        2192.296          38.000  
 18  2 16  8 23 46.0000000  0  8G30G09G10G23G05G01G03G11            -0.000091782
   -763274.746    22491817.358        3523.204          38.000  
    142507.625    20318736.599        -721.298          38.000  
    289956.265    21272963.171       -1439.769          38.000  
    443430.149    22555736.337       -2111.599          38.000  
   -768197.394    24074136.585        3593.006          38.000  
   -281999.771    22246278.989        1251.428          38.000  
    646732.085    24994796.019       -3075.170          38.000  
   -478459.160    21238840.360        2190.786          38.000  
 18  2 16  8 23 47.0000000  0  8G30G09G10G23G05G01G03G11            -0.000091610
   -766797.714    22491146.966        3522.753          38.000  
    143229.115    20318873.887        -721.553          38.000  
    291396.373    21273237.211       -1440.259          38.000  
    445541.956    22556138.229       -2111.669          38.000  
   -771790.382    24073452.863        3593.090          39.000  
   -283251.053    22246040.902        1251.072          38.000  
    649807.459    24995381.248       -3075.344          39.000  
   -480649.738    21238423.511        2190.298          38.000  
 18  2 16  8 23 48.0000000  0  8G30G09G10G23G05G01G03G11            -0.000091433
   -770320.088    22490476.699        3522.195          38.000  
    143950.941    20319011.246        -721.855          38.000  
    292837.313    21273511.393       -1441.196          38.000  
    447653.862    22556540.121       -2111.896          38.000  
   -775383.260    24072769.123        3592.723          38.000  
   -284501.656    22245802.922        1250.367          38.000  
    652883.061    24995966.512       -3075.848          38.000  
   -482839.523    21238006.770        2189.590          38.000  
 18  2 16  8 23 49.0000000  0  8G30G09G10G23G05G01G03G11            -0.000091262
   -773841.833    22489806.521        3521.606          38.000  
    144673.161    20319148.694        -722.042          38.000  
    294279.141    21273785.754       -1441.930          38.000  
    449765.886    22556942.013       -2111.936          38.000  
   -778976.016    24072085.436        3592.866          38.000  
   -285751.542    22245565.068        1249.850          38.000  
    655958.900    24996551.830       -3075.855          38.000  
   -485028.373    21237590.243        2188.612          38.000  
 18  2 16  8 23 50.0000000  0  8G30G09G10G23G05G01G03G11            -0.000091088
   -777363.172    22489136.433        3521.474          38.000  
    145395.588    20319286.179        -722.159          38.000  
    295721.644    21274060.276       -1442.847          38.000  
    451877.823    22557343.905       -2111.587          38.000  
   -782568.802    24071401.767        3593.155          38.000  
   -287000.914    22245327.302        1249.389          38.000  
    659034.782    24997137.147       -3075.627          38.000  
   -487216.570    21237173.841        2187.876          38.000  
 18  2 16  8 23 51.0000000  0  8G30G09G10G23G05G01G03G11            -0.000090916
   -780883.921    22488466.452        3520.377          38.000  
    146118.373    20319423.734        -723.058          38.000  
    297165.096    21274334.941       -1443.880          38.000  
    453989.828    22557745.797       -2112.093          38.000  
   -786161.446    24070718.098        3592.584          38.000  
   -288249.597    22245089.680        1248.366          38.000  
    662110.859    24997722.519       -3076.212          38.000  
   -489403.793    21236757.636        2186.981          38.000  
 18  2 16  8 23 52.0000000  0  8G30G09G10G23G05G01G03G11            -0.000090739
   -784404.010    22487796.596        3519.959          38.000  
    146841.583    20319561.362        -723.326          38.000  
    298609.508    21274609.802       -1444.638          38.000  
    456102.001    22558147.708       -2112.075          38.000  
   -789753.872    24070034.483        3592.593          38.000  
   -289497.486    22244852.219        1247.729          38.000  
    665187.192    24998307.908       -3076.261          38.000  
   -491590.024    21236341.609        2185.875          38.000  
 18  2 16  8 23 53.0000000  0  8G30G09G10G23G05G01G03G11            -0.000090568
   -787923.571    22487126.865        3519.355          38.000  
    147565.122    20319699.043        -723.779          38.000  
    300054.772    21274884.824       -1445.611          38.000  
    458214.183    22558549.653       -2112.187          38.000  
   -793346.157    24069350.886        3592.212          39.000  
   -290744.671    22244614.900        1246.728          38.000  
    668263.677    24998893.333       -3076.649          38.000  
   -493775.376    21235925.762        2184.733          38.000  
 18  2 16  8 23 54.0000000  0  8G30G09G10G23G05G01G03G11            -0.000090393
   -791442.617    22486457.223        3518.619          38.000  
    148288.946    20319836.795        -724.252          38.000  
    301500.838    21275160.007       -1446.876          38.000  
    460326.372    22558951.599       -2112.326          38.000  
   -796938.328    24068667.306        3591.956          38.000  
   -291991.227    22244377.707        1245.999          38.000  
    671340.236    24999478.776       -3076.903          38.000  
   -495959.934    21235510.074        2183.877          38.000  
 18  2 16  8 23 55.0000000  0  8G30G09G10G23G05G01G03G11            -0.000090222
   -794961.042    22485787.671        3518.387          38.000  
    149013.189    20319974.619        -724.275          38.000  
    302947.961    21275435.386       -1447.294          38.000  
    462438.684    22559353.563       -2112.152          38.000  
   -800530.247    24067983.780        3591.997          38.000  
   -293236.969    22244140.656        1245.544          38.000  
    674417.011    25000064.254       -3076.738          38.000  
   -498143.366    21235094.620        2183.344          38.000  
 18  2 16  8 23 56.0000000  0  8G30G09G10G23G05G01G03G11            -0.000090043
   -798478.762    22485118.279        3517.543          38.000  
    149737.924    20320112.532        -724.850          38.000  
    304396.119    21275710.980       -1448.507          38.000  
    464551.179    22559755.562       -2112.384          38.000  
   -804121.840    24067300.308        3591.632          38.000  
   -294481.823    22243903.784        1244.612          38.000  
    677494.036    25000649.768       -3076.934          38.000  
   -500325.715    21234679.361        2181.953          38.000  
 18  2 16  8 23 57.0000000  0  8G30G09G10G23G05G01G03G11            -0.000089865
   -801996.137    22484448.959        3517.105          38.000  
    150462.804    20320250.445        -725.052          38.000  
    305844.995    21275986.682       -1449.337          38.000  
    466663.508    22560157.526       -2112.213          38.000  
   -807713.403    24066616.872        3591.510          38.000  
   -295726.128    22243666.984        1243.957          38.000  
    680570.985    25001235.301       -3076.954          38.000  
   -502507.318    21234264.210        2181.324          38.000  
 18  2 16  8 23 58.0000000  0  8G30G09G10G23G05G01G03G11            -0.000089694
   -805513.125    22483779.693        3516.628          38.000  
    151187.903    20320388.429        -725.411          38.000  
    307294.600    21276262.561       -1450.299          38.000  
    468775.753    22560559.472       -2112.447          38.000  
   -811304.895    24065933.417        3591.384          38.000  
   -296969.827    22243430.309        1243.310          38.000  
    683647.904    25001820.815       -3077.030          38.000  
   -504688.103    21233849.220        2179.970          38.000  
 18  2 16  8 23 59.0000000  0  8G30G09G10G23G05G01G03G11            -0.000089516
   -809029.694    22483110.516        3516.581          38.000  
    151913.232    20320526.468        -725.299          38.000  
    308745.103    21276538.602       -1450.747          38.000  
    470887.910    22560961.382       -2111.964          38.000  
   -814896.262    24065249.999        3591.446          38.000  
   -298212.865    22243193.759        1242.969          38.000  
    686724.783    25002406.329       -3076.701          38.000  
   -506867.950    21233434.409        2179.685          38.000  
 18  2 16  8 24  0.0000000  0  8G30G09G10G23G05G01G03G11            -0.000089339
   -812545.682    22482441.410        3515.917          38.000  
    152638.969    20320664.595        -725.768          38.000  
    310196.576    21276814.804       -1451.774          38.000  
    473000.144    22561363.310       -2112.160          38.000  
   -818487.323    24064566.634        3591.011          38.000  
   -299455.056    22242957.387        1241.870          38.000  
    689801.810    25002991.879       -3077.015          38.000  
   -509046.767    21233019.812        2178.369          38.000  
 18  2 16  8 24  1.0000000  0  8G30G09G10G23G05G01G03G11            -0.000089165
   -816061.175    22481772.448        3515.278          38.000  
    153365.012    20320802.758        -726.060          38.000  
    311648.937    21277091.184       -1452.752          38.000  
    475112.373    22561765.238       -2111.997          38.000  
   -822078.190    24063883.304        3590.975          38.000  
   -300696.531    22242721.123        1241.287          38.000  
    692878.845    25003577.429       -3076.955          38.000  
   -511224.659    21232605.340        2177.616          38.000  
 18  2 16  8 24  2.0000000  0  8G30G09G10G23G05G01G03G11            -0.000088992
   -819576.242    22481103.557        3515.035          38.000  
    154091.367    20320940.993        -726.389          38.000  
    313102.135    21277367.725       -1453.710          38.000  
    477224.598    22562167.166       -2112.196          38.000  
   -825668.806    24063200.029        3590.574          39.000  
   -301937.243    22242485.038        1240.480          38.000  
    695955.894    25004162.979       -3076.958          38.000  
   -513401.617    21232191.100        2176.435          38.000  
 18  2 16  8 24  3.0000000  0  8G30G09G10G23G05G01G03G11            -0.000088818
   -823090.685    22480434.791        3514.582          38.000  
    154818.182    20321079.317        -726.600          38.000  
    314556.431    21277644.462       -1454.295          38.000  
    479336.955    22562569.147       -2112.118          38.000  
   -829259.054    24062516.824        3590.441          38.000  
   -303177.043    22242249.095        1239.731          38.000  
    699033.086    25004748.547       -3076.855          38.000  
   -515577.390    21231777.057        2175.659          38.000  
 18  2 16  8 24  4.0000000  0  8G30G09G10G23G05G01G03G11            -0.000088642
   -826604.651    22479766.132        3513.854          38.000  
    155545.342    20321217.677        -727.284          38.000  
    316011.656    21277921.396       -1455.467          38.000  
    481449.306    22562971.111       -2112.310          38.000  
   -832849.001    24061833.674        3589.780          39.000  
   -304416.043    22242013.313        1238.533          38.000  
    702110.302    25005334.133       -3077.126          38.000  
   -517752.197    21231363.175        2174.551          38.000  
 18  2 16  8 24  5.0000000  0  8G30G09G10G23G05G01G03G11            -0.000088468
   -830118.199    22479097.527        3513.535          38.000  
    156272.779    20321356.108        -727.462          38.000  
    317467.758    21278198.491       -1456.417          38.000  
    483561.634    22563373.074       -2112.214          38.000  
   -836438.739    24061150.559        3589.740          39.000  
   -305654.325    22241777.674        1237.953          38.000  
    705187.475    25005919.701       -3077.069          38.000  
   -519926.043    21230949.507        2173.632          38.000  
 18  2 16  8 24  6.0000000  0  8G30G09G10G23G05G01G03G11            -0.000088295
   -833631.503    22478428.975        3513.028          38.000  
    157000.357    20321494.576        -727.672          38.000  
    318924.517    21278475.711       -1457.385          38.000  
    485673.768    22563774.985       -2112.129          38.000  
   -840028.384    24060467.480        3589.548          38.000  
   -306891.000    22241542.125        1237.226          38.000  
    708264.432    25006505.251       -3076.940          38.000  
   -522099.145    21230535.982        2172.395          38.000  
 18  2 16  8 24  9.0000000  0  8G30G09G10G23G05G01G03G11            -0.000087773
   -844168.710    22476423.785        3511.764          38.000  
    159185.275    20321910.352        -728.739          38.000  
    323300.526    21279308.444       -1459.910          38.000  
    492010.318    22564980.804       -2111.998          38.000  
   -850795.362    24058418.653        3588.508          38.000  
   -310600.061    22240836.459        1234.788          38.000  
    717495.262    25008261.847       -3076.801          38.000  
   -528612.259    21229296.568        2169.501          38.000  
 18  2 16  8 24 11.0000000  0  8G30G09G10G23G05G01G03G11            -0.000087425
   -851191.430    22475087.396        3511.020          38.000  
    160643.650    20322187.840        -729.517          38.000  
    326222.383    21279864.420       -1461.526          38.000  
    496234.813    22565784.696       -2112.130          39.000  
   -857971.697    24057053.049        3587.839          38.000  
   -313067.997    22240366.844        1233.237          38.000  
    723648.966    25009432.858       -3076.729          38.000  
   -532949.456    21228471.234        2167.787          38.000  
 18  2 16  8 24 12.0000000  0  8G30G09G10G23G05G01G03G11            -0.000087255
   -854702.200    22474419.291        3510.868          38.000  
    161373.355    20322326.682        -729.623          39.000  
    327684.708    21280142.712       -1462.559          38.000  
    498347.094    22566186.659       -2112.033          39.000  
   -861559.359    24056370.345        3587.700          38.000  
   -314300.711    22240132.259        1232.397          39.000  
    726725.738    25010018.336       -3076.488          39.000  
   -535116.537    21228058.835        2166.768          38.000  
 18  2 16  8 24 13.0000000  0  8G30G09G10G23G05G01G03G11            -0.000087080
   -858212.648    22473751.294        3510.220          38.000  
    162103.349    20322465.578        -729.986          38.000  
    329147.829    21280421.130       -1463.538          39.000  
    500459.324    22566588.605       -2112.275          38.000  
   -865146.745    24055687.677        3587.266          38.000  
   -315532.674    22239897.835        1231.516          38.000  
    729802.380    25010603.797       -3076.622          38.000  
   -537282.748    21227646.632        2165.633          38.000  
 18  2 16  8 24 14.0000000  0  8G30G09G10G23G05G01G03G11            -0.000086903
   -861722.800    22473083.314        3510.078          38.000  
    162833.664    20322604.564        -730.480          38.000  
    330611.744    21280699.726       -1464.376          38.000  
    502571.531    22566990.551       -2112.178          38.000  
   -868733.817    24055005.080        3586.888          38.000  
   -316763.855    22239663.555        1230.744          38.000  
    732878.897    25011189.222       -3076.600          38.000  
   -539448.113    21227234.590        2164.807          38.000  
 18  2 16  8 24 15.0000000  0  8G30G09G10G23G05G01G03G11            -0.000086729
   -865232.540    22472415.423        3509.659          38.000  
    163564.380    20322743.585        -730.895          38.000  
    332076.626    21280978.465       -1465.342          38.000  
    504683.825    22567392.515       -2112.216          38.000  
   -872320.483    24054322.537        3586.477          38.000  
   -317994.156    22239429.435        1229.900          38.000  
    735955.373    25011774.665       -3076.470          38.000  
   -541612.406    21226822.745        2163.812          38.000  
 18  2 16  8 24 16.0000000  0  8G30G09G10G23G05G01G03G11            -0.000086556
   -868741.867    22471747.622        3509.067          38.000  
    164295.521    20322882.713        -731.457          38.000  
    333542.427    21281257.382       -1466.376          38.000  
    506796.230    22567794.460       -2112.492          38.000  
   -875906.756    24053640.066        3586.030          38.000  
   -319223.586    22239195.476        1229.022          38.000  
    739031.825    25012360.125       -3076.531          38.000  
   -543775.721    21226411.079        2162.660          38.000  
 18  2 16  8 24 17.0000000  0  8G30G09G10G23G05G01G03G11            -0.000086378
   -872250.931    22471079.875        3509.028          38.000  
    165026.969    20323021.912        -731.489          38.000  
    335009.018    21281536.478       -1466.814          38.000  
    508908.619    22568196.442       -2112.298          38.000  
   -879492.697    24052957.665        3585.972          38.000  
   -320452.194    22238961.677        1228.401          38.000  
    742108.133    25012945.532       -3076.066          38.000  
   -545938.177    21225999.573        2162.078          38.000  
 18  2 16  8 24 18.0000000  0  8G30G09G10G23G05G01G03G11            -0.000086205
   -875759.585    22470412.216        3508.513          38.000  
    165758.875    20323161.201        -732.094          38.000  
    336476.548    21281815.736       -1467.879          38.000  
    511021.142    22568598.477       -2112.404          38.000  
   -883078.181    24052275.390        3585.337          38.000  
   -321679.906    22238728.058        1227.384          38.000  
    745184.440    25013530.922       -3076.161          38.000  
   -548099.680    21225588.228        2161.211          38.000  
 18  2 16  8 24 19.0000000  0  8G30G09G10G23G05G01G03G11            -0.000086032
   -879267.990    22469744.594        3508.630          38.000  
    166491.083    20323300.526        -732.022          38.000  
    337944.864    21282095.153       -1468.391          38.000  
    513133.667    22569000.494       -2112.258          38.000  
   -886663.344    24051593.151        3585.279          38.000  
   -322906.826    22238494.563        1226.759          38.000  
    748260.590    25014116.293       -3075.769          38.000  
   -550260.269    21225177.080        2160.422          38.000  
 18  2 16  8 24 22.0000000  0  8G30G09G10G23G05G01G03G11            -0.000085511
   -889791.859    22467741.977        3507.781          38.000  
    168689.603    20323718.876        -733.321          38.000  
    342354.366    21282934.265       -1470.879          38.000  
    519471.254    22570206.510       -2112.446          38.000  
   -897417.015    24049546.773        3584.084          38.000  
   -326583.040    22237795.009        1224.246          38.000  
    757488.016    25015872.246       -3075.449          38.000  
   -556737.287    21223944.510        2157.959          38.000  
 18  2 16  8 24 23.0000000  0  8G30G09G10G23G05G01G03G11            -0.000085338
   -893299.328    22467074.497        3507.419          38.000  
    169423.131    20323858.469        -733.565          38.000  
    343825.703    21283214.272       -1471.489          38.000  
    521583.880    22570608.528       -2112.503          38.000  
   -901000.900    24048864.784        3583.847          38.000  
   -327806.854    22237562.158        1223.508          38.000  
    760563.543    25016457.474       -3075.277          38.000  
   -558894.679    21223533.969        2157.201          38.000  
 18  2 16  8 24 24.0000000  0  8G30G09G10G23G05G01G03G11            -0.000085164
   -896806.558    22466407.089        3507.142          38.000  
    170157.053    20323998.133        -734.008          38.000  
    345297.858    21283494.423       -1472.314          38.000  
    523696.590    22571010.581       -2112.681          38.000  
   -904584.405    24048182.884        3583.326          38.000  
   -329029.862    22237329.431        1222.684          38.000  
    763638.951    25017042.721       -3075.101          38.000  
   -561051.239    21223123.589        2156.328          38.000  
 18  2 16  8 24 25.0000000  0  8G30G09G10G23G05G01G03G11            -0.000084990
   -900313.586    22465739.735        3506.655          38.000  
    170891.328    20324137.869        -734.651          38.000  
    346770.755    21283774.716       -1473.486          38.000  
    525809.374    22571412.634       -2113.026          38.000  
   -908167.585    24047501.002        3582.835          38.000  
   -330252.075    22237096.848        1221.581          38.000  
    766714.248    25017627.913       -3075.331          38.000  
   -563207.044    21222713.352        2155.314          38.000  
 18  2 16  8 24 26.0000000  0  8G30G09G10G23G05G01G03G11            -0.000084816
   -903820.301    22465072.416        3506.722          38.000  
    171626.081    20324277.694        -734.918          38.000  
    348244.476    21284055.135       -1473.948          38.000  
    527922.353    22571814.723       -2113.021          38.000  
   -911750.297    24046819.263        3582.561          38.000  
   -331473.404    22236864.462        1221.085          38.000  
    769789.504    25018213.124       -3075.176          38.000  
   -565361.985    21222303.294        2154.789          38.000  
 18  2 16  8 24 27.0000000  0  8G30G09G10G23G05G01G03G11            -0.000084645
   -907326.864    22464405.133        3506.410          38.000  
    172361.129    20324417.572        -735.216          38.000  
    349718.857    21284335.714       -1474.951          38.000  
    530035.356    22572216.811       -2113.070          38.000  
   -915332.743    24046137.542        3582.256          38.000  
   -332694.003    22236632.182        1220.297          38.000  
    772864.559    25018798.263       -3074.993          38.000  
   -567516.266    21221893.361        2153.872          38.000  
 18  2 16  8 24 28.0000000  0  8G30G09G10G23G05G01G03G11            -0.000084469
   -910833.178    22463737.886        3506.427          38.000  
    173096.642    20324557.541        -735.538          39.000  
    351194.010    21284616.419       -1475.504          38.000  
    532148.524    22572618.936       -2112.973          38.000  
   -918914.756    24045455.910        3581.905          38.000  
   -333913.733    22236400.063        1219.604          38.000  
    775939.585    25019383.438       -3074.802          38.000  
   -569669.739    21221483.570        2153.279          38.000  
 18  2 16  8 24 29.0000000  0  8G30G09G10G23G05G01G03G11            -0.000084295
   -914339.293    22463070.693        3505.956          38.000  
    173832.540    20324697.562        -736.109          38.000  
    352669.867    21284897.302       -1476.405          38.000  
    534261.838    22573021.114       -2113.446          38.000  
   -922496.442    24044774.332        3581.331          38.000  
   -335132.701    22236168.088        1218.543          38.000  
    779014.467    25019968.577       -3074.923          38.000  
   -571822.515    21221073.905        2152.432          38.000  
 18  2 16  8 24 30.0000000  0  8G30G09G10G23G05G01G03G11            -0.000084123
   -917845.298    22462403.517        3505.858          38.000  
    174568.758    20324837.673        -736.373          38.000  
    354146.351    21285178.275       -1476.844          38.000  
    536375.190    22573423.274       -2113.449          38.000  
   -926077.862    24044092.807        3581.326          38.000  
   -336350.943    22235936.219        1217.760          38.000  
    782089.181    25020553.698       -3074.674          38.000  
   -573974.670    21220664.365        2151.979          38.000  
 18  2 16  8 24 31.0000000  0  8G30G09G10G23G05G01G03G11            -0.000083959
   -921351.040    22461736.377        3505.704          38.000  
    175305.469    20324977.856        -736.816          38.000  
    355623.581    21285459.390       -1477.656          38.000  
    538488.785    22573825.524       -2113.565          38.000  
   -929658.829    24043411.408        3580.681          38.000  
   -337568.342    22235704.565        1217.178          38.000  
    785163.876    25021138.801       -3074.542          38.000  
   -576126.089    21220255.004        2151.150          38.000  
 18  2 16  8 24 32.0000000  0  8G30G09G10G23G05G01G03G11            -0.000083786
   -924856.556    22461069.326        3505.644          38.000  
    176042.661    20325118.128        -737.363          38.000  
    357101.551    21285740.649       -1478.370          38.000  
    540602.598    22574227.791       -2113.625          38.000  
   -933239.409    24042730.062        3580.410          38.000  
   -338784.888    22235473.072        1216.337          38.000  
    788238.542    25021723.869       -3074.468          38.000  
   -578276.797    21219845.767        2150.583          38.000  
 18  2 16  8 24 33.0000000  0  8G30G09G10G23G05G01G03G11            -0.000083613
   -928361.923    22460402.258        3505.421          38.000  
    176780.205    20325258.489        -737.550          38.000  
    358580.139    21286021.996       -1478.958          38.000  
    542716.565    22574630.059       -2113.990          38.000  
   -936819.694    24042048.716        3580.094          38.000  
   -340000.716    22235241.722        1215.626          38.000  
    791313.083    25022308.936       -3074.341          38.000  
   -580426.872    21219436.656        2149.786          38.000  
 18  2 16  8 24 34.0000000  0  8G30G09G10G23G05G01G03G11            -0.000083432
   -931867.113    22459735.261        3505.146          38.000  
    177518.204    20325398.903        -738.081          38.000  
    360059.397    21286303.487       -1479.325          38.000  
    544830.720    22575032.380       -2114.266          38.000  
   -940399.639    24041367.460        3579.911          38.000  
   -341215.741    22235010.515        1214.704          38.000  
    794387.568    25022894.039       -3074.366          38.000  
   -582576.314    21219027.634        2149.436          38.000  
 18  2 16  8 24 35.0000000  0  8G30G09G10G23G05G01G03G11            -0.000083258
   -935372.083    22459068.282        3504.859          38.000  
    178256.701    20325539.443        -738.572          38.000  
    361539.345    21286585.103       -1480.325          38.000  
    546945.130    22575434.719       -2114.390          38.000  
   -943979.155    24040686.311        3579.344          38.000  
   -342429.953    22234779.468        1213.878          38.000  
    797462.048    25023479.107       -3074.301          38.000  
   -584725.157    21218618.737        2148.632          38.000  
 18  2 16  8 24 36.0000000  0  8G30G09G10G23G05G01G03G11            -0.000083085
   -938876.943    22458401.320        3505.025          38.000  
    178995.569    20325680.055        -738.727          38.000  
    363019.843    21286866.808       -1480.457          38.000  
    549059.736    22575837.129       -2114.671          38.000  
   -947558.433    24040005.197        3579.345          38.000  
   -343643.473    22234548.529        1213.456          38.000  
    800536.405    25024064.157       -3074.038          38.000  
   -586873.443    21218209.894        2148.030          38.000  
 18  2 16  8 24 37.0000000  0  8G30G09G10G23G05G01G03G11            -0.000082912
   -942381.578    22457734.395        3504.810          38.000  
    179734.968    20325820.791        -739.491          38.000  
    364501.072    21287148.674       -1481.409          39.000  
    551174.589    22576239.575       -2114.832          38.000  
   -951137.304    24039324.155        3578.792          38.000  
   -344856.142    22234317.768        1212.396          38.000  
    803610.806    25024649.206       -3074.271          38.000  
   -589021.111    21217801.212        2147.536          38.000  
 18  2 16  8 24 38.0000000  0  8G30G09G10G23G05G01G03G11            -0.000082738
   -945885.790    22457067.576        3503.949          38.000  
    180475.037    20325961.617        -740.389          39.000  
    365983.146    21287430.701       -1482.272          38.000  
    553289.937    22576642.111       -2115.427          38.000  
   -954715.628    24038643.220        3578.128          39.000  
   -346067.848    22234087.187        1211.265          38.000  
    806685.412    25025234.292       -3074.730          39.000  
   -591167.956    21217392.672        2146.909          39.000  
 18  2 16  8 24 39.0000000  0  8G30G09G10G23G05G01G03G11            -0.000082564
   -949389.687    22456400.812        3504.082          38.000  
    181215.769    20326102.550        -740.621          38.000  
    367465.951    21287712.853       -1482.810          38.000  
    555405.755    22577044.700       -2115.547          38.000  
   -958293.445    24037962.357        3578.051          38.000  
   -347278.609    22233856.783        1210.709          38.000  
    809760.169    25025819.413       -3074.411          38.000  
   -593314.174    21216984.276        2146.237          38.000  
 18  2 16  8 24 40.0000000  0  8G30G09G10G23G05G01G03G11            -0.000082388
   -952893.833    22455733.993        3503.752          38.000  
    181956.535    20326243.483        -741.257          38.000  
    368948.936    21287995.022       -1483.524          38.000  
    557521.385    22577447.307       -2115.921          38.000  
   -961871.369    24037281.511        3577.534          38.000  
   -348489.078    22233626.416        1210.011          38.000  
    812834.505    25026404.427       -3074.437          38.000  
   -595460.262    21216575.897        2145.541          38.000  
 18  2 16  8 24 41.0000000  0  8G30G09G10G23G05G01G03G11            -0.000082215
   -956397.382    22455067.282        3502.996          38.000  
    182698.213    20326384.595        -742.413          38.000  
    370432.946    21288277.407       -1484.665          38.000  
    559637.772    22577850.039       -2117.014          38.000  
   -965448.558    24036600.791        3576.610          38.000  
   -349698.335    22233396.281        1208.389          38.000  
    815909.312    25026989.548       -3075.344          38.000  
   -597605.415    21216167.679        2144.409          38.000  
 18  2 16  8 24 42.0000000  0  8G30G09G10G23G05G01G03G11            -0.000082041
   -959900.322    22454400.696        3502.981          38.000  
    183440.846    20326525.921        -742.819          38.000  
    371918.032    21288559.969       -1485.020          38.000  
    561754.898    22578252.914       -2117.052          38.000  
   -969024.985    24035920.213        3576.326          38.000  
   -350906.415    22233166.396        1207.679          38.000  
    818984.583    25027574.759       -3075.145          38.000  
   -599749.592    21215759.640        2144.420          38.000  
 18  2 16  8 24 43.0000000  0  8G30G09G10G23G05G01G03G11            -0.000081867
   -963402.823    22453734.182        3502.456          38.000  
    184184.211    20326667.408        -743.618          38.000  
    373403.855    21288842.693       -1486.083          38.000  
    563872.612    22578655.878       -2117.800          38.000  
   -972600.887    24035239.743        3575.877          38.000  
   -352113.545    22232936.672        1206.979          38.000  
    822060.144    25028160.023       -3075.500          38.000  
   -601893.159    21215351.690        2143.301          38.000  
 18  2 16  8 24 44.0000000  0  8G30G09G10G23G05G01G03G11            -0.000081693
   -966905.109    22453067.721        3502.190          38.000  
    184928.131    20326808.948        -744.122          38.000  
    374890.316    21289125.524       -1486.854          38.000  
    565990.701    22579058.932       -2118.300          38.000  
   -976176.425    24034559.291        3575.444          39.000  
   -353319.855    22232707.090        1205.972          38.000  
    825135.828    25028745.323       -3075.790          38.000  
   -604036.205    21214943.883        2142.705          38.000  
 18  2 16  8 24 45.0000000  0  8G30G09G10G23G05G01G03G11            -0.000081520
   -970407.344    22452401.278        3502.165          38.000  
    185672.449    20326950.578        -744.595          38.000  
    376377.209    21289408.480       -1487.293          38.000  
    568109.020    22579462.039       -2118.553          38.000  
   -979751.800    24033878.892        3575.277          38.000  
   -354525.576    22232477.652        1205.364          38.000  
    828211.466    25029330.587       -3075.674          38.000  
   -606178.930    21214536.148        2142.334          38.000  
 18  2 16  8 24 46.0000000  0  8G30G09G10G23G05G01G03G11            -0.000081346
   -973909.439    22451734.852        3502.282          38.000  
    186417.208    20327092.297        -744.567          38.000  
    377864.598    21289691.507       -1487.159          38.000  
    570227.629    22579865.200       -2118.386          38.000  
   -983326.963    24033198.564        3575.413          38.000  
   -355730.657    22232248.339        1205.040          38.000  
    831287.120    25029915.851       -3075.343          38.000  
   -608321.259    21214128.430        2142.977          38.000  
 18  2 16  8 24 47.0000000  0  8G30G09G10G23G05G01G03G11            -0.000081174
   -977411.402    22451068.445        3502.156          38.000  
    187162.480    20327234.124        -745.249          38.000  
    379352.443    21289974.642       -1487.892          38.000  
    572346.602    22580268.432       -2118.895          38.000  
   -986901.885    24032518.291        3575.048          38.000  
   -356935.053    22232019.169        1204.258          38.000  
    834362.861    25030501.151       -3075.544          38.000  
   -610463.299    21213720.820        2141.908          38.000  
 18  2 16  8 24 48.0000000  0  8G30G09G10G23G05G01G03G11            -0.000081002
   -980913.285    22450402.091        3501.947          38.000  
    187908.148    20327376.022        -745.664          38.000  
    380840.717    21290257.884       -1488.551          38.000  
    574465.819    22580671.718       -2119.131          38.000  
   -990476.657    24031838.053        3574.779          38.000  
   -358138.844    22231790.088        1203.444          38.000  
    837438.597    25031086.433       -3075.569          38.000  
   -612605.048    21213313.246        2141.530          38.000  
 18  2 16  8 24 49.0000000  0  8G30G09G10G23G05G01G03G11            -0.000080826
   -984414.937    22449735.756        3501.876          38.000  
    188654.403    20327518.027        -746.266          38.000  
    382329.545    21290541.197       -1488.840          38.000  
    576585.520    22581075.111       -2119.751          38.000  
   -994051.146    24031157.833        3574.688          38.000  
   -359341.920    22231561.150        1202.865          38.000  
    840514.517    25031671.768       -3075.611          38.000  
   -614746.391    21212905.796        2141.368          38.000  
 18  2 16  8 24 50.0000000  0  8G30G09G10G23G05G01G03G11            -0.000080651
   -987916.576    22449069.402        3501.668          38.000  
    189401.006    20327660.103        -746.820          38.000  
    383818.733    21290824.564       -1489.148          38.000  
    578705.389    22581478.487       -2119.908          38.000  
   -997625.582    24030477.648        3574.495          38.000  
   -360544.524    22231332.301        1202.470          38.000  
    843590.402    25032257.086       -3075.834          38.000  
   -616887.515    21212498.311        2141.539          38.000  
 18  2 16  8 24 51.0000000  0  8G30G09G10G23G05G01G03G11            -0.000080482
   -991418.115    22448403.084        3501.758          38.000  
    190148.051    20327802.233        -747.028          38.000  
    385308.253    21291108.003       -1489.533          38.000  
    580825.607    22581881.969       -2120.168          38.000  
  -1001199.884    24029797.464        3574.595          38.000  
   -361746.503    22231103.596        1201.852          38.000  
    846666.366    25032842.475       -3075.710          38.000  
   -619028.516    21212090.879        2141.022          38.000  
 18  2 16  8 24 52.0000000  0  8G30G09G10G23G05G01G03G11            -0.000080310
   -994919.413    22447736.819        3501.341          38.000  
    190895.677    20327944.507        -747.938          38.000  
    386798.325    21291391.548       -1490.358          38.000  
    582946.274    22582285.488       -2120.745          38.000  
  -1004773.920    24029117.387        3574.011          38.000  
   -362947.801    22230875.033        1201.034          38.000  
    849742.538    25033427.846       -3076.259          38.000  
   -621169.117    21211683.519        2140.409          38.000  
 18  2 16  8 24 53.0000000  0  8G30G09G10G23G05G01G03G11            -0.000080137
   -998420.556    22447070.609        3501.156          38.000  
    191643.767    20328086.851        -748.092          38.000  
    388288.822    21291675.201       -1490.516          38.000  
    585067.322    22582689.095       -2121.132          38.000  
  -1008347.818    24028437.292        3573.970          39.000  
   -364148.509    22230646.542        1200.719          38.000  
    852818.827    25034013.236       -3076.164          38.000  
   -623309.476    21211276.213        2140.438          38.000  
 18  2 16  8 24 54.0000000  0  8G30G09G10G23G05G01G03G11            -0.000079963
  -1001921.373    22446404.451        3500.581          38.000  
    192392.558    20328229.321        -749.134          38.000  
    389779.954    21291958.979       -1491.149          38.000  
    587188.934    22583092.810       -2121.923          38.000  
  -1011921.382    24027757.268        3573.407          38.000  
   -365348.403    22230418.212        1199.460          38.000  
    855895.476    25034598.696       -3076.890          38.000  
   -625449.341    21210869.013        2140.212          38.000  
 18  2 16  8 24 55.0000000  0  8G30G09G10G23G05G01G03G11            -0.000079785
  -1005421.952    22445738.312        3500.795          38.000  
    193141.928    20328371.916        -749.353          38.000  
    391271.513    21292242.775       -1491.547          38.000  
    589311.021    22583496.632       -2121.967          38.000  
  -1015494.757    24027077.298        3573.795          38.000  
   -366547.663    22230190.024        1199.284          38.000  
    858972.343    25035184.193       -3076.672          38.000  
   -627589.024    21210461.868        2139.755          38.000  
 18  2 16  8 24 56.0000000  0  8G30G09G10G23G05G01G03G11            -0.000079607
  -1008922.464    22445072.173        3500.554          39.000  
    193891.658    20328514.582        -749.943          38.000  
    392763.405    21292526.696       -1492.124          38.000  
    591433.414    22583900.543       -2122.565          38.000  
  -1019068.091    24026397.311        3573.288          38.000  
   -367746.429    22229961.908        1198.469          38.000  
    862049.295    25035769.725       -3076.987          38.000  
   -629728.595    21210054.722        2139.485          38.000  
 18  2 16  8 24 57.0000000  0  8G30G09G10G23G05G01G03G11            -0.000079443
  -1012422.798    22444406.069        3500.138          38.000  
    194641.896    20328657.320        -750.321          38.000  
    394255.664    21292810.670       -1492.361          39.000  
    593556.175    22584304.473       -2122.763          38.000  
  -1022641.358    24025717.341        3573.321          38.000  
   -368944.643    22229733.899        1197.960          39.000  
    865126.422    25036355.257       -3077.138          38.000  
   -631867.952    21209647.612        2139.308          38.000  
 18  2 16  8 24 58.0000000  0  8G30G09G10G23G05G01G03G11            -0.000079270
  -1015923.038    22443739.984        3500.391          38.000  
    195392.559    20328800.165        -750.601          38.000  
    395748.303    21293094.716       -1492.439          38.000  
    595679.307    22584708.473       -2123.148          38.000  
  -1026214.580    24025037.389        3573.304          38.000  
   -370142.379    22229505.980        1197.536          38.000  
    868203.710    25036940.861       -3077.278          38.000  
   -634007.095    21209240.538        2139.555          38.000  
 18  2 16  8 24 59.0000000  0  8G30G09G10G23G05G01G03G11            -0.000079109
  -1019422.998    22443073.987        3499.742          38.000  
    196143.810    20328943.117        -751.589          38.000  
    397241.352    21293378.816       -1493.457          38.000  
    597802.922    22585112.581       -2123.926          38.000  
  -1029787.635    24024357.454        3572.677          39.000  
   -371339.468    22229278.186        1196.680          38.000  
    871281.284    25037526.500       -3077.935          38.000  
   -636146.171    21208833.482        2138.847          38.000  
 18  2 16  8 25  0.0000000  0  8G30G09G10G23G05G01G03G11            -0.000078937
  -1022922.568    22442408.027        3499.480          38.000  
    196895.755    20329086.230        -752.148          38.000  
    398734.978    21293663.023       -1493.767          38.000  
    599927.140    22585516.814       -2124.317          38.000  
  -1033360.452    24023677.574        3572.826          38.000  
   -372535.839    22229050.499        1196.274          38.000  
    874359.265    25038112.193       -3077.964          38.000  
   -638284.806    21208426.532        2138.510          38.000  
 18  2 16  8 25  1.0000000  0  8G30G09G10G23G05G01G03G11            -0.000078765
  -1026421.803    22441742.155        3499.314          38.000  
    197648.336    20329229.432        -752.665          38.000  
    400229.142    21293947.337       -1494.101          38.000  
    602051.947    22585921.137       -2124.834          38.000  
  -1036933.058    24022997.729        3572.765          38.000  
   -373731.520    22228822.954        1195.656          38.000  
    877437.648    25038697.975       -3078.328          38.000  
   -640423.148    21208019.619        2138.500          38.000  
 18  2 16  8 25  2.0000000  0  8G30G09G10G23G05G01G03G11            -0.000078595
  -1029920.898    22441076.302        3498.950          38.000  
    198401.343    20329372.724        -753.184          38.000  
    401723.840    21294231.758       -1495.572          38.000  
    604177.103    22586325.549       -2125.300          38.000  
  -1040505.697    24022317.866        3572.742          38.000  
   -374926.742    22228595.518        1195.051          38.000  
    880516.229    25039283.793       -3078.649          38.000  
   -642560.780    21207612.866        2134.994          38.000  
 18  2 16  8 25  3.0000000  0  8G30G09G10G23G05G01G03G11            -0.000078423
  -1033419.658    22440410.502        3498.117          38.000  
    199154.945    20329516.123        -753.706          38.000  
    403219.186    21294516.322       -1495.256          38.000  
    606302.789    22586730.067       -2125.894          38.000  
  -1044078.188    24021638.039        3572.706          38.000  
   -376121.349    22228368.188        1194.313          38.000  
    883595.163    25039869.701       -3079.182          38.000  
   -644697.801    21207206.203        2136.823          38.000  
 18  2 16  8 25  4.0000000  0  8G30G09G10G23G05G01G03G11            -0.000078251
  -1036918.145    22439744.774        3498.732          38.000  
    199909.143    20329659.647        -753.996          38.000  
    404715.094    21294801.012       -1495.713          38.000  
    608428.990    22587134.676       -2126.136          38.000  
  -1047650.577    24020958.248        3572.753          38.000  
   -377315.372    22228140.965        1194.114          38.000  
    886674.459    25040455.662       -3079.110          38.000  
   -646834.235    21206799.647        2136.702          38.000  
 18  2 16  8 25  5.0000000  0  8G30G09G10G23G05G01G03G11            -0.000078078
  -1040416.356    22439079.081        3498.259          38.000  
    200663.839    20329803.242        -754.767          38.000  
    406211.535    21295085.754       -1496.568          38.000  
    610555.624    22587539.373       -2126.714          38.000  
  -1051222.943    24020278.421        3572.604          38.000  
   -378508.870    22227913.832        1193.328          38.000  
    889754.051    25041041.694       -3079.467          38.000  
   -648970.142    21206393.234        2135.757          38.000  
 18  2 16  8 25  6.0000000  0  8G30G09G10G23G05G01G03G11            -0.000077907
  -1043914.694    22438413.353        3498.900          38.000  
    201418.659    20329946.874        -754.215          38.000  
    407708.080    21295370.551       -1495.923          38.000  
    612682.337    22587944.089       -2126.195          38.000  
  -1054795.657    24019598.576        3573.447          38.000  
   -379702.242    22227686.717        1193.838          38.000  
    892833.596    25041627.709       -3078.961          38.000  
   -651105.970    21205986.803        2136.280          38.000  
 18  2 16  8 25  7.0000000  0  8G30G09G10G23G05G01G03G11            -0.000077734
  -1047413.416    22437747.535        3498.492          38.000  
    202173.376    20330090.469        -755.104          38.000  
    409204.495    21295655.294       -1496.847          38.000  
    614808.853    22588348.751       -2126.779          38.000  
  -1058369.018    24018918.588        3573.286          38.000  
   -380895.747    22227459.584        1193.141          38.000  
    895912.834    25042213.670       -3079.485          38.000  
   -653241.949    21205580.354        2135.600          38.000  
 18  2 16  8 25  8.0000000  0  8G30G09G10G23G05G01G03G11            -0.000077565
  -1050911.763    22437081.789        3498.544          38.000  
    202928.678    20330234.190        -755.276          38.000  
    410701.492    21295940.162       -1496.922          38.000  
    616935.918    22588753.520       -2126.962          38.000  
  -1061942.289    24018238.618        3573.545          38.000  
   -382088.667    22227232.576        1193.021          38.000  
    898992.489    25042799.702       -3079.511          38.000  
   -655377.338    21205174.013        2135.478          38.000  
 18  2 16  8 25  9.0000000  0  8G30G09G10G23G05G01G03G11            -0.000077393
  -1054409.757    22436416.132        3498.030          38.000  
    203684.528    20330378.053        -755.832          38.000  
    412199.039    21296225.137       -1497.559          38.000  
    619063.479    22589158.378       -2127.515          38.000  
  -1065515.530    24017558.631        3573.551          38.000  
   -383281.033    22227005.675        1192.334          38.000  
    902072.555    25043385.824       -3080.045          38.000  
   -657512.163    21204767.761        2134.797          38.000  
 18  2 16  8 25 10.0000000  3  1
POI00001                                                    MARKER NAME         
 18  2 16  8 25 10.0000000  0  8G30G09G10G23G05G01G03G11            -0.000077221
  -1057907.386    22435750.565        3497.082          38.000  
    204440.967    20330521.988        -756.946          38.000  
    413697.146    21296510.219       -1498.626          38.000  
    621191.595    22589563.344       -2128.859          38.000  
  -1069088.698    24016878.696        3572.788          38.000  
   -384472.846    22226778.899        1191.168          38.000  
    905153.062    25043972.017       -3081.065          38.000  
   -659646.420    21204361.633        2133.521          38.000  
 18  2 16  8 25 11.0000000  0  8G30G09G10G23G05G01G03G11            -0.000077049
  -1061403.792    22435085.230        3496.239          38.000  
    205198.816    20330666.209        -757.957          38.000  
    415196.647    21296795.605       -1499.639          38.000  
    623321.023    22589968.542       -2129.578          38.000  
  -1072661.004    24016198.923        3572.418          38.000  
   -385663.263  