     2.11           O                   G                   RINEX VERSION / TYPE
WALKEGNOS           ISMB                  20180216  082102  PGM / RUN BY / DATE 
                                                            COMMENT             
                                                            MARKER NAME         
1                                                           MARKER NUMBER       
NavSAS              ISMB / POLITO                           OBSERVER / AGENCY   
1                                    NVSFW ver              REC # / TYPE / VERS 
1                   PATCH                                   ANT # / TYPE        
        0.0000        0.0000        0.0000                  APPROX POSITION XYZ 
        0.0000        0.0000        0.0000                  ANTENNA: DELTA H/E/N
     1     0                                                WAVELENGTH FACT L1/2
     4    L1    C1    D1    S1                              # / TYPES OF OBSERV 
     1.000                                                  INTERVAL            
  2018    02    16     8    21    2.0000000     GPS         TIME OF FIRST OBS   
                                                            END OF HEADER       
 18  2 16  8 21  2.0000000  2  1
            *** FROM NOW ON KINEMATIC DATA! ***             COMMENT             
 18  2 16  8 21  2.0000000  0  8G03G10G30G01G23G05G09G11             0.000219864
    154014.928    24797239.532       -3024.426          50.000  
     65366.011    21127448.784       -1319.297          50.000  
   -184253.232    22500558.956        3601.190          50.000  
    -68161.953    22184697.886        1365.645          50.000  
    103746.384    22388326.893       -2057.615          50.000  
   -184974.037    24084293.410        3621.227          50.000  
     31165.864    20195154.543        -637.411          50.000  
   -115158.552    21206308.875        2292.746          50.000  
 18  2 16  8 21  3.0000000  0  8G03G10G30G01G23G05G09G11             0.000220055
    157039.506    24797815.129       -3024.554          50.000  
     66685.502    21127699.898       -1319.453          50.000  
   -187854.315    22499873.679        3601.135          50.000  
    -69527.375    22184438.070        1365.401          50.000  
    105804.127    22388718.474       -2057.740          50.000  
   -188595.356    24083604.291        3621.543          50.000  
     31803.447    20195275.856        -637.622          50.000  
   -117451.065    21205872.638        2292.572          50.000  
 18  2 16  8 21  4.0000000  0  8G03G10G30G01G23G05G09G11             0.000220245
    160064.563    24798390.798       -3025.112          50.000  
     68005.486    21127951.100       -1320.050          50.000  
   -191454.000    22499188.491        3600.663          50.000  
    -70892.267    22184178.380        1364.748          50.000  
    107862.371    22389110.163       -2058.311          50.000  
   -192216.697    24082915.190        3621.544          50.000  
     32441.577    20195397.276        -638.145          50.000  
   -119743.333    21205436.437        2292.271          50.000  
 18  2 16  8 21  5.0000000  0  8G03G10G30G01G23G05G09G11             0.000220435
    163090.055    24798966.520       -3025.873          50.000  
     69325.923    21128202.392       -1320.763          50.000  
   -195055.331    22498503.357        3600.037          50.000  
    -72256.713    22183918.761        1364.136          50.000  
    109921.061    22389501.906       -2059.016          50.000  
   -195838.112    24082226.071        3621.369          50.000  
     33080.228    20195518.821        -639.005          50.000  
   -122035.416    21205000.272        2291.899          50.000  
 18  2 16  8 21  6.0000000  0  8G03G10G30G01G23G05G09G11             0.000220624
    166116.087    24799542.385       -3026.253          50.000  
     70646.923    21128453.792       -1321.211          50.000  
   -198655.184    22497818.348        3599.675          50.000  
    -73620.569    22183659.231        1363.618          50.000  
    111980.301    22389893.756       -2059.445          50.000  
   -199459.487    24081536.916        3621.452          50.000  
     33719.482    20195640.474        -639.533          50.000  
   -124327.120    21204564.197        2291.920          50.000  
 18  2 16  8 21  7.0000000  0  8G03G10G30G01G23G05G09G11             0.000220815
    169142.691    24800118.321       -3026.752          50.000  
     71968.501    21128705.262       -1321.736          50.000  
   -202254.522    22497133.393        3599.155          50.000  
    -74983.839    22183399.827        1363.125          50.000  
    114040.102    22390285.713       -2059.919          50.000  
   -203080.830    24080847.797        3621.451          50.000  
     34359.352    20195762.251        -640.050          50.000  
   -126618.624    21204128.157        2291.392          51.000  
 18  2 16  8 21  8.0000000  0  8G03G10G30G01G23G05G09G11             0.000221004
    172169.794    24800694.365       -3027.072          50.000  
     73290.602    21128956.858       -1322.080          50.000  
   -205853.429    22496448.544        3598.923          50.000  
    -76346.595    22183140.476        1362.755          51.000  
    116100.391    22390677.795       -2060.317          50.000  
   -206702.204    24080158.661        3621.632          50.000  
     34999.776    20195884.136        -640.456          50.000  
   -128909.841    21203692.153        2291.277          50.000  
 18  2 16  8 21  9.0000000  0  8G03G10G30G01G23G05G09G11             0.000221194
    175197.697    24801270.552       -3028.133          50.000  
     74613.525    21129208.579       -1323.163          51.000  
   -209451.583    22495763.839        3597.946          51.000  
    -77708.542    22182881.321        1361.665          50.000  
    118161.435    22391070.002       -2061.255          50.000  
   -210323.327    24079469.577        3621.158          50.000  
     35641.028    20196006.145        -641.471          50.000  
   -131200.486    21203256.238        2290.494          50.000  
 18  2 16  8 21 10.0000000  0  8G03G10G30G01G23G05G09G11             0.000221383
    178226.039    24801846.845       -3028.136          50.000  
     75936.911    21129460.443       -1323.238          50.000  
   -213049.338    22495079.205        3597.931          50.000  
    -79070.045    22182622.220        1361.640          50.000  
    120222.885    22391462.299       -2061.198          50.000  
   -213944.562    24078780.476        3621.749          51.000  
     36282.752    20196128.262        -641.450          50.000  
   -133490.845    21202820.395        2290.861          50.000  
 18  2 16  8 21 11.0000000  0  8G03G10G30G01G23G05G09G11             0.000221572
    181254.552    24802423.157       -3028.590          50.000  
     77260.514    21129712.307       -1323.671          51.000  
   -216646.956    22494394.607        3597.538          50.000  
    -80431.379    22182363.173        1361.259          50.000  
    122284.465    22391854.595       -2061.615          50.000  
   -217566.178    24078091.358        3621.857          50.000  
     36924.687    20196250.415        -642.018          50.000  
   -135781.350    21202384.515        2290.470          51.000  
 18  2 16  8 21 12.0000000  0  8G03G10G30G01G23G05G09G11             0.000221762
    184283.588    24802999.540       -3029.275          50.000  
     78584.673    21129964.314       -1324.354          50.000  
   -220244.073    22493710.099        3596.866          50.000  
    -81792.184    22182104.233        1360.576          50.000  
    124346.504    22392246.999       -2062.180          50.000  
   -221187.832    24077402.149        3621.762          50.000  
     37567.154    20196372.657        -642.672          50.000  
   -138071.505    21201948.708        2289.972          50.000  
 18  2 16  8 21 13.0000000  0  8G03G10G30G01G23G05G09G11             0.000221951
    187313.156    24803576.067       -3029.962          50.000  
     79909.428    21130216.392       -1325.159          50.000  
   -223840.672    22493025.679        3596.177          50.000  
    -83152.451    22181845.365        1359.856          50.000  
    126409.015    22392639.474       -2062.864          50.000  
   -224809.502    24076712.977        3621.571          50.000  
     38210.177    20196495.024        -643.414          50.000  
   -140361.300    21201512.990        2289.484          50.000  
 18  2 16  8 21 14.0000000  0  8G03G10G30G01G23G05G09G11             0.000222140
    190343.373    24804152.700       -3030.340          50.000  
     81234.875    21130468.631       -1325.722          50.000  
   -227436.623    22492341.403        3595.814          50.000  
    -84512.069    22181586.621        1359.498          50.000  
    128472.099    22393032.056       -2063.152          50.000  
   -228431.103    24076023.822        3621.806          50.000  
     38853.856    20196617.498        -643.783          50.000  
   -142650.567    21201077.343        2289.385          50.000  
 18  2 16  8 21 15.0000000  0  8G03G10G30G01G23G05G09G11             0.000222329
    193373.765    24804729.387       -3030.466          50.000  
     82560.593    21130720.888       -1325.781          50.000  
   -231032.397    22491657.127        3595.652          50.000  
    -85871.512    22181327.931        1359.444          50.000  
    130535.274    22393424.675       -2063.183          50.000  
   -232053.078    24075334.596        3622.172          50.000  
     39497.726    20196739.990        -644.046          50.000  
   -144939.893    21200641.678        2289.308          50.000  
 18  2 16  8 21 16.0000000  0  8G03G10G30G01G23G05G09G11             0.000222518
    196404.657    24805306.128       -3031.123          50.000  
     83886.878    21130973.270       -1326.519          50.000  
   -234627.654    22490972.958        3594.971          50.000  
    -87230.433    22181069.331        1358.689          50.000  
    132598.860    22393817.364       -2063.796          50.000  
   -235675.119    24074645.334        3622.080          50.000  
     40142.084    20196862.608        -644.571          50.000  
   -147228.839    21200206.085        2288.796          50.000  
 18  2 16  8 21 17.0000000  0  8G03G10G30G01G23G05G09G11             0.000222707
    199435.927    24805882.975       -3031.263          50.000  
     85213.647    21131225.742       -1326.790          50.000  
   -238222.501    22490288.896        3594.813          50.000  
    -88588.974    22180810.802        1358.561          50.000  
    134662.719    22394210.125       -2063.797          50.000  
   -239297.342    24073956.037        3622.507          50.000  
     40786.833    20196985.296        -644.755          50.000  
   -149517.512    21199770.581        2288.699          50.000  
 18  2 16  8 21 18.0000000  0  8G03G10G30G01G23G05G09G11             0.000222896
    202467.503    24806459.859       -3032.033          50.000  
     86540.815    21131478.302       -1327.835          50.000  
   -241817.003    22489604.905        3593.995          50.000  
    -89947.184    22180552.326        1357.729          50.000  
    136726.785    22394602.904       -2064.476          50.000  
   -242919.809    24073266.704        3622.223          50.000  
     41431.890    20197108.057        -645.530          50.000  
   -151805.931    21199335.095        2288.018          50.000  
 18  2 16  8 21 19.0000000  0  8G03G10G30G01G23G05G09G11             0.000223086
    205499.722    24807036.867       -3032.634          50.000  
     87868.778    21131731.006       -1328.344          50.000  
   -245410.812    22488921.040        3593.360          50.000  
    -91304.733    22180294.030        1357.140          50.000  
    138791.378    22394995.791       -2064.942          50.000  
   -246542.189    24072577.406        3622.224          50.000  
     42077.581    20197230.924        -646.054          50.000  
   -154093.845    21198899.716        2287.539          50.000  
 18  2 16  8 21 20.0000000  0  8G03G10G30G01G23G05G09G11             0.000223275
    208532.533    24807613.965       -3032.712          50.000  
     89197.475    21131983.817       -1328.618          50.000  
   -249003.962    22488237.264        3593.203          50.000  
    -92661.648    22180035.786        1356.962          50.000  
    140856.440    22395388.766       -2064.878          50.000  
   -250164.523    24071888.073        3622.704          50.000  
     42723.871    20197353.916        -646.194          50.000  
   -156381.197    21198464.427        2287.463          50.000  
 18  2 16  8 21 21.0000000  0  8G03G10G30G01G23G05G09G11             0.000223464
    211565.691    24808191.153       -3033.267          50.000  
     90526.670    21132236.771       -1329.354          50.000  
   -252596.689    22487553.595        3592.567          50.000  
    -94018.178    22179777.651        1356.382          50.000  
    142921.732    22395781.777       -2065.350          50.000  
   -253787.035    24071198.739        3622.661          50.000  
     43370.501    20197476.962        -646.704          50.000  
   -158668.230    21198029.209        2286.930          50.000  
 18  2 16  8 21 22.0000000  0  8G03G10G30G01G23G05G09G11             0.000223652
    214599.270    24808768.429       -3033.820          50.000  
     91856.437    21132489.814       -1330.360          50.000  
   -256188.904    22486870.015        3591.864          50.000  
    -95374.242    22179519.604        1355.784          50.000  
    144987.306    22396174.842       -2065.747          50.000  
   -257409.667    24070509.388        3622.701          50.000  
     44017.556    20197600.098        -647.333          50.000  
   -160954.814    21197594.098        2286.311          50.000  
 18  2 16  8 21 23.0000000  0  8G03G10G30G01G23G05G09G11             0.000223841
    217633.282    24809345.778       -3033.860          50.000  
     93186.881    21132743.000       -1330.384          50.000  
   -259780.589    22486186.543        3591.783          50.000  
    -96729.804    22179261.647        1355.714          50.000  
    147053.184    22396567.961       -2065.662          50.000  
   -261032.371    24069819.983        3623.139          50.000  
     44665.041    20197723.305        -647.372          50.000  
   -163240.976    21197159.077        2286.322          50.000  
 18  2 16  8 21 24.0000000  0  8G03G10G30G01G23G05G09G11             0.000224030
    220667.743    24809923.215       -3034.606          50.000  
     94517.962    21132996.294       -1331.323          50.000  
   -263371.707    22485503.178        3590.932          50.000  
    -98084.837    22179003.815        1354.804          50.000  
    149119.365    22396961.133       -2066.229          50.000  
   -264655.133    24069130.597        3622.904          50.000  
     45312.973    20197846.601        -648.048          50.000  
   -165526.631    21196724.109        2285.560          50.000  
 18  2 16  8 21 25.0000000  0  8G03G10G30G01G23G05G09G11             0.000224218
    223702.674    24810500.742       -3035.133          50.000  
     95849.743    21133249.730       -1332.064          50.000  
   -266962.223    22484819.938        3590.234          50.000  
    -99439.331    22178746.054        1354.299          50.000  
    151185.874    22397354.394       -2066.656          50.000  
   -268277.919    24068441.192        3622.830          50.000  
     45961.393    20197969.969        -648.722          50.000  
   -167811.731    21196289.284        2284.866          50.000  
 18  2 16  8 21 26.0000000  0  8G03G10G30G01G23G05G09G11             0.000224407
    226737.996    24811078.340       -3035.476          50.000  
     97182.136    21133503.274       -1332.880          50.000  
   -270552.204    22484136.788        3589.717          50.000  
   -100793.313    22178488.436        1353.729          50.000  
    153252.625    22397747.692       -2066.840          50.000  
   -271900.792    24067751.769        3622.954          50.000  
     46610.193    20198093.426        -648.897          50.000  
   -170096.320    21195854.531        2284.277          50.000  
 18  2 16  8 21 27.0000000  0  8G03G10G30G01G23G05G09G11             0.000224602
    229773.831    24811656.046       -3036.165          50.000  
     98515.372    21133756.978       -1333.593          50.000  
   -274141.530    22483453.762        3588.910          50.000  
   -102146.679    22178230.890        1352.956          50.000  
    155319.733    22398141.042       -2067.353          50.000  
   -275523.626    24067062.346        3622.727          50.000  
     47259.523    20198217.008        -649.646          50.000  
   -172380.277    21195419.885        2283.594          50.000  
 18  2 16  8 21 28.0000000  0  8G03G10G30G01G23G05G09G11             0.000224789
    232810.131    24812233.823       -3036.419          50.000  
     99849.362    21134010.843       -1334.211          50.000  
   -277730.211    22482770.844        3588.497          50.000  
   -103499.450    22177973.451        1352.627          50.000  
    157387.156    22398534.465       -2067.442          50.000  
   -279146.444    24066372.942        3622.953          50.000  
     47909.343    20198340.662        -649.947          50.000  
   -174663.603    21194985.382        2283.183          50.000  
 18  2 16  8 21 29.0000000  0  8G03G10G30G01G23G05G09G11             0.000224977
    235846.710    24812811.671       -3036.706          50.000  
    101183.930    21134264.816       -1334.785          50.000  
   -281318.432    22482088.033        3588.044          50.000  
   -104851.782    22177716.119        1352.076          50.000  
    159454.703    22398927.923       -2067.569          50.000  
   -282769.409    24065683.483        3623.069          50.000  
     48559.447    20198464.369        -650.139          50.000  
   -176946.445    21194550.950        2282.656          50.000  
 18  2 16  8 21 30.0000000  0  8G03G10G30G01G23G05G09G11             0.000225164
    238883.781    24813389.609       -3036.995          50.000  
    102519.301    21134518.931       -1335.725          50.000  
   -284905.964    22481405.347        3587.554          50.000  
   -106203.469    22177458.877        1351.706          50.000  
    161522.582    22399321.399       -2067.669          50.000  
   -286392.302    24064994.079        3623.221          50.000  
     49210.086    20198588.201        -650.553          50.000  
   -179228.567    21194116.679        2281.963          50.000  
 18  2 16  8 21 31.0000000  0  8G03G10G30G01G23G05G09G11             0.000225352
    241921.395    24813967.654       -3037.647          50.000  
    103855.641    21134773.243       -1336.513          50.000  
   -288492.743    22480722.804        3586.603          50.000  
   -107554.419    22177201.795        1350.767          50.000  
    163590.851    22399714.982       -2068.216          50.000  
   -290015.046    24064304.692        3622.888          50.000  
     49861.291    20198712.123        -651.270          50.000  
   -181509.882    21193682.569        2281.183          50.000  
 18  2 16  8 21 32.0000000  0  8G03G10G30G01G23G05G09G11             0.000225538
    244959.359    24814545.753       -3038.102          50.000  
    105192.687    21135027.662       -1337.340          50.000  
   -292078.948    22480040.386        3585.924          50.000  
   -108904.832    22176944.839        1350.177          50.000  
    165659.310    22400108.583       -2068.552          50.000  
   -293637.820    24063615.305        3622.794          50.000  
     50512.893    20198836.116        -651.816          50.000  
   -183790.566    21193248.566        2280.416          50.000  
 18  2 16  8 21 33.0000000  0  8G03G10G30G01G23G05G09G11             0.000225725
    247997.833    24815123.958       -3038.477          50.000  
    106530.658    21135282.278       -1338.132          50.000  
   -295664.409    22479358.075        3585.306          50.000  
   -110254.503    22176688.007        1349.587          50.000  
    167728.115    22400502.255       -2068.734          50.000  
   -297260.448    24062925.936        3622.801          50.000  
     51165.032    20198960.199        -652.179          50.000  
   -186070.409    21192814.707        2279.696          50.000  
 18  2 16  8 21 34.0000000  0  8G03G10G30G01G23G05G09G11             0.000225912
    251036.483    24815702.182       -3038.651          50.000  
    107869.187    21135536.983       -1338.985          50.000  
   -299249.448    22478675.871        3584.892          50.000  
   -111603.761    22176431.247        1349.117          50.000  
    169796.943    22400895.928       -2068.773          50.000  
   -300883.231    24062236.549        3622.953          50.000  
     51817.414    20199084.353        -652.367          50.000  
   -188349.742    21192380.972        2278.947          50.000  
 18  2 16  8 21 35.0000000  0  8G03G10G30G01G23G05G09G11             0.000226099
    254075.341    24816280.442       -3038.985          50.000  
    109208.452    21135791.849       -1339.544          50.000  
   -302834.017    22477993.757        3584.270          50.000  
   -112952.552    22176174.577        1348.523          50.000  
    171865.813    22401289.636       -2068.917          50.000  
   -304506.127    24061547.126        3622.916          50.000  
     52470.062    20199208.542        -652.824          50.000  
   -190628.456    21191947.344        2278.481          50.000  
 18  2 16  8 21 36.0000000  0  8G03G10G30G01G23G05G09G11             0.000226286
    257114.644    24816858.808       -3039.250          50.000  
    110548.619    21136046.876       -1340.220          50.000  
   -306417.864    22477311.786        3583.798          50.000  
   -114300.619    22175918.049        1348.006          50.000  
    173934.980    22401683.398       -2068.985          50.000  
   -308128.865    24060857.757        3622.928          50.000  
     53123.227    20199332.839        -653.114          50.000  
   -192906.316    21191513.877        2277.785          50.000  
 18  2 16  8 21 37.0000000  0  8G03G10G30G01G23G05G09G11             0.000226473
    260154.038    24817437.193       -3039.231          50.000  
    111889.380    21136301.992       -1340.819          50.000  
   -310001.330    22476629.868        3583.458          50.000  
   -115648.281    22175661.593        1347.650          50.000  
    176004.084    22402077.124       -2068.851          50.000  
   -311751.790    24060168.334        3623.238          50.000  
     53776.557    20199457.136        -653.166          50.000  
   -195183.633    21191080.500        2277.297          50.000  
 18  2 16  8 21 38.0000000  0  8G03G10G30G01G23G05G09G11             0.000226660
    263193.561    24818015.613       -3039.620          50.000  
    113230.744    21136557.251       -1341.972          50.000  
   -313584.374    22475948.040        3582.846          50.000  
   -116995.499    22175405.226        1346.929          50.000  
    178073.169    22402470.867       -2069.080          50.000  
   -315374.827    24059478.894        3623.074          50.000  
     54430.114    20199581.505        -653.657          50.000  
   -197460.371    21190647.248        2276.190          50.000  
 18  2 16  8 21 39.0000000  0  8G03G10G30G01G23G05G09G11             0.000226847
    266233.480    24818594.105       -3039.985          50.000  
    114573.138    21136812.706       -1342.650          50.000  
   -317166.705    22475266.354        3582.112          50.000  
   -118341.975    22175148.984        1346.275          50.000  
    180142.501    22402864.647       -2069.290          50.000  
   -318997.694    24058789.507        3622.882          50.000  
     55084.160    20199705.980        -654.166          50.000  
   -199736.151    21190214.192        2275.532          50.000  
 18  2 16  8 21 40.0000000  0  8G03G10G30G01G23G05G09G11             0.000227034
    269273.769    24819172.650       -3040.341          50.000  
    115916.441    21137068.358       -1343.556          50.000  
   -320748.344    22474584.794        3581.440          50.000  
   -119687.706    22174892.885        1345.577          50.000  
    182212.058    22403258.463       -2069.498          50.000  
   -322620.395    24058100.138        3622.790          50.000  
     55738.681    20199830.527        -654.613          50.000  
   -202011.048    21189781.297        2274.703          50.000  
 18  2 16  8 21 41.0000000  0  8G03G10G30G01G23G05G09G11             0.000227221
    272314.540    24819751.303       -3041.183          50.000  
    117260.824    21137324.171       -1345.020          50.000  
   -324329.175    22473903.377        3580.271          50.000  
   -121032.560    22174636.983        1344.249          50.000  
    184281.958    22403652.349       -2070.190          50.000  
   -326242.777    24057410.805        3622.042          50.000  
     56393.799    20199955.199        -655.550          50.000  
   -204284.871    21189348.599        2273.147          50.000  
 18  2 16  8 21 42.0000000  0  8G03G10G30G01G23G05G09G11             0.000227407
    275355.596    24820329.991       -3040.968          50.000  
    118606.062    21137580.181       -1345.741          50.000  
   -327909.366    22473222.085        3580.103          50.000  
   -122376.719    22174381.206        1344.047          50.000  
    186352.011    22404046.272       -2069.876          50.000  
   -329865.032    24056721.525        3622.393          50.000  
     57049.343    20200079.943        -655.545          50.000  
   -206557.855    21188916.061        2272.510          50.000  
 18  2 16  8 21 43.0000000  0  8G03G10G30G01G23G05G09G11             0.000227594
    278396.548    24820908.661       -3040.644          50.000  
    119951.918    21137836.280       -1345.786          50.000  
   -331489.313    22472540.864        3580.083          50.000  
   -123720.543    22174125.482        1343.876          50.000  
    188421.834    22404440.141       -2069.468          50.000  
   -333487.510    24056032.192        3622.813          50.000  
     57704.923    20200204.705        -655.360          50.000  
   -208830.239    21188483.649        2272.449          50.000  
 18  2 16  8 21 44.0000000  0  8G03G10G30G01G23G05G09G11             0.000227781
    281437.555    24821487.368       -3041.042          50.000  
    121298.473    21138092.521       -1346.875          50.000  
   -335068.838    22471859.715        3579.293          50.000  
   -125063.847    22173869.848        1343.009          50.000  
    190491.582    22404833.992       -2069.725          50.000  
   -337110.037    24055342.841        3622.551          50.000  
     58360.703    20200329.484        -655.903          50.000  
   -211101.934    21188051.379        2271.387          50.000  
 18  2 16  8 21 45.0000000  0  8G03G10G30G01G23G05G09G11             0.000227967
    284478.891    24822066.110       -3041.311          50.000  
    122646.034    21138348.960       -1347.842          50.000  
   -338647.657    22471178.690        3578.633          50.000  
   -126406.342    22173614.392        1342.258          50.000  
    192561.546    22405227.897       -2069.903          50.000  
   -340732.302    24054653.543        3622.328          49.000  
     59016.979    20200454.371        -656.335          50.000  
   -213372.613    21187619.270        2270.412          50.000  
 18  2 16  8 21 46.0000000  0  8G03G10G30G01G23G05G09G11             0.000228154
    287520.476    24822644.905       -3041.448          50.000  
    123994.498    21138605.559       -1348.909          50.000  
   -342225.848    22470497.773        3578.131          50.000  
   -127748.079    22173359.044        1341.594          50.000  
    194631.646    22405621.820       -2069.880          50.000  
   -344354.368    24053964.281        3622.230          50.000  
     59673.673    20200579.347        -656.602          50.000  
   -215642.364    21187187.358        2269.242          50.000  
 18  2 16  8 21 47.0000000  0  8G03G10G30G01G23G05G09G11             0.000228341
    290562.187    24823223.718       -3041.441          50.000  
    125343.893    21138862.337       -1349.402          50.000  
   -345803.522    22469816.981        3577.731          50.000  
   -129089.163    22173103.856        1341.076          50.000  
    196701.773    22406015.760       -2069.814          50.000  
   -347976.326    24053275.037        3622.208          50.000  
     60330.698    20200704.358        -656.862          50.000  
   -217911.180    21186755.607        2268.805          50.000  
 18  2 16  8 21 48.0000000  0  8G03G10G30G01G23G05G09G11             0.000228528
    293604.043    24823802.568       -3041.828          50.000  
    126694.168    21139119.293       -1350.543          50.000  
   -349380.653    22469136.279        3576.991          50.000  
   -130429.552    22172848.776        1340.164          50.000  
    198771.945    22406409.700       -2070.079          50.000  
   -351598.139    24052585.829        3621.835          50.000  
     60988.058    20200829.459        -657.412          50.000  
   -220179.086    21186324.034        2267.665          50.000  
 18  2 16  8 21 49.0000000  0  8G03G10G30G01G23G05G09G11             0.000228714
    296645.928    24824381.417       -3041.842          50.000  
    128045.230    21139376.375       -1351.380          50.000  
   -352957.340    22468455.666        3576.481          50.000  
   -131769.327    22172593.803        1339.511          50.000  
    200842.061    22406803.623       -2070.040          50.000  
   -355219.889    24051896.639        3621.751          50.000  
     61645.666    20200954.596        -657.694          50.000  
   -222446.187    21185892.640        2266.784          50.000  
 18  2 16  8 21 50.0000000  0  8G03G10G30G01G23G05G09G11             0.000228910
    299688.072    24824960.319       -3042.152          50.000  
    129397.285    21139633.671       -1352.699          50.000  
   -356533.364    22467775.142        3575.763          50.000  
   -133108.252    22172339.026        1338.606          50.000  
    202912.353    22407197.599       -2070.286          50.000  
   -358841.328    24051207.502        3621.383          50.000  
     62303.751    20201079.822        -658.239          50.000  
   -224712.259    21185461.407        2265.355          50.000  
 18  2 16  8 21 51.0000000  0  8G03G10G30G01G23G05G09G11             0.000229097
    302730.492    24825539.294       -3042.268          50.000  
    130750.499    21139891.181       -1353.400          50.000  
   -360108.691    22467094.779        3575.235          50.000  
   -134446.282    22172084.393        1337.881          50.000  
    204982.850    22407591.593       -2070.298          50.000  
   -362462.412    24050518.419        3621.201          50.000  
     62962.352    20201205.155        -658.542          50.000  
   -226977.135    21185030.424        2264.732          50.000  
 18  2 16  8 21 52.0000000  0  8G03G10G30G01G23G05G09G11             0.000229285
    305772.927    24826118.232       -3042.354          50.000  
    132104.531    21140148.835       -1354.319          50.000  
   -363683.581    22466414.505        3574.749          50.000  
   -135783.658    22171829.902        1337.123          50.000  
    207053.299    22407985.570       -2070.347          50.000  
   -366083.374    24049829.371        3621.002          50.000  
     63621.221    20201330.542        -658.941          50.000  
   -229241.144    21184599.602        2263.721          50.000  
 18  2 16  8 21 53.0000000  0  8G03G10G30G01G23G05G09G11             0.000229472
    308815.544    24826697.224       -3042.286          50.000  
    133459.577    21140406.685       -1355.131          50.000  
   -367257.851    22465734.339        3574.374          50.000  
   -137120.184    22171575.572        1336.532          50.000  
    209123.880    22408379.599       -2070.230          50.000  
   -369704.020    24049140.395        3620.896          50.000  
     64280.536    20201456.019        -659.113          50.000  
   -231504.104    21184168.994        2262.883          50.000  
 18  2 16  8 21 54.0000000  0  8G03G10G30G01G23G05G09G11             0.000229659
    311858.151    24827276.234       -3042.684          50.000  
    134815.403    21140664.678       -1356.474          50.000  
   -370831.707    22465054.244        3573.607          50.000  
   -138456.051    22171321.368        1335.512          50.000  
    211194.399    22408773.594       -2070.541          50.000  
   -373324.534    24048451.437        3620.388          50.000  
     64940.110    20201581.549        -659.748          50.000  
   -233766.230    21183738.512        2261.396          50.000  
 18  2 16  8 21 55.0000000  0  8G03G10G30G01G23G05G09G11             0.000229846
    314900.764    24827855.208       -3042.687          50.000  
    136172.190    21140922.867       -1357.221          50.000  
   -374405.115    22464374.256        3573.158          50.000  
   -139791.200    22171067.288        1334.803          50.000  
    213264.892    22409167.605       -2070.466          50.000  
   -376944.859    24047762.497        3620.207          50.000  
     65599.986    20201707.114        -660.067          50.000  
   -236027.341    21183308.243        2260.700          50.000  
 18  2 16  8 21 56.0000000  0  8G03G10G30G01G23G05G09G11             0.000230033
    317943.314    24828434.200       -3042.364          50.000  
    137529.779    21141181.218       -1357.860          50.000  
   -377978.135    22463694.339        3572.941          50.000  
   -141125.683    22170813.334        1334.295          50.000  
    215335.310    22409561.600       -2070.251          50.000  
   -380565.040    24047073.611        3620.237          50.000  
     66260.103    20201832.716        -660.111          50.000  
   -238287.595    21182878.136        2259.963          50.000  
 18  2 16  8 21 57.0000000  0  8G03G10G30G01G23G05G09G11             0.000230220
    320986.213    24829013.246       -3043.147          50.000  
    138888.594    21141439.782       -1359.518          50.000  
   -381550.374    22463014.566        3571.763          50.000  
   -142459.085    22170559.593        1332.797          50.000  
    217406.051    22409955.629       -2070.981          50.000  
   -384184.660    24046384.796        3619.245          50.000  
     66920.874    20201958.442        -661.179          50.000  
   -240546.570    21182448.261        2258.308          50.000  
 18  2 16  8 21 58.0000000  0  8G03G10G30G01G23G05G09G11             0.000230407
    324029.351    24829592.328       -3043.070          50.000  
    140248.511    21141698.562       -1360.444          50.000  
   -385121.925    22462334.918        3571.403          50.000  
   -143791.487    22170306.032        1332.078          50.000  
    219477.031    22410349.731       -2070.927          50.000  
   -387803.794    24045696.106        3619.103          50.000  
     67582.210    20202084.294        -661.418          50.000  
   -242804.383    21182018.618        2257.204          50.000  
 18  2 16  8 21 59.0000000  0  8G03G10G30G01G23G05G09G11             0.000230594
    327072.368    24830171.391       -3042.936          50.000  
    141609.290    21141957.519       -1361.074          50.000  
   -388693.156    22461655.341        3571.114          50.000  
   -145123.238    22170052.614        1331.454          50.000  
    221547.893    22410743.796       -2070.763          50.000  
   -391422.785    24045007.433        3618.943          50.000  
     68243.765    20202210.181        -661.622          50.000  
   -245061.260    21181589.136        2256.552          50.000  
 18  2 16  8 22  0.0000000  0  8G03G10G30G01G23G05G09G11             0.000230780
    330115.406    24830750.455       -3042.932          50.000  
    142971.001    21142216.638       -1362.032          50.000  
   -392263.914    22460975.853        3570.626          50.000  
   -146454.176    22169799.338        1330.680          50.000  
    223618.797    22411137.880       -2070.815          50.000  
   -395041.469    24044318.815        3618.656          50.000  
     68905.693    20202336.140        -662.022          50.000  
   -247317.151    21181159.869        2255.518          50.000  
 18  2 16  8 22  1.0000000  0  8G03G10G30G01G23G05G09G11             0.000230967
    333158.464    24831329.536       -3043.143          50.000  
    144333.663    21142475.953       -1363.178          50.000  
   -395834.206    22460296.437        3569.980          50.000  
   -147784.282    22169546.223        1329.626          50.000  
    225689.746    22411531.981       -2071.056          50.000  
   -398659.829    24043630.268        3618.135          50.000  
     69567.999    20202462.188        -662.584          50.000  
   -249572.037    21180730.780        2254.332          50.000  
 18  2 16  8 22  2.0000000  0  8G03G10G30G01G23G05G09G11             0.000231154
    336201.532    24831908.618       -3042.739          50.000  
    145697.234    21142735.430       -1363.826          50.000  
   -399404.046    22459617.129        3569.955          50.000  
   -149113.551    22169293.287        1329.176          50.000  
    227760.745    22411926.064       -2070.685          50.000  
   -402277.857    24042941.774        3618.192          50.000  
     70230.682    20202588.289        -662.490          50.000  
   -251825.947    21180301.870        2253.540          50.000  
 18  2 16  8 22  3.0000000  0  8G03G10G30G01G23G05G09G11             0.000231340
    339244.437    24832487.663       -3042.562          50.000  
    147061.636    21142995.066       -1364.469          50.000  
   -402973.604    22458937.874        3569.674          50.000  
   -150442.157    22169040.441        1328.549          50.000  
    229831.629    22412320.148       -2070.541          50.000  
   -405895.709    24042253.317        3618.043          50.000  
     70893.591    20202714.427        -662.745          50.000  
   -254078.949    21179873.138        2252.914          50.000  
 18  2 16  8 22  4.0000000  0  8G03G10G30G01G23G05G09G11             0.000231527
    342287.358    24833066.709       -3042.856          50.000  
    148427.007    21143254.882       -1365.763          50.000  
   -406542.704    22458258.690        3568.953          50.000  
   -151769.889    22168787.790        1327.380          50.000  
    231902.590    22412714.231       -2070.903          50.000  
   -409513.187    24041564.948        3617.356          50.000  
     71556.911    20202840.654        -663.452          50.000  
   -256330.927    21179444.603        2251.570          50.000  
 18  2 16  8 22  5.0000000  0  8G03G10G30G01G23G05G09G11             0.000231713
    345330.561    24833645.790       -3043.201          50.000  
    149793.603    21143514.930       -1367.052          50.000  
   -410111.086    22457579.649        3568.174          50.000  
   -153096.485    22168535.337        1326.193          50.000  
    233973.902    22413108.386       -2071.369          50.000  
   -413130.015    24040876.687        3616.614          50.000  
     72220.912    20202967.005        -664.218          50.000  
   -258581.622    21179016.301        2250.212          50.000  
 18  2 16  8 22  6.0000000  0  8G03G10G30G01G23G05G09G11             0.000231899
    348373.861    24834224.925       -3043.412          50.000  
    151161.222    21143775.174       -1368.289          50.000  
   -413678.932    22456900.716        3567.491          50.000  
   -154422.102    22168283.080        1325.059          50.000  
    236045.395    22413502.595       -2071.665          50.000  
   -416746.357    24040188.515        3616.030          50.000  
     72885.424    20203093.464        -664.825          50.000  
   -260831.234    21178588.212        2248.854          50.000  
 18  2 16  8 22  7.0000000  0  8G03G10G30G01G23G05G09G11             0.000232086
    351417.207    24834804.043       -3043.188          50.000  
    152529.896    21144035.615       -1368.945          50.000  
   -417246.312    22456221.871        3567.351          50.000  
   -155746.799    22168031.002        1324.467          50.000  
    238117.022    22413896.821       -2071.524          50.000  
   -420362.255    24039500.433        3615.834          50.000  
     73550.402    20203220.013        -665.003          50.000  
   -263079.728    21178160.321        2248.205          50.000  
 18  2 16  8 22  8.0000000  0  8G03G10G30G01G23G05G09G11             0.000232272
    354460.193    24835383.124       -3042.623          50.000  
    153899.161    21144296.181       -1369.411          50.000  
   -420813.608    22455543.027        3567.414          50.000  
   -157070.950    22167779.031        1324.055          50.000  
    240188.400    22414290.994       -2071.069          50.000  
   -423978.095    24038812.368        3615.966          50.000  
     74215.466    20203346.579        -664.937          50.000  
   -265327.574    21177732.572        2247.671          50.000  
 18  2 16  8 22  9.0000000  0  8G03G10G30G01G23G05G09G11             0.000232459
    357502.989    24835962.152       -3042.664          50.000  
    155269.184    21144556.891       -1370.409          50.000  
   -424380.688    22454864.237        3567.005          51.000  
   -158394.400    22167527.185        1323.099          50.000  
    242259.697    22414685.149       -2071.235          51.000  
   -427593.712    24038124.339        3615.542          50.000  
     74880.769    20203473.181        -665.401          50.000  
   -267574.598    21177304.984        2246.636          50.000  
 18  2 16  8 22 10.0000000  0  8G03G10G30G01G23G05G09G11             0.000232645
    360545.591    24836541.144       -3042.574          51.000  
    156639.945    21144817.743       -1371.238          50.000  
   -427947.544    22454185.482        3566.681          51.000  
   -159717.139    22167275.481        1322.335          50.000  
    244330.921    22415079.286       -2071.247          50.000  
   -431209.083    24037436.364        3615.189          51.000  
     75546.325    20203599.819        -665.718          51.000  
   -269820.854    21176877.522        2245.783          50.000  
 18  2 16  8 22 11.0000000  0  8G03G10G30G01G23G05G09G11             0.000232831
    363588.277    24837120.154       -3042.589          50.000  
    158011.785    21145078.791       -1372.243          50.000  
   -431513.908    22453506.816        3566.254          50.000  
   -161038.871    22167023.957        1321.351          50.000  
    246402.370    22415473.476       -2071.449          50.000  
   -434823.923    24036748.478        3614.691          50.000  
     76212.430    20203726.582        -666.224          50.000  
   -272065.967    21176450.273        2244.733          50.000  
 18  2 16  8 22 12.0000000  0  8G03G10G30G01G23G05G09G11             0.000233017
    366631.043    24837699.182       -3042.616          50.000  
    159384.633    21145340.036       -1373.190          50.000  
   -435079.791    22452828.258        3565.836          50.000  
   -162359.619    22166772.629        1320.445          50.000  
    248474.040    22415867.703       -2071.638          50.000  
   -438438.241    24036060.699        3614.250          50.000  
     76879.079    20203853.452        -666.772          50.000  
   -274310.023    21176023.239        2243.709          50.000  
 18  2 16  8 22 13.0000000  0  8G03G10G30G01G23G05G09G11             0.000233203
    369673.747    24838278.192       -3042.560          50.000  
    160758.370    21145601.460       -1374.054          50.000  
   -438645.344    22452149.771        3565.528          51.000  
   -163679.504    22166521.462        1319.598          50.000  
    250545.796    22416261.929       -2071.684          50.000  
   -442052.163    24035373.010        3613.828          50.000  
     77546.125    20203980.393        -667.120          50.000  
   -276553.153    21175596.402        2242.808          50.000  
 18  2 16  8 22 14.0000000  0  8G03G10G30G01G23G05G09G11             0.000233389
    372716.365    24838857.166       -3042.391          50.000  
    162132.944    21145863.027       -1374.808          50.000  
   -442210.596    22451471.302        3565.280          50.000  
   -164998.546    22166270.474        1318.835          50.000  
    252617.637    22416656.191       -2071.704          50.000  
   -445665.709    24034685.374        3613.571          50.000  
     78213.573    20204107.406        -667.454          50.000  
   -278795.421    21175169.708        2242.045          50.000  
 18  2 16  8 22 15.0000000  0  8G03G10G30G01G23G05G09G11             0.000233576
    375758.896    24839436.140       -3042.221          50.000  
    163508.366    21146124.772       -1375.567          50.000  
   -445775.564    22450792.905        3565.099          50.000  
   -166316.757    22166019.611        1318.074          50.000  
    254689.559    22417050.471       -2071.670          50.000  
   -449278.876    24033997.828        3613.231          50.000  
     78881.409    20204234.491        -667.751          50.000  
   -281036.794    21174743.210        2241.219          50.000  
 18  2 16  8 22 16.0000000  0  8G03G10G30G01G23G05G09G11             0.000233762
    378801.273    24840015.096       -3042.140          51.000  
    164884.568    21146386.643       -1376.430          50.000  
   -449340.314    22450114.561        3564.795          50.000  
   -167634.189    22165768.926        1317.176          50.000  
    256761.518    22417444.751       -2071.864          50.000  
   -452891.727    24033310.335        3612.767          50.000  
     79549.586    20204361.647        -668.217          50.000  
   -283277.355    21174316.837        2240.274          50.000  
 18  2 16  8 22 17.0000000  0  8G03G10G30G01G23G05G09G11             0.000233948
    381843.554    24840594.017       -3042.086          50.000  
    166261.569    21146648.674       -1377.287          50.000  
   -452904.809    22449436.271        3564.552          50.000  
   -168950.800    22165518.385        1316.294          50.000  
    258833.563    22417839.049       -2071.982          50.000  
   -456504.210    24032622.896        3612.392          50.000  
     80218.151    20204488.874        -668.609          51.000  
   -285517.108    21173890.607        2239.452          50.000  
 18  2 16  8 22 18.0000000  0  8G03G10G30G01G23G05G09G11             0.000234134
    384885.942    24841172.973       -3042.333          50.000  
    167639.572    21146910.902       -1378.375          50.000  
   -456468.844    22448758.052        3563.928          50.000  
   -170266.381    22165268.040        1315.171          50.000  
    260905.918    22418233.401       -2072.427          50.000  
   -460116.118    24031935.582        3611.730          50.000  
     80887.324    20204616.209        -669.413          50.000  
   -287755.845    21173464.592        2238.425          50.000  
 18  2 16  8 22 19.0000000  0  8G03G10G30G01G23G05G09G11             0.000234319
    387928.338    24841751.930       -3042.191          50.000  
    169018.457    21147173.291       -1379.130          50.000  
   -460032.538    22448079.923        3563.740          50.000  
   -171581.037    22165017.873        1314.403          50.000  
    262978.483    22418627.806       -2072.427          50.000  
   -463727.552    24031248.321        3611.451          51.000  
     81556.995    20204743.651        -669.704          50.000  
   -289993.674    21173038.755        2237.570          50.000  
 18  2 16  8 22 20.0000000  0  8G03G10G30G01G23G05G09G11             0.000234505
    390970.550    24842330.832       -3042.158          50.000  
    170398.058    21147435.822       -1380.052          50.000  
   -463596.084    22447401.811        3563.369          50.000  
   -172894.962    22164767.850        1313.500          50.000  
    265051.090    22419022.211       -2072.696          50.000  
   -467338.690    24030561.150        3610.909          50.000  
     82226.992    20204871.146        -670.221          50.000  
   -292230.799    21172613.043        2236.668          50.000  
 18  2 16  8 22 21.0000000  0  8G03G10G30G01G23G05G09G11             0.000234690
    394012.842    24842909.771       -3042.214          50.000  
    171778.593    21147698.515       -1380.956          50.000  
   -467159.243    22446723.771        3563.019          50.000  
   -174207.895    22164518.005        1312.504          50.000  
    267123.988    22419416.670       -2072.925          50.000  
   -470949.302    24029874.068        3610.461          50.000  
     82897.568    20204998.767        -670.768          50.000  
   -294466.985    21172187.511        2235.804          50.000  
 18  2 16  8 22 22.0000000  0  8G03G10G30G01G23G05G09G11             0.000234876
    397055.091    24843488.692       -3041.867          50.000  
    173159.914    21147961.386       -1381.242          50.000  
   -470722.145    22446045.767        3563.128          50.000  
   -175519.979    22164268.321        1311.991          50.000  
    269197.076    22419811.164       -2072.817          50.000  
   -474559.492    24029187.058        3610.334          50.000  
     83568.602    20205126.459        -670.899          50.000  
   -296702.389    21171762.138        2235.600          50.000  
 18  2 16  8 22 23.0000000  0  8G03G10G30G01G23G05G09G11             0.000235062
    400097.253    24844067.594       -3041.936          50.000  
    174541.977    21148224.382       -1382.315          50.000  
   -474284.839    22445367.798        3562.742          50.000  
   -176831.249    22164018.798        1311.021          50.000  
    271270.316    22420205.694       -2073.134          50.000  
   -478169.320    24028500.137        3609.821          50.000  
     84240.057    20205254.222        -671.463          50.000  
   -298937.076    21171336.891        2234.398          50.000  
 18  2 16  8 22 24.0000000  0  8G03G10G30G01G23G05G09G11             0.000235247
    403139.341    24844646.461       -3041.663          50.000  
    175924.780    21148487.504       -1382.811          50.000  
   -477847.329    22444689.865        3562.741          50.000  
   -178141.720    22163769.436        1310.502          50.000  
    273343.719    22420600.242       -2073.086          50.000  
   -481778.780    24027813.270        3609.642          50.000  
     84911.942    20205382.075        -671.698          50.000  
   -301171.038    21170911.752        2233.927          50.000  
 18  2 16  8 22 25.0000000  0  8G03G10G30G01G23G05G09G11             0.000235433
    406181.570    24845225.400       -3042.317          50.000  
    177308.515    21148750.822       -1384.192          50.000  
   -481409.420    22444012.022        3561.902          50.000  
   -179451.167    22163520.235        1308.946          50.000  
    275417.512    22420994.862       -2074.017          50.000  
   -485387.671    24027126.528        3608.617          50.000  
     85584.468    20205510.053        -672.813          50.000  
   -303404.100    21170486.808        2232.587          50.000  
 18  2 16  8 22 26.0000000  0  8G03G10G30G01G23G05G09G11             0.000235618
    409223.742    24845804.285       -3042.150          50.000  
    178692.976    21149014.265       -1384.647          50.000  
   -484971.304    22443334.214        3561.792          50.000  
   -180759.804    22163271.230        1308.246          50.000  
    277491.500    22421389.535       -2074.079          50.000  
   -488996.183    24026439.857        3608.327          50.000  
     86257.449    20205638.103        -673.171          50.000  
   -305636.468    21170062.008        2232.288          50.000  
 18  2 16  8 22 27.0000000  0  8G03G10G30G01G23G05G09G11             0.000235803
    412265.855    24846383.187       -3041.981          50.000  
    180078.104    21149277.851       -1385.399          50.000  
   -488533.014    22442656.442        3561.748          50.000  
   -182067.652    22163022.350        1307.561          50.000  
    279565.686    22421784.261       -2074.176          50.000  
   -492604.353    24025753.239        3608.127          50.000  
     86930.865    20205766.259        -673.478          50.000  
   -307868.229    21169637.333        2231.498          50.000  
 18  2 16  8 22 28.0000000  0  8G03G10G30G01G23G05G09G11             0.000235982
    415308.076    24846962.108       -3042.156          50.000  
    181464.102    21149541.597       -1386.315          50.000  
   -492094.383    22441978.759        3561.326          50.000  
   -183374.548    22162773.631        1306.517          50.000  
    281640.238    22422179.042       -2074.579          50.000  
   -496212.009    24025066.747        3607.570          50.000  
     87604.894    20205894.523        -674.189          50.000  
   -310099.170    21169212.783        2230.608          50.000  
 18  2 16  8 22 29.0000000  0  8G03G10G30G01G23G05G09G11             0.000236168
    418350.305    24847541.029       -3042.159          50.000  
    182850.820    21149805.487       -1387.057          50.000  
   -495655.532    22441301.112        3561.075          50.000  
   -184680.616    22162525.091        1305.669          50.000  
    283715.070    22422573.858       -2074.928          50.000  
   -499819.261    24024380.309        3607.096          50.000  
     88279.430    20206022.894        -674.742          50.000  
   -312329.451    21168788.394        2229.975          50.000  
 18  2 16  8 22 30.0000000  0  8G03G10G30G01G23G05G09G11             0.000236354
    421392.483    24848119.949       -3042.266          50.000  
    184238.193    21150069.502       -1387.689          50.000  
   -499216.524    22440623.465        3560.750          50.000  
   -185985.928    22162276.712        1304.837          51.000  
    285790.115    22422968.728       -2075.270          50.000  
   -503426.200    24023693.924        3606.644          50.000  
     88954.402    20206151.337        -675.338          50.000  
   -314559.130    21168364.094        2229.600          50.000  
 18  2 16  8 22 31.0000000  0  8G03G10G30G01G23G05G09G11             0.000236540
    424434.882    24848698.905       -3042.334          50.000  
    185626.422    21150333.660       -1388.540          51.000  
   -502777.120    22439945.908        3560.550          50.000  
   -187290.219    22162028.529        1303.981          50.000  
    287865.645    22423363.704       -2075.595          51.000  
   -507032.563    24023007.646        3606.248          50.000  
     89630.078    20206279.904        -675.886          50.000  
   -316788.048    21167939.954        2228.563          50.000  
 18  2 16  8 22 32.0000000  0  8G03G10G30G01G23G05G09G11             0.000236726
    427477.276    24849277.862       -3041.939          50.000  
    187015.318    21150597.978       -1388.814          50.000  
   -506337.536    22439268.404        3560.765          50.000  
   -188593.737    22161780.471        1303.580          50.000  
    289941.455    22423758.717       -2075.508          50.000  
   -510638.578    24022321.440        3606.292          50.000  
     90306.238    20206408.579        -675.939          50.000  
   -319016.384    21167515.887        2228.421          50.000  
 18  2 16  8 22 33.0000000  0  8G03G10G30G01G23G05G09G11             0.000236912
    430519.418    24849856.765       -3042.099          50.000  
    188404.583    21150862.333       -1389.536          50.000  
   -509898.043    22438590.864        3560.431          50.000  
   -189896.740    22161532.520        1302.637          50.000  
    292017.283    22424153.730       -2075.968          50.000  
   -514244.519    24021635.270        3605.693          50.000  
     90982.628    20206537.290        -676.633          50.000  
   -321244.433    21167091.926        2227.730          50.000  
 18  2 16  8 22 34.0000000  0  8G03G10G30G01G23G05G09G11             0.000237097
    433561.709    24850435.685       -3042.225          50.000  
    189794.629    21151126.848       -1390.073          50.000  
   -513458.258    22437913.378        3560.191          50.000  
   -191198.864    22161284.749        1301.852          50.000  
    294093.529    22424548.814       -2076.349          50.000  
   -517850.030    24020949.153        3605.427          50.000  
     91659.629    20206666.108        -677.194          50.000  
   -323471.809    21166668.073        2227.937          50.000  
 18  2 16  8 22 35.0000000  0  8G03G10G30G01G23G05G09G11             0.000237283
    436604.006    24851014.624       -3042.293          50.000  
    191185.212    21151391.470       -1390.910          50.000  
   -517018.332    22437235.927        3560.034          50.000  
   -192500.250    22161037.084        1301.021          50.000  
    296170.055    22424943.969       -2076.661          50.000  
   -521455.230    24020263.072        3605.044          50.000  
     92337.102    20206795.033        -677.675          50.000  
   -325698.757    21166244.291        2226.592          50.000  
 18  2 16  8 22 36.0000000  0  8G03G10G30G01G23G05G09G11             0.000237469
    439646.406    24851593.580       -3042.343          50.000  
    192576.483    21151656.218       -1391.575          50.000  
   -520578.174    22436558.513        3559.826          50.000  
   -193800.823    22160789.598        1300.271          50.000  
    298246.965    22425339.178       -2076.988          50.000  
   -525060.065    24019577.098        3604.768          50.000  
     93015.143    20206924.065        -678.223          50.000  
   -327925.141    21165820.635        2226.070          50.000  
 18  2 16  8 22 37.0000000  0  8G03G10G30G01G23G05G09G11             0.000237654
    442688.916    24852172.554       -3042.408          50.000  
    193968.392    21151921.090       -1392.111          50.000  
   -524137.795    22435881.134        3559.644          50.000  
   -195100.606    22160542.255        1299.544          50.000  
    300324.257    22425734.495       -2077.313          50.000  
   -528664.540    24018891.195        3604.463          50.000  
     93693.743    20207053.204        -678.750          50.000  
   -330151.003    21165397.050        2225.721          50.000  
 18  2 16  8 22 38.0000000  0  8G03G10G30G01G23G05G09G11             0.000237840
    445731.435    24852751.528       -3042.528          50.000  
    195360.855    21152186.052       -1392.517          50.000  
   -527697.316    22435203.790        3559.493          50.000  
   -196399.711    22160295.055        1298.759          50.000  
    302401.837    22426129.829       -2077.726          50.000  
   -532268.780    24018205.328        3604.102          50.000  
     94372.790    20207182.415        -679.218          50.000  
   -332376.423    21164973.572        2225.694          50.000  
 18  2 16  8 22 39.0000000  0  8G03G10G30G01G23G05G09G11             0.000238025
    448773.880    24853330.485       -3042.130          50.000  
    196753.678    21152451.103       -1392.885          50.000  
   -531256.820    22434526.429        3559.753          50.000  
   -197698.248    22160047.944        1298.516          50.000  
    304479.612    22426525.217       -2077.650          50.000  
   -535872.903    24017519.480        3604.351          50.000  
     95052.203    20207311.697        -679.314          50.000  
   -334601.673    21164550.129        2225.237          50.000  
 18  2 16  8 22 40.0000000  0  8G03G10G30G01G23G05G09G11             0.000238211
    451816.263    24853909.441       -3042.236          50.000  
    198146.922    21152716.226       -1393.367          50.000  
   -534816.317    22433849.068        3559.603          50.000  
   -198996.223    22159800.958        1297.837          50.000  
    306557.592    22426920.641       -2078.003          50.000  
   -539476.897    24016833.667        3604.055          50.000  
     95731.978    20207441.069        -679.841          50.000  
   -336826.631    21164126.723        2224.814          50.000  
 18  2 16  8 22 41.0000000  0  8G03G10G30G01G23G05G09G11             0.000238397
    454858.828    24854488.397       -3042.424          50.000  
    199540.793    21152981.456       -1393.951          50.000  
   -538375.572    22433171.779        3559.392          50.000  
   -200293.415    22159554.098        1297.058          50.000  
    308636.014    22427316.154       -2078.398          50.000  
   -543080.559    24016147.925        3603.721          50.000  
     96412.348    20207570.530        -680.424          50.000  
   -339051.126    21163703.406        2224.485          50.000  
 18  2 16  8 22 42.0000000  0  8G03G10G30G01G23G05G09G11             0.000238582
    457901.553    24855067.425       -3042.642          50.000  
    200935.268    21153246.811       -1394.413          50.000  
   -541934.608    22432494.507        3559.049          50.000  
   -201589.862    22159307.416        1296.221          50.000  
    310714.880    22427711.738       -2079.004          50.000  
   -546683.923    24015462.219        3603.342          50.000  
     97093.292    20207700.099        -681.115          50.000  
   -341275.131    21163280.196        2224.399          50.000  
 18  2 16  8 22 43.0000000  0  8G03G10G30G01G23G05G09G11             0.000238768
    460944.320    24855646.453       -3042.823          50.000  
    202330.119    21153512.237       -1395.163          50.000  
   -545493.577    22431817.271        3558.906          50.000  
   -202885.720    22159060.806        1295.539          50.000  
    312794.027    22428107.376       -2079.356          50.000  
   -550287.144    24014776.549        3603.064          50.000  
     97774.664    20207829.774        -681.635          50.000  
   -343499.002    21162857.004        2223.539          50.000  
 18  2 16  8 22 44.0000000  0  8G03G10G30G01G23G05G09G11             0.000238953
    463986.999    24856225.445       -3042.786          50.000  
    203725.262    21153777.735       -1395.380          50.000  
   -549052.601    22431139.999        3558.938          50.000  
   -204181.128    22158814.285        1295.099          50.000  
    314873.346    22428503.068       -2079.520          50.000  
   -553890.369    24014090.897        3603.078          50.000  
     98456.335    20207959.503        -681.956          50.000  
   -345722.738    21162433.847        2223.451          50.000  
 18  2 16  8 22 45.0000000  0  8G03G10G30G01G23G05G09G11             0.000239138
    467029.828    24856804.491       -3042.712          50.000  
    205120.925    21154043.323       -1395.724          50.000  
   -552611.454    22430462.763        3558.940          50.000  
   -205475.867    22158567.907        1294.597          50.000  
    316953.068    22428898.813       -2079.719          50.000  
   -557493.381    24013405.262        3603.115          50.000  
     99138.531    20208089.304        -682.251          50.000  
   -347946.138    21162010.745        2223.365          50.000  
 18  2 16  8 22 46.0000000  0  8G03G10G30G01G23G05G09G11             0.000239324
    470072.756    24857383.537       -3042.956          50.000  
    206517.046    21154308.981       -1396.203          50.000  
   -556170.203    22429785.563        3558.702          50.000  
   -206770.022    22158321.636        1293.872          50.000  
    319033.137    22429294.648       -2080.235          50.000  
   -561096.260    24012719.663        3602.826          50.000  
     99821.191    20208219.229        -682.869          50.000  
   -350169.233    21161587.713        2223.427          50.000  
 18  2 16  8 22 47.0000000  0  8G03G10G30G01G23G05G09G11             0.000239509
    473116.006    24857962.654       -3043.270          50.000  
    207913.729    21154574.765       -1397.089          50.000  
   -559728.635    22429108.399        3558.426          50.000  
   -208063.383    22158075.508        1292.997          50.000  
    321113.765    22429690.571       -2080.752          50.000  
   -564698.810    24012034.118        3602.508          50.000  
    100504.521    20208349.262        -683.481          50.000  
   -352392.033    21161164.736        2222.364          50.000  
 18  2 16  8 22 48.0000000  0  8G03G10G30G01G23G05G09G11             0.000239694
    476159.542    24858541.842       -3043.646          50.000  
    209310.984    21154840.656       -1397.553          50.000  
   -563286.785    22428431.306        3558.002          50.000  
   -209356.027    22157829.523        1292.288          50.000  
    323194.914    22430086.603       -2081.416          50.000  
   -568301.097    24011348.627        3602.176          50.000  
    101188.483    20208479.420        -684.231          50.000  
   -354614.447    21160741.847        2222.120          50.000  
 18  2 16  8 22 49.0000000  0  8G03G10G30G01G23G05G09G11             0.000239879
    479203.406    24859121.067       -3043.537          50.000  
    210708.839    21155106.672       -1397.707          50.000  
   -566844.638    22427754.266        3558.169          50.000  
   -210647.916    22157583.681        1292.007          50.000  
    325276.617    22430482.741       -2081.525          50.000  
   -571903.093    24010663.189        3602.340          50.000  
    101873.096    20208609.703        -684.424          50.000  
   -356836.469    21160319.013        2222.254          50.000  
 18  2 16  8 22 50.0000000  0  8G03G10G30G01G23G05G09G11             0.000240064
    482247.532    24859700.345       -3044.121          50.000  
    212107.224    21155372.760       -1398.271          50.000  
   -570402.249    22427077.280        3557.644          50.000  
   -211939.144    22157337.964        1291.063          50.000  
    327358.798    22430878.951       -2082.256          50.000  
   -575504.896    24009977.769        3601.878          50.000  
    102558.293    20208740.094        -685.333          50.000  
   -359058.127    21159896.250        2222.184          50.000  
 18  2 16  8 22 51.0000000  0  8G03G10G30G01G23G05G09G11             0.000240239
    485291.656    24860279.623       -3044.092          50.000  
    213505.774    21155638.901       -1398.759          50.000  
   -573959.900    22426400.277        3557.666          50.000  
   -213229.999    22157092.318        1290.683          50.000  
    329441.194    22431275.232       -2082.509          50.000  
   -579106.790    24009292.367        3601.949          50.000  
    103243.786    20208870.537        -685.623          50.000  
   -361279.930    21159473.451        2221.668          50.000  
 18  2 16  8 22 52.0000000  0  8G03G10G30G01G23G05G09G11             0.000240423
    488335.981    24860858.954       -3044.172          50.000  
    214904.738    21155905.114       -1398.934          50.000  
   -577517.395    22425723.309        3557.654          50.000  
   -214520.299    22156846.780        1290.263          50.000  
    331523.992    22431671.585       -2082.755          50.000  
   -582708.612    24008606.947        3601.998          50.000  
    103929.775    20209001.071        -685.992          50.000  
   -363501.521    21159050.705        2221.628          50.000  
 18  2 16  8 22 53.0000000  0  8G03G10G30G01G23G05G09G11             0.000240607
    491380.546    24861438.322       -3044.664          50.000  
    216304.124    21156171.398       -1399.598          50.000  
   -581074.697    22425046.395        3557.203          50.000  
   -215810.028    22156601.349        1289.429          50.000  
    333607.227    22432068.009       -2083.435          50.000  
   -586310.324    24007921.581        3601.628          50.000  
    104616.281    20209131.711        -686.792          50.000  
   -365722.909    21158627.996        2221.248          50.000  
 18  2 16  8 22 54.0000000  0  8G03G10G30G01G23G05G09G11             0.000240791
    494425.505    24862017.760       -3044.674          50.000  
    217704.102    21156437.807       -1399.605          50.000  
   -584631.659    22424369.516        3557.235          50.000  
   -217099.056    22156356.061        1289.158          50.000  
    335691.047    22432464.541       -2083.645          50.000  
   -589911.821    24007236.232        3601.845          50.000  
    105303.444    20209262.477        -687.008          50.000  
   -367943.880    21158205.375        2221.690          50.000  
 18  2 16  8 22 55.0000000  0  8G03G10G30G01G23G05G09G11             0.000240975
    497470.674    24862597.235       -3045.439          50.000  
    219104.398    21156704.270       -1400.808          50.000  
   -588188.475    22423692.691        3556.559          50.000  
   -218387.576    22156110.880        1288.055          50.000  
    337775.258    22432861.162       -2084.590          50.000  
   -593513.304    24006550.884        3601.285          50.000  
    105991.083    20209393.331        -688.096          50.000  
   -370164.888    21157782.737        2220.361          50.000  
 18  2 16  8 22 56.0000000  0  8G03G10G30G01G23G05G09G11             0.000241158
    500516.007    24863176.745       -3045.066          50.000  
    220504.968    21156970.787       -1400.403          50.000  
   -591745.188    22423015.866        3556.993          50.000  
   -219675.676    22155865.753        1288.218          50.000  
    339859.793    22433257.818       -2084.379          50.000  
   -597114.837    24005865.535        3601.872          50.000  
    106679.113    20209524.258        -687.894          50.000  
   -372385.836    21157360.099        2221.198          50.000  
 18  2 16  8 22 57.0000000  0  8G03G10G30G01G23G05G09G11             0.000241343
    503561.658    24863756.327       -3045.623          50.000  
    221906.007    21157237.393       -1401.120          50.000  
   -595301.655    22422339.095        3556.522          50.000  
   -220963.203    22155620.733        1287.412          50.000  
    341944.810    22433654.600       -2085.083          50.000  
   -600716.297    24005180.204        3601.630          50.000  
    107367.690    20209655.309        -688.647          50.000  
   -374606.561    21156937.515        2220.783          50.000  
 18  2 16  8 22 58.0000000  0  8G03G10G30G01G23G05G09G11             0.000241526
    506607.640    24864335.962       -3045.949          50.000  
    223307.490    21157504.088       -1401.355          50.000  
   -598857.862    22421662.377        3556.278          50.000  
   -222250.179    22155375.820        1286.930          50.000  
    344030.308    22434051.453       -2085.504          50.000  
   -604317.686    24004494.874        3601.554          50.000  
    108056.820    20209786.450        -689.183          50.000  
   -376827.015    21156514.984        2220.985          50.000  
 18  2 16  8 22 59.0000000  0  8G03G10G30G01G23G05G09G11             0.000241710
    509653.984    24864915.669       -3046.619          50.000  
    224709.385    21157770.872       -1402.278          50.000  
   -602413.783    22420985.713        3555.677          50.000  
   -223536.578    22155131.014        1286.055          50.000  
    346116.315    22434448.413       -2086.375          50.000  
   -607919.001    24003809.561        3601.185          50.000  
    108746.518    20209917.698        -690.099          50.000  
   -379047.428    21156092.453        2220.069          50.000  
 18  2 16  8 23  0.0000000  0  8G03G10G30G01G23G05G09G11             0.000241894
    512700.657    24865495.430       -3046.564          50.000  
    226111.682    21158037.710       -1402.225          50.000  
   -605969.454    22420309.084        3555.821          51.000  
   -224822.457    22154886.334        1285.872          51.000  
    348202.776    22434845.445       -2086.453          50.000  
   -611520.299    24003124.248        3601.578          50.000  
    109436.733    20210049.017        -690.251          51.000  
   -381267.658    21155669.958        2220.343          51.000  
 18  2 16  8 23  1.0000000  0  8G03G10G30G01G23G05G09G11             0.000242077
    515747.579    24866075.244       -3047.093          51.000  
    227514.300    21158304.620       -1402.790          50.000  
   -609524.951    22419632.509        3555.377          51.000  
   -226107.916    22154641.707        1285.211          50.000  
    350289.604    22435242.566       -2087.046          50.000  
   -615121.676    24002438.936        3601.438          51.000  
    110127.371    20210180.444        -690.845          50.000  
   -383487.819    21155247.462        2220.069          50.000  
 18  2 16  8 23  2.0000000  0  8G03G10G30G01G23G05G09G11             0.000242261
    518794.989    24866655.147       -3047.487          50.000  
    228917.485    21158571.637       -1403.211          50.000  
   -613080.041    22418956.024        3555.061          50.000  
   -227392.731    22154397.187        1284.674          50.000  
    352377.033    22435639.777       -2087.549          50.000  
   -618722.908    24001753.641        3601.336          50.000  
    110818.669    20210311.996        -691.447          50.000  
   -385707.611    21154825.057        2220.191          50.000  
 18  2 16  8 23  3.0000000  0  8G03G10G30G01G23G05G09G11             0.000242445
    521842.790    24867235.122       -3047.617          50.000  
    230321.064    21158838.743       -1403.445          50.000  
   -616634.819    22418279.556        3554.971          50.000  
   -228677.019    22154152.793        1284.407          50.000  
    354464.953    22436037.095       -2087.804          50.000  
   -622324.134    24001068.346        3601.632          50.000  
    111510.515    20210443.655        -691.751          50.000  
   -387927.381    21154402.651        2219.929          50.000  
 18  2 16  8 23  4.0000000  0  8G03G10G30G01G23G05G09G11             0.000242628
    524890.918    24867815.168       -3048.205          50.000  
    231725.015    21159105.903       -1404.054          50.000  
   -620189.350    22417603.160        3554.480          50.000  
   -229960.852    22153908.487        1283.715          50.000  
    356553.286    22436434.502       -2088.431          50.000  
   -625925.417    24000383.051        3601.432          50.000  
    112202.831    20210575.385        -692.467          50.000  
   -390147.009    21153980.263        2219.580          50.000  
 18  2 16  8 23  5.0000000  0  8G03G10G30G01G23G05G09G11             0.000242811
    527939.479    24868395.286       -3048.743          50.000  
    233129.434    21159373.170       -1404.635          50.000  
   -623743.526    22416926.818        3554.027          50.000  
   -231244.142    22153664.289        1283.046          50.000  
    358642.132    22436831.998       -2089.071          50.000  
   -629526.667    23999697.738        3601.236          50.000  
    112895.712    20210707.241        -693.119          50.000  
   -392366.418    21153557.911        2219.282          50.000  
 18  2 16  8 23  6.0000000  0  8G03G10G30G01G23G05G09G11             0.000242995
    530988.330    24868975.476       -3048.831          50.000  
    234534.176    21159640.490       -1404.621          50.000  
   -627297.491    22416250.511        3554.079          50.000  
   -232527.052    22153420.163        1282.943          50.000  
    360731.330    22437229.548       -2089.125          50.000  
   -633128.065    23999012.425        3601.637          50.000  
    113589.003    20210839.186        -693.255          50.000  
   -394585.706    21153135.594        2219.863          50.000  
 18  2 16  8 23  7.0000000  0  8G03G10G30G01G23G05G09G11             0.000243178
    534037.362    24869555.683       -3049.192          50.000  
    235939.093    21159907.847       -1405.074          50.000  
   -630851.346    22415574.222        3553.777          50.000  
   -233809.693    22153176.072        1282.457          50.000  
    362820.768    22437627.170       -2089.573          49.000  
   -636729.723    23998327.041        3601.748          50.000  
    114282.584    20210971.166        -693.753          50.000  
   -396805.190    21152713.242        2219.364          50.000  
 18  2 16  8 23  8.0000000  0  8G03G10G30G01G23G05G09G11             0.000243362
    537087.008    24870136.015       -3049.811          50.000  
    237344.632    21160175.310       -1405.715          50.000  
   -634404.651    22414898.058        3553.155          50.000  
   -235091.650    22152932.142        1281.757          50.000  
    364910.868    22438024.880       -2090.266          50.000  
   -640331.214    23997641.710        3601.563          50.000  
    114976.888    20211103.290        -694.490          50.000  
   -399024.269    21152290.961        2218.982          50.000  
 18  2 16  8 23  9.0000000  0  8G03G10G30G01G23G05G09G11             0.000243545
    540136.810    24870716.383       -3049.938          50.000  
    238750.355    21160442.809       -1405.859          50.000  
   -637957.880    22414221.912        3553.159          50.000  
   -236373.392    22152688.230        1281.573          50.000  
    367001.156    22438422.645       -2090.433          50.000  
   -643933.030    23996956.308        3601.936          50.000  
    115671.433    20211235.467        -694.681          50.000  
   -401243.424    21151868.662        2219.141          50.000  
 18  2 16  8 23 10.0000000  0  8G03G10G30G01G23G05G09G11             0.000243728
    543186.968    24871296.805       -3049.945          50.000  
    240156.464    21160710.398       -1405.959          50.000  
   -641510.799    22413545.802        3553.131          50.000  
   -237654.718    22152444.407        1281.520          50.000  
    369091.830    22438820.481       -2090.478          50.000  
   -647534.968    23996270.888        3602.417          50.000  
    116366.420    20211367.716        -694.830          50.000  
   -403462.397    21151446.400        2219.661          50.000  
 18  2 16  8 23 11.0000000  0  8G03G10G30G01G23G05G09G11             0.000243912
    546237.402    24871877.280       -3050.471          50.000  
    241562.815    21160978.004       -1406.341          50.000  
   -645063.512    22412869.745        3552.735          50.000  
   -238935.734    22152200.638        1280.968          50.000  
    371182.784    22439218.388       -2090.990          50.000  
   -651137.127    23995585.415        3602.380          50.000  
    117061.750    20211500.018        -695.365          50.000  
   -405681.463    21151024.119        2219.078          50.000  
 18  2 16  8 23 12.0000000  0  8G03G10G30G01G23G05G09G11             0.000244095
    549288.263    24872457.844       -3050.859          50.000  
    242969.625    21161245.718       -1406.821          50.000  
   -648615.843    22412193.760        3552.332          50.000  
   -240216.287    22151956.958        1280.501          50.000  
    373274.173    22439616.367       -2091.435          50.000  
   -654739.367    23994899.923        3602.464          50.000  
    117757.576    20211632.445        -695.911          50.000  
   -407900.318    21150601.892        2218.899          50.000  
 18  2 16  8 23 13.0000000  0  8G03G10G30G01G23G05G09G11             0.000244278
    552339.683    24873038.516       -3051.473          50.000  
    244377.004    21161513.521       -1407.426          50.000  
   -652167.663    22411517.864        3551.796          50.000  
   -241496.254    22151713.385        1279.915          50.000  
    375366.108    22440014.453       -2091.974          50.000  
   -658341.563    23994214.432        3602.383          50.000  
    118454.012    20211764.962        -696.518          50.000  
   -410118.839    21150179.718        2218.558          50.000  
 18  2 16  8 23 14.0000000  0  8G03G10G30G01G23G05G09G11             0.000244461
    555391.405    24873619.241       -3051.801          50.000  
    245784.708    21161781.396       -1407.844          50.000  
   -655719.218    22410842.022        3551.513          50.000  
   -242775.898    22151469.884        1279.612          50.000  
    377458.326    22440412.593       -2092.257          50.000  
   -661943.987    23993528.923        3602.629          50.000  
    119150.795    20211897.550        -696.863          50.000  
   -412337.210    21149757.580        2218.665          50.000  
 18  2 16  8 23 15.0000000  0  8G03G10G30G01G23G05G09G11             0.000244645
    558443.438    24874200.020       -3052.036          50.000  
    247192.741    21162049.342       -1408.052          50.000  
   -659270.489    22410166.234        3551.220          50.000  
   -244055.202    22151226.436        1279.244          50.000  
    379550.833    22440810.786       -2092.507          50.000  
   -665546.629    23992843.342        3602.891          50.000  
    119847.940    20212030.210        -697.235          50.000  
   -414555.592    21149335.425        2218.402          50.000  
 18  2 16  8 23 16.0000000  0  8G03G10G30G01G23G05G09G11             0.000244828
    561495.945    24874780.889       -3052.680          50.000  
    248601.265    21162317.359       -1408.580          50.000  
   -662821.320    22409490.534        3550.679          50.000  
   -245334.028    22150983.096        1278.668          50.000  
    381643.767    22441209.051       -2093.025          50.000  
   -669149.340    23992157.779        3602.831          51.000  
    120545.580    20212162.976        -697.827          50.000  
   -416773.711    21148913.340        2218.068          50.000  
 18  2 16  8 23 17.0000000  0  8G03G10G30G01G23G05G09G11             0.000245011
    564548.812    24875361.846       -3052.788          50.000  
    250010.194    21162585.484       -1408.811          50.000  
   -666371.795    22408814.907        3550.561          50.000  
   -246612.474    22150739.791        1278.514          50.000  
    383737.025    22441607.387       -2093.166          50.000  
   -672752.225    23991472.180        3603.219          50.000  
    121243.615    20212295.815        -697.971          50.000  
   -418991.645    21148491.274        2218.097          50.000  
 18  2 16  8 23 18.0000000  0  8G03G10G30G01G23G05G09G11             0.000245194
    567602.243    24875942.893       -3053.702          50.000  
    251419.732    21162853.716       -1409.983          50.000  
   -669921.709    22408139.368        3549.597          50.000  
   -247890.344    22150496.630        1277.565          50.000  
    385830.787    22442005.813       -2094.055          50.000  
   -676355.099    23990786.546        3602.853          50.000  
    121942.240    20212428.760        -698.951          50.000  
   -421209.137    21148069.315        2217.397          50.000  
 18  2 16  8 23 19.0000000  0  8G03G10G30G01G23G05G09G11             0.000245377
    570656.061    24876524.012       -3053.745          50.000  
    252829.703    21163122.037       -1409.885          50.000  
   -673471.245    22407463.919        3549.575          50.000  
   -249167.819    22150253.540        1277.536          50.000  
    387924.859    22442404.292       -2093.970          50.000  
   -679958.138    23990100.929        3603.367          50.000  
    122641.262    20212561.777        -698.978          50.000  
   -423426.515    21147647.374        2217.477          50.000  
 18  2 16  8 23 20.0000000  0  8G03G10G30G01G23G05G09G11             0.000245560
    573710.286    24877105.220       -3054.497          50.000  
    254240.144    21163390.412       -1410.675          50.000  
   -677020.357    22406788.542        3548.888          50.000  
   -250444.868    22150010.521        1276.788          50.000  
    390019.272    22442802.843       -2094.634          50.000  
   -683561.320    23989415.259        3603.220          50.000  
    123340.704    20212694.884        -699.677          50.000  
   -425643.625    21147225.468        2216.926          50.000  
 18  2 16  8 23 21.0000000  0  8G03G10G30G01G23G05G09G11             0.000245743
    576764.912    24877686.499       -3054.442          50.000  
    255651.064    21163658.894       -1410.752          50.000  
   -680569.034    22406113.236        3548.806          50.000  
   -251721.498    22149767.591        1276.789          50.000  
    392114.004    22443201.447       -2094.545          50.000  
   -687164.640    23988729.571        3603.704          50.000  
    124040.564    20212828.061        -699.722          50.000  
   -427860.456    21146803.616        2217.062          50.000  
 18  2 16  8 23 23.0000000  0  8G03G10G30G01G23G05G09G11             0.000246109
    582875.398    24878849.290       -3055.551          50.000  
    258474.402    21164196.162       -1412.063          50.000  
   -687665.050    22404762.909        3547.612          50.000  
   -254273.461    22149281.965        1275.639          50.000  
    396304.417    22443998.852       -2095.436          50.000  
   -694371.710    23987358.123        3603.734          50.000  
    125441.522    20213094.667        -700.801          50.000  
   -432293.215    21145960.091        2216.155          50.000  
 18  2 16  8 23 24.0000000  0  8G03G10G30G01G23G05G09G11             0.000246292
    585931.202    24879430.784       -3056.039          50.000  
    259886.788    21164464.930       -1412.625          50.000  
   -691212.419    22404087.853        3547.054          50.000  
   -255548.837    22149039.268        1275.110          50.000  
    398400.026    22444397.635       -2095.835          50.000  
   -697975.499    23986672.328        3603.828          50.000  
    126142.563    20213228.077        -701.298          50.000  
   -434509.194    21145538.382        2215.774          50.000  
 18  2 16  8 23 25.0000000  0  8G03G10G30G01G23G05G09G11             0.000246475
    588987.554    24880012.385       -3056.578          50.000  
    261299.866    21164733.823       -1413.391          50.000  
   -694759.167    22403412.940        3546.443          50.000  
   -256823.622    22148796.678        1274.499          50.000  
    400496.074    22444796.507       -2096.275          50.000  
   -701579.273    23985986.569        3603.797          50.000  
    126844.155    20213361.577        -701.831          50.000  
   -436724.674    21145116.781        2215.257          50.000  
 18  2 16  8 23 26.0000000  0  8G03G10G30G01G23G05G09G11             0.000246658
    592044.517    24880594.093       -3056.920          50.000  
    262713.670    21165002.859       -1413.980          50.000  
   -698305.230    22402738.134        3546.086          50.000  
   -258097.758    22148554.231        1274.162          50.000  
    402592.600    22445195.469       -2096.372          50.000  
   -705182.972    23985300.791        3604.011          50.000  
    127546.353    20213495.201        -702.098          50.000  
   -438939.537    21144695.286        2214.909          50.000  
 18  2 16  8 23 28.0000000  0  8G03G10G30G01G23G05G09G11             0.000247023
    598159.660    24881757.759       -3057.872          50.000  
    265543.061    21165541.270       -1415.163          50.000  
   -705395.832    22401388.827        3544.877          50.000  
   -260644.623    22148069.588        1273.058          50.000  
    406786.515    22445993.535       -2097.192          50.000  
   -712390.696    23983929.219        3604.081          50.000  
    128951.975    20213762.701        -703.128          50.000  
   -443368.150    21143852.565        2214.005          50.000  
 18  2 16  8 23 29.0000000  0  8G03G10G30G01G23G05G09G11             0.000247206
    601217.646    24882339.682       -3058.224          50.000  
    266958.447    21165810.610       -1415.683          50.000  
   -708940.546    22400714.307        3544.383          50.000  
   -261917.533    22147827.355        1272.619          50.000  
    408883.677    22446392.604       -2097.366          50.000  
   -715994.906    23983243.352        3604.239          50.000  
    129655.198    20213896.522        -703.486          50.000  
   -445581.987    21143431.285        2213.564          50.000  
 18  2 16  8 23 30.0000000  0  8G03G10G30G01G23G05G09G11             0.000247388
    604276.091    24882921.676       -3058.186          50.000  
    268374.491    21166080.075       -1416.113          50.000  
   -712484.669    22400039.876        3544.305          50.000  
   -263189.890    22147585.230        1272.575          50.000  
    410981.164    22446791.745       -2097.167          50.000  
   -719599.139    23982557.503        3604.716          50.000  
    130358.888    20214030.414        -703.432          50.000  
   -447795.272    21143010.112        2213.431          50.000  
 18  2 16  8 23 31.0000000  0  8G03G10G30G01G23G05G09G11             0.000247571
    607334.939    24883503.742       -3058.839          50.000  
    269791.210    21166349.683       -1416.710          50.000  
   -716028.250    22399365.553        3543.552          50.000  
   -264461.748    22147343.212        1271.865          50.000  
    413078.899    22447190.921       -2097.609          50.000  
   -723203.464    23981871.619        3604.603          50.000  
    131062.978    20214164.396        -704.079          50.000  
   -450008.099    21142589.047        2212.835          50.000  
 18  2 16  8 23 32.0000000  0  8G03G10G30G01G23G05G09G11             0.000247754
    610394.131    24884085.897       -3059.234          50.000  
    271208.521    21166619.380       -1417.429          50.000  
   -719571.312    22398691.337        3542.844          50.000  
   -265733.137    22147101.265        1271.296          50.000  
    415176.840    22447590.150       -2097.910          50.000  
   -726807.895    23981185.716        3604.598          50.000  
    131767.431    20214298.450        -704.687          50.000  
   -452220.449    21142168.034        2212.261          50.000  
 18  2 16  8 23 33.0000000  0  8G03G10G30G01G23G05G09G11             0.000247942
    613453.443    24884668.069       -3059.501          50.000  
    272626.228    21166889.167       -1417.939          50.000  
   -723114.097    22398017.174        3542.524          50.000  
   -267004.275    22146859.372        1270.901          50.000  
    417274.739    22447989.362       -2097.927          50.000  
   -730412.665    23980499.760        3604.828          50.000  
    132472.002    20214432.521        -704.761          50.000  
   -454432.526    21141747.094        2211.879          50.000  
 18  2 16  8 23 34.0000000  0  8G03G10G30G01G23G05G09G11             0.000248124
    616513.057    24885250.296       -3059.821          50.000  
    274044.512    21167159.060       -1418.883          50.000  
   -726656.390    22397343.101        3541.975          50.000  
   -268274.966    22146617.569        1270.407          50.000  
    419372.796    22448388.628       -2098.193          50.000  
   -734017.563    23979813.768        3604.870          50.000  
    133176.897    20214566.664        -705.118          50.000  
   -456644.109    21141326.225        2211.153          50.000  
 18  2 16  8 23 35.0000000  0  8G03G10G30G01G23G05G09G11             0.000248306
    619573.186    24885832.629       -3060.022          50.000  
    275463.689    21167429.115       -1419.151          50.000  
   -730197.973    22396669.153        3541.598          50.000  
   -269544.974    22146375.890        1270.013          50.000  
    421471.205    22448787.929       -2098.209          50.000  
   -737622.369    23979127.794        3605.096          50.000  
    133882.325    20214700.914        -705.313          50.000  
   -458854.967    21140905.499        2210.912          50.000  
 18  2 16  8 23 36.0000000  0  8G03G10G30G01G23G05G09G11             0.000248487
    622633.535    24886414.981       -3060.593          50.000  
    276883.406    21167699.277       -1420.122          50.000  
   -733739.121    22395995.312        3540.824          50.000  
   -270814.586    22146134.283        1269.317          50.000  
    423569.677    22449187.266       -2098.595          50.000  
   -741227.352    23978441.767        3604.945          50.000  
    134588.001    20214835.182        -705.877          50.000  
   -461065.368    21140484.880        2210.126          50.000  
 18  2 16  8 23 37.0000000  0  8G03G10G30G01G23G05G09G11             0.000248669
    625694.445    24886997.457       -3061.035          50.000  
    278304.051    21167969.635       -1420.969          50.000  
   -737279.482    22395321.596        3540.130          50.000  
   -272083.427    22145892.837        1268.588          50.000  
    425668.552    22449586.674       -2098.932          50.000  
   -744832.158    23977755.793        3604.866          50.000  
    135294.276    20214969.574        -706.412          50.000  
   -463274.934    21140064.422        2209.311          50.000  
 18  2 16  8 23 38.0000000  0  8G03G10G30G01G23G05G09G11             0.000248850
    628755.649    24887579.987       -3061.375          50.000  
    279725.342    21168240.083       -1421.913          50.000  
   -740819.307    22394647.988        3539.513          50.000  
   -273351.761    22145651.498        1268.059          50.000  
    427767.561    22449986.101       -2099.081          50.000  
   -748437.033    23977069.801        3604.904          50.000  
    136000.873    20215104.039        -706.740          50.000  
   -465483.899    21139644.053        2208.461          50.000  
 18  2 16  8 23 39.0000000  0  8G03G10G30G01G23G05G09G11             0.000249032
    631817.082    24888162.553       -3061.617          50.000  
    281147.341    21168510.673       -1422.264          50.000  
   -744358.657    22393974.469        3538.996          50.000  
   -274619.628    22145410.230        1267.562          50.000  
    429866.641    22450385.545       -2099.187          50.000  
   -752042.019    23976383.792        3604.934          50.000  
    136707.753    20215238.557        -707.110          50.000  
   -467692.288    21139223.827        2208.092          50.000  
 18  2 16  8 23 40.0000000  0  8G03G10G30G01G23G05G09G11             0.000249213
    634878.690    24888745.155       -3061.608          50.000  
    282569.941    21168781.371       -1422.697          50.000  
   -747897.569    22393301.039        3538.802          50.000  
   -275887.060    22145169.052        1267.280          50.000  
    431965.734    22450784.989       -2098.993          50.000  
   -755647.151    23975697.764        3605.291          50.000  
    137414.854    20215373.111        -707.047          50.000  
   -469900.134    21138803.691        2207.783          50.000  
 18  2 16  8 23 41.0000000  0  8G03G10G30G01G23G05G09G11             0.000249395
    637940.433    24889327.774       -3061.756          50.000  
    283993.127    21169052.194       -1423.375          50.000  
   -751436.065    22392627.680        3538.336          50.000  
   -277154.074    22144927.945        1266.873          50.000  
    434064.809    22451184.433       -2099.010          50.000  
   -759252.453    23975011.701        3605.467          50.000  
    138122.151    20215507.718        -707.288          50.000  
   -472107.448    21138383.643        2207.121          50.000  
 18  2 16  8 23 42.0000000  0  8G03G10G30G01G23G05G09G11             0.000249576
    641002.668    24889910.501       -3062.211          50.000  
    285417.253    21169323.196       -1424.620          50.000  
   -754973.778    22391954.483        3537.572          50.000  
   -278420.297    22144686.999        1266.058          50.000  
    436164.216    22451583.949       -2099.325          50.000  
   -762857.534    23974325.673        3605.226          50.000  
    138830.018    20215642.415        -707.864          50.000  
   -474313.852    21137963.757        2205.959          50.000  
 18  2 16  8 23 43.0000000  0  8G03G10G30G01G23G05G09G11             0.000249758
    644065.245    24890493.299       -3062.792          50.000  
    286842.291    21169594.358       -1425.365          50.000  
   -758510.852    22391281.410        3536.734          50.000  
   -279685.862    22144446.179        1265.235          50.000  
    438263.812    22451983.482       -2099.686          50.000  
   -766462.529    23973639.681        3604.949          50.000  
    139538.297    20215777.201        -708.480          50.000  
   -476519.411    21137544.067        2205.219          50.000  
 18  2 16  8 23 44.0000000  0  8G03G10G30G01G23G05G09G11             0.000249939
    647127.933    24891076.098       -3062.780          50.000  
    288267.955    21169865.663       -1425.924          50.000  
   -762047.496    22390608.392        3536.363          50.000  
   -280950.964    22144205.447        1264.830          50.000  
    440363.374    22452383.016       -2099.590          50.000  
   -770067.641    23972953.636        3605.148          50.000  
    140246.777    20215912.005        -708.605          50.000  
   -478724.384    21137124.467        2204.709          50.000  
 18  2 16  8 23 45.0000000  0  8G03G10G30G01G23G05G09G11             0.000250120
    650190.875    24891658.985       -3062.926          50.000  
    289694.439    21170137.130       -1426.718          50.000  
   -765583.557    22389935.498        3535.893          50.000  
   -282215.443    22143964.823        1264.284          50.000  
    442463.041    22452782.567       -2099.572          50.000  
   -773672.703    23972267.626        3605.147          50.000  
    140955.615    20216046.880        -708.896          50.000  
   -480928.570    21136705.027        2203.945          50.000  
 18  2 16  8 23 46.0000000  0  8G03G10G30G01G23G05G09G11             0.000250301
    653254.142    24892241.908       -3063.282          50.000  
    291121.761    21170408.739       -1427.827          50.000  
   -769118.957    22389262.747        3535.173          50.000  
   -283479.211    22143724.341        1263.489          50.000  
    444562.886    22453182.154       -2099.822          50.000  
   -777277.625    23971581.635        3604.940          50.000  
    141664.880    20216181.863        -709.366          50.000  
   -483131.905    21136285.749        2202.752          50.000  
 18  2 16  8 23 47.0000000  0  8G03G10G30G01G23G05G09G11             0.000250482
    656317.545    24892824.849       -3063.761          50.000  
    292549.908    21170680.509       -1428.757          50.000  
   -772653.882    22388590.068        3534.343          50.000  
   -284742.447    22143483.950        1262.696          50.000  
    446662.724    22453581.741       -2100.149          50.000  
   -780882.576    23970895.625        3604.670          50.000  
    142374.396    20216316.881        -709.976          50.000  
   -485334.458    21135866.595        2201.961          50.000  
 18  2 16  8 23 48.0000000  0  8G03G10G30G01G23G05G09G11             0.000250664
    659381.380    24893407.880       -3063.763          50.000  
    293979.091    21170952.475       -1429.347          50.000  
   -776188.011    22387917.549        3534.013          50.000  
   -286004.797    22143243.718        1262.164          50.000  
    448762.867    22453981.382       -2100.073          50.000  
   -784487.220    23970209.669        3604.755          50.000  
    143084.471    20216451.989        -710.051          50.000  
   -487535.976    21135447.674        2201.328          50.000  
 18  2 16  8 23 49.0000000  0  8G03G10G30G01G23G05G09G11             0.000250845
    662445.321    24893990.910       -3064.093          50.000  
    295409.018    21171224.585       -1430.360          50.000  
   -779721.663    22387245.102        3533.320          50.000  
   -287266.594    22143003.612        1261.433          50.000  
    450862.981    22454381.005       -2100.180          50.000  
   -788091.868    23969523.731        3604.557          50.000  
    143794.799    20216587.168        -710.528          50.000  
   -489736.753    21135028.877        2200.331          50.000  
 18  2 16  8 23 50.0000000  0  8G03G10G30G01G23G05G09G11             0.000251026
    665509.106    24894573.941       -3063.852          50.000  
    296839.414    21171496.766       -1431.048          50.000  
   -783255.094    22386572.726        3533.158          50.000  
   -288528.062    22142763.560        1261.113          50.000  
    452962.819    22454780.592       -2099.844          50.000  
   -791696.753    23968837.739        3604.832          50.000  
    144505.118    20216722.347        -710.474          50.000  
   -491937.038    21134610.188        2199.565          50.000  
 18  2 16  8 23 51.0000000  0  8G03G10G30G01G23G05G09G11             0.000251208
    668573.166    24895157.007       -3064.182          50.000  
    298270.847    21171769.161       -1431.827          50.000  
   -786787.865    22385900.458        3532.454          50.000  
   -289788.760    22142523.668        1260.336          50.000  
    455062.811    22455180.215       -2100.044          50.000  
   -795301.421    23968151.801        3604.594          50.000  
    145215.877    20216857.615        -710.958          50.000  
   -494136.279    21134191.678        2198.850          50.000  
 18  2 16  8 23 52.0000000  0  8G03G10G30G01G23G05G09G11             0.000251389
    671637.449    24895740.127       -3064.177          51.000  
    299703.209    21172041.735       -1432.580          50.000  
   -790320.006    22385228.297        3532.008          50.000  
   -291048.699    22142283.902        1259.791          50.000  
    457162.923    22455579.855       -2099.958          50.000  
   -798905.889    23967465.916        3604.608          51.000  
    145927.034    20216992.955        -711.121          50.000  
   -496334.579    21133773.346        2198.095          50.000  
 18  2 16  8 23 53.0000000  0  8G03G10G30G01G23G05G09G11             0.000251570
    674701.738    24896323.247       -3064.057          50.000  
    301136.293    21172314.434       -1433.191          50.000  
   -793851.747    22384556.225        3531.776          50.000  
   -292308.087    22142044.260        1259.333          50.000  
    459262.932    22455979.460       -2099.745          50.000  
   -802510.361    23966780.014        3604.710          50.000  
    146638.384    20217128.313        -711.193          50.000  
   -498532.120    21133355.157        2197.447          50.000  
 18  2 16  8 23 54.0000000  0  8G03G10G30G01G23G05G09G11             0.000251752
    677766.050    24896906.367       -3064.122          50.000  
    302570.105    21172587.276       -1434.196          50.000  
   -797383.046    22383884.242        3531.248          50.000  
   -293566.882    22141804.726        1258.702          50.000  
    461362.868    22456379.065       -2099.728          50.000  
   -806114.785    23966094.111        3604.567          50.000  
    147349.960    20217263.707        -711.529          50.000  
   -500728.895    21132937.129        2196.285          50.000  
 18  2 16  8 23 55.0000000  0  8G03G10G30G01G23G05G09G11             0.000251933
    680830.582    24897489.522       -3064.586          50.000  
    304004.981    21172860.333       -1435.284          50.000  
   -800913.706    22383212.385        3530.384          50.000  
   -294824.861    22141565.335        1257.594          50.000  
    463462.933    22456778.706       -2100.066          50.000  
   -809718.945    23965408.262        3604.078          50.000  
    148061.964    20217399.208        -712.169          50.000  
   -502924.569    21132519.298        2195.270          50.000  
 18  2 16  8 23 56.0000000  0  8G03G10G30G01G23G05G09G11             0.000252125
    683895.074    24898072.678       -3064.429          50.000  
    305440.600    21173133.515       -1435.945          50.000  
   -804443.977    22382540.599        3530.090          50.000  
   -296082.264    22141326.051        1257.131          50.000  
    465562.886    22457178.311       -2099.880          50.000  
   -813323.067    23964722.414        3604.078          50.000  
    148774.153    20217534.726        -712.268          50.000  
   -505119.473    21132101.628        2194.554          50.000  
 18  2 16  8 23 57.0000000  0  8G03G10G30G01G23G05G09G11             0.000252307
    686959.824    24898655.869       -3064.667          50.000  
    306877.269    21173406.893       -1436.954          50.000  
   -807973.564    22381868.938        3529.471          50.000  
   -297338.776    22141086.963        1256.284          50.000  
    467663.017    22457577.952       -2100.001          50.000  
   -816926.845    23964036.636        3603.798          50.000  
    149486.834    20217670.352        -712.718          50.000  
   -507313.269    21131684.171        2193.483          50.000  
 18  2 16  8 23 58.0000000  0  8G03G10G30G01G23G05G09G11             0.000252489
    690024.696    24899239.096       -3064.904          50.000  
    308314.834    21173680.450       -1438.122          50.000  
   -811502.586    22381197.385        3528.781          50.000  
   -298594.505    22140848.001        1255.360          50.000  
    469763.212    22457977.610       -2100.186          50.000  
   -820530.374    23963350.912        3603.411          50.000  
    150199.889    20217806.032        -713.226          50.000  
   -509506.110    21131266.876        2192.126          50.000  
 18  2 16  8 23 59.0000000  0  8G03G10G30G01G23G05G09G11             0.000252670
    693089.716    24899822.359       -3064.989          50.000  
    309753.477    21173954.203       -1438.967          50.000  
   -815031.014    22380525.938        3528.238          50.000  
   -299849.402    22140609.217        1254.578          50.000  
    471863.503    22458377.287       -2100.217          50.000  
   -824133.610    23962665.242        3603.220          50.000  
    150913.358    20217941.801        -713.567          50.000  
   -511697.816    21130849.813        2191.392          50.000  
 18  2 16  8 24  0.0000000  0  8G03G10G30G01G23G05G09G11             0.000252853
    696155.023    24900405.675       -3065.400          50.000  
    311193.238    21174228.171       -1440.251          50.000  
   -818558.710    22379854.635        3527.372          50.000  
   -301103.319    22140370.594        1253.489          50.000  
    473964.036    22458777.017       -2100.601          50.000  
   -827736.385    23961979.644        3602.573          50.000  
    151627.383    20218077.694        -714.272          50.000  
   -513888.350    21130432.947        2189.991          50.000  
 18  2 16  8 24  1.0000000  0  8G03G10G30G01G23G05G09G11             0.000253034
    699220.354    24900989.010       -3065.193          50.000  
    312633.881    21174502.335       -1440.881          50.000  
   -822085.932    22379183.439        3527.156          50.000  
   -302356.490    22140132.114        1252.982          50.000  
    476064.559    22459176.729       -2100.375          50.000  
   -831338.949    23961294.116        3602.610          50.000  
    152341.719    20218213.624        -714.325          50.000  
   -516077.938    21130016.277        2189.288          50.000  
 18  2 16  8 24  2.0000000  0  8G03G10G30G01G23G05G09G11             0.000253216
    702285.470    24901572.290       -3065.033          50.000  
    314075.154    21174776.607       -1441.754          50.000  
   -825612.913    22378512.260        3526.847          50.000  
   -303609.133    22139893.759        1252.347          50.000  
    478164.840    22459576.405       -2100.167          50.000  
   -834941.511    23960608.571        3602.548          50.000  
    153056.141    20218349.572        -714.505          50.000  
   -518266.836    21129599.750        2188.303          50.000  
 18  2 16  8 24  3.0000000  0  8G03G10G30G01G23G05G09G11             0.000253398
    705350.496    24902155.553       -3064.832          50.000  
    315517.292    21175051.039       -1442.395          50.000  
   -829139.527    22377841.171        3526.546          50.000  
   -304861.115    22139655.493        1251.789          50.000  
    480265.019    22459976.064       -2099.992          50.000  
   -838543.922    23959923.044        3602.444          50.000  
    153770.786    20218485.555        -714.650          50.000  
   -520454.778    21129183.384        2187.682          50.000  
 18  2 16  8 24  4.0000000  0  8G03G10G30G01G23G05G09G11             0.000253580
    708415.440    24902738.780       -3064.892          50.000  
    316960.247    21175325.615       -1443.330          50.000  
   -832665.767    22377170.136        3526.066          50.000  
   -306112.400    22139417.389        1250.930          50.000  
    482365.115    22460375.687       -2100.070          50.000  
   -842146.156    23959237.571        3602.133          50.000  
    154485.672    20218621.574        -714.992          50.000  
   -522641.844    21128767.196        2186.716          50.000  
 18  2 16  8 24  5.0000000  0  8G03G10G30G01G23G05G09G11             0.000253761
    711480.337    24903322.025       -3064.738          50.000  
    318404.059    21175600.369       -1444.095          50.000  
   -836191.595    22376499.208        3525.787          50.000  
   -307362.942    22139179.427        1250.303          50.000  
    484465.167    22460775.327       -2099.889          50.000  
   -845748.161    23958552.133        3602.034          50.000  
    155200.845    20218757.682        -715.160          50.000  
   -524827.972    21128351.188        2185.815          50.000  
 18  2 16  8 24  6.0000000  0  8G03G10G30G01G23G05G09G11             0.000253943
    714545.437    24903905.288       -3064.901          50.000  
    319848.968    21175875.337       -1445.321          50.000  
   -839716.758    22375828.369        3525.143          50.000  
   -308612.473    22138941.662        1249.312          50.000  
    486565.438    22461175.004       -2100.061          50.000  
   -849349.661    23957866.784        3601.576          50.000  
    155916.565    20218893.880        -715.648          50.000  
   -527012.943    21127935.393        2184.505          50.000  
 18  2 16  8 24  7.0000000  0  8G03G10G30G01G23G05G09G11             0.000254125
    717610.433    24904488.533       -3064.815          50.000  
    321294.751    21176150.467       -1446.040          50.000  
   -843241.566    22375157.619        3524.745          50.000  
   -309861.288    22138704.022        1248.588          50.000  
    488665.637    22461574.644       -2100.008          50.000  
   -852950.942    23957181.471        3601.266          50.000  
    156632.549    20219030.131        -715.960          50.000  
   -529196.942    21127519.814        2183.717          50.000  
 18  2 16  8 24  8.0000000  0  8G03G10G30G01G23G05G09G11             0.000254307
    720675.277    24905071.742       -3064.742          50.000  
    322741.328    21176425.739       -1446.916          50.000  
   -846766.072    22374486.941        3524.405          50.000  
   -311109.414    22138466.524        1247.832          50.000  
    490765.723    22461974.285       -2099.968          50.000  
   -856552.044    23956496.194        3601.056          50.000  
    157348.750    20219166.436        -716.305          50.000  
   -531380.082    21127104.377        2182.790          50.000  
 18  2 16  8 24  9.0000000  0  8G03G10G30G01G23G05G09G11             0.000254489
    723740.148    24905654.987       -3064.609          50.000  
    324188.862    21176701.208       -1447.752          50.000  
   -850290.090    22373816.335        3524.038          50.000  
   -312356.661    22138229.188        1247.076          50.000  
    492865.884    22462373.926       -2099.933          50.000  
   -860152.760    23955811.007        3600.815          50.000  
    158065.355    20219302.795        -716.540          50.000  
   -533562.184    21126689.136        2181.908          50.000  
 18  2 16  8 24 10.0000000  0  8G03G10G30G01G23G05G09G11             0.000254671
    726804.898    24906238.196       -3064.368          50.000  
    325637.188    21176976.802       -1448.455          50.000  
   -853813.774    22373145.799        3523.820          50.000  
   -313603.168    22137991.977        1246.477          50.000  
    494965.984    22462773.567       -2099.760          50.000  
   -863753.227    23955125.873        3600.657          50.000  
    158782.234    20219439.225        -716.705          50.000  
   -535743.423    21126274.039        2180.982          50.000  
 18  2 16  8 24 11.0000000  0  8G03G10G30G01G23G05G09G11             0.000254852
    729869.737    24906821.423       -3065.088          50.000  
    327086.617    21177252.628       -1450.175          50.000  
   -857336.912    22372475.372        3522.565          50.000  
   -314848.702    22137754.962        1244.816          50.000  
    497066.252    22463173.243       -2100.590          50.000  
   -867353.210    23954440.810        3599.450          50.000  
    159499.609    20219575.708        -717.893          50.000  
   -537923.476    21125859.209        2179.303          50.000  
 18  2 16  8 24 12.0000000  0  8G03G10G30G01G23G05G09G11             0.000255033
    732934.767    24907404.686       -3064.740          50.000  
    328537.171    21177528.669       -1450.722          50.000  
   -860859.423    22371805.051        3522.544          50.000  
   -316093.164    22137518.162        1244.269          50.000  
    499166.791    22463572.955       -2100.347          50.000  
   -870952.618    23953755.872        3599.475          50.000  
    160217.578    20219712.353        -717.912          50.000  
   -540102.320    21125444.595        2178.615          50.000  
 18  2 16  8 24 13.0000000  0  8G03G10G30G01G23G05G09G11             0.000255215
    735999.637    24907987.913       -3064.247          50.000  
    329988.528    21177804.852       -1451.182          50.000  
   -864381.642    22371134.802        3522.579          50.000  
   -317336.893    22137281.469        1243.862          50.000  
    501267.255    22463972.667       -2099.921          50.000  
   -874551.760    23953070.971        3599.507          50.000  
    160935.814    20219849.033        -717.859          50.000  
   -542280.288    21125030.123        2178.036          50.000  
 18  2 16  8 24 14.0000000  0  8G03G10G30G01G23G05G09G11             0.000255396
    739064.309    24908571.086       -3064.534          50.000  
    331440.610    21178081.161       -1452.385          50.000  
   -867903.627    22370464.606        3521.939          50.000  
   -318579.918    22137044.936        1242.754          50.000  
    503367.625    22464372.362       -2100.236          50.000  
   -878150.683    23952386.123        3598.865          50.000  
    161654.278    20219985.749        -718.531          50.000  
   -544457.491    21124615.811        2176.818          50.000  
 18  2 16  8 24 15.0000000  0  8G03G10G30G01G23G05G09G11             0.000255578
    742128.857    24909154.260       -3064.680          50.000  
    332893.558    21178357.648       -1453.511          50.000  
   -871425.303    22369794.446        3521.358          50.000  
   -319822.152    22136808.547        1241.712          50.000  
    505467.989    22464772.038       -2100.506          50.000  
   -881749.293    23951701.346        3598.287          50.000  
    162373.058    20220122.536        -719.088          50.000  
   -546633.722    21124201.697        2175.636          50.000  
 18  2 16  8 24 16.0000000  0  8G03G10G30G01G23G05G09G11             0.000255759
    745193.481    24909737.451       -3064.372          50.000  
    334347.532    21178634.332       -1454.248          50.000  
   -874946.468    22369124.394        3521.203          50.000  
   -321063.386    22136572.337        1241.036          50.000  
    507568.561    22465171.768       -2100.431          50.000  
   -885347.372    23951016.658        3598.115          50.000  
    163092.367    20220259.413        -719.292          50.000  
   -548808.866    21123787.761        2174.841          50.000  
 18  2 16  8 24 17.0000000  0  8G03G10G30G01G23G05G09G11             0.000255940
    748258.001    24910320.624       -3064.071          50.000  
    335802.339    21178911.177       -1454.876          50.000  
   -878467.314    22368454.395        3521.001          50.000  
   -322303.801    22136336.287        1240.372          50.000  
    509669.159    22465571.498       -2100.263          50.000  
   -888945.101    23950332.043        3597.910          50.000  
    163812.028    20220396.361        -719.486          50.000  
   -550983.109    21123374.022        2174.140          50.000  
 18  2 16  8 24 18.0000000  0  8G03G10G30G01G23G05G09G11             0.000256122
    751322.434    24910903.780       -3064.464          50.000  
    337257.000    21179188.183       -1456.230          50.000  
   -881987.838    22367784.467        3520.233          50.000  
   -323543.379    22136100.398        1239.081          50.000  
    511769.814    22465971.246       -2100.826          50.000  
   -892542.460    23949647.480        3597.083          50.000  
    164532.061    20220533.381        -720.339          50.000  
   -553156.457    21122960.443        2172.713          50.000  
 18  2 16  8 24 19.0000000  0  8G03G10G30G01G23G05G09G11             0.000256303
    754386.929    24911486.918       -3064.416          50.000  
    338714.658    21179465.385       -1457.043          50.000  
   -885507.902    22367114.593        3519.979          50.000  
   -324781.965    22135864.705        1238.219          50.000  
    513870.682    22466371.030       -2100.851          50.000  
   -896139.286    23948963.025        3596.687          50.000  
    165252.620    20220670.508        -720.691          50.000  
   -555328.725    21122547.079        2171.847          50.000  
 18  2 16  8 24 20.0000000  0  8G03G10G30G01G23G05G09G11             0.000256484
    757451.598    24912070.109       -3064.284          50.000  
    340172.438    21179742.784       -1457.838          50.000  
   -889027.386    22366444.862        3519.708          50.000  
   -326019.441    22135629.227        1237.328          50.000  
    515971.892    22466770.867       -2100.858          50.000  
   -899735.462    23948278.695        3596.262          50.000  
    165973.833    20220807.760        -720.966          50.000  
   -557499.822    21122133.947        2170.917          50.000  
 18  2 16  8 24 21.0000000  0  8G03G10G30G01G23G05G09G11             0.000256665
    760515.997    24912653.247       -3063.835          50.000  
    341630.867    21180020.307       -1458.350          50.000  
   -892546.745    22365775.167        3519.704          50.000  
   -327256.255    22135393.857        1236.893          50.000  
    518073.009    22467170.686       -2100.635          50.000  
   -903331.430    23947594.401        3596.266          50.000  
    166695.267    20220945.029        -721.133          50.000  
   -559670.240    21121720.922        2170.537          50.000  
 18  2 16  8 24 22.0000000  0  8G03G10G30G01G23G05G09G11             0.000256846
    763580.264    24913236.366       -3063.980          50.000  
    343090.050    21180297.992       -1459.182          50.000  
   -896065.864    22365105.490        3519.266          50.000  
   -328492.269    22135158.665        1235.828          51.000  
    520174.167    22467570.524       -2100.801          50.000  
   -906927.060    23946910.178        3595.752          51.000  
    167417.035    20221082.371        -721.597          50.000  
   -561839.851    21121308.059        2169.620          50.000  
 18  2 16  8 24 23.0000000  0  8G03G10G30G01G23G05G09G11             0.000257027
    766644.339    24913819.433       -3063.825          50.000  
    344549.957    21180575.802       -1460.106          50.000  
   -899584.802    22364435.866        3519.004          50.000  
   -329727.542    22134923.598        1235.053          50.000  
    522275.343    22467970.379       -2101.034          50.000  
   -910522.389    23946226.009        3595.327          50.000  
    168139.120    20221219.801        -722.035          50.000  
   -564008.676    21120895.338        2168.600          50.000  
 18  2 16  8 24 24.0000000  0  8G03G10G30G01G23G05G09G11             0.000257209
    769708.112    24914402.463       -3063.525          50.000  
    346010.461    21180853.737       -1460.672          50.000  
   -903103.679    22363766.260        3518.970          50.000  
   -330962.191    22134688.656        1234.480          50.000  
    524376.406    22468370.198       -2100.895          50.000  
   -914117.548    23945541.876        3595.192          50.000  
    168861.389    20221357.232        -722.248          50.000  
   -566176.883    21120482.742        2167.995          50.000  
 18  2 16  8 24 25.0000000  0  8G03G10G30G01G23G05G09G11             0.000257390
    772771.825    24914985.458       -3063.446          50.000  
    347471.782    21181131.814       -1461.503          50.000  
   -906622.265    22363096.690        3518.714          50.000  
   -332195.970    22134453.874        1233.631          50.000  
    526477.619    22468770.035       -2100.995          50.000  
   -917712.287    23944857.814        3594.791          50.000  
    169584.094    20221494.752        -722.627          50.000  
   -568344.254    21120070.289        2167.206          50.000  
 18  2 16  8 24 26.0000000  0  8G03G10G30G01G23G05G09G11             0.000257570
    775835.240    24915568.399       -3063.135          50.000  
    348933.667    21181410.017       -1461.953          50.000  
   -910140.812    22362427.138        3518.680          50.000  
   -333429.125    22134219.201        1232.979          50.000  
    528578.757    22469169.873       -2100.986          50.000  
   -921306.842    23944173.788        3594.608          50.000  
    170307.011    20221632.308        -722.889          50.000  
   -570511.036    21119657.980        2166.744          50.000  
 18  2 16  8 24 27.0000000  0  8G03G10G30G01G23G05G09G11             0.000257752
    778898.477    24916151.340       -3063.088          50.000  
    350396.208    21181688.327       -1462.839          50.000  
   -913659.211    22361757.603        3518.386          50.000  
   -334661.549    22133984.688        1232.088          50.000  
    530679.929    22469569.710       -2101.128          50.000  
   -924901.108    23943489.833        3594.169          50.000  
    171030.242    20221769.953        -723.325          50.000  
   -572677.142    21119245.777        2165.786          50.000  
 18  2 16  8 24 28.0000000  0  8G03G10G30G01G23G05G09G11             0.000257933
    781961.751    24916734.263       -3063.030          50.000  
    351859.630    21181966.798       -1463.635          50.000  
   -917177.255    22361088.158        3518.166          50.000  
   -335893.032    22133750.335        1231.312          50.000  
    532781.375    22469969.619       -2101.310          50.000  
   -928494.871    23942805.950        3593.772          50.000  
    171754.016    20221907.687        -723.781          50.000  
   -574842.350    21118833.753        2164.976          50.000  
 18  2 16  8 24 29.0000000  0  8G03G10G30G01G23G05G09G11             0.000258114
    785024.794    24917317.133       -3062.969          50.000  
    353323.638    21182245.394       -1464.351          50.000  
   -920695.224    22360418.695        3517.905          50.000  
   -337123.837    22133516.108        1230.415          50.000  
    534882.830    22470369.509       -2101.523          50.000  
   -932088.398    23942122.120        3593.346          50.000  
    172478.067    20222045.457        -724.231          50.000  
   -577006.974    21118421.836        2164.260          50.000  
 18  2 16  8 24 30.0000000  0  8G03G10G30G01G23G05G09G11             0.000258295
    788087.704    24917899.985       -3062.796          50.000  
    354788.323    21182524.115       -1464.848          50.000  
   -924213.032    22359749.286        3517.775          50.000  
   -338353.895    22133282.042        1229.752          50.000  
    536984.391    22470769.418       -2101.592          50.000  
   -935681.610    23941438.362        3593.073          50.000  
    173202.485    20222183.317        -724.544          50.000  
   -579170.935    21118010.062        2163.931          50.000  
 18  2 16  8 24 31.0000000  0  8G03G10G30G01G23G05G09G11             0.000258476
    791150.604    24918482.837       -3062.596          50.000  
    356253.750    21182802.979       -1465.571          50.000  
   -927730.572    22359079.930        3517.718          50.000  
   -339583.081    22133048.136        1229.087          50.000  
    539086.189    22471169.363       -2101.622          50.000  
   -939274.388    23940754.675        3592.818          50.000  
    173927.402    20222321.266        -724.888          50.000  
   -581334.148    21117598.396        2163.063          50.000  
 18  2 16  8 24 32.0000000  0  8G03G10G30G01G23G05G09G11             0.000258658
    794213.463    24919065.688       -3062.905          50.000  
    357719.909    21183081.986       -1466.589          50.000  
   -931247.883    22358410.610        3517.124          50.000  
   -340811.436    22132814.392        1227.885          50.000  
    541188.200    22471569.379       -2102.162          50.000  
   -942866.775    23940071.078        3592.128          50.000  
    174652.776    20222459.304        -725.691          50.000  
   -583496.646    21117186.890        2162.023          50.000  
 18  2 16  8 24 33.0000000  0  8G03G10G30G01G23G05G09G11             0.000258838
    797276.231    24919648.504       -3062.837          50.000  
    359186.731    21183361.100       -1467.252          50.000  
   -934765.030    22357741.326        3516.966          50.000  
   -342039.028    22132580.790        1227.129          50.000  
    543290.380    22471969.412       -2102.340          50.000  
   -946458.829    23939387.534        3591.807          50.000  
    175378.560    20222597.414        -726.066          50.000  
   -585658.516    21116775.510        2161.477          50.000  
 18  2 16  8 24 34.0000000  0  8G03G10G30G01G23G05G09G11             0.000259013
    800338.833    24920231.303       -3062.253          50.000  
    360654.126    21183640.339       -1467.249          50.000  
   -938282.102    22357072.059        3517.289          50.000  
   -343265.946    22132347.331        1226.861          50.000  
    545392.659    22472369.464       -2102.088          50.000  
   -950050.636    23938704.026        3591.922          50.000  
    176104.681    20222735.595        -726.027          50.000  
   -587819.841    21116364.218        2161.617          50.000  
 18  2 16  8 24 35.0000000  0  8G03G10G30G01G23G05G09G11             0.000259195
    803401.392    24920814.101       -3062.289          50.000  
    362122.143    21183919.704       -1468.178          50.000  
   -941798.985    22356402.811        3517.019          50.000  
   -344492.076    22132113.997        1225.964          50.000  
    547495.158    22472769.552       -2102.394          50.000  
   -953642.097    23938020.590        3591.527          50.000  
    176831.251    20222873.865        -726.567          50.000  
   -589980.591    21115953.052        2160.573          50.000  
 18  2 16  8 24 36.0000000  0  8G03G10G30G01G23G05G09G11             0.000259377
    806463.923    24921396.881       -3062.444          50.000  
    363590.824    21184199.157       -1469.013          50.000  
   -945315.681    22355733.616        3516.637          50.000  
   -345717.425    22131880.825        1225.051          50.000  
    549597.899    22473169.710       -2102.798          50.000  
   -957233.202    23937337.242        3591.014          50.000  
    177558.289    20223012.207        -727.225          50.000  
   -592140.726    21115541.975        2159.758          50.000  
 18  2 16  8 24 37.0000000  0  8G03G10G30G01G23G05G09G11             0.000259559
    809526.385    24921979.644       -3062.266          50.000  
    365060.101    21184478.736       -1469.404          50.000  
   -948832.245    22355064.439        3516.684          50.000  
   -346942.039    22131647.795        1224.393          50.000  
    551700.843    22473569.887       -2102.898          50.000  
   -960824.004    23936653.931        3590.776          50.000  
    178285.741    20223150.639        -727.507          50.000  
   -594300.315    21115131.023        2159.415          50.000  
 18  2 16  8 24 38.0000000  0  8G03G10G30G01G23G05G09G11             0.000259741
    812588.342    24922562.317       -3061.947          50.000  
    366529.526    21184758.368       -1469.455          50.000  
   -952349.115    22354395.208        3516.756          50.000  
   -348166.382    22131414.818        1223.972          50.000  
    553803.554    22473970.010       -2102.819          50.000  
   -964414.971    23935970.584        3590.843          50.000  
    179013.176    20223289.070        -727.628          50.000  
   -596459.809    21114720.107        2159.587          50.000  
 18  2 16  8 24 39.0000000  0  8G03G10G30G01G23G05G09G11             0.000259924
    815650.304    24923144.990       -3062.095          50.000  
    367999.532    21185038.090       -1470.541          50.000  
   -955865.810    22353726.013        3516.425          50.000  
   -349389.958    22131181.967        1223.090          50.000  
    555906.550    22474370.187       -2103.302          50.000  
   -968005.592    23935287.326        3590.298          50.000  
    179741.093    20223427.591        -728.297          50.000  
   -598618.823    21114309.245        2158.479          50.000  
 18  2 16  8 24 40.0000000  0  8G03G10G30G01G23G05G09G11             0.000260106
    818712.421    24923727.699       -3061.893          50.000  
    369470.293    21185317.955       -1470.862          50.000  
   -959382.186    22353056.872        3516.488          50.000  
   -350612.635    22130949.294        1222.569          50.000  
    558009.974    22474770.453       -2103.366          50.000  
   -971595.750    23934604.140        3590.221          50.000  
    180469.636    20223566.218        -728.570          50.000  
   -600777.145    21113898.525        2158.176          50.000  
 18  2 16  8 24 41.0000000  0  8G03G10G30G01G23G05G09G11             0.000260288
    821774.603    24924310.425       -3062.170          50.000  
    370941.704    21185597.962       -1471.658          50.000  
   -962898.346    22352387.766        3516.086          50.000  
   -351834.509    22130716.783        1221.513          50.000  
    560113.737    22475170.791       -2103.856          50.000  
   -975185.543    23933921.025        3589.654          50.000  
    181198.711    20223704.954        -729.281          50.000  
   -602934.911    21113487.913        2157.533          50.000  
 18  2 16  8 24 42.0000000  3  1
POI00001                                                    MARKER NAME         
 18  2 16  8 24 42.0000000  0  8G03G10G30G01G23G05G09G11             0.000260470
    824836.762    24924893.134       -3061.966          50.000  
    372413.664    21185878.059       -1471.794          50.000  
   -966414.392    22351718.661        3516.196          50.000  
   -353055.710    22130484.378        1221.031          50.000  
    562217.760    22475571.164       -2103.967          50.000  
   -978775.089    23933237.946        3589.590          50.000  
    181928.224    20223843.778        -729.569          50.000  
   -605092.207    21113077.408        2157.682          50.000  
 18  2 16  8 24 43.0000000  0  8G03G10G30G01G23G05G09G11             0.000260652
    827899.151    24925475.897       -3062.682          50.000  
    373886.314    21186158.299       -1473.276          50.000  
   -969930.073    22351049.645        3515.287          50.000  
   -354275.991    22130252.170        1219.607          50.000  
    564322.286    22475971.645       -2104.993          50.000  
   -982364.155    23932554.956        3588.661          50.000  
    182658.414    20223982.745        -730.711          50.000  
   -607248.948    21112666.992        2156.096          50.000  
 18  2 16  8 24 44.0000000  0  8G03G10G30G01G23G05G09G11             0.000260833
    830961.789    24926058.695       -3062.509          50.000  
    375359.731    21186438.664       -1473.601          50.000  
   -973445.403    22350380.682        3515.425          50.000  
   -355495.363    22130020.123        1219.226          50.000  
    566427.333    22476372.215       -2105.049          50.000  
   -985952.739    23931872.073        3588.641          50.000  
    183389.297    20224121.838        -730.955          50.000  
   -609405.029    21112256.702        2155.907          50.000  
 18  2 16  8 24 45.0000000  0  8G03G10G30G01G23G05G09G11             0.000261015
    834024.259    24926641.475       -3062.513          50.000  
    376833.453    21186719.118       -1474.021          50.000  
   -976960.790    22349711.737        3515.331          50.000  
   -356714.250    22129788.183        1218.558          50.000  
    568532.486    22476772.820       -2105.296          50.000  
   -989541.280    23931189.191        3588.436          50.000  
    184120.448    20224260.966        -731.395          50.000  
   -611560.926    21111846.447        2155.673          50.000  
 18  2 16  8 24 46.0000000  0  8G03G10G30G01G23G05G09G11             0.000261197
    837086.966    24927224.273       -3062.796          50.000  
    378307.900    21186999.698       -1474.565          50.000  
   -980475.854    22349042.846        3514.952          50.000  
   -357932.279    22129556.404        1217.637          50.000  
    570638.150    22477173.533       -2105.855          50.000  
   -993129.396    23930506.397        3587.976          50.000  
    184852.263    20224400.219        -732.088          50.000  
   -613716.193    21111436.317        2155.447          50.000  
 18  2 16  8 24 47.0000000  0  8G03G10G30G01G23G05G09G11             0.000261378
    840149.288    24927807.018       -3062.154          50.000  
    379782.328    21187280.259       -1474.528          50.000  
   -983991.226    22348373.884        3515.524          50.000  
   -359150.088    22129324.661        1217.664          50.000  
    572743.699    22477574.210       -2105.515          50.000  
   -996717.735    23929823.551        3588.448          50.000  
    185584.110    20224539.491        -731.890          50.000  
   -615871.657    21111026.151        2155.383          50.000  
 18  2 16  8 24 48.0000000  0  8G03G10G30G01G23G05G09G11             0.000261561
    843211.454    24928389.745       -3062.097          50.000  
    381257.010    21187560.892       -1474.826          50.000  
   -987506.685    22347704.921        3515.522          50.000  
   -360367.480    22129093.007        1217.216          50.000  
    574849.353    22477974.887       -2105.689          50.000  
  -1000306.090    23929140.704        3588.382          50.000  
    186316.204    20224678.815        -732.202          50.000  
   -618026.999    21110616.004        2155.182          50.000  
                            4  1
            *** END OF RINEX FILE***                        COMMENT
