     3.03           OBSERVATION DATA    M: Mixed            RINEX VERSION / TYPE
RTKCONV 2.4.3 b34                       20250227 094338 UTC PGM / RUN BY / DATE 
format: RINEX                                               COMMENT             
log: E:\Nguyends_doa\RX\RX1\RinexObservables_20180216_082110COMMENT             
                                                            MARKER NAME         
                                                            MARKER NUMBER       
                                                            MARKER TYPE         
                                                            OBSERVER / AGENCY   
                                                            REC # / TYPE / VERS 
                                                            ANT # / TYPE        
        0.0000        0.0000        0.0000                  APPROX POSITION XYZ 
        0.0000        0.0000        0.0000                  ANTENNA: DELTA H/E/N
G    4 C1C L1C D1C S1C                                      SYS / # / OBS TYPES 
  2018    02    16    08    21   11.0000000     GPS         TIME OF FIRST OBS   
  2018    02    16    08    25   14.0000000     GPS         TIME OF LAST OBS    
G L1C                                                       SYS / PHASE SHIFT   
  0                                                         GLONASS SLOT / FRQ #
 C1C    0.000 C1P    0.000 C2C    0.000 C2P    0.000        GLONASS COD/PHS/BIS 
                                                            END OF HEADER       
> 2018 02 16 08 21 11.0000000  0  8                     
G30  22468232.928     -208337.4301       3587.574          42.000  
G03  24776261.282      181611.6521      -3038.518          43.000  
G05  24051929.375     -216679.6571       3611.871          43.000  
G09  20170088.771       35966.5861       -652.009          43.000  
G10  21103550.378       74435.4631      -1333.550          43.000  
G11  21176222.425     -136887.7141       2280.586          43.000  
G01  22156200.976      -82059.6601       1351.306          42.000  
G23  22365692.684      121241.4841      -2071.626          43.000  
> 2018 02 16 08 21 12.0000000  0  8                     
G30  22467550.403     -211924.476        3586.920          43.000  
G03  24776839.559      184650.761       -3039.200          43.000  
G05  24051242.132     -220291.226        3611.689          43.000  
G09  20170212.943       36619.131        -652.797          43.000  
G10  21103804.296       75769.703       -1334.374          43.000  
G11  21175788.548     -139167.786        2279.922          43.000  
G01  22155943.930      -83410.383        1350.491          43.000  
G23  22366086.999      123313.602       -2072.202          43.000  
> 2018 02 16 08 21 13.0000000  0  8                     
G30  22466867.878     -215511.075        3586.702          43.000  
G03  24777417.979      187690.328       -3039.441          43.000  
G05  24050554.872     -223902.908        3612.075          43.000  
G09  20170337.240       37272.146        -652.941          43.000  
G10  21104058.305       77104.443       -1334.565          43.000  
G11  21175354.741     -141447.599        2280.128          43.000  
G01  22155686.973      -84760.658        1350.341          43.000  
G23  22366481.351      125386.101       -2072.292          43.000  
> 2018 02 16 08 21 14.0000000  0  8                     
G30  22466185.371     -219097.539        3586.251          43.000  
G03  24777996.453      190730.040       -3039.971          43.000  
G05  24049867.540     -227515.020        3612.222          43.000  
G09  20170461.519       37925.316        -653.363          43.000  
G10  21104312.348       78439.389       -1335.310          43.000  
G11  21174920.917     -143727.363        2279.770          43.000  
G01  22155430.070      -86110.796        1350.008          43.000  
G23  22366875.738      127458.683       -2072.784          43.000  
> 2018 02 16 08 21 15.0000000  0  8                     
G30  22465503.024     -222683.449        3585.776          43.000  
G03  24778574.998      193770.290       -3040.370          43.000  
G05  24049180.172     -231127.136        3612.350          43.000  
G09  20170585.923       38579.042        -653.930          43.000  
G10  21104566.464       79774.973       -1335.720          43.000  
G11  21174487.129     -146006.831        2279.469          43.000  
G01  22155173.275      -87460.375        1349.623          43.000  
G23  22367270.197      129531.718       -2073.147          43.000  
> 2018 02 16 08 21 16.0000000  0  8                     
G30  22464820.731     -226268.981        3585.376          43.000  
G03  24779153.579      196810.914       -3040.756          43.000  
G05  24048492.768     -234739.446        3612.454          43.000  
G09  20170710.399       39233.138        -654.272          43.000  
G10  21104820.722       81110.987       -1336.164          43.000  
G11  21174053.412     -148286.057        2279.235          43.000  
G01  22154916.515      -88809.562        1349.025          43.000  
G23  22367664.709      131605.027       -2073.396          43.000  
> 2018 02 16 08 21 17.0000000  0  8                     
G30  22464138.528     -229854.126        3585.056          43.000  
G03  24779732.250      199851.875       -3040.964          43.000  
G05  24047805.347     -238351.976        3612.818          43.000  
G09  20170834.928       39887.569        -654.359          43.000  
G10  21105075.070       82447.453       -1336.501          43.000  
G11  21173619.749     -150565.027        2279.055          43.000  
G01  22154659.880      -90158.401        1348.755          43.000  
G23  22368059.275      133678.586       -2073.526          43.000  
> 2018 02 16 08 21 18.0000000  0  8                     
G30  22463456.378     -233438.774        3584.548          43.000  
G03  24780311.028      202893.306       -3041.405          43.000  
G05  24047117.872     -241964.584        3612.752          42.000  
G09  20170959.547       40542.489        -654.956          43.000  
G10  21105329.525       83784.477       -1337.329          43.000  
G11  21173186.121     -152843.591        2278.625          43.000  
G01  22154403.298      -91506.759        1348.283          43.000  
G23  22368453.966      135752.507       -2073.930          43.000  
> 2018 02 16 08 21 19.0000000  0  8                     
G30  22462774.353     -237022.898        3584.025          43.000  
G03  24780889.912      205935.218       -3041.994          43.000  
G05  24046430.397     -245577.267        3612.847          42.000  
G09  20171084.273       41197.886        -655.649          43.000  
G10  21105584.051       85122.129       -1337.742          43.000  
G11  21172752.618     -155121.811        2278.176          43.000  
G01  22154146.824      -92854.620        1347.767          43.000  
G23  22368848.710      137826.795       -2074.393          43.000  
> 2018 02 16 08 21 20.0000000  0  8                     
G30  22462092.507     -240606.239        3582.987          43.000  
G03  24781468.904      208977.829       -3042.867          43.000  
G05  24045742.958     -249189.806        3612.577          42.000  
G09  20171209.123       41853.957        -656.316          43.000  
G10  21105838.774       86460.622       -1338.787          42.000  
G11  21172319.259     -157399.365        2277.292          43.000  
G01  22153890.493      -94201.734        1346.791          43.000  
G23  22369243.544      139901.657       -2075.092          43.000  
> 2018 02 16 08 21 21.0000000  0  8                     
G30  22461410.785     -244188.856        3582.419          43.000  
G03  24782048.022      212021.103       -3043.424          43.000  
G05  24045055.555     -252802.207        3612.585          42.000  
G09  20171334.117       42510.702        -656.866          43.000  
G10  21106093.622       87799.933       -1339.526          43.000  
G11  21171885.989     -159676.287        2276.775          43.000  
G01  22153634.323      -95548.147        1346.222          42.000  
G23  22369638.450      141977.055       -2075.487          43.000  
> 2018 02 16 08 21 22.0000000  0  8                     
G30  22460729.136     -247770.761        3582.099          43.000  
G03  24782627.228      215064.990       -3043.572          42.000  
G05  24044368.151     -256414.528        3612.975          43.000  
G09  20171459.200       43168.066        -657.057          43.000  
G10  21106348.631       89140.005       -1340.110          43.000  
G11  21171452.844     -161952.564        2276.634          43.000  
G01  22153378.242      -96893.911        1346.121          43.000  
G23  22370033.480      144052.944       -2075.501          43.000  
> 2018 02 16 08 21 23.0000000  0  8                     
G30  22460047.629     -251352.119        3581.247          43.000  
G03  24783206.560      218109.324       -3044.324          43.000  
G05  24043680.748     -260026.910        3612.638          43.000  
G09  20171584.373       43825.880        -657.937          43.000  
G10  21106603.765       90480.780       -1340.955          43.000  
G11  21171019.770     -164228.392        2275.815          43.000  
G01  22153122.286      -98239.143        1345.215          43.000  
G23  22370428.564      146129.148       -2076.172          43.000  
> 2018 02 16 08 21 24.0000000  0  8                     
G30  22459366.248     -254932.914        3580.671          43.000  
G03  24783785.981      221154.114       -3044.912          43.000  
G05  24042993.326     -263639.343        3612.606          43.000  
G09  20171709.617       44484.131        -658.254          43.000  
G10  21106859.024       91822.188       -1341.634          43.000  
G11  21170586.768     -166503.730        2275.279          43.000  
G01  22152866.437      -99583.854        1344.545          43.000  
G23  22370823.720      148205.651       -2076.560          43.000  
> 2018 02 16 08 21 25.0000000  0  8                     
G30  22458684.937     -258513.241        3580.135          43.000  
G03  24784365.437      224199.246       -3045.351          43.000  
G05  24042305.869     -267251.930        3612.582          43.000  
G09  20171834.950       45142.754        -658.925          43.000  
G10  21107114.408       93164.171       -1342.367          43.000  
G11  21170153.855     -168778.624        2274.632          43.000  
G01  22152610.624     -100928.147        1344.152          43.000  
G23  22371218.893      150282.359       -2076.903          43.000  
> 2018 02 16 08 21 26.0000000  0  8                     
G30  22458003.735     -262092.919        3579.482          42.000  
G03  24784944.983      227244.871       -3045.772          43.000  
G05  24041618.412     -270864.510        3612.752          43.000  
G09  20171960.373       45801.853        -659.115          43.000  
G10  21107369.917       94506.851       -1343.111          43.000  
G11  21169721.031     -171052.920        2274.070          43.000  
G01  22152354.919     -102271.836        1343.554          42.000  
G23  22371614.120      152359.406       -2077.087          43.000  
> 2018 02 16 08 21 27.0000000  0  8                     
G30  22457322.657     -265672.064        3578.851          43.000  
G03  24785524.637      230290.871       -3046.155          43.000  
G05  24040930.937     -274477.173        3612.808          42.000  
G09  20172085.903       46461.355        -659.620          43.000  
G10  21107625.569       95850.263       -1343.612          43.000  
G11  21169288.351     -173326.703        2273.618          43.000  
G01  22152099.302     -103615.025        1342.973          43.000  
G23  22372009.419      154436.691       -2077.341          43.000  
> 2018 02 16 08 21 28.0000000  0  8                     
G30  22456641.686     -269250.732        3578.355          42.000  
G03  24786104.343      233337.187       -3046.567          42.000  
G05  24040243.445     -278089.965        3612.778          43.000  
G09  20172211.451       47121.188        -660.054          43.000  
G10  21107881.364       97194.268       -1344.360          43.000  
G11  21168855.760     -175600.011        2273.050          43.000  
G01  22151843.793     -104957.776        1342.454          43.000  
G23  22372404.717      156514.121       -2077.471          43.000  
> 2018 02 16 08 21 29.0000000  0  8                     
G30  22455960.787     -272828.658        3577.727          42.000  
G03  24786684.158      236384.060       -3046.982          42.000  
G05  24039555.988     -281702.639        3612.746          43.000  
G09  20172337.088       47781.585        -660.380          42.000  
G10  21108137.302       98539.136       -1345.126          43.000  
G11  21168423.312     -177872.556        2272.334          43.000  
G01  22151588.427     -106299.817        1341.800          43.000  
G23  22372800.141      158591.978       -2077.955          43.000  
> 2018 02 16 08 21 30.0000000  0  8                     
G30  22455280.067     -276405.864        3577.026          42.000  
G03  24787264.079      239431.464       -3047.499          42.000  
G05  24038868.495     -285315.210        3612.703          42.000  
G09  20172462.886       48442.560        -661.108          43.000  
G10  21108393.383       99884.833       -1346.277          43.000  
G11  21167991.042     -180144.353        2271.444          43.000  
G01  22151333.186     -107641.178        1341.241          43.000  
G23  22373195.600      160670.185       -2078.242          43.000  
> 2018 02 16 08 21 31.0000000  0  8                     
G30  22454599.418     -279982.675        3576.850          43.000  
G03  24787844.018      242479.033       -3047.379          43.000  
G05  24038181.020     -288927.984        3613.149          43.000  
G09  20172588.701       49103.716        -660.934          43.000  
G10  21108649.607      101231.126       -1346.207          43.000  
G11  21167558.844     -182415.706        2271.513          43.000  
G01  22151078.016     -108982.158        1340.933          43.000  
G23  22373591.096      162748.407       -2078.008          43.000  
> 2018 02 16 08 21 32.0000000  0  8                     
G30  22453918.858     -283559.106        3576.066          43.000  
G03  24788423.993      245526.785       -3048.027          43.000  
G05  24037493.456     -292540.971        3612.868          43.000  
G09  20172714.553       49765.110        -661.663          43.000  
G10  21108905.902      102577.962       -1347.200          43.000  
G11  21167126.682     -184686.604        2270.511          42.000  
G01  22150822.936     -110322.791        1340.355          43.000  
G23  22373986.555      164826.645       -2078.358          43.000  
> 2018 02 16 08 21 33.0000000  0  8                     
G30  22453238.388     -287134.998        3575.562          43.000  
G03  24789004.003      248574.832       -3048.322          43.000  
G05  24036805.909     -296154.031        3612.969          43.000  
G09  20172840.440       50426.825        -662.015          43.000  
G10  21109162.323      103925.504       -1347.935          43.000  
G11  21166694.662     -186956.875        2269.830          43.000  
G01  22150567.927     -111662.893        1339.787          43.000  
G23  22374382.068      166905.024       -2078.496          43.000  
> 2018 02 16 08 21 34.0000000  0  8                     
G30  22452558.061     -290710.249        3574.838          43.000  
G03  24789584.086      251623.263       -3048.690          43.000  
G05  24036118.381     -299767.042        3613.000          43.000  
G09  20172966.470       51088.986        -662.429          43.000  
G10  21109418.904      105273.810       -1349.001          43.000  
G11  21166262.786     -189226.435        2269.011          43.000  
G01  22150313.061     -113002.365        1339.055          43.000  
G23  22374777.617      168983.629       -2078.775          43.000  
> 2018 02 16 08 21 35.0000000  0  8                     
G30  22451877.840     -294284.784        3574.451          43.000  
G03  24790164.257      254672.149       -3048.846          43.000  
G05  24035430.870     -303379.888        3612.978          43.000  
G09  20173092.590       51751.670        -662.746          43.000  
G10  21109675.682      106623.109       -1349.370          43.000  
G11  21165831.070     -191495.099        2268.534          43.000  
G01  22150058.285     -114341.118        1338.605          43.000  
G23  22375173.219      171062.544       -2078.822          43.000  
> 2018 02 16 08 21 36.0000000  0  8                     
G30  22451197.781     -297858.676        3573.626          43.000  
G03  24790744.518      257721.397       -3049.280          42.000  
G05  24034743.377     -306992.677        3612.688          43.000  
G09  20173218.781       52414.774        -663.181          43.000  
G10  21109932.603      107973.223       -1350.264          42.000  
G11  21165399.480     -193763.024        2267.719          43.000  
G01  22149803.633     -115679.243        1337.878          43.000  
G23  22375568.857      173141.655       -2079.143          43.000  
> 2018 02 16 08 21 37.0000000  0  8                     
G30  22450517.775     -301432.112        3573.164          43.000  
G03  24791324.796      260770.822       -3049.366          42.000  
G05  24034055.884     -310605.583        3613.027          43.000  
G09  20173344.990       53078.140        -663.387          42.000  
G10  21110189.649      109324.023       -1351.030          42.000  
G11  21164968.050     -196030.302        2267.048          43.000  
G01  22149549.071     -117016.871        1337.422          43.000  
G23  22375964.513      175220.794       -2079.123          43.000  
> 2018 02 16 08 21 38.0000000  0  8                     
G30  22449837.931     -305004.928        3572.425          42.000  
G03  24791905.129      263820.578       -3049.942          43.000  
G05  24033368.392     -314218.391        3612.773          43.000  
G09  20173471.324       53741.920        -663.950          43.000  
G10  21110446.873      110675.617       -1352.326          43.000  
G11  21164536.728     -198296.814        2265.858          43.000  
G01  22149294.670     -118353.870        1336.711          43.000  
G23  22376360.204      177300.106       -2079.436          43.000  
> 2018 02 16 08 21 39.0000000  0  8                     
G30  22449158.157     -308577.159        3571.987          43.000  
G03  24792485.532      266870.599       -3050.071          43.000  
G05  24032680.899     -317831.156        3612.769          43.000  
G09  20173597.712       54406.078        -664.327          43.000  
G10  21110704.259      112028.114       -1352.815          43.000  
G11  21164105.584     -200562.497        2265.446          42.000  
G01  22149040.358     -119690.236        1336.152          43.000  
G23  22376755.914      179379.535       -2079.407          43.000  
> 2018 02 16 08 21 40.0000000  0  8                     
G30  22448478.491     -312148.820        3571.370          43.000  
G03  24793065.972      269920.865       -3050.328          43.000  
G05  24031993.442     -321443.876        3612.777          43.000  
G09  20173724.171       55070.575        -664.650          43.000  
G10  21110961.769      113381.391       -1353.613          43.000  
G11  21163674.601     -202827.403        2264.546          43.000  
G01  22148786.153     -121025.985        1335.511          43.000  
G23  22377151.641      181459.084       -2079.634          43.000  
> 2018 02 16 08 21 41.0000000  0  8                     
G30  22447798.950     -315719.897        3570.905          43.000  
G03  24793646.465      272971.385       -3050.488          43.000  
G05  24031305.985     -325056.508        3612.691          43.000  
G09  20173850.701       55735.443        -664.929          42.000  
G10  21111219.458      114735.523       -1354.414          43.000  
G11  21163243.743     -205091.485        2263.827          43.000  
G01  22148532.127     -122361.089        1334.879          43.000  
G23  22377547.369      183538.726       -2079.611          42.000  
> 2018 02 16 08 21 42.0000000  0  8                     
G30  22447119.516     -319290.357        3570.239          42.000  
G03  24794227.012      276022.179       -3050.766          43.000  
G05  24030618.546     -328669.020        3612.540          43.000  
G09  20173977.303       56400.735        -665.485          43.000  
G10  21111477.273      116090.503       -1355.577          43.000  
G11  21162813.082     -207354.731        2262.710          43.000  
G01  22148278.191     -123695.513        1334.244          43.000  
G23  22377943.132      185618.523       -2079.793          42.000  
> 2018 02 16 08 21 43.0000000  0  8                     
G30  22446440.190     -322860.180        3569.511          42.000  
G03  24794807.612      279073.265       -3051.238          43.000  
G05  24029931.142     -332281.383        3612.274          43.000  
G09  20174103.977       57066.418        -665.858          43.000  
G10  21111735.301      117446.470       -1356.206          43.000  
G11  21162382.581     -209616.997        2261.985          42.000  
G01  22148024.379     -125029.221        1333.418          43.000  
G23  22378338.949      187698.455       -2079.992          43.000  
> 2018 02 16 08 21 44.0000000  0  8                     
G30  22445760.952     -326429.469        3569.085          42.000  
G03  24795388.230      282124.504       -3051.248          43.000  
G05  24029243.757     -335893.673        3612.357          43.000  
G09  20174230.722       57732.443        -666.200          43.000  
G10  21111993.509      118803.267       -1357.083          43.000  
G11  21161952.259     -211878.450        2261.172          43.000  
G01  22147770.728     -126362.290        1332.858          42.000  
G23  22378734.747      189778.444       -2079.945          43.000  
> 2018 02 16 08 21 45.0000000  0  8                     
G30  22445081.858     -329998.067        3568.434          42.000  
G03  24795968.955      285176.056       -3051.508          43.000  
G05  24028556.407     -339505.711        3612.040          42.000  
G09  20174357.556       58398.940        -666.588          43.000  
G10  21112251.895      120161.056       -1358.026          42.000  
G11  21161522.098     -214138.915        2260.245          43.000  
G01  22147517.185     -127694.553        1332.042          43.000  
G23  22379130.600      191858.626       -2080.093          43.000  
> 2018 02 16 08 21 46.0000000  0  8                     
G30  22444402.871     -333566.109        3567.884          42.000  
G03  24796549.699      288227.791       -3051.688          43.000  
G05  24027869.093     -343117.629        3612.012          43.000  
G09  20174484.480       59065.784        -666.814          43.000  
G10  21112510.424      121519.666       -1359.134          43.000  
G11  21161092.116     -216398.510        2258.996          43.000  
G01  22147263.784     -129026.136        1331.281          43.000  
G23  22379526.452      193938.875       -2080.078          43.000  
> 2018 02 16 08 21 47.0000000  0  8                     
G30  22443723.955     -337133.721        3567.224          43.000  
G03  24797130.442      291279.569       -3051.927          43.000  
G05  24027181.779     -346729.530        3611.687          43.000  
G09  20174611.403       59732.867        -667.341          42.000  
G10  21112769.132      122879.124       -1359.967          43.000  
G11  21160662.295     -218657.263        2258.258          42.000  
G01  22147010.508     -130357.162        1330.531          43.000  
G23  22379922.305      196019.069       -2080.394          43.000  
> 2018 02 16 08 21 48.0000000  0  8                     
G30  22443045.200     -340700.596        3566.703          43.000  
G03  24797711.257      294331.675       -3052.050          43.000  
G05  24026494.518     -350341.081        3611.537          42.000  
G09  20174738.470       60400.482        -667.655          43.000  
G10  21113028.054      124239.652       -1360.793          43.000  
G11  21160232.670     -220914.914        2257.366          43.000  
G01  22146757.394     -131687.299        1329.910          42.000  
G23  22380318.193      198099.495       -2080.389          43.000  
> 2018 02 16 08 21 49.0000000  0  8                     
G30  22442366.535     -344266.965        3566.340          43.000  
G03  24798292.107      297383.887       -3052.034          43.000  
G05  24025807.258     -353952.516        3611.589          43.000  
G09  20174865.572       61068.410        -667.830          42.000  
G10  21113287.119      125601.037       -1361.534          43.000  
G11  21159803.241     -223171.692        2256.594          43.000  
G01  22146504.404     -133016.758        1329.426          43.000  
G23  22380714.081      200179.925       -2080.125          43.000  
> 2018 02 16 08 21 50.0000000  0  8                     
G30  22441687.959     -347832.936        3565.795          43.000  
G03  24798872.904      300436.068       -3052.041          43.000  
G05  24025120.033     -357563.901        3611.324          43.000  
G09  20174992.693       61736.547        -668.249          42.000  
G10  21113546.309      126963.139       -1362.739          43.000  
G11  21159373.938     -225427.717        2255.372          43.000  
G01  22146251.540     -134345.629        1328.582          43.000  
G23  22381109.969      202260.271       -2080.260          43.000  
> 2018 02 16 08 21 51.0000000  0  8                     
G30  22441009.490     -351398.277        3565.090          42.000  
G03  24799453.772      303488.478       -3052.396          42.000  
G05  24024432.862     -361175.004        3611.044          42.000  
G09  20175119.902       62405.134        -668.740          42.000  
G10  21113805.732      128326.343       -1363.606          43.000  
G11  21158944.849     -227682.608        2254.559          42.000  
G01  22145998.818     -135673.680        1327.759          43.000  
G23  22381505.858      204340.753       -2080.457          43.000  
> 2018 02 16 08 21 52.0000000  0  8                     
G30  22440331.110     -354963.199        3564.603          43.000  
G03  24800034.623      306540.876       -3052.423          43.000  
G05  24023745.708     -364785.997        3610.875          43.000  
G09  20175247.183       63073.965        -668.944          43.000  
G10  21114065.297      129690.334       -1364.351          43.000  
G11  21158515.903     -229936.644        2253.581          43.000  
G01  22145746.221     -137001.078        1327.015          43.000  
G23  22381901.764      206421.169       -2080.447          43.000  
> 2018 02 16 08 21 53.0000000  0  8                     
G30  22439652.820     -358527.631        3564.282          43.000  
G03  24800615.455      309593.351       -3052.443          43.000  
G05  24023058.591     -368396.796        3610.749          42.000  
G09  20175374.518       63743.134        -669.287          43.000  
G10  21114325.041      131055.227       -1365.211          43.000  
G11  21158087.154     -232189.761        2252.726          43.000  
G01  22145493.768     -138327.763        1326.390          43.000  
G23  22382297.652      208501.595       -2080.351          43.000  
> 2018 02 16 08 21 54.0000000  0  8                     
G30  22438974.619     -362091.658        3563.835          43.000  
G03  24801196.306      312645.779       -3052.467          43.000  
G05  24022371.491     -372007.486        3610.578          43.000  
G09  20175501.888       64412.538        -669.662          43.000  
G10  21114584.910      132420.882       -1366.225          43.000  
G11  21157658.565     -234442.069        2251.683          43.000  
G01  22145241.422     -139653.796        1325.595          43.000  
G23  22382693.522      210581.945       -2080.349          43.000  
> 2018 02 16 08 21 55.0000000  0  8                     
G30  22438296.525     -365655.054        3563.290          43.000  
G03  24801777.228      315698.394       -3052.493          43.000  
G05  24021684.463     -375617.812        3610.437          43.000  
G09  20175629.384       65082.411        -669.916          43.000  
G10  21114844.994      133787.675       -1367.011          43.000  
G11  21157230.191     -236693.169        2250.828          43.000  
G01  22144989.254     -140978.949        1324.975          43.000  
G23  22383089.428      212662.441       -2080.275          43.000  
> 2018 02 16 08 21 56.0000000  0  8                     
G30  22437618.503     -369217.900        3562.862          43.000  
G03  24802358.132      318751.132       -3052.528          43.000  
G05  24020997.471     -379227.808        3610.148          43.000  
G09  20175756.951       65752.707        -670.171          43.000  
G10  21115105.256      135155.446       -1367.902          43.000  
G11  21156802.014     -238943.248        2249.902          43.000  
G01  22144737.247     -142303.247        1324.205          43.000  
G23  22383485.352      214743.041       -2080.376          43.000  
> 2018 02 16 08 21 57.0000000  0  8                     
G30  22436940.606     -372780.270        3562.176          43.000  
G03  24802939.054      321803.892       -3052.701          43.000  
G05  24020310.567     -382837.564        3609.701          43.000  
G09  20175884.553       66423.346        -670.771          43.000  
G10  21115365.733      136524.133       -1369.200          43.000  
G11  21156374.033     -241192.349        2248.654          43.000  
G01  22144485.383     -143626.783        1323.134          43.000  
G23  22383881.276      216823.647       -2080.629          42.000  
> 2018 02 16 08 21 58.0000000  0  8                     
G30  22436262.816     -376342.152        3561.634          43.000  
G03  24803519.976      324856.705       -3052.867          43.000  
G05  24019623.718     -386447.021        3609.289          43.000  
G09  20176012.245       67094.351        -671.159          43.000  
G10  21115626.335      137893.715       -1370.229          43.000  
G11  21155946.231     -243440.498        2247.523          43.000  
G01  22144233.662     -144949.525        1322.413          43.000  
G23  22384277.218      218904.293       -2080.596          42.000  
> 2018 02 16 08 21 59.0000000  0  8                     
G30  22435585.098     -379903.553        3561.412          43.000  
G03  24804100.898      327909.548       -3052.674          43.000  
G05  24018936.922     -390056.181        3609.193          43.000  
G09  20176140.009       67765.738        -671.366          43.000  
G10  21115887.151      139264.321       -1370.806          43.000  
G11  21155518.625     -245687.546        2246.872          43.000  
G01  22143982.102     -146271.439        1321.727          43.000  
G23  22384673.178      220984.991       -2080.510          43.000  
> 2018 02 16 08 22 00.0000000  0  8                     
G30  22434907.433     -383464.627        3560.997          43.000  
G03  24804681.837      330962.269       -3052.554          43.000  
G05  24018250.162     -393665.194        3609.092          43.000  
G09  20176267.826       68437.345        -671.599          43.000  
G10  21116148.110      140635.722       -1371.754          43.000  
G11  21155091.180     -247933.750        2245.964          43.000  
G01  22143730.685     -147592.691        1321.024          42.000  
G23  22385069.084      223065.579       -2080.467          43.000  
> 2018 02 16 08 22 01.0000000  0  8                     
G30  22434229.893     -387025.106        3560.445          43.000  
G03  24805262.759      334015.134       -3052.635          43.000  
G05  24017563.473     -397273.736        3608.584          43.000  
G09  20176395.715       69109.464        -672.071          42.000  
G10  21116409.266      142008.191       -1372.665          43.000  
G11  21154663.949     -250178.827        2244.866          43.000  
G01  22143479.447     -148912.983        1320.080          43.000  
G23  22385465.008      225146.331       -2080.532          43.000  
> 2018 02 16 08 22 02.0000000  0  8                     
G30  22433552.425     -390585.194        3559.991          43.000  
G03  24805843.699      337067.953       -3052.658          43.000  
G05  24016876.856     -400882.001        3608.095          43.000  
G09  20176523.693       69781.899        -672.504          43.000  
G10  21116670.601      143381.519       -1373.877          43.000  
G11  21154236.898     -252422.978        2243.570          43.000  
G01  22143228.351     -150232.508        1319.215          43.000  
G23  22385860.985      227227.084       -2080.639          42.000  
> 2018 02 16 08 22 03.0000000  0  8                     
G30  22432875.010     -394144.984        3559.848          42.000  
G03  24806424.603      340120.633       -3052.382          43.000  
G05  24016190.257     -404490.089        3608.129          43.000  
G09  20176651.688       70454.584        -672.642          43.000  
G10  21116932.096      144755.695       -1374.348          42.000  
G11  21153810.025     -254666.208        2243.004          43.000  
G01  22142977.381     -151551.336        1318.655          43.000  
G23  22386256.909      229307.739       -2080.393          43.000  
> 2018 02 16 08 22 04.0000000  0  8                     
G30  22432197.703     -397704.232        3558.972          43.000  
G03  24807005.543      343173.410       -3052.876          43.000  
G05  24015503.729     -408097.718        3607.356          43.000  
G09  20176779.774       71127.758        -673.512          43.000  
G10  21117193.788      146130.910       -1375.715          43.000  
G11  21153383.348     -256908.336        2241.546          43.000  
G01  22142726.607     -152869.219        1317.363          43.000  
G23  22386652.887      231388.557       -2080.887          43.000  
> 2018 02 16 08 22 05.0000000  0  8                     
G30  22431520.467     -401263.052        3558.737          43.000  
G03  24807586.465      346226.174       -3052.694          43.000  
G05  24014817.290     -411704.982        3607.195          43.000  
G09  20176907.948       71801.311        -673.636          43.000  
G10  21117455.658      147507.067       -1376.497          43.000  
G11  21152956.886     -259149.477        2240.818          43.000  
G01  22142475.976     -154186.257        1316.820          43.000  
G23  22387048.864      233469.422       -2080.718          43.000  
> 2018 02 16 08 22 06.0000000  0  8                     
G30  22430843.320     -404821.358        3558.094          43.000  
G03  24808167.387      349279.013       -3052.834          43.000  
G05  24014130.923     -415311.787        3606.709          43.000  
G09  20177036.230       72475.358        -674.153          43.000  
G10  21117717.707      148884.228       -1377.653          42.000  
G11  21152530.620     -261389.542        2239.424          43.000  
G01  22142225.524     -155502.333        1315.681          43.000  
G23  22387444.895      235550.456       -2080.992          43.000  
> 2018 02 16 08 22 07.0000000  0  8                     
G30  22430166.263     -408379.204        3557.798          43.000  
G03  24808748.345      352331.884       -3052.652          43.000  
G05  24013444.663     -418918.155        3606.339          43.000  
G09  20177164.601       73149.877        -674.519          43.000  
G10  21117979.953      150262.428       -1378.442          42.000  
G11  21152104.569     -263628.508        2238.691          43.000  
G01  22141975.268     -156817.495        1314.910          43.000  
G23  22387840.927      237631.618       -2081.039          43.000  
> 2018 02 16 08 22 08.0000000  0  8                     
G30  22429489.295     -411936.741        3557.229          43.000  
G03  24809329.267      355384.636       -3052.797          43.000  
G05  24012758.457     -422524.240        3605.865          43.000  
G09  20177293.008       73824.695        -675.068          43.000  
G10  21118242.378      151641.459       -1379.588          43.000  
G11  21151678.661     -265866.597        2237.571          43.000  
G01  22141725.155     -158131.889        1313.888          43.000  
G23  22388236.958      239712.758       -2081.249          43.000  
> 2018 02 16 08 22 09.0000000  0  8                     
G30  22428812.380     -415493.914        3557.047          43.000  
G03  24809910.171      358437.330       -3052.567          43.000  
G05  24012072.305     -426129.950        3605.666          43.000  
G09  20177421.486       74499.901        -675.282          43.000  
G10  21118504.963      153021.387       -1380.373          43.000  
G11  21151252.950     -268103.719        2236.768          43.000  
G01  22141475.185     -159445.442        1313.298          43.000  
G23  22388632.989      241793.948       -2081.101          43.000  
> 2018 02 16 08 22 10.0000000  0  8                     
G30  22428135.502     -419050.834        3556.643          43.000  
G03  24810491.057      361489.873       -3052.614          43.000  
G05  24011386.223     -429735.380        3605.133          43.000  
G09  20177550.036       75175.402        -675.710          43.000  
G10  21118767.691      154402.087       -1381.324          43.000  
G11  21150827.399     -270340.026        2235.714          43.000  
G01  22141225.376     -160758.234        1312.284          43.000  
G23  22389029.020      243875.116       -2081.258          43.000  
> 2018 02 16 08 22 11.0000000  0  8                     
G30  22427458.713     -422607.308        3556.373          43.000  
G03  24811071.943      364542.441       -3052.360          43.000  
G05  24010700.214     -433340.331        3604.876          43.000  
G09  20177678.657       75851.395        -676.052          43.000  
G10  21119030.616      155783.803       -1382.050          43.000  
G11  21150402.045     -272575.254        2234.851          43.000  
G01  22140975.764     -162070.080        1311.531          43.000  
G23  22389425.087      245956.452       -2081.214          43.000  
> 2018 02 16 08 22 12.0000000  0  8                     
G30  22426781.977     -426163.567        3556.385          43.000  
G03  24811652.793      367594.838       -3052.052          43.000  
G05  24010014.240     -436945.012        3604.647          42.000  
G09  20177807.332       76527.670        -676.203          43.000  
G10  21119293.719      157166.289       -1382.670          43.000  
G11  21149976.869     -274809.676        2234.188          43.000  
G01  22140726.277     -163381.202        1310.977          43.000  
G23  22389821.172      248037.754       -2081.070          43.000  
> 2018 02 16 08 22 13.0000000  0  8                     
G30  22426105.277     -429719.624        3555.788          43.000  
G03  24812233.608      370647.033       -3052.170          43.000  
G05  24009328.337     -440549.450        3604.113          43.000  
G09  20177936.096       77204.213        -676.825          43.000  
G10  21119556.966      158549.511       -1383.691          43.000  
G11  21149551.819     -277043.320        2233.097          43.000  
G01  22140476.932     -164691.580        1309.783          43.000  
G23  22390217.221      250119.005       -2081.345          43.000  
> 2018 02 16 08 22 14.0000000  0  8                     
G30  22425428.631     -433275.407        3556.026          43.000  
G03  24812814.423      373699.131       -3051.716          43.000  
G05  24008642.524     -444153.522        3604.285          43.000  
G09  20178064.896       77881.129        -676.674          43.000  
G10  21119820.337      159933.569       -1384.179          43.000  
G11  21149126.947     -279276.112        2232.735          42.000  
G01  22140227.695     -166001.159        1309.519          43.000  
G23  22390613.288      252200.316       -2080.969          43.000  
> 2018 02 16 08 22 15.0000000  0  8                     
G30  22424752.002     -436831.040        3555.754          43.000  
G03  24813395.202      376750.995       -3051.609          43.000  
G05  24007956.729     -447757.365        3603.961          43.000  
G09  20178193.731       78558.297        -677.052          43.000  
G10  21120083.834      161318.312       -1384.853          42.000  
G11  21148702.182     -281508.150        2231.801          42.000  
G01  22139978.619     -167310.037        1308.711          43.000  
G23  22391009.355      254281.570       -2080.968          42.000  
> 2018 02 16 08 22 16.0000000  0  8                     
G30  22424075.499     -440386.088        3554.967          43.000  
G03  24813975.999      379803.077       -3052.031          43.000  
G05  24007271.059     -451360.502        3602.873          43.000  
G09  20178322.728       79236.187        -678.207          43.000  
G10  21120347.563      162704.219       -1386.279          43.000  
G11  21148277.650     -283739.027        2230.552          43.000  
G01  22139729.757     -168617.765        1307.274          43.000  
G23  22391405.475      256363.238       -2081.800          43.000  
> 2018 02 16 08 22 17.0000000  0  8                     
G30  22423399.031     -443940.926        3554.808          43.000  
G03  24814556.796      382854.991       -3051.666          43.000  
G05  24006585.442     -454963.347        3602.786          42.000  
G09  20178451.796       79914.391        -678.265          43.000  
G10  21120611.417      164090.865       -1386.869          43.000  
G11  21147853.243     -285969.112        2229.732          43.000  
G01  22139481.038     -169924.729        1306.610          43.000  
G23  22391801.613      258444.917       -2081.504          43.000  
> 2018 02 16 08 22 18.0000000  0  8                     
G30  22422722.653     -447495.398        3554.579          43.000  
G03  24815137.557      385906.967       -3051.747          42.000  
G05  24005899.951     -458565.678        3602.395          42.000  
G09  20178580.953       80593.142        -678.821          42.000  
G10  21120875.485      165478.452       -1387.793          43.000  
G11  21147429.050     -288198.280        2229.028          43.000  
G01  22139232.516     -171230.742        1305.814          42.000  
G23  22392197.787      260526.858       -2081.764          43.000  
> 2018 02 16 08 22 19.0000000  0  8                     
G30  22422046.329     -451049.510        3553.910          43.000  
G03  24815718.336      388958.939       -3052.018          43.000  
G05  24005214.531     -462167.518        3601.562          43.000  
G09  20178710.200       81272.392        -679.525          43.000  
G10  21121139.715      166866.917       -1388.991          43.000  
G11  21147005.018     -290426.535        2227.847          43.000  
G01  22138984.154     -172535.814        1304.579          43.000  
G23  22392593.997      262609.003       -2082.309          42.000  
> 2018 02 16 08 22 20.0000000  0  8                     
G30  22421370.075     -454603.246        3553.808          43.000  
G03  24816299.115      392010.969       -3051.822          42.000  
G05  24004529.218     -465768.855        3601.307          43.000  
G09  20178839.554       81952.204        -679.840          43.000  
G10  21121404.123      168256.332       -1389.680          43.000  
G11  21146581.183     -292653.854        2227.220          43.000  
G01  22138735.971     -173839.921        1303.856          43.000  
G23  22392990.279      264691.420       -2082.244          43.000  
> 2018 02 16 08 22 21.0000000  0  8                     
G30  22420693.858     -458156.763        3553.460          43.000  
G03  24816879.894      395062.904       -3051.902          43.000  
G05  24003843.995     -469369.820        3600.826          42.000  
G09  20178968.997       82632.414        -680.328          43.000  
G10  21121668.673      169646.499       -1390.543          43.000  
G11  21146157.473     -294880.389        2226.198          42.000  
G01  22138487.967     -175143.225        1303.022          43.000  
G23  22393386.578      266773.954       -2082.506          42.000  
> 2018 02 16 08 22 22.0000000  0  8                     
G30  22420017.676     -461710.048        3553.565          43.000  
G03  24817460.637      398114.759       -3051.433          43.000  
G05  24003158.807     -472970.405        3600.815          43.000  
G09  20179098.512       83313.070        -680.549          43.000  
G10  21121933.367      171037.442       -1390.854          43.000  
G11  21145733.905     -297106.171        2225.961          43.000  
G01  22138240.124     -176445.688        1302.447          43.000  
G23  22393782.895      268856.662       -2082.410          43.000  
> 2018 02 16 08 22 23.0000000  0  8                     
G30  22419341.530     -465263.265        3553.403          43.000  
G03  24818041.344      401166.405       -3051.302          43.000  
G05  24002473.673     -476570.765        3600.607          43.000  
G09  20179228.098       83993.997        -680.806          42.000  
G10  21122198.168      172428.978       -1391.633          42.000  
G11  21145310.463     -299331.388        2225.044          43.000  
G01  22137992.406     -177747.491        1301.762          43.000  
G23  22394179.230      270939.378       -2082.490          43.000  
> 2018 02 16 08 22 24.0000000  0  8                     
G30  22418665.402     -468816.277        3553.081          43.000  
G03  24818622.016      404217.976       -3051.446          42.000  
G05  24001788.610     -480170.726        3599.885          42.000  
G09  20179357.737       84675.381        -681.557          43.000  
G10  21122463.130      173821.270       -1392.589          42.000  
G11  21144887.164     -301555.863        2224.168          43.000  
G01  22137744.830     -179048.462        1300.746          43.000  
G23  22394575.565      273022.267       -2082.835          43.000  
> 2018 02 16 08 22 25.0000000  0  8                     
G30  22417989.328     -472369.072        3552.824          43.000  
G03  24819202.724      407269.493       -3051.417          43.000  
G05  24001103.655     -483770.317        3599.504          43.000  
G09  20179487.484       85357.190        -681.944          43.000  
G10  21122728.217      175214.300       -1393.293          42.000  
G11  21144463.972     -303779.628        2223.443          43.000  
G01  22137497.416     -180348.618        1299.841          43.000  
G23  22394971.971      275105.355       -2083.124          42.000  
> 2018 02 16 08 22 26.0000000  0  8                     
G30  22417313.307     -475921.598        3552.451          43.000  
G03  24819783.413      410321.025       -3051.546          43.000  
G05  24000418.771     -487369.481        3599.006          42.000  
G09  20179617.321       86039.528        -682.611          43.000  
G10  21122993.447      176608.112       -1394.022          43.000  
G11  21144040.976     -306002.641        2222.886          43.000  
G01  22137250.144     -181647.893        1298.754          43.000  
G23  22395368.413      277188.701       -2083.482          43.000  
> 2018 02 16 08 22 29.0000000  0  8                     
G30  22415285.512     -486577.673        3551.987          42.000  
G03  24821525.482      419475.735       -3051.248          43.000  
G05  23998364.584     -498164.407        3598.032          43.000  
G09  20180007.437       88089.657        -683.881          43.000  
G10  21123790.030      180794.102       -1396.088          43.000  
G11  21142772.686     -312667.477        2220.856          43.000  
G01  22136509.402     -185540.569        1296.659          43.000  
G23  22396558.097      283440.417       -2084.049          43.000  
> 2018 02 16 08 22 30.0000000  0  8                     
G30  22414609.652     -490129.462        3551.822          42.000  
G03  24822106.154      422527.126       -3051.329          43.000  
G05  23997679.968     -501762.133        3597.633          43.000  
G09  20180137.631       88773.839        -684.403          43.000  
G10  21124055.778      182190.695       -1396.690          43.000  
G11  21142350.156     -314887.938        2220.483          43.000  
G01  22136262.774     -186836.666        1295.807          43.000  
G23  22396954.718      285524.679       -2084.346          43.000  
> 2018 02 16 08 22 31.0000000  0  8                     
G30  22413933.792     -493681.109        3551.385          43.000  
G03  24822686.808      425578.469       -3051.534          42.000  
G05  23996995.388     -505359.554        3597.113          43.000  
G09  20180267.914       89458.451        -684.937          43.000  
G10  21124321.652      183587.853       -1397.564          43.000  
G11  21141927.714     -317107.924        2219.475          43.000  
G01  22136016.288     -188132.017        1294.855          43.000  
G23  22397351.375      287609.148       -2084.733          43.000  
> 2018 02 16 08 22 32.0000000  0  8                     
G30  22413257.968     -497232.526        3551.294          43.000  
G03  24823267.462      428629.857       -3051.411          42.000  
G05  23996310.915     -508956.579        3596.916          43.000  
G09  20180398.286       90143.614        -685.381          42.000  
G10  21124587.650      184985.753       -1398.268          43.000  
G11  21141505.397     -319327.268        2219.029          43.000  
G01  22135769.928     -189426.541        1294.195          43.000  
G23  22397748.103      289693.943       -2084.877          43.000  
> 2018 02 16 08 22 33.0000000  0  8                     
G30  22412582.197     -500783.755        3551.259          43.000  
G03  24823848.116      431681.284       -3051.368          43.000  
G05  23995626.496     -512553.241        3596.576          43.000  
G09  20180528.784       90829.282        -685.785          43.000  
G10  21124853.773      186384.296       -1398.713          43.000  
G11  21141083.188     -321546.030        2218.544          42.000  
G01  22135523.747     -190720.257        1293.411          43.000  
G23  22398144.902      291779.055       -2085.122          43.000  
> 2018 02 16 08 22 34.0000000  0  8                     
G30  22411906.462     -504334.791        3551.214          43.000  
G03  24824428.805      434732.752       -3051.238          43.000  
G05  23994942.130     -516149.566        3596.457          43.000  
G09  20180659.353       91515.459        -686.099          43.000  
G10  21125120.057      187783.530       -1399.112          43.000  
G11  21140661.068     -323764.213        2218.601          43.000  
G01  22135277.708     -192013.196        1292.828          43.000  
G23  22398541.720      293864.482       -2085.275          42.000  
> 2018 02 16 08 22 35.0000000  0  8                     
G30  22411230.745     -507885.760        3550.772          43.000  
G03  24825009.459      437784.141       -3051.448          43.000  
G05  23994257.818     -519745.665        3595.851          43.000  
G09  20180790.011       92202.038        -686.817          43.000  
G10  21125386.395      189183.209       -1400.121          43.000  
G11  21140239.020     -325982.083        2217.505          43.000  
G01  22135031.777     -193305.483        1291.788          43.000  
G23  22398938.626      295950.115       -2085.895          43.000  
> 2018 02 16 08 22 36.0000000  0  8                     
G30  22410555.046     -511436.565        3550.979          43.000  
G03  24825590.131      440835.580       -3051.204          43.000  
G05  23993573.559     -523341.456        3595.854          42.000  
G09  20180920.759       92889.118        -687.118          43.000  
G10  21125652.876      190583.517       -1400.399          43.000  
G11  21139817.079     -328199.413        2217.172          43.000  
G01  22134786.006     -194597.020        1291.411          43.000  
G23  22399335.569      298036.059       -2085.831          43.000  
> 2018 02 16 08 22 37.0000000  0  8                     
G30  22409879.347     -514987.316        3550.674          42.000  
G03  24826170.785      443886.971       -3051.444          43.000  
G05  23992889.354     -526937.068        3595.522          43.000  
G09  20181051.614       93576.597        -687.747          42.000  
G10  21125919.428      191984.304       -1401.075          43.000  
G11  21139395.209     -330416.411        2216.793          42.000  
G01  22134540.343     -195887.927        1290.553          43.000  
G23  22399732.547      300122.223       -2086.268          43.000  
> 2018 02 16 08 22 39.0000000  0  8                     
G30  22408528.073     -522088.341        3550.318          43.000  
G03  24827332.182      449989.931       -3051.543          43.000  
G05  23991521.088     -534127.430        3594.867          42.000  
G09  20181313.520       94953.047        -688.792          43.000  
G10  21126452.890      194787.581       -1402.256          42.000  
G11  21138551.719     -334849.078        2215.777          43.000  
G01  22134049.445     -198467.564        1288.991          43.000  
G23  22400526.718      304295.582       -2087.130          43.000  
> 2018 02 16 08 22 40.0000000  0  8                     
G30  22407852.517     -525638.330        3549.934          43.000  
G03  24827912.907      453041.812       -3051.737          42.000  
G05  23990837.079     -537721.917        3594.438          43.000  
G09  20181444.696       95642.329        -689.446          43.000  
G10  21126719.817      196190.332       -1402.975          43.000  
G11  21138130.136     -337064.529        2215.203          43.000  
G01  22133804.264     -199756.041        1288.233          43.000  
G23  22400923.946      306383.065       -2087.591          43.000  
> 2018 02 16 08 22 41.0000000  0  8                     
G30  22407176.961     -529188.323        3550.106          43.000  
G03  24828493.633      456093.652       -3051.786          43.000  
G05  23990153.071     -541316.312        3594.385          43.000  
G09  20181575.927       96331.959        -689.680          42.000  
G10  21126986.816      197593.473       -1403.284          43.000  
G11  21137708.623     -339279.759        2215.136          43.000  
G01  22133559.173     -201043.969        1287.736          43.000  
G23  22401321.246      308470.753       -2087.705          43.000  
> 2018 02 16 08 22 42.0000000  0  8                     
G30  22406501.458     -532738.136        3549.846          43.000  
G03  24829074.376      459145.603       -3051.875          43.000  
G05  23989469.152     -544910.446        3594.102          42.000  
G09  20181707.246       97022.137        -690.340          43.000  
G10  21127253.958      198997.176       -1403.638          43.000  
G11  21137287.164     -341494.542        2215.199          43.000  
G01  22133314.224     -202331.186        1286.996          42.000  
G23  22401718.599      310558.845       -2088.169          42.000  
> 2018 02 16 08 22 43.0000000  0  8                     
G30  22405825.973     -536287.834        3549.632          43.000  
G03  24829655.173      462197.632       -3052.005          43.000  
G05  23988785.233     -548504.404        3593.779          43.000  
G09  20181838.690       97712.782        -690.982          43.000  
G10  21127521.136      200401.291       -1404.455          42.000  
G11  21136865.724     -343709.151        2214.321          43.000  
G01  22133069.383     -203617.780        1286.208          42.000  
G23  22402115.989      312647.256       -2088.624          42.000  
> 2018 02 16 08 22 44.0000000  0  8                     
G30  22405150.506     -539837.433        3549.687          42.000  
G03  24830235.970      465249.737       -3051.973          43.000  
G05  23988101.368     -552098.206        3593.839          43.000  
G09  20181970.207       98403.871        -691.197          43.000  
G10  21127788.421      201805.852       -1404.483          43.000  
G11  21136444.336     -345923.457        2214.237          43.000  
G01  22132824.684     -204903.767        1285.876          43.000  
G23  22402513.467      314736.008       -2088.808          43.000  
> 2018 02 16 08 22 45.0000000  0  8                     
G30  22404475.075     -543386.915        3549.518          43.000  
G03  24830816.785      468301.929       -3052.032          43.000  
G05  23987417.538     -555691.858        3593.872          43.000  
G09  20182101.812       99095.430        -691.598          43.000  
G10  21128055.777      203210.885       -1405.049          43.000  
G11  21136023.020     -348137.489        2214.009          43.000  
G01  22132580.093     -206189.130        1285.141          43.000  
G23  22402910.999      316825.093       -2089.092          43.000  
> 2018 02 16 08 22 46.0000000  0  8                     
G30  22403799.644     -546936.260        3549.472          42.000  
G03  24831397.617      471354.274       -3052.294          43.000  
G05  23986733.726     -559285.318        3593.547          43.000  
G09  20182233.507       99787.499        -692.117          42.000  
G10  21128323.258      204616.420       -1405.503          43.000  
G11  21135601.794     -350351.180        2214.262          43.000  
G01  22132335.609     -207473.885        1284.646          43.000  
G23  22403308.621      318914.568       -2089.466          43.000  
> 2018 02 16 08 22 47.0000000  0  8                     
G30  22403124.230     -550485.629        3549.378          43.000  
G03  24831978.450      474406.577       -3052.193          43.000  
G05  23986049.897     -562878.820        3593.522          43.000  
G09  20182365.255      100479.892        -692.510          43.000  
G10  21128590.776      206022.147       -1405.888          43.000  
G11  21135180.532     -352564.931        2213.611          43.000  
G01  22132091.214     -208758.193        1284.098          43.000  
G23  22403706.296      321004.248       -2089.668          43.000  
> 2018 02 16 08 22 48.0000000  0  8                     
G30  22402448.853     -554034.727        3549.191          43.000  
G03  24832559.354      477459.177       -3052.523          43.000  
G05  23985366.121     -566472.044        3593.377          42.000  
G09  20182497.128      101172.917        -693.165          43.000  
G10  21128858.382      207428.476       -1406.379          43.000  
G11  21134759.305     -354778.269        2213.260          43.000  
G01  22131846.945     -210041.770        1283.519          43.000  
G23  22404104.078      323094.462       -2090.267          43.000  
> 2018 02 16 08 22 49.0000000  0  8                     
G30  22401773.529     -557583.604        3548.850          42.000  
G03  24833140.294      480512.012       -3052.896          43.000  
G05  23984682.398     -570065.060        3593.030          43.000  
G09  20182629.127      101866.506        -693.802          42.000  
G10  21129126.096      208835.301       -1407.015          42.000  
G11  21134338.186     -356991.312        2212.829          43.000  
G01  22131602.836     -211324.676        1282.587          42.000  
G23  22404501.914      325185.139       -2090.899          43.000  
> 2018 02 16 08 22 50.0000000  0  8                     
G30  22401098.223     -561132.387        3548.806          42.000  
G03  24833721.233      483564.962       -3052.923          43.000  
G05  23983998.676     -573658.041        3593.065          43.000  
G09  20182761.197      102560.515        -694.083          43.000  
G10  21129393.863      210242.509       -1407.010          43.000  
G11  21133917.120     -359204.147        2213.316          43.000  
G01  22131358.799     -212607.089        1282.247          43.000  
G23  22404899.804      327276.153       -2091.176          43.000  
> 2018 02 16 08 22 51.0000000  0  8                     
G30  22400422.899     -564681.205        3549.009          43.000  
G03  24834302.191      486617.911       -3052.663          42.000  
G05  23983314.935     -577251.106        3593.343          43.000  
G09  20182893.338      103254.845        -694.250          43.000  
G10  21129661.684      211649.888       -1407.304          43.000  
G11  21133496.001     -361417.120        2213.034          43.000  
G01  22131114.851     -213889.109        1281.996          42.000  
G23  22405297.765      329367.374       -2091.133          43.000  
> 2018 02 16 08 22 52.0000000  0  8                     
G30  22399747.611     -568229.834        3548.552          43.000  
G03  24834883.202      489671.117       -3053.361          43.000  
G05  23982631.195     -580844.058        3592.910          43.000  
G09  20183025.587      103949.700        -695.089          43.000  
G10  21129929.576      213057.718       -1408.005          43.000  
G11  21133074.918     -363629.851        2212.515          43.000  
G01  22130870.992     -215170.552        1281.209          43.000  
G23  22405695.797      331459.036       -2091.829          43.000  
> 2018 02 16 08 22 53.0000000  0  8                     
G30  22399072.358     -571778.318        3548.387          43.000  
G03  24835464.232      492724.502       -3053.543          43.000  
G05  23981947.508     -584436.947        3592.792          43.000  
G09  20183157.889      104645.017        -695.500          43.000  
G10  21130197.558      214465.930       -1408.400          43.000  
G11  21132653.888     -365842.416        2212.484          43.000  
G01  22130627.259     -216451.457        1280.694          43.000  
G23  22406093.901      333551.100       -2092.267          42.000  
> 2018 02 16 08 22 54.0000000  0  8                     
G30  22398397.159     -575326.509        3548.179          43.000  
G03  24836045.314      495778.229       -3053.746          43.000  
G05  23981263.822     -588029.668        3592.757          43.000  
G09  20183290.316      105340.960        -696.003          43.000  
G10  21130465.629      215874.688       -1408.712          43.000  
G11  21132232.929     -368054.616        2212.639          43.000  
G01  22130383.651     -217731.703        1280.126          43.000  
G23  22406492.112      335643.690       -2092.676          42.000  
> 2018 02 16 08 22 55.0000000  0  8                     
G30  22397721.996     -578874.579        3547.850          43.000  
G03  24836626.486      498832.142       -3054.176          43.000  
G05  23980580.153     -591622.414        3592.603          43.000  
G09  20183422.851      106037.340        -696.727          43.000  
G10  21130733.772      217283.712       -1409.377          43.000  
G11  21131811.935     -370266.883        2211.863          43.000  
G01  22130140.114     -219011.484        1279.370          43.000  
G23  22406890.377      337736.635       -2093.248          43.000  
> 2018 02 16 08 22 56.0000000  0  8                     
G30  22397046.851     -582422.493        3547.798          43.000  
G03  24837207.676      501886.269       -3054.202          43.000  
G05  23979896.466     -595215.155        3592.781          43.000  
G09  20183555.475      106734.178        -697.080          43.000  
G10  21131001.986      218693.090       -1409.510          43.000  
G11  21131390.994     -372479.024        2212.042          43.000  
G01  22129896.684     -220290.789        1279.103          43.000  
G23  22407288.713      339829.977       -2093.565          43.000  
> 2018 02 16 08 22 57.0000000  0  8                     
G30  22396371.705     -585970.384        3548.165          43.000  
G03  24837788.884      504940.503       -3053.967          43.000  
G05  23979212.780     -598808.026        3593.236          43.000  
G09  20183688.134      107431.333        -697.062          43.000  
G10  21131270.200      220102.707       -1409.440          43.000  
G11  21130970.036     -374691.171        2212.352          43.000  
G01  22129653.308     -221569.733        1279.045          42.000  
G23  22407687.121      341923.575       -2093.449          43.000  
> 2018 02 16 08 22 58.0000000  0  8                     
G30  22395696.614     -589518.053        3547.815          43.000  
G03  24838370.163      507995.021       -3054.367          43.000  
G05  23978529.093     -602400.884        3593.170          43.000  
G09  20183820.901      108128.993        -697.591          43.000  
G10  21131538.521      221512.731       -1409.807          42.000  
G11  21130549.131     -376903.091        2212.541          43.000  
G01  22129410.021     -222848.174        1278.499          42.000  
G23  22408085.600      344017.605       -2093.971          43.000  
> 2018 02 16 08 22 59.0000000  0  8                     
G30  22395021.540     -593065.542        3547.310          43.000  
G03  24838951.479      511049.802       -3054.980          43.000  
G05  23977845.388     -605993.756        3592.793          43.000  
G09  20183953.775      108827.129        -698.398          43.000  
G10  21131806.878      222923.052       -1410.584          43.000  
G11  21130128.208     -379115.073        2211.799          43.000  
G01  22129166.842     -224126.129        1277.638          42.000  
G23  22408484.169      346112.046       -2094.695          43.000  
> 2018 02 16 08 23 00.0000000  0  8                     
G30  22394346.555     -596612.680        3547.084          43.000  
G03  24839532.865      514104.998       -3055.203          42.000  
G05  23977161.702     -609586.528        3592.932          43.000  
G09  20184086.721      109525.864        -698.842          42.000  
G10  21132075.360      224333.889       -1410.922          43.000  
G11  21129707.321     -381326.765        2211.666          43.000  
G01  22128923.769     -225403.489        1277.245          42.000  
G23  22408882.845      348207.033       -2095.076          43.000  
> 2018 02 16 08 23 01.0000000  0  8                     
G30  22393671.607     -600159.613        3547.012          43.000  
G03  24840114.305      517160.499       -3055.596          43.000  
G05  23976478.015     -613179.332        3592.950          43.000  
G09  20184219.791      110225.081        -699.293          43.000  
G10  21132343.896      225745.081       -1411.270          43.000  
G11  21129286.470     -383538.355        2211.619          43.000  
G01  22128680.804     -226680.380        1276.890          43.000  
G23  22409281.592      350302.434       -2095.434          43.000  
> 2018 02 16 08 23 02.0000000  0  8                     
G30  22392996.712     -603706.232        3546.521          43.000  
G03  24840695.817      520216.364       -3056.007          43.000  
G05  23975794.328     -616772.100        3592.741          42.000  
G09  20184352.951      110924.842        -699.934          43.000  
G10  21132612.521      227156.716       -1411.653          43.000  
G11  21128865.673     -385749.691        2211.730          43.000  
G01  22128437.928     -227956.723        1276.064          43.000  
G23  22409680.446      352398.323       -2095.966          43.000  
> 2018 02 16 08 23 03.0000000  0  8                     
G30  22392321.870     -607252.571        3546.456          43.000  
G03  24841277.382      523272.608       -3056.164          43.000  
G05  23975110.624     -620364.888        3593.031          42.000  
G09  20184486.219      111625.131        -700.300          43.000  
G10  21132881.235      228568.744       -1412.037          43.000  
G11  21128444.875     -387961.009        2211.305          43.000  
G01  22128195.196     -229232.576        1275.881          42.000  
G23  22410079.372      354494.691       -2096.353          43.000  
> 2018 02 16 08 23 04.0000000  0  8                     
G30  22391647.082     -610798.702        3546.223          43.000  
G03  24841859.054      526329.145       -3056.543          42.000  
G05  23974426.919     -623957.762        3593.097          43.000  
G09  20184619.557      112325.850        -700.726          43.000  
G10  21133150.003      229981.089       -1412.264          42.000  
G11  21128024.077     -390172.246        2211.310          43.000  
G01  22127952.481     -230507.999        1275.349          43.000  
G23  22410478.388      356591.427       -2096.751          43.000  
> 2018 02 16 08 23 05.0000000  0  8                     
G30  22390972.312     -614344.550        3546.248          43.000  
G03  24842440.763      529386.036       -3056.607          43.000  
G05  23973743.232     -627550.697        3593.471          43.000  
G09  20184753.003      113027.066        -701.012          43.000  
G10  21133418.843      231393.837       -1412.387          43.000  
G11  21127603.315     -392383.324        2211.465          43.000  
G01  22127709.873     -231782.967        1275.240          43.000  
G23  22410877.474      358688.600       -2096.935          43.000  
> 2018 02 16 08 23 06.0000000  0  8                     
G30  22390297.596     -617890.163        3545.644          43.000  
G03  24843022.542      532443.219       -3057.149          43.000  
G05  23973059.510     -631143.746        3593.241          43.000  
G09  20184886.520      113728.701        -701.731          43.000  
G10  21133687.754      232806.924       -1412.953          43.000  
G11  21127182.607     -394594.264        2211.415          43.000  
G01  22127467.319     -233057.529        1274.512          43.000  
G23  22411276.615      360786.131       -2097.432          42.000  
> 2018 02 16 08 23 07.0000000  0  8                     
G30  22389622.915     -621435.712        3545.328          42.000  
G03  24843604.340      535500.571       -3057.650          43.000  
G05  23972375.698     -634737.089        3593.273          43.000  
G09  20185020.109      114430.587        -702.225          43.000  
G10  21133956.682      234220.162       -1413.557          43.000  
G11  21126761.827     -396805.441        2210.937          43.000  
G01  22127224.836     -234331.857        1273.954          42.000  
G23  22411675.791      362883.900       -2098.104          43.000  
> 2018 02 16 08 23 08.0000000  0  8                     
G30  22388948.288     -624980.873        3545.138          43.000  
G03  24844186.227      538558.361       -3057.856          43.000  
G05  23971691.922     -638330.437        3593.587          43.000  
G09  20185153.787      115133.045        -702.637          43.000  
G10  21134225.700      235633.848       -1413.800          43.000  
G11  21126341.101     -399016.371        2210.890          43.000  
G01  22126982.407     -235605.667        1273.730          43.000  
G23  22412075.074      364982.139       -2098.281          43.000  
> 2018 02 16 08 23 09.0000000  0  8                     
G30  22388273.714     -628525.813        3544.912          43.000  
G03  24844768.185      541616.436       -3058.026          43.000  
G05  23971008.093     -641923.982        3593.845          43.000  
G09  20185287.519      115835.858        -702.833          43.000  
G10  21134494.772      237047.838       -1413.972          43.000  
G11  21125920.375     -401227.247        2210.988          43.000  
G01  22126740.067     -236879.140        1273.481          43.000  
G23  22412474.411      367080.700       -2098.523          43.000  
> 2018 02 16 08 23 10.0000000  0  8                     
G30  22387599.212     -632070.431        3544.559          43.000  
G03  24845350.197      544674.908       -3058.483          43.000  
G05  23970324.245     -645517.598        3593.861          43.000  
G09  20185421.376      116539.168        -703.497          43.000  
G10  21134763.951      238462.259       -1414.459          43.000  
G11  21125499.720     -403437.905        2211.048          43.000  
G01  22126497.835     -238152.153        1272.976          43.000  
G23  22412873.837      369179.688       -2099.039          43.000  
> 2018 02 16 08 23 11.0000000  0  8                     
G30  22386924.782     -635614.556        3543.822          43.000  
G03  24845932.316      547733.921       -3059.279          43.000  
G05  23969640.398     -649111.180        3593.518          43.000  
G09  20185555.322      117243.072        -704.240          43.000  
G10  21135033.202      239877.197       -1415.216          43.000  
G11  21125079.084     -405648.388        2210.111          43.000  
G01  22126255.710     -239424.588        1272.081          43.000  
G23  22413273.353      371279.216       -2099.753          43.000  
> 2018 02 16 08 23 12.0000000  0  8                     
G30  22386250.441     -639158.256        3543.657          43.000  
G03  24846514.543      550793.429       -3059.642          43.000  
G05  23968956.568     -652704.783        3593.809          43.000  
G09  20185689.376      117947.529        -704.519          43.000  
G10  21135302.541      241292.639       -1415.474          43.000  
G11  21124658.500     -407858.621        2210.233          43.000  
G01  22126013.692     -240696.506        1271.849          43.000  
G23  22413672.976      373379.251       -2100.143          43.000  
> 2018 02 16 08 23 13.0000000  0  8                     
G30  22385576.117     -642701.841        3543.474          43.000  
G03  24847096.787      553853.082       -3059.897          42.000  
G05  23968272.649     -656298.747        3594.089          43.000  
G09  20185823.483      118652.201        -704.837          43.000  
G10  21135571.935      242708.263       -1415.810          43.000  
G11  21124237.899     -410068.899        2210.195          43.000  
G01  22125771.691     -241968.234        1271.563          43.000  
G23  22414072.617      375479.426       -2100.333          43.000  
> 2018 02 16 08 23 15.0000000  0  8                     
G30  22384227.739     -649787.610        3542.909          43.000  
G03  24848261.525      559973.889       -3060.333          43.000  
G05  23966904.847     -663486.757        3594.602          43.000  
G09  20186091.983      120063.187        -705.525          43.000  
G10  21136110.990      245541.048       -1416.346          43.000  
G11  21123396.858     -414488.605        2210.170          43.000  
G01  22125287.977     -244510.136        1271.054          43.000  
G23  22414872.220      379681.199       -2100.785          43.000  
> 2018 02 16 08 23 16.0000000  0  8                     
G30  22383553.683     -653329.827        3542.161          43.000  
G03  24848844.038      563034.000       -3061.161          43.000  
G05  23966220.910     -667080.851        3594.292          43.000  
G09  20186226.411      120769.443        -706.422          43.000  
G10  21136380.651      246958.182       -1417.079          43.000  
G11  21122976.400     -416698.099        2209.437          43.000  
G01  22125046.245     -245780.345        1270.194          43.000  
G23  22415272.128      381782.749       -2101.596          43.000  
> 2018 02 16 08 23 17.0000000  0  8                     
G30  22382879.700     -656871.680        3541.668          43.000  
G03  24849426.639      566096.501       -3061.710          43.000  
G05  23965536.937     -670675.117        3594.405          43.000  
G09  20186360.876      121476.090        -706.751          43.000  
G10  21136650.402      248375.736       -1417.642          43.000  
G11  21122555.960     -418907.412        2209.205          43.000  
G01  22124804.602     -247050.163        1269.695          43.000  
G23  22415672.126      383884.621       -2101.897          43.000  
> 2018 02 16 08 23 18.0000000  0  8                     
G30  22382205.769     -660413.161        3541.394          42.000  
G03  24850009.312      569158.371       -3062.055          43.000  
G05  23964852.947     -674269.553        3594.604          43.000  
G09  20186495.411      122183.168        -707.273          43.000  
G10  21136920.224      249793.710       -1418.207          43.000  
G11  21122135.609     -421116.468        2209.151          43.000  
G01  22124563.049     -248319.584        1269.266          42.000  
G23  22416072.142      385986.825       -2102.257          43.000  
> 2018 02 16 08 23 19.0000000  0  8                     
G30  22381531.929     -663954.245        3541.114          43.000  
G03  24850592.039      572220.632       -3062.236          42.000  
G05  23964168.921     -677864.141        3594.886          43.000  
G09  20186630.037      122890.632        -707.506          43.000  
G10  21137190.136      251212.129       -1418.333          43.000  
G11  21121715.258     -423325.398        2209.028          43.000  
G01  22124321.567     -249588.622        1269.054          43.000  
G23  22416472.212      388089.348       -2102.463          43.000  
> 2018 02 16 08 23 20.0000000  0  8                     
G30  22380858.141     -667494.868        3540.599          43.000  
G03  24851174.837      575283.344       -3062.721          43.000  
G05  23963484.876     -681458.831        3594.917          43.000  
G09  20186764.733      123598.559        -707.928          42.000  
G10  21137460.137      252631.060       -1418.916          43.000  
G11  21121294.961     -425534.018        2208.668          42.000  
G01  22124080.174     -250857.186        1268.559          43.000  
G23  22416872.389      390192.253       -2102.908          42.000  
> 2018 02 16 08 23 21.0000000  0  8                     
G30  22380184.479     -671035.082        3540.246          43.000  
G03  24851757.725      578346.434       -3063.002          43.000  
G05  23962800.815     -685053.695        3595.126          42.000  
G09  20186899.519      124306.881        -708.325          43.000  
G10  21137730.227      254050.446       -1419.352          42.000  
G11  21120874.717     -427742.388        2208.447          43.000  
G01  22123838.835     -252125.349        1268.175          43.000  
G23  22417272.637      392295.455       -2103.225          43.000  
> 2018 02 16 08 23 22.0000000  0  8                     
G30  22379510.888     -674574.777        3539.513          43.000  
G03  24852340.720      581410.027       -3063.849          43.000  
G05  23962116.735     -688648.608        3594.884          42.000  
G09  20187034.395      125015.700        -708.971          43.000  
G10  21138000.442      255470.399       -1420.297          43.000  
G11  21120454.545     -429950.337        2207.862          43.000  
G01  22123597.621     -253393.000        1267.395          43.000  
G23  22417672.939      394399.044       -2103.850          42.000  
> 2018 02 16 08 23 23.0000000  0  8                     
G30  22378837.405     -678113.936        3539.264          43.000  
G03  24852923.804      584474.094       -3063.954          43.000  
G05  23961432.619     -692243.589        3595.276          43.000  
G09  20187169.360      125725.007        -709.202          43.000  
G10  21138270.765      256890.946       -1420.354          43.000  
G11  21120034.444     -432157.976        2207.697          43.000  
G01  22123356.496     -254660.148        1267.275          43.000  
G23  22418073.330      396503.028       -2103.905          42.000  
> 2018 02 16 08 23 24.0000000  0  8                     
G30  22378163.993     -681652.785        3538.930          43.000  
G03  24853506.959      587538.415       -3064.281          43.000  
G05  23960748.450     -695838.866        3595.635          43.000  
G09  20187304.396      126434.571        -709.456          43.000  
G10  21138541.141      258311.853       -1420.786          43.000  
G11  21119614.361     -434365.440        2207.566          43.000  
G01  22123115.425     -255927.006        1266.947          43.000  
G23  22418473.721      398607.144       -2103.939          43.000  
> 2018 02 16 08 23 25.0000000  0  8                     
G30  22377490.652     -685191.110        3538.247          43.000  
G03  24854090.151      590603.181       -3064.863          43.000  
G05  23960064.281     -699434.223        3595.557          43.000  
G09  20187439.521      127144.581        -710.075          43.000  
G10  21138811.642      259733.359       -1421.680          43.000  
G11  21119194.368     -436572.507        2207.040          43.000  
G01  22122874.444     -257193.368        1266.271          43.000  
G23  22418874.202      400711.623       -2104.562          43.000  
> 2018 02 16 08 23 26.0000000  0  8                     
G30  22376817.437     -688728.830        3537.534          43.000  
G03  24854673.503      593668.487       -3065.521          43.000  
G05  23959380.094     -703029.580        3595.434          43.000  
G09  20187574.718      127855.115        -710.664          43.000  
G10  21139082.251      261155.491       -1422.516          43.000  
G11  21118774.481     -438779.023        2206.291          43.000  
G01  22122633.569     -258459.164        1265.591          43.000  
G23  22419274.754      402816.487       -2104.965          43.000  
> 2018 02 16 08 23 27.0000000  0  8                     
G30  22376144.329     -692266.050        3537.073          43.000  
G03  24855256.873      596734.190       -3065.763          43.000  
G05  23958695.889     -706625.048        3595.665          43.000  
G09  20187709.987      128566.069        -711.045          43.000  
G10  21139353.002      262578.244       -1422.913          43.000  
G11  21118354.667     -440985.196        2206.044          43.000  
G01  22122392.784     -259724.495        1265.174          43.000  
G23  22419675.341      404921.645       -2105.230          43.000  
> 2018 02 16 08 23 28.0000000  0  8                     
G30  22375471.310     -695802.923        3536.658          43.000  
G03  24855840.296      599800.131       -3065.980          43.000  
G05  23958011.630     -710220.790        3595.848          42.000  
G09  20187845.327      129277.238        -711.221          43.000  
G10  21139623.807      264001.388       -1423.264          43.000  
G11  21117934.887     -443191.135        2205.898          43.000  
G01  22122152.089     -260989.525        1264.958          43.000  
G23  22420075.965      407026.901       -2105.280          43.000  
> 2018 02 16 08 23 29.0000000  0  8                     
G30  22374798.362     -699339.245        3535.880          43.000  
G03  24856423.809      602866.515       -3066.653          43.000  
G05  23957327.354     -713816.611        3595.756          42.000  
G09  20187980.738      129988.867        -711.968          42.000  
G10  21139894.755      265425.177       -1424.158          43.000  
G11  21117515.216     -445396.575        2205.158          42.000  
G01  22121911.482     -262254.028        1264.119          43.000  
G23  22420476.642      409132.467       -2105.856          43.000  
> 2018 02 16 08 23 30.0000000  0  8                     
G30  22374125.504     -702875.113        3535.807          43.000  
G03  24857007.394      605933.216       -3066.687          43.000  
G05  23956643.060     -717412.600        3596.331          43.000  
G09  20188116.221      130700.804        -711.864          43.000  
G10  21140165.793      266849.466       -1424.502          43.000  
G11  21117095.633     -447601.613        2205.034          43.000  
G01  22121670.929     -263518.144        1264.105          43.000  
G23  22420877.355      411238.208       -2105.733          43.000  
> 2018 02 16 08 23 31.0000000  0  8                     
G30  22373452.754     -706410.542        3535.212          43.000  
G03  24857591.014      609000.213       -3067.200          43.000  
G05  23955958.748     -721008.760        3596.226          43.000  
G09  20188251.758      131413.041        -712.279          43.000  
G10  21140436.937      268274.337       -1424.000          43.000  
G11  21116676.086     -449806.281        2204.505          43.000  
G01  22121430.448     -264781.846        1263.526          43.000  
G23  22421278.086      413344.089       -2105.876          43.000  
> 2018 02 16 08 23 32.0000000  0  8                     
G30  22372780.074     -709945.549        3534.835          43.000  
G03  24858174.688      612067.468       -3067.379          43.000  
G05  23955274.382     -724605.129        3596.504          42.000  
G09  20188387.348      132125.558        -712.555          43.000  
G10  21140708.153      269699.710       -1425.465          43.000  
G11  21116256.629     -452010.565        2204.131          43.000  
G01  22121190.056     -266045.170        1263.140          43.000  
G23  22421678.852      415450.097       -2106.068          43.000  
> 2018 02 16 08 23 33.0000000  0  8                     
G30  22372107.520     -713479.929        3534.231          43.000  
G03  24858758.469      615135.187       -3067.832          43.000  
G05  23954590.034     -728201.500        3596.537          43.000  
G09  20188523.027      132838.535        -713.003          43.000  
G10  21140979.548      271125.828       -1426.224          43.000  
G11  21115837.279     -454214.239        2203.552          43.000  
G01  22120949.789     -267307.911        1262.621          43.000  
G23  22422079.654      417556.398       -2106.270          42.000  
> 2018 02 16 08 23 34.0000000  0  8                     
G30  22371435.073     -717013.765        3533.505          43.000  
G03  24859342.303      618203.256       -3068.390          42.000  
G05  23953905.651     -731797.945        3596.364          43.000  
G09  20188658.778      133551.892        -713.655          43.000  
G10  21141251.050      272552.570       -1427.428          43.000  
G11  21115418.036     -456417.362        2202.554          43.000  
G01  22120709.612     -268570.147        1261.906          43.000  
G23  22422480.528      419662.909       -2106.723          43.000  
> 2018 02 16 08 23 35.0000000  0  8                     
G30  22370762.697     -720547.073        3533.197          43.000  
G03  24859926.191      621271.655       -3068.422          43.000  
G05  23953221.231     -735394.477        3596.693          43.000  
G09  20188794.601      134265.588        -713.657          43.000  
G10  21141522.677      273980.014       -1427.577          43.000  
G11  21114998.900     -458619.959        2202.539          43.000  
G01  22120469.506     -269831.873        1261.564          43.000  
G23  22422881.419      421769.590       -2106.561          42.000  
> 2018 02 16 08 23 36.0000000  0  8                     
G30  22370090.429     -724079.899        3532.716          43.000  
G03  24860510.169      624340.317       -3068.652          42.000  
G05  23952536.830     -738991.147        3596.905          43.000  
G09  20188930.459      134979.590        -714.021          43.000  
G10  21141794.411      275408.054       -1428.267          43.000  
G11  21114579.853     -460822.035        2202.004          43.000  
G01  22120229.489     -271093.169        1261.200          43.000  
G23  22423282.329      423876.382       -2106.696          42.000  
> 2018 02 16 08 23 37.0000000  0  8                     
G30  22369418.286     -727612.180        3532.124          42.000  
G03  24861094.164      627409.314       -3069.051          43.000  
G05  23951852.393     -742587.864        3596.878          43.000  
G09  20189066.389      135693.948        -714.468          43.000  
G10  21142066.253      276836.787       -1429.034          42.000  
G11  21114160.914     -463023.511        2201.224          43.000  
G01  22119989.562     -272353.927        1260.529          43.000  
G23  22423683.238      425983.348       -2107.042          42.000  
> 2018 02 16 08 23 38.0000000  0  8                     
G30  22368746.196     -731144.018        3531.658          42.000  
G03  24861678.213      630478.515       -3069.306          42.000  
G05  23951167.920     -746184.749        3597.035          43.000  
G09  20189202.336      136408.538        -714.715          43.000  
G10  21142338.237      278266.059       -1429.803          42.000  
G11  21113742.064     -465224.493        2200.533          43.000  
G01  22119749.724     -273614.270        1260.128          43.000  
G23  22424084.183      428090.338       -2106.955          42.000  
> 2018 02 16 08 23 40.0000000  0  8                     
G30  22367402.427     -738205.550        3530.344          42.000  
G03  24862846.579      636618.278       -3070.015          43.000  
G05  23949799.045     -753378.142        3596.888          43.000  
G09  20189474.589      137839.239        -715.452          43.000  
G10  21142882.724      281127.383       -1431.047          42.000  
G11  21112904.865     -469623.997        2199.295          42.000  
G01  22119270.458     -276132.852        1258.891          43.000  
G23  22424886.234      432305.238       -2107.420          43.000  
> 2018 02 16 08 23 41.0000000  0  8                     
G30  22366730.749     -741735.371        3529.735          42.000  
G03  24863430.861      639688.692       -3070.271          43.000  
G05  23949114.608     -756974.767        3596.885          43.000  
G09  20189610.840      138555.210        -715.880          43.000  
G10  21143155.209      282559.248       -1431.990          43.000  
G11  21112486.479     -471822.649        2198.632          42.000  
G01  22119031.014     -277391.187        1258.297          43.000  
G23  22425287.305      434412.981       -2107.503          43.000  
> 2018 02 16 08 23 42.0000000  0  8                     
G30  22366059.124     -745264.776        3529.133          43.000  
G03  24864015.178      642759.237       -3070.623          43.000  
G05  23948430.171     -760571.536        3596.755          42.000  
G09  20189747.127      139271.380        -716.265          43.000  
G10  21143427.783      283991.689       -1433.190          43.000  
G11  21112068.183     -474020.737        2197.544          43.000  
G01  22118791.622     -278649.099        1257.647          42.000  
G23  22425688.393      436520.697       -2107.722          43.000  
> 2018 02 16 08 23 43.0000000  0  8                     
G30  22365387.588     -748793.728        3528.886          42.000  
G03  24864599.513      645829.937       -3070.653          43.000  
G05  23947745.716     -764168.410        3597.080          43.000  
G09  20189883.468      139987.789        -716.366          43.000  
G10  21143700.500      285424.843       -1433.268          42.000  
G11  21111650.048     -476218.169        2197.260          43.000  
G01  22118552.356     -279906.541        1257.316          43.000  
G23  22426089.499      438628.427       -2107.574          43.000  
> 2018 02 16 08 23 44.0000000  0  8                     
G30  22364716.159     -752322.050        3528.047          42.000  
G03  24865183.937      648900.950       -3071.175          43.000  
G05  23947061.297     -767765.197        3596.722          43.000  
G09  20190019.862      140704.587        -716.950          43.000  
G10  21143973.378      286858.833       -1434.376          43.000  
G11  21111232.038     -478414.813        2196.288          43.000  
G01  22118313.197     -281163.315        1256.365          42.000  
G23  22426490.605      440736.309       -2107.990          43.000  
> 2018 02 16 08 23 45.0000000  0  8                     
G30  22364044.802     -755849.969        3527.661          43.000  
G03  24865768.343      651972.035       -3071.193          43.000  
G05  23946376.824     -771362.121        3596.926          42.000  
G09  20190156.310      141421.571        -717.110          43.000  
G10  21144246.381      288293.454       -1434.892          43.000  
G11  21110814.171     -480610.870        2195.764          43.000  
G01  22118074.127     -282419.665        1256.193          43.000  
G23  22426891.711      442844.115       -2107.809          43.000  
> 2018 02 16 08 23 46.0000000  0  8                     
G30  22363373.588     -759377.241        3527.179          43.000  
G03  24866352.821      655043.424       -3071.235          42.000  
G05  23945692.387     -774958.921        3596.987          43.000  
G09  20190292.829      142138.962        -717.377          43.000  
G10  21144519.544      289728.907       -1435.893          43.000  
G11  21110396.429     -482806.078        2194.772          42.000  
G01  22117835.165     -283675.298        1255.467          43.000  
G23  22427292.852      444952.091       -2107.859          42.000  
> 2018 02 16 08 23 47.0000000  0  8                     
G30  22362702.428     -762904.139        3526.491          43.000  
G03  24866937.281      658114.867       -3071.682          43.000  
G05  23945007.914     -778555.834        3596.793          43.000  
G09  20190429.366      142856.513        -717.843          43.000  
G10  21144792.851      291165.088       -1436.592          43.000  
G11  21109978.812     -485000.591        2194.035          43.000  
G01  22117596.310     -284930.502        1254.776          43.000  
G23  22427693.958      447059.951       -2107.949          43.000  
> 2018 02 16 08 23 48.0000000  0  8                     
G30  22362031.446     -766430.285        3525.977          43.000  
G03  24867521.831      661186.674       -3071.792          43.000  
G05  23944323.494     -782152.498        3596.687          43.000  
G09  20190565.993      143574.560        -718.143          43.000  
G10  21145066.319      292602.244       -1437.395          43.000  
G11  21109561.410     -487194.142        2193.352          43.000  
G01  22117357.597     -286184.882        1254.124          43.000  
G23  22428095.136      449168.080       -2108.127          43.000  
> 2018 02 16 08 23 49.0000000  0  8                     
G30  22361360.571     -769955.679        3525.433          42.000  
G03  24868106.469      664258.874       -3071.969          43.000  
G05  23943639.129     -785748.890        3596.639          43.000  
G09  20190702.762      144293.150        -718.398          43.000  
G10  21145340.018      294040.433       -1438.249          43.000  
G11  21109144.222     -489386.651        2192.419          43.000  
G01  22117119.064     -287438.412        1253.534          43.000  
G23  22428496.331      451276.452       -2108.057          43.000  
> 2018 02 16 08 23 50.0000000  0  8                     
G30  22360689.804     -773480.644        3524.661          43.000  
G03  24868691.108      667331.129       -3072.372          43.000  
G05  23942954.745     -789345.309        3596.389          42.000  
G09  20190839.514      145011.932        -718.934          43.000  
G10  21145613.825      295479.287       -1439.467          43.000  
G11  21108727.105     -491578.478        2191.175          42.000  
G01  22116880.602     -288691.416        1252.665          43.000  
G23  22428897.526      453384.758       -2108.360          43.000  
> 2018 02 16 08 23 51.0000000  0  8                     
G30  22360019.162     -777004.994        3523.936          43.000  
G03  24869275.800      670403.603       -3072.699          43.000  
G05  23942270.397     -792941.557        3596.107          42.000  
G09  20190976.373      145731.114        -719.413          43.000  
G10  21145887.829      296919.149       -1440.349          43.000  
G11  21108310.185     -493769.296        2190.337          43.000  
G01  22116642.318     -289943.700        1251.907          43.000  
G23  22429298.740      455493.164       -2108.518          43.000  
> 2018 02 16 08 23 52.0000000  0  8                     
G30  22359348.591     -780528.889        3523.451          42.000  
G03  24869860.475      673476.128       -3072.706          43.000  
G05  23941586.067     -796537.780        3595.996          43.000  
G09  20191113.285      146450.515        -719.685          43.000  
G10  21146161.958      298359.756       -1441.170          43.000  
G11  21107893.408     -495959.346        2189.485          42.000  
G01  22116404.106     -291195.385        1251.177          43.000  
G23  22429699.953      457601.521       -2108.514          43.000  
> 2018 02 16 08 23 53.0000000  0  8                     
G30  22358678.127     -784052.104        3523.178          43.000  
G03  24870445.203      676548.944       -3072.604          43.000  
G05  23940901.791     -800133.726        3596.091          43.000  
G09  20191250.269      147170.385        -719.783          43.000  
G10  21146436.283      299801.354       -1441.680          42.000  
G11  21107476.863     -498148.372        2188.965          42.000  
G01  22116166.055     -292446.254        1250.753          43.000  
G23  22430101.184      459710.049       -2108.222          42.000  
> 2018 02 16 08 23 54.0000000  0  8                     
G30  22358007.735     -787574.990        3522.788          42.000  
G03  24871029.913      679621.673       -3072.630          43.000  
G05  23940217.497     -803729.735        3596.083          43.000  
G09  20191387.271      147890.383        -720.033          43.000  
G10  21146710.733      301243.591       -1442.743          43.000  
G11  21107060.461     -500336.731        2187.815          43.000  
G01  22115928.129     -293696.634        1250.203          43.000  
G23  22430502.397      461818.412       -2108.270          42.000  
> 2018 02 16 08 23 55.0000000  0  8                     
G30  22357337.414     -791097.438        3522.221          43.000  
G03  24871614.641      682694.424       -3072.811          43.000  
G05  23939533.202     -807325.683        3595.916          43.000  
G09  20191524.326      148610.600        -720.368          43.000  
G10  21146985.326      302686.680       -1443.429          43.000  
G11  21106644.185     -502524.180        2187.065          43.000  
G01  22115690.310     -294946.396        1249.479          43.000  
G23  22430903.574      463926.691       -2108.235          42.000  
> 2018 02 16 08 23 56.0000000  0  8                     
G30  22356667.255     -794619.227        3521.647          43.000  
G03  24872199.423      685767.399       -3072.961          43.000  
G05  23938848.962     -810921.320        3595.591          43.000  
G09  20191661.471      149331.271        -720.717          42.000  
G10  21147260.152      304130.783       -1444.411          43.000  
G11  21106228.104     -504710.608        2186.089          43.000  
G01  22115452.634     -296195.319        1248.659          43.000  
G23  22431304.788      466035.127       -2108.380          42.000  
> 2018 02 16 08 23 57.0000000  0  8                     
G30  22355997.148     -798140.615        3521.239          43.000  
G03  24872784.186      688840.352       -3072.990          43.000  
G05  23938164.757     -814516.895        3595.473          43.000  
G09  20191798.634      150052.149        -720.951          43.000  
G10  21147535.103      305575.648       -1445.209          43.000  
G11  21105812.185     -506896.199        2185.245          42.000  
G01  22115215.102     -297443.626        1248.017          43.000  
G23  22431706.001      468143.456       -2108.252          42.000  
> 2018 02 16 08 23 58.0000000  0  8                     
G30  22355327.149     -801661.590        3520.867          43.000  
G03  24873368.950      691913.255       -3072.823          43.000  
G05  23937480.552     -818112.381        3595.427          43.000  
G09  20191935.850      150773.252        -721.205          43.000  
G10  21147810.214      307021.254       -1446.062          43.000  
G11  21105396.444     -509080.998        2184.191          43.000  
G01  22114977.676     -298691.323        1247.539          43.000  
G23  22432107.196      470251.689       -2108.075          43.000  
> 2018 02 16 08 23 59.0000000  0  8                     
G30  22354657.222     -805182.075        3520.342          43.000  
G03  24873953.732      694986.227       -3072.933          43.000  
G05  23936796.383     -821707.672        3595.232          43.000  
G09  20192073.138      151494.663        -721.481          43.000  
G10  21148085.486      308467.850       -1446.926          43.000  
G11  21104980.882     -511264.749        2183.334          42.000  
G01  22114740.375     -299938.263        1246.638          43.000  
G23  22432508.356      472359.931       -2108.142          43.000  
> 2018 02 16 08 24 00.0000000  0  8                     
G30  22353987.437     -808701.798        3519.776          43.000  
G03  24874538.567      698059.518       -3073.113          43.000  
G05  23936112.339     -825302.471        3594.957          43.000  
G09  20192210.533      152216.664        -721.869          43.000  
G10  21148360.991      309915.586       -1447.896          43.000  
G11  21104565.535     -513447.314        2182.340          43.000  
G01  22114503.289     -301184.197        1245.782          43.000  
G23  22432909.604      474468.444       -2108.257          43.000  
> 2018 02 16 08 24 01.0000000  0  8                     
G30  22353317.742     -812221.116        3519.094          43.000  
G03  24875123.366      701132.733       -3073.190          43.000  
G05  23935428.295     -828897.138        3594.506          42.000  
G09  20192347.963      152938.894        -722.309          43.000  
G10  21148636.639      311364.125       -1448.922          43.000  
G11  21104150.366     -515629.006        2181.281          42.000  
G01  22114266.328     -302429.483        1244.994          43.000  
G23  22433310.818      476576.859       -2108.378          42.000  
> 2018 02 16 08 24 02.0000000  0  8                     
G30  22352648.118     -815739.972        3518.390          43.000  
G03  24875708.184      704205.983       -3073.524          43.000  
G05  23934744.286     -832491.574        3594.093          43.000  
G09  20192485.447      153661.447        -722.928          43.000  
G10  21148912.465      312813.530       -1450.267          43.000  
G11  21103735.358     -517809.781        2179.880          43.000  
G01  22114029.492     -303673.998        1243.862          43.000  
G23  22433712.049      478685.269       -2108.655          43.000  
> 2018 02 16 08 24 03.0000000  0  8                     
G30  22351978.584     -819258.462        3518.450          42.000  
G03  24876293.001      707279.127       -3072.940          43.000  
G05  23934060.314     -836085.863        3594.332          43.000  
G09  20192622.985      154384.212        -722.668          43.000  
G10  21149188.434      314263.790       -1450.524          43.000  
G11  21103320.546     -519989.595        2179.585          43.000  
G01  22113792.781     -304917.853        1243.638          43.000  
G23  22434113.244      480793.583       -2108.244          43.000  
> 2018 02 16 08 24 04.0000000  0  8                     
G30  22351309.139     -822776.349        3517.807          43.000  
G03  24876877.837      710352.424       -3073.090          43.000  
G05  23933376.448     -839679.749        3593.946          43.000  
G09  20192760.613      155107.451        -723.201          43.000  
G10  21149464.618      315715.089       -1451.514          42.000  
G11  21102905.967     -522168.310        2178.453          43.000  
G01  22113556.267     -306160.785        1242.699          42.000  
G23  22434514.457      482902.016       -2108.256          42.000  
> 2018 02 16 08 24 05.0000000  0  8                     
G30  22350639.783     -826293.908        3517.460          43.000  
G03  24877462.672      713425.590       -3072.972          43.000  
G05  23932692.583     -843273.483        3593.730          43.000  
G09  20192898.276      155830.897        -723.432          43.000  
G10  21149740.944      317167.183       -1452.437          43.000  
G11  21102491.513     -524346.171        2177.557          43.000  
G01  22113319.859     -307403.059        1242.022          43.000  
G23  22434915.652      485010.336       -2108.169          43.000  
> 2018 02 16 08 24 06.0000000  0  8                     
G30  22349970.481     -829811.096        3517.127          43.000  
G03  24878047.453      716498.674       -3072.958          42.000  
G05  23932008.735     -846867.004        3593.561          43.000  
G09  20193035.992      156554.597        -723.717          43.000  
G10  21150017.432      318620.068       -1453.410          43.000  
G11  21102077.237     -526523.155        2176.350          43.000  
G01  22113083.577     -308644.611        1241.247          43.000  
G23  22435316.866      487118.589       -2108.091          43.000  
> 2018 02 16 08 24 07.0000000  0  8                     
G30  22349301.268     -833327.983        3516.524          43.000  
G03  24878632.217      719571.580       -3072.930          42.000  
G05  23931324.977     -850460.373        3593.152          43.000  
G09  20193173.744      157278.497        -724.120          43.000  
G10  21150294.026      320073.756       -1454.182          43.000  
G11  21101663.159     -528699.247        2175.572          43.000  
G01  22112847.438     -309885.514        1240.436          43.000  
G23  22435718.043      489226.702       -2108.231          43.000  
> 2018 02 16 08 24 08.0000000  0  8                     
G30  22348632.109     -836844.397        3516.388          43.000  
G03  24879216.963      722644.507       -3072.659          43.000  
G05  23930641.201     -854053.380        3593.052          43.000  
G09  20193311.568      158002.782        -724.276          43.000  
G10  21150570.835      321528.425       -1454.865          43.000  
G11  21101249.258     -530874.307        2174.873          43.000  
G01  22112611.460     -311125.548        1239.868          43.000  
G23  22436119.203      491334.874       -2107.938          43.000  
> 2018 02 16 08 24 09.0000000  0  8                     
G30  22347963.021     -840360.468        3516.208          43.000  
G03  24879801.691      725717.338       -3072.410          43.000  
G05  23929957.532     -857646.144        3592.952          43.000  
G09  20193449.463      158727.336        -724.292          43.000  
G10  21150847.787      322983.910       -1455.544          43.000  
G11  21100835.537     -533048.442        2174.052          43.000  
G01  22112375.607     -312364.842        1239.256          42.000  
G23  22436520.362      493442.996       -2107.825          43.000  
> 2018 02 16 08 24 10.0000000  0  8                     
G30  22347293.987     -843876.116        3515.626          43.000  
G03  24880386.437      728790.123       -3072.552          43.000  
G05  23929273.899     -861238.580        3592.545          43.000  
G09  20193587.430      159452.257        -724.939          43.000  
G10  21151124.918      324440.279       -1456.674          43.000  
G11  21100422.012     -535221.650        2172.819          43.000  
G01  22112139.932     -313603.310        1238.262          42.000  
G23  22436921.504      495551.127       -2107.874          43.000  
> 2018 02 16 08 24 11.0000000  0  8                     
G30  22346625.042     -847391.481        3515.301          42.000  
G03  24880971.147      731862.746       -3072.493          43.000  
G05  23928590.320     -864830.789        3592.197          43.000  
G09  20193725.433      160177.416        -725.274          43.000  
G10  21151402.227      325897.479       -1457.457          43.000  
G11  21100008.630     -537393.922        2171.963          42.000  
G01  22111904.383     -314841.069        1237.482          43.000  
G23  22437322.646      497659.173       -2107.894          42.000  
> 2018 02 16 08 24 12.0000000  0  8                     
G30  22345956.187     -850906.291        3514.799          42.000  
G03  24881555.857      734935.463       -3072.470          43.000  
G05  23927906.830     -868422.493        3591.808          42.000  
G09  20193863.524      160903.072        -725.608          43.000  
G10  21151679.733      327355.733       -1458.444          43.000  
G11  21099595.480     -539565.073        2170.874          43.000  
G01  22111669.012     -316077.834        1236.541          43.000  
G23  22437723.823      499767.405       -2108.067          42.000  
> 2018 02 16 08 24 13.0000000  0  8                     
G30  22345287.385     -854420.963        3514.651          42.000  
G03  24882140.532      738007.893       -3072.251          43.000  
G05  23927223.340     -872014.086        3591.562          42.000  
G09  20194001.634      161628.861        -725.816          43.000  
G10  21151957.364      328814.644       -1459.207          43.000  
G11  21099182.456     -541735.490        2170.030          42.000  
G01  22111433.766     -317314.018        1235.981          43.000  
G23  22438124.983      501875.419       -2107.881          43.000  
> 2018 02 16 08 24 14.0000000  0  8                     
G30  22344618.655     -857935.220        3514.212          43.000  
G03  24882725.171      741080.286       -3072.239          42.000  
G05  23926539.957     -875605.282        3591.140          43.000  
G09  20194139.833      162355.052        -726.218          43.000  
G10  21152235.174      330274.449       -1460.094          43.000  
G11  21098769.610     -543904.964        2169.142          43.000  
G01  22111198.699     -318549.306        1234.938          43.000  
G23  22438526.160      503983.519       -2108.002          42.000  
> 2018 02 16 08 24 15.0000000  0  8                     
G30  22343949.942     -861449.237        3513.958          43.000  
G03  24883309.791      744152.490       -3072.038          43.000  
G05  23925856.610     -879196.235        3590.930          42.000  
G09  20194278.068      163081.486        -726.431          43.000  
G10  21152513.109      331735.056       -1460.942          42.000  
G11  21098356.925     -546073.542        2168.299          42.000  
G01  22110963.757     -319783.885        1234.288          42.000  
G23  22438927.302      506091.540       -2107.910          42.000  
> 2018 02 16 08 24 16.0000000  0  8                     
G30  22343281.337     -864962.796        3513.325          42.000  
G03  24883894.430      747224.721       -3072.257          43.000  
G05  23925173.352     -882786.709        3590.232          42.000  
G09  20194416.428      163808.410        -727.231          42.000  
G10  21152791.240      333196.635       -1462.143          43.000  
G11  21097944.454     -548241.081        2166.969          42.000  
G01  22110728.994     -321017.518        1233.170          42.000  
G23  22439328.479      508199.711       -2108.229          42.000  
> 2018 02 16 08 24 17.0000000  0  8                     
G30  22342612.821     -868475.805        3512.761          42.000  
G03  24884479.087      750297.080       -3072.389          43.000  
G05  23924490.219     -886376.591        3589.559          43.000  
G09  20194554.859      164535.903        -727.751          42.000  
G10  21153069.550      334659.278       -1463.138          43.000  
G11  21097532.216     -550407.486        2165.904          43.000  
G01  22110494.445     -322250.094        1232.105          43.000  
G23  22439729.692      510308.160       -2108.633          42.000  
> 2018 02 16 08 24 18.0000000  0  8                     
G30  22341944.377     -871988.505        3512.449          43.000  
G03  24885063.725      753369.330       -3072.205          43.000  
G05  23923807.158     -889966.142        3589.380          43.000  
G09  20194693.362      165263.752        -728.046          42.000  
G10  21153348.039      336122.753       -1463.944          43.000  
G11  21097120.120     -552573.015        2164.967          43.000  
G01  22110260.057     -323481.850        1231.303          43.000  
G23  22440130.906      512416.631       -2108.621          43.000  
> 2018 02 16 08 24 19.0000000  0  8                     
G30  22341276.004     -875500.914        3512.486          43.000  
G03  24885648.346      756441.468       -3071.678          43.000  
G05  23923124.168     -893555.317        3589.314          43.000  
G09  20194831.954      165991.968        -728.148          43.000  
G10  21153626.688      337587.060       -1464.334          43.000  
G11  21096708.204     -554737.630        2164.443          43.000  
G01  22110025.830     -324712.794        1230.850          43.000  
G23  22440532.172      514525.148       -2108.281          43.000  
> 2018 02 16 08 24 20.0000000  0  8                     
G30  22340607.667     -879013.088        3512.031          43.000  
G03  24886232.931      759513.464       -3071.949          43.000  
G05  23922441.214     -897144.174        3588.677          43.000  
G09  20194970.582      166720.497        -728.624          42.000  
G10  21153905.499      339052.164       -1465.450          42.000  
G11  21096296.466     -556901.407        2163.325          43.000  
G01  22109791.746     -325942.953        1229.792          42.000  
G23  22440933.421      516633.676       -2108.563          43.000  
> 2018 02 16 08 24 21.0000000  0  8                     
G30  22339939.347     -882524.986        3511.799          43.000  
G03  24886817.498      762585.328       -3071.770          43.000  
G05  23921758.349     -900732.686        3588.465          43.000  
G09  20195109.299      167449.391        -729.025          43.000  
G10  21154184.434      340518.054       -1466.251          43.000  
G11  21095884.835     -559064.365        2162.605          43.000  
G01  22109557.823     -327172.296        1228.950          43.000  
G23  22441334.670      518742.259       -2108.577          43.000  
> 2018 02 16 08 24 22.0000000  0  8                     
G30  22339271.100     -886036.688        3511.627          43.000  
G03  24887401.994      765656.000       -3071.488          43.000  
G05  23921075.520     -904320.893        3588.045          43.000  
G09  20195248.052      168178.580        -729.298          43.000  
G10  21154463.530      341984.650       -1466.808          43.000  
G11  21095473.383     -561226.563        2161.974          43.000  
G01  22109324.060     -328400.907        1228.282          43.000  
G23  22441735.919      520850.828       -2108.489          43.000  
> 2018 02 16 08 24 23.0000000  0  8                     
G30  22338602.887     -889548.205        3511.608          43.000  
G03  24887986.490      768728.506       -3071.297          43.000  
G05  23920392.763     -907908.806        3587.974          43.000  
G09  20195386.894      168908.085        -729.479          43.000  
G10  21154742.752      343451.981       -1467.504          43.000  
G11  21095062.073     -563387.963        2161.141          43.000  
G01  22109090.422     -329628.751        1227.671          43.000  
G23  22442137.168      522959.423       -2108.458          43.000  
> 2018 02 16 08 24 24.0000000  0  8                     
G30  22337934.711     -893059.566        3511.404          43.000  
G03  24888570.932      771799.794       -3071.102          43.000  
G05  23919710.059     -911496.440        3587.563          43.000  
G09  20195525.755      169637.866        -729.801          43.000  
G10  21155022.098      344920.004       -1468.274          43.000  
G11  21094650.889     -565548.648        2160.382          43.000  
G01  22108856.910     -330855.875        1226.833          43.000  
G23  22442538.417      525068.010       -2108.536          43.000  
> 2018 02 16 08 24 25.0000000  0  8                     
G30  22337266.570     -896570.678        3511.149          43.000  
G03  24889155.374      774870.978       -3070.995          43.000  
G05  23919027.426     -915083.696        3587.187          43.000  
G09  20195664.722      170368.053        -730.216          43.000  
G10  21155301.606      346388.814       -1469.181          43.000  
G11  21094239.884     -567708.546        2159.647          42.000  
G01  22108623.541     -332082.175        1225.957          43.000  
G23  22442939.702      527176.699       -2108.631          43.000  
> 2018 02 16 08 24 26.0000000  0  8                     
G30  22336598.465     -900081.532        3510.880          43.000  
G03  24889739.781      777942.075       -3070.779          43.000  
G05  23918344.848     -918670.569        3586.828          43.000  
G09  20195803.743      171098.646        -730.590          42.000  
G10  21155581.256      347858.368       -1469.660          43.000  
G11  21093829.022     -569867.647        2159.037          43.000  
G01  22108390.332     -333307.657        1225.301          43.000  
G23  22443341.004      529285.513       -2108.638          43.000  
> 2018 02 16 08 24 27.0000000  0  8                     
G30  22335930.396     -903592.288        3510.891          43.000  
G03  24890324.169      781012.962       -3070.522          42.000  
G05  23917662.340     -922257.192        3586.692          43.000  
G09  20195942.818      171829.525        -730.762          43.000  
G10  21155861.013      349328.564       -1470.371          43.000  
G11  21093418.284     -572026.102        2158.272          43.000  
G01  22108157.266     -334532.429        1224.631          43.000  
G23  22443742.289      531394.340       -2108.592          43.000  
> 2018 02 16 08 24 28.0000000  0  8                     
G30  22335262.345     -907102.942        3510.866          43.000  
G03  24890908.504      784083.627       -3070.245          43.000  
G05  23916979.869     -925843.569        3586.546          43.000  
G09  20196081.964      172560.694        -731.020          43.000  
G10  21156140.896      350799.375       -1470.928          42.000  
G11  21093007.654     -574183.925        2157.758          43.000  
G01  22107924.326     -335756.523        1224.071          42.000  
G23  22444143.573      533503.180       -2108.632          43.000  
> 2018 02 16 08 24 29.0000000  0  8                     
G30  22334594.294     -910613.453        3510.449          43.000  
G03  24891492.803      787154.128       -3070.376          43.000  
G05  23916297.469     -929429.625        3585.828          43.000  
G09  20196221.163      173292.207        -731.747          43.000  
G10  21156420.885      352270.844       -1471.840          42.000  
G11  21092597.167     -576341.083        2156.761          43.000  
G01  22107691.546     -336979.864        1222.929          43.000  
G23  22444544.876      535612.081       -2108.928          43.000  
> 2018 02 16 08 24 31.0000000  0  8                     
G30  22333258.334     -917633.916        3510.200          43.000  
G03  24892661.348      793294.826       -3070.163          43.000  
G05  23914932.847     -936600.748        3585.353          43.000  
G09  20196499.795      174756.422        -732.440          43.000  
G10  21156981.312      355215.823       -1472.967          43.000  
G11  21091776.568     -580653.375        2155.456          43.000  
G01  22107226.397     -339424.235        1221.575          43.000  
G23  22445347.570      539830.326       -2109.144          43.000  
> 2018 02 16 08 24 32.0000000  0  8                     
G30  22332590.372     -921144.046        3510.697          43.000  
G03  24893245.558      796364.859       -3069.240          43.000  
G05  23914250.608     -940185.951        3585.739          43.000  
G09  20196639.191      175488.970        -732.013          43.000  
G10  21157261.677      356689.167       -1472.941          43.000  
G11  21091366.438     -582808.702        2155.686          43.000  
G01  22106994.011     -340645.406        1221.513          43.000  
G23  22445748.926      541939.518       -2108.564          43.000  
> 2018 02 16 08 24 33.0000000  0  8                     
G30  22331922.374     -924654.340        3509.946          42.000  
G03  24893829.696      799434.484       -3069.772          43.000  
G05  23913568.351     -943771.143        3584.733          43.000  
G09  20196778.605      176221.613        -733.045          43.000  
G10  21157542.113      358162.861       -1474.332          43.000  
G11  21090956.362     -584963.709        2154.459          43.000  
G01  22106761.696     -341866.146        1220.181          43.000  
G23  22446150.265      544048.562       -2109.404          42.000  
> 2018 02 16 08 24 34.0000000  0  8                     
G30  22331254.466     -928164.180        3510.017          43.000  
G03  24894413.870      802504.319       -3069.523          43.000  
G05  23912886.236     -947355.729        3584.715          43.000  
G09  20196918.145      176954.963        -733.262          42.000  
G10  21157822.728      359637.481       -1474.524          43.000  
G11  21090546.428     -587117.798        2154.287          43.000  
G01  22106529.613     -343085.828        1219.596          43.000  
G23  22446551.674      546158.069       -2109.420          43.000  
> 2018 02 16 08 24 35.0000000  0  8                     
G30  22330586.611     -931673.810        3509.762          43.000  
G03  24894998.026      805574.139       -3069.595          43.000  
G05  23912204.176     -950939.927        3584.287          43.000  
G09  20197057.791      177688.792        -733.808          43.000  
G10  21158103.468      361112.747       -1475.392          43.000  
G11  21090136.620     -589271.305        2153.387          43.000  
G01  22106297.637     -344304.707        1218.790          43.000  
G23  22446953.156      548267.813       -2109.567          43.000  
> 2018 02 16 08 24 36.0000000  0  8                     
G30  22329918.775     -935183.344        3509.831          43.000  
G03  24895582.165      808643.829       -3069.262          43.000  
G05  23911522.187     -954523.873        3584.228          43.000  
G09  20197197.509      178422.986        -734.028          43.000  
G10  21158384.298      362588.586       -1475.779          42.000  
G11  21089726.919     -591424.278        2153.025          43.000  
G01  22106065.822     -345522.891        1218.296          43.000  
G23  22447354.672      550377.722       -2109.692          43.000  
> 2018 02 16 08 24 37.0000000  0  8                     
G30  22329250.973     -938692.690        3509.407          43.000  
G03  24896166.303      811713.503       -3069.466          43.000  
G05  23910840.251     -958107.458        3583.538          43.000  
G09  20197337.298      179157.659        -734.748          43.000  
G10  21158665.270      364065.088       -1476.714          43.000  
G11  21089317.308     -593576.646        2152.195          43.000  
G01  22105834.168     -346740.292        1217.187          43.000  
G23  22447756.207      552487.881       -2110.149          43.000  
> 2018 02 16 08 24 38.0000000  0  8                     
G30  22328583.208     -942201.856        3509.138          43.000  
G03  24896750.442      814783.171       -3069.600          43.000  
G05  23910158.387     -961690.717        3583.222          43.000  
G09  20197477.177      179892.796        -735.283          43.000  
G10  21158946.368      365542.213       -1477.091          43.000  
G11  21088907.839     -595728.436        2152.028          43.000  
G01  22105602.657     -347956.929        1216.336          42.000  
G23  22448157.831      554598.294       -2110.431          43.000  
> 2018 02 16 08 24 39.0000000  0  8                     
G30  22327915.425     -945711.012        3509.195          43.000  
G03  24897334.562      817852.676       -3069.379          43.000  
G05  23909476.559     -965273.800        3583.083          43.000  
G09  20197617.145      180628.265        -735.643          43.000  
G10  21159227.537      367019.764       -1477.822          43.000  
G11  21088498.424     -597879.911        2151.245          43.000  
G01  22105371.253     -349172.956        1215.741          42.000  
G23  22448559.456      556708.836       -2110.603          43.000  
> 2018 02 16 08 24 40.0000000  0  8                     
G30  22327247.695     -949219.926        3509.061          43.000  
G03  24897918.700      820922.250       -3069.321          43.000  
G05  23908794.784     -968856.489        3582.783          43.000  
G09  20197757.238      181364.272        -736.105          42.000  
G10  21159508.849      368497.983       -1478.318          43.000  
G11  21088089.134     -600030.761        2150.710          43.000  
G01  22105140.010     -350388.172        1215.141          43.000  
G23  22448961.151      558819.720       -2110.748          43.000  
> 2018 02 16 08 24 41.0000000  0  8                     
G30  22326579.965     -952728.790        3508.815          43.000  
G03  24898502.803      823991.719       -3069.334          42.000  
G05  23908113.063     -972439.001        3582.448          42.000  
G09  20197897.367      182100.628        -736.488          42.000  
G10  21159790.233      369976.685       -1478.881          43.000  
G11  21087679.916     -602181.238        2150.299          42.000  
G01  22104908.875     -351602.766        1214.334          43.000  
G23  22449362.865      560930.776       -2111.107          43.000  
> 2018 02 16 08 24 42.0000000  0  8                     
G30  22325912.272     -956237.647        3508.794          43.000  
G03  24899086.888      827061.066       -3069.253          43.000  
G05  23907431.360     -976021.355        3582.204          42.000  
G09  20198037.567      182837.332        -736.914          43.000  
G10  21160071.723      371455.841       -1479.222          42.000  
G11  21087270.733     -604331.339        2150.195          43.000  
G01  22104677.864     -352816.764        1213.633          43.000  
G23  22449764.632      563041.987       -2111.332          43.000  
> 2018 02 16 08 24 43.0000000  0  8                     
G30  22325244.596     -959746.314        3508.523          42.000  
G03  24899670.973      830130.473       -3069.391          43.000  
G05  23906749.728     -979603.401        3581.847          43.000  
G09  20198177.839      183574.535        -737.430          43.000  
G10  21160353.286      372935.500       -1480.005          43.000  
G11  21086861.675     -606481.077        2149.410          42.000  
G01  22104446.996     -354030.046        1212.947          42.000  
G23  22450166.435      565153.533       -2111.749          43.000  
> 2018 02 16 08 24 44.0000000  0  8                     
G30  22324576.937     -963254.891        3508.599          43.000  
G03  24900255.057      833199.864       -3069.283          42.000  
G05  23906068.132     -983185.232        3581.761          42.000  
G09  20198318.218      184312.179        -737.845          42.000  
G10  21160634.937      374415.667       -1480.325          42.000  
G11  21086452.689     -608630.401        2149.081          43.000  
G01  22104216.253     -355242.651        1212.370          42.000  
G23  22450568.273      567265.327       -2111.830          42.000  
> 2018 02 16 08 24 45.0000000  0  8                     
G30  22323909.315     -966763.243        3508.421          43.000  
G03  24900839.160      836269.372       -3069.428          43.000  
G05  23905386.589     -986766.735        3581.454          43.000  
G09  20198458.687      185050.355        -738.275          43.000  
G10  21160916.714      375896.422       -1480.867          43.000  
G11  21086043.774     -610779.263        2148.738          43.000  
G01  22103985.636     -356454.516        1211.770          43.000  
G23  22450970.237      569377.521       -2112.270          43.000  
> 2018 02 16 08 24 46.0000000  0  8                     
G30  22323241.710     -970271.555        3508.380          43.000  
G03  24901423.263      839338.829       -3069.358          43.000  
G05  23904705.083     -990348.098        3581.334          42.000  
G09  20198599.226      185788.923        -738.598          43.000  
G10  21161198.580      377377.632       -1481.163          43.000  
G11  21085634.931     -612927.772        2148.804          43.000  
G01  22103755.143     -357665.782        1211.061          43.000  
G23  22451372.201      571489.932       -2112.399          42.000  
> 2018 02 16 08 24 47.0000000  0  8                     
G30  22322574.070     -973779.850        3508.191          43.000  
G03  24902007.347      842408.229       -3069.477          42.000  
G05  23904023.594     -993929.364        3581.122          42.000  
G09  20198739.838      186527.849        -739.185          43.000  
G10  21161480.499      378859.129       -1481.784          43.000  
G11  21085226.088     -615076.164        2148.031          43.000  
G01  22103524.722     -358876.519        1210.388          42.000  
G23  22451774.236      573602.558       -2112.800          42.000  
> 2018 02 16 08 24 48.0000000  0  8                     
G30  22321906.519     -977287.823        3508.113          42.000  
G03  24902591.486      845477.889       -3069.525          43.000  
G05  23903342.177     -997510.238        3581.035          42.000  
G09  20198880.592      187267.438        -739.674          43.000  
G10  21161762.544      380341.304       -1482.262          42.000  
G11  21084817.370     -617224.021        2147.797          43.000  
G01  22103294.480     -360086.409        1209.710          42.000  
G23  22452176.342      575715.696       -2113.072          42.000  
> 2018 02 16 08 24 49.0000000  0  8                     
G30  22321239.004     -980795.597        3507.589          43.000  
G03  24903175.606      848547.675       -3069.915          42.000  
G05  23902660.813    -1001090.846        3580.411          42.000  
G09  20199021.436      188007.563        -740.540          42.000  
G10  21162044.678      381824.028       -1483.159          42.000  
G11  21084408.723     -619371.474        2147.059          42.000  
G01  22103064.363     -361295.622        1208.867          42.000  
G23  22452578.538      577829.255       -2113.891          42.000  
> 2018 02 16 08 24 50.0000000  0  8                     
G30  22320571.507     -984303.353        3508.347          42.000  
G03  24903759.780      851617.444       -3069.115          42.000  
G05  23901979.449    -1004671.387        3581.157          42.000  
G09  20199162.333      188748.039        -740.011          42.000  
G10  21162326.883      383307.092       -1482.416          42.000  
G11  21084000.112     -621518.705        2148.211          42.000  
G01  22102834.352     -362504.308        1209.011          42.000  
G23  22452980.788      579943.020       -2113.252          42.000  
> 2018 02 16 08 24 51.0000000  0  8                     
G30  22319903.973     -987811.291        3507.927          42.000  
G03  24904343.901      854687.013       -3069.671          42.000  
G05  23901298.068    -1008252.079        3580.606          42.000  
G09  20199303.284      189488.687        -740.825          43.000  
G10  21162609.125      384790.220       -1483.443          43.000  
G11  21083591.483     -623666.103        2147.086          43.000  
G01  22102604.414     -363712.700        1208.112          42.000  
G23  22453383.038      582056.843       -2113.987          42.000  
> 2018 02 16 08 24 52.0000000  0  8                     
G30  22319236.458     -991319.038        3507.827          42.000  
G03  24904928.039      857756.724       -3069.581          43.000  
G05  23900616.722    -1011832.576        3580.627          43.000  
G09  20199444.342      190229.862        -741.219          43.000  
G10  21162891.455      386273.835       -1483.682          43.000  
G11  21083182.908     -625813.164        2147.047          42.000  
G01  22102374.565     -364920.441        1207.633          43.000  
G23  22453785.359      584171.056       -2114.120          42.000  
> 2018 02 16 08 24 53.0000000  0  8                     
G30  22318568.979     -994826.664        3507.716          42.000  
G03  24905512.195      860826.557       -3069.735          43.000  
G05  23899935.394    -1015412.933        3580.399          42.000  
G09  20199585.471      190971.507        -741.787          43.000  
G10  21163173.857      387757.871       -1484.196          43.000  
G11  21082774.386     -627959.982        2146.818          43.000  
G01  22102144.840     -366127.603        1207.036          43.000  
G23  22454187.733      586285.635       -2114.589          42.000  
> 2018 02 16 08 24 54.0000000  0  8                     
G30  22317901.517     -998334.251        3507.421          43.000  
G03  24906096.387      863896.411       -3070.007          43.000  
G05  23899254.048    -1018993.289        3580.252          42.000  
G09  20199726.672      191713.510        -742.343          43.000  
G10  21163456.331      389242.229       -1484.455          43.000  
G11  21082365.900     -630106.621        2146.952          43.000  
G01  22101915.241     -367334.293        1206.357          43.000  
G23  22454590.179      588400.476       -2115.092          42.000  
> 2018 02 16 08 24 55.0000000  0  8                     
G30  22317234.073    -1001841.682        3507.357          43.000  
G03  24906680.597      866966.441       -3070.121          43.000  
G05  23898572.756    -1022573.505        3580.138          43.000  
G09  20199867.981      192456.012        -742.766          43.000  
G10  21163738.858      390726.933       -1485.014          43.000  
G11  21081957.450     -632253.176        2146.313          43.000  
G01  22101685.714     -368540.399        1205.832          43.000  
G23  22454992.715      590515.709       -2115.460          43.000  
> 2018 02 16 08 24 56.0000000  0  8                     
G30  22316566.683    -1005348.838        3507.243          43.000  
G03  24907264.861      870036.731       -3070.136          42.000  
G05  23897891.517    -1026153.506        3580.061          42.000  
G09  20200009.396      193199.117        -743.273          42.000  
G10  21164021.474      392212.161       -1485.319          43.000  
G11  21081549.054     -634399.381        2146.167          42.000  
G01  22101456.329     -369745.820        1205.264          42.000  
G23  22455395.340      592631.442       -2115.767          43.000  
> 2018 02 16 08 24 57.0000000  0  8                     
G30  22315899.347    -1008855.749        3507.141          42.000  
G03  24907849.160      873107.304       -3070.331          43.000  
G05  23897210.296    -1029733.331        3580.100          42.000  
G09  20200150.919      193942.777        -743.600          42.000  
G10  21164304.180      393697.877       -1485.732          42.000  
G11  21081140.693     -636545.312        2145.980          42.000  
G01  22101227.070     -370950.612        1204.798          43.000  
G23  22455798.054      594747.650       -2116.118          43.000  
> 2018 02 16 08 24 58.0000000  0  8                     
G30  22315232.028    -1012362.523        3506.788          43.000  
G03  24908433.495      876178.033       -3070.769          43.000  
G05  23896529.093    -1033313.106        3579.869          43.000  
G09  20200292.531      194686.895        -744.192          43.000  
G10  21164586.975      395183.955       -1486.003          43.000  
G11  21080732.368     -638691.017        2146.131          43.000  
G01  22100997.899     -372154.886        1204.101          43.000  
G23  22456200.822      596864.230       -2116.730          42.000  
> 2018 02 16 08 24 59.0000000  0  8                     
G30  22314564.817    -1015868.772        3506.318          43.000  
G03  24909017.919      879249.322       -3071.312          43.000  
G05  23895847.944    -1036892.448        3579.356          43.000  
G09  20200434.304      195431.870        -745.130          43.000  
G10  21164869.896      396670.723       -1486.970          43.000  
G11  21080324.132     -640836.343        2145.192          42.000  
G01  22100768.908     -373358.258        1203.194          43.000  
G23  22456603.732      598981.571       -2117.534          42.000  
> 2018 02 16 08 25 00.0000000  0  8                     
G30  22313897.641    -1019374.717        3505.910          43.000  
G03  24909602.415      882320.941       -3071.725          43.000  
G05  23895166.831    -1040471.640        3579.298          43.000  
G09  20200576.184      196177.424        -745.708          43.000  
G10  21165152.923      398157.969       -1487.411          43.000  
G11  21079915.932     -642981.368        2144.886          43.000  
G01  22100540.041     -374560.994        1202.521          43.000  
G23  22457006.750      601099.409       -2117.952          42.000  
> 2018 02 16 08 25 01.0000000  0  8                     
G30  22313230.519    -1022880.530        3505.767          43.000  
G03  24910186.964      885392.748       -3071.841          43.000  
G05  23894485.753    -1044050.813        3579.235          43.000  
G09  20200718.135      196923.434        -746.210          43.000  
G10  21165436.004      399645.565       -1487.757          43.000  
G11  21079507.786     -645126.287        2144.874          43.000  
G01  22100311.246     -375763.256        1202.143          42.000  
G23  22457409.858      603217.634       -2118.320          43.000  
> 2018 02 16 08 25 02.0000000  0  8                     
G30  22312563.415    -1026386.099        3505.553          43.000  
G03  24910771.585      888464.827       -3072.020          43.000  
G05  23893804.675    -1047629.919        3579.225          43.000  
G09  20200860.212      197669.951        -746.513          43.000  
G10  21165719.210      401133.769       -1488.826          43.000  
G11  21079099.765     -647270.354        2140.221          43.000  
G01  22100082.577     -376964.964        1201.613          43.000  
G23  22457813.019      605336.305       -2118.691          43.000  
> 2018 02 16 08 25 03.0000000  0  8                     
G30  22311896.400    -1029891.385        3505.034          43.000  
G03  24911356.241      891537.261       -3072.535          43.000  
G05  23893123.615    -1051208.930        3579.065          43.000  
G09  20201002.378      198417.052        -747.184          43.000  
G10  21166002.524      402622.609       -1488.942          42.000  
G11  21078691.851     -649413.944        2143.698          43.000  
G01  22099854.032     -378166.084        1200.882          43.000  
G23  22458216.287      607455.475       -2119.323          43.000  
> 2018 02 16 08 25 04.0000000  0  8                     
G30  22311229.331    -1033396.825        3505.318          43.000  
G03  24911940.898      894609.598       -3072.550          43.000  
G05  23892442.466    -1054788.289        3579.410          43.000  
G09  20201144.562      199164.287        -747.553          43.000  
G10  21166285.890      404111.580       -1489.540          43.000  
G11  21078284.008     -651557.322        2143.181          43.000  
G01  22099625.505     -379367.062        1200.592          43.000  
G23  22458619.573      609574.707       -2119.423          42.000  
> 2018 02 16 08 25 05.0000000  0  8                     
G30  22310562.316    -1036901.978        3505.060          42.000  
G03  24912525.590      897682.261       -3072.798          43.000  
G05  23891761.370    -1058367.584        3579.332          42.000  
G09  20201286.853      199912.051        -748.059          42.000  
G10  21166569.329      405601.056       -1489.724          43.000  
G11  21077876.237     -653700.196        2142.730          43.000  
G01  22099397.067     -380567.516        1200.335          43.000  
G23  22459022.948      611694.412       -2119.845          43.000  
> 2018 02 16 08 25 06.0000000  0  8                     
G30  22309895.355    -1040406.918        3504.675          42.000  
G03  24913110.372      900755.213       -3073.333          43.000  
G05  23891080.221    -1061946.909        3579.198          42.000  
G09  20201429.233      200660.278        -748.611          43.000  
G10  21166852.857      407091.012       -1490.381          43.000  
G11  21077468.555     -655842.614        2142.138          43.000  
G01  22099168.719     -381767.474        1199.576          43.000  
G23  22459426.413      613814.529       -2120.487          43.000  
> 2018 02 16 08 25 07.0000000  0  8                     
G30  22309228.429    -1043911.564        3504.905          42.000  
G03  24913695.189      903828.507       -3073.116          43.000  
G05  23890399.107    -1065526.193        3579.575          43.000  
G09  20201571.721      201409.053        -748.728          43.000  
G10  21167136.492      408581.488       -1490.416          43.000  
G11  21077060.963     -657984.499        2141.855          43.000  
G01  22098940.460     -382966.903        1199.483          43.000  
G23  22459829.931      615935.124       -2120.478          43.000  
> 2018 02 16 08 25 08.0000000  0  8                     
G30  22308561.575    -1047415.874        3504.233          43.000  
G03  24914280.114      906902.209       -3073.885          43.000  
G05  23889718.012    -1069105.438        3579.286          43.000  
G09  20201714.315      202158.380        -749.552          43.000  
G10  21167420.252      410072.528       -1491.272          43.000  
G11  21076653.478     -660125.856        2141.150          43.000  
G01  22098712.326     -384165.783        1198.597          43.000  
G23  22460233.574      618056.219       -2121.297          43.000  
> 2018 02 16 08 25 09.0000000  0  8                     
G30  22307894.811    -1050919.757        3503.795          42.000  
G03  24914865.128      909976.379       -3074.316          43.000  
G05  23889036.934    -1072684.553        3579.149          43.000  
G09  20201857.035      202908.361        -750.263          42.000  
G10  21167704.101      411564.178       -1491.817          43.000  
G11  21076246.117     -662266.574        2140.494          43.000  
G01  22098484.300     -385364.062        1198.206          43.000  
G23  22460637.343      620177.907       -2121.990          43.000  
> 2018 02 16 08 25 10.0000000  0  8                     
G30  22307228.100    -1054423.260        3503.869          43.000  
G03  24915450.195      913051.001       -3074.205          42.000  
G05  23888355.856    -1076263.613        3579.655          43.000  
G09  20201999.862      203658.918        -750.269          43.000  
G10  21167988.058      413056.408       -1491.853          43.000  
G11  21075838.864     -664406.716        2140.412          43.000  
G01  22098256.398     -386561.737        1198.024          43.000  
G23  22461041.200      622300.111       -2121.873          43.000  
> 2018 02 16 08 25 11.0000000  0  8                     
G30  22306561.371    -1057927.003        3503.702          43.000  
G03  24916035.245      916125.450       -3074.605          42.000  
G05  23887674.689    -1079843.233        3579.642          43.000  
G09  20202142.689      204409.449        -750.837          43.000  
G10  21168272.032      414548.590       -1492.365          43.000  
G11  21075431.558     -666546.921        2139.936          42.000  
G01  22098028.479     -387759.473        1197.493          43.000  
G23  22461445.040      624422.236       -2122.411          43.000  
> 2018 02 16 08 25 12.0000000  0  8                     
G30  22305894.695    -1061430.417        3503.395          42.000  
G03  24916620.366      919200.275       -3074.862          42.000  
G05  23886993.504    -1083422.905        3579.809          43.000  
G09  20202285.624      205160.477        -751.220          43.000  
G10  21168556.078      416041.238       -1492.769          43.000  
G11  21075024.377     -668686.655        2139.698          43.000  
G01  22097800.631     -388956.743        1197.207          43.000  
G23  22461848.934      626544.789       -2122.634          43.000  
> 2018 02 16 08 25 13.0000000  0  8                     
G30  22305228.073    -1064933.421        3502.855          43.000  
G03  24917205.577      922275.569       -3075.420          42.000  
G05  23886312.319    -1087002.547        3579.805          43.000  
G09  20202428.647      205912.075        -751.763          43.000  
G10  21168840.214      417534.448       -1493.381          43.000  
G11  21074617.302     -670825.823        2139.012          43.000  
G01  22097572.890     -390153.463        1196.618          43.000  
G23  22462252.917      628667.874       -2123.228          43.000  
> 2018 02 16 08 25 14.0000000  0  8                     
G30  22304561.505    -1068436.194        3502.497          43.000  
G03  24917790.841      925351.141       -3075.842          43.000  
G05  23885631.098    -1090582.346        3579.793          43.000  
G09  20202571.743      206664.058        -752.215          43.000  
G10  21169124.456      419028.007       -1493.829          43.000  
G11  21074210.300     -672964.630        2138.446          43.000  
G01  22097345.239     -391349.812        1196.118          43.000  
G23  22462656.971      630791.282       -2123.622          43.000  
