     3.03           OBSERVATION DATA    M: Mixed            RINEX VERSION / TYPE
RTKCONV 2.4.3 b34                       20250227 094231 UTC PGM / RUN BY / DATE 
format: RINEX                                               COMMENT             
log: E:\Nguyends_doa\RX\RX1\RinexObservables_20180216_082105COMMENT             
                                                            MARKER NAME         
                                                            MARKER NUMBER       
                                                            MARKER TYPE         
                                                            OBSERVER / AGENCY   
                                                            REC # / TYPE / VERS 
                                                            ANT # / TYPE        
        0.0000        0.0000        0.0000                  APPROX POSITION XYZ 
        0.0000        0.0000        0.0000                  ANTENNA: DELTA H/E/N
G    4 C1C L1C D1C S1C                                      SYS / # / OBS TYPES 
  2018    02    16    08    21   06.0000000     GPS         TIME OF FIRST OBS   
  2018    02    16    08    25   10.0000000     GPS         TIME OF LAST OBS    
G L1C                                                       SYS / PHASE SHIFT   
  0                                                         GLONASS SLOT / FRQ #
 C1C    0.000 C1P    0.000 C2C    0.000 C2P    0.000        GLONASS COD/PHS/BIS 
                                                            END OF HEADER       
> 2018 02 16 08 21 06.0000000  0  8                     
G30  22600000.962     -194765.9551       3587.494          38.000  
G09  20297822.855       32607.2651       -651.661          38.000  
G10  21230636.191       67526.4801      -1333.512          38.000  
G23  22492075.709      108892.6131      -2071.719          38.000  
G05  24183719.780     -192334.2341       3609.103          38.000  
G01  22285841.720      -74096.0981       1351.442          38.000  
G03  24901724.606      157639.0641      -3038.493          38.000  
G11  21306746.632     -121609.3251       2279.617          38.000  
> 2018 02 16 08 21 08.0000000  0  8                     
G30  22598635.840     -201939.961        3586.582          38.000  
G09  20298071.163       33911.804        -652.845          38.000  
G10  21231143.850       70194.377       -1334.274          38.000  
G23  22492864.340      113036.921       -2072.628          38.000  
G05  24182346.081     -199552.727        3609.218          38.000  
G01  22285327.593      -76797.892        1350.506          38.000  
G03  24902881.160      163717.002       -3039.509          38.000  
G11  21305879.305     -126167.827        2278.946          38.000  
> 2018 02 16 08 21 09.0000000  0  8                     
G30  22597953.351     -205526.252        3586.352          38.000  
G09  20298195.425       34564.915        -653.081          38.000  
G10  21231397.769       71529.176       -1334.644          38.000  
G23  22493258.834      115109.838       -2072.863          38.000  
G05  24181659.286     -203161.986        3609.521          38.000  
G01  22285070.690      -78147.968        1350.023          38.000  
G03  24903459.599      166756.761       -3039.563          38.000  
G11  21305445.660     -128446.606        2278.932          38.000  
> 2018 02 16 08 21 10.0000000  0  8                     
G30  22597271.022     -209112.069        3585.731          38.000  
G09  20298319.811       35218.564        -653.463          38.000  
G10  21231651.902       72864.482       -1335.174          38.000  
G23  22493653.418      117183.216       -2073.388          38.000  
G05  24180972.454     -206771.289        3609.677          38.000  
G01  22284813.858      -79497.549        1349.630          38.000  
G03  24904038.180      169797.047       -3040.276          38.000  
G11  21305012.140     -130725.021        2278.745          38.000  
> 2018 02 16 08 21 11.0000000  0  8                     
G30  22596588.801     -212697.509        3585.366          38.000  
G09  20298444.269       35872.686        -654.173          38.000  
G10  21231906.071       74200.281       -1335.785          38.000  
G23  22494048.056      119256.977       -2073.753          38.000  
G05  24180285.640     -210380.705        3609.472          38.000  
G01  22284557.063      -80846.690        1349.068          38.000  
G03  24904616.779      172837.750       -3040.857          38.000  
G11  21304578.619     -133003.349        2278.295          38.000  
> 2018 02 16 08 21 12.0000000  0  8                     
G30  22595906.669     -216282.398        3584.625          38.000  
G09  20298568.834       36527.392        -654.921          38.000  
G10  21232160.401       75536.672       -1336.493          38.000  
G23  22494442.818      121331.257       -2074.534          39.000  
G05  24179598.737     -213990.136        3609.438          38.000  
G01  22284300.463      -82195.259        1348.150          38.000  
G03  24905195.538      175879.010       -3041.550          39.000  
G11  21304145.135     -135281.267        2277.630          38.000  
> 2018 02 16 08 21 13.0000000  0  8                     
G30  22595224.608     -219866.786        3584.338          38.000  
G09  20298693.524       37182.614        -655.240          38.000  
G10  21232414.874       76873.623       -1336.905          38.000  
G23  22494837.634      123405.971       -2074.661          38.000  
G05  24178911.905     -217599.603        3609.614          38.000  
G01  22284043.918      -83543.330        1348.012          38.000  
G03  24905774.387      178920.780       -3041.847          38.000  
G11  21303711.721     -137558.856        2277.563          38.000  
> 2018 02 16 08 21 14.0000000  0  8                     
G30  22594542.690     -223450.633        3583.558          38.000  
G09  20298818.321       37838.380        -655.865          38.000  
G10  21232669.489       78211.193       -1338.006          38.000  
G23  22495232.522      125481.150       -2075.380          38.000  
G05  24178225.056     -221209.108        3609.572          38.000  
G01  22283787.533      -84890.845        1347.324          38.000  
G03  24906353.308      181963.092       -3042.465          38.000  
G11  21303278.380     -139836.017        2277.103          38.000  
> 2018 02 16 08 21 15.0000000  0  8                     
G30  22593860.790     -227034.003        3583.127          38.000  
G09  20298943.207       38494.685        -656.636          38.000  
G10  21232924.159       79549.304       -1338.197          38.000  
G23  22495627.499      127556.750       -2075.717          38.000  
G05  24177538.188     -224818.672        3609.706          38.000  
G01  22283531.202      -86237.885        1346.969          38.000  
G03  24906932.336      185005.901       -3042.993          38.000  
G11  21302844.967     -142112.938        2276.830          38.000  
> 2018 02 16 08 21 16.0000000  0  8                     
G30  22593179.016     -230616.816        3582.626          38.000  
G09  20299068.165       39151.489        -657.044          38.000  
G10  21233178.917       80888.030       -1338.734          38.000  
G23  22496022.565      129632.767       -2076.124          38.000  
G05  24176851.303     -228428.276        3609.723          38.000  
G01  22283274.960      -87584.344        1346.198          38.000  
G03  24907511.471      188049.242       -3043.460          38.000  
G11  21302411.750     -144389.448        2276.406          38.000  
> 2018 02 16 08 21 18.0000000  0  8                     
G30  22591815.752     -237780.841        3581.547          38.000  
G09  20299318.403       40466.617        -658.121          38.000  
G10  21233688.721       83567.286       -1340.141          38.000  
G23  22496812.912      133786.005       -2076.811          38.000  
G05  24175477.443     -235647.652        3609.970          38.000  
G01  22282762.780      -90275.794        1345.346          38.000  
G03  24908670.081      194137.405       -3044.531          38.000  
G11  21301545.531     -148941.219        2275.639          38.000  
> 2018 02 16 08 21 19.0000000  0  8                     
G30  22591134.228     -241362.269        3581.391          39.000  
G09  20299443.612       41124.695        -658.136          38.000  
G10  21233943.747       84907.657       -1340.392          38.000  
G23  22497208.192      135862.999       -2076.944          38.000  
G05  24174790.505     -239257.634        3610.329          39.000  
G01  22282506.807      -91620.939        1345.062          38.000  
G03  24909249.412      197182.009       -3044.516          39.000  
G11  21301112.493     -151216.745        2275.661          38.000  
> 2018 02 16 08 21 20.0000000  0  8                     
G30  22590452.775     -244943.129        3580.648          39.000  
G09  20299568.909       41783.259        -658.741          38.000  
G10  21234198.917       86248.628       -1341.230          38.000  
G23  22497603.491      137940.338       -2077.406          38.000  
G05  24174103.512     -242867.686        3610.306          38.000  
G01  22282250.940      -92965.590        1344.506          39.000  
G03  24909828.815      200227.106       -3045.238          38.000  
G11  21300679.598     -153491.816        2275.008          38.000  
> 2018 02 16 08 21 21.0000000  0  8                     
G30  22589771.482     -248523.313        3580.081          38.000  
G09  20299694.332       42442.424        -659.109          38.000  
G10  21234454.248       87590.361       -1341.725          38.000  
G23  22497998.861      140018.172       -2077.723          38.000  
G05  24173416.538     -246477.637        3610.086          38.000  
G01  22281995.145      -94309.556        1343.828          39.000  
G03  24910408.379      203272.797       -3045.574          39.000  
G11  21300246.775     -155766.310        2274.580          38.000  
> 2018 02 16 08 21 22.0000000  0  8                     
G30  22589090.297     -252102.921        3579.205          38.000  
G09  20299819.880       43102.088        -659.861          38.000  
G10  21234709.703       88932.736       -1342.944          38.000  
G23  22498394.320      142096.363       -2078.423          38.000  
G05  24172729.563     -250087.669        3609.978          38.000  
G01  22281739.475      -95653.015        1343.152          38.000  
G03  24910988.068      206318.995       -3046.479          38.000  
G11  21299814.077     -158040.280        2273.777          39.000  
> 2018 02 16 08 21 23.0000000  0  8                     
G30  22588409.220     -255682.021        3579.140          38.000  
G09  20299945.517       43762.170        -660.085          38.000  
G10  21234965.302       90275.772       -1343.001          38.000  
G23  22498789.851      144174.824       -2078.328          38.000  
G05  24172042.588     -253697.784        3610.422          38.000  
G01  22281483.912      -96995.998        1343.067          38.000  
G03  24911567.846      209365.590       -3046.530          39.000  
G11  21299381.468     -160313.847        2273.597          38.000  
> 2018 02 16 08 21 24.0000000  0  8                     
G30  22587728.249     -259260.492        3578.304          38.000  
G09  20300071.225       44422.743        -660.704          38.000  
G10  21235221.025       91619.487       -1343.855          38.000  
G23  22499185.435      146253.644       -2078.825          38.000  
G05  24171355.632     -257307.915        3610.276          38.000  
G01  22281228.510      -98338.383        1342.130          38.000  
G03  24912147.714      212412.691       -3047.205          38.000  
G11  21298948.930     -162586.850        2272.872          38.000  
> 2018 02 16 08 21 25.0000000  0  8                     
G30  22587047.403     -262838.545        3578.064          38.000  
G09  20300196.987       45083.630        -660.985          38.000  
G10  21235476.802       92963.758       -1344.366          38.000  
G23  22499581.056      148332.623       -2078.820          38.000  
G05  24170668.621     -260918.225        3610.540          38.000  
G01  22280973.162      -99680.409        1342.097          38.000  
G03  24912727.600      215460.098       -3047.393          38.000  
G11  21298516.500     -164859.496        2272.698          38.000  
> 2018 02 16 08 21 26.0000000  0  8                     
G30  22586366.647     -266416.020        3577.336          38.000  
G09  20300322.821       45744.954        -661.495          38.000  
G10  21235732.705       94308.656       -1345.478          38.000  
G23  22499976.712      150411.903       -2079.405          38.000  
G05  24169981.647     -264528.579        3610.346          38.000  
G01  22280717.903     -101021.875        1341.229          38.000  
G03  24913307.574      218507.936       -3047.938          38.000  
G11  21298084.176     -167131.578        2271.813          38.000  
> 2018 02 16 08 21 27.0000000  0  8                     
G30  22585685.963     -269992.844        3576.588          38.000  
G09  20300448.762       46406.767        -662.015          38.000  
G10  21235988.786       95654.387       -1346.030          38.000  
G23  22500372.403      152491.490       -2079.722          38.000  
G05  24169294.672     -268138.931        3610.404          38.000  
G01  22280462.769     -102362.741        1340.431          38.000  
G03  24913887.621      221556.266       -3048.680          38.000  
G11  21297651.925     -169403.037        2271.280          39.000  
> 2018 02 16 08 21 28.0000000  0  8                     
G30  22585005.439     -273568.882        3575.939          38.000  
G09  20300574.846       47069.223        -662.515          38.000  
G10  21236245.027       97001.009       -1346.737          38.000  
G23  22500768.220      154571.562       -2080.107          38.000  
G05  24168607.662     -271749.095        3610.302          38.000  
G01  22280207.760     -103702.867        1339.849          38.000  
G03  24914467.810      224605.199       -3048.955          38.000  
G11  21297219.870     -171673.721        2270.603          38.000  
> 2018 02 16 08 21 29.0000000  0  8                     
G30  22584325.022     -277144.397        3575.191          38.000  
G09  20300701.001       47732.032        -662.890          38.000  
G10  21236501.359       98348.278       -1347.520          38.000  
G23  22501164.108      156651.786       -2080.163          38.000  
G05  24167920.651     -275359.376        3610.407          38.000  
G01  22279952.841     -105042.524        1339.354          38.000  
G03  24915048.089      227654.465       -3049.322          38.000  
G11  21296787.868     -173943.877        2270.055          38.000  
> 2018 02 16 08 21 30.0000000  0  8                     
G30  22583644.695     -280719.453        3574.814          38.000  
G09  20300827.228       48395.153        -663.266          38.000  
G10  21236757.850       99696.143       -1348.540          39.000  
G23  22501560.014      158732.176       -2080.476          39.000  
G05  24167233.588     -278969.767        3610.414          38.000  
G01  22279698.028     -106381.702        1338.930          38.000  
G03  24915628.421      230704.046       -3049.819          38.000  
G11  21296355.974     -176213.502        2269.286          38.000  
> 2018 02 16 08 21 31.0000000  0  8                     
G30  22582964.510     -284293.889        3574.173          38.000  
G09  20300953.490       49058.706        -663.815          38.000  
G10  21237014.485      101044.807       -1348.922          38.000  
G23  22501955.938      160812.785       -2080.860          38.000  
G05  24166546.559     -282580.172        3610.283          38.000  
G01  22279443.288     -107720.320        1338.211          38.000  
G03  24916208.825      233754.003       -3050.219          38.000  
G11  21295924.187     -178482.476        2268.710          38.000  
> 2018 02 16 08 21 32.0000000  0  8                     
G30  22582284.433     -287867.752        3573.801          38.000  
G09  20301079.824       49722.648        -663.963          38.000  
G10  21237271.228      102394.223       -1349.680          38.000  
G23  22502351.916      162893.584       -2080.737          38.000  
G05  24165859.513     -286190.609        3610.647          38.000  
G01  22279188.690     -109058.398        1338.053          38.000  
G03  24916789.264      236804.308       -3050.393          38.000  
G11  21295492.543     -180750.806        2268.150          38.000  
> 2018 02 16 08 21 33.0000000  0  8                     
G30  22581604.517     -291440.928        3572.996          38.000  
G09  20301206.266       50387.060        -664.374          38.000  
G10  21237528.130      103744.460       -1350.461          38.000  
G23  22502747.947      164974.673       -2081.120          38.000  
G05  24165172.485     -289800.959        3610.572          38.000  
G01  22278934.199     -110395.790        1337.358          38.000  
G03  24917369.811      239855.048       -3050.653          38.000  
G11  21295060.970     -183018.368        2267.357          38.000  
> 2018 02 16 08 21 34.0000000  0  8                     
G30  22580924.618     -295013.652        3572.533          38.000  
G09  20301332.760       51051.756        -664.656          38.000  
G10  21237785.158      105095.297       -1351.340          38.000  
G23  22503143.960      167055.807       -2081.028          38.000  
G05  24164485.439     -293411.420        3610.499          38.000  
G01  22278679.798     -111732.735        1336.748          39.000  
G03  24917950.393      242906.016       -3050.961          38.000  
G11  21294629.540     -185285.398        2266.578          38.000  
> 2018 02 16 08 21 35.0000000  0  8                     
G30  22580244.863     -298585.747        3571.971          38.000  
G09  20301459.327       51716.896        -665.184          38.000  
G10  21238042.383      106447.033       -1351.693          38.000  
G23  22503540.063      169137.163       -2081.299          38.000  
G05  24163798.411     -297021.827        3610.447          38.000  
G01  22278425.504     -113069.052        1336.245          38.000  
G03  24918531.047      245957.356       -3051.409          38.000  
G11  21294198.272     -187551.626        2266.051          38.000  
> 2018 02 16 08 21 36.0000000  0  8                     
G30  22579565.215     -302157.268        3571.271          38.000  
G09  20301585.947       52382.356        -665.354          39.000  
G10  21238299.786      107799.527       -1352.638          38.000  
G23  22503936.165      171218.640       -2081.468          38.000  
G05  24163111.400     -300632.265        3610.510          38.000  
G01  22278171.335     -114404.796        1335.650          38.000  
G03  24919111.773      249008.976       -3051.730          38.000  
G11  21293767.110     -189817.182        2265.314          38.000  
> 2018 02 16 08 21 37.0000000  0  8                     
G30  22578885.674     -305728.219        3570.581          38.000  
G09  20301712.620       53048.210        -665.931          38.000  
G10  21238557.279      109152.807       -1353.671          38.000  
G23  22504332.304      173300.261       -2081.705          38.000  
G05  24162424.390     -304242.661        3610.343          38.000  
G01  22277917.273     -115739.942        1334.863          38.000  
G03  24919692.480      252060.875       -3051.960          38.000  
G11  21293336.145     -192081.967        2264.325          38.000  
> 2018 02 16 08 21 38.0000000  0  8                     
G30  22578206.276     -309298.472        3570.045          38.000  
G09  20301839.419       53714.567        -666.403          38.000  
G10  21238814.968      110506.957       -1354.691          38.000  
G23  22504728.478      175382.152       -2081.977          38.000  
G05  24161737.398     -307852.920        3610.382          38.000  
G01  22277663.354     -117074.362        1334.172          38.000  
G03  24920273.331      255113.210       -3052.422          38.000  
G11  21292905.340     -194345.924        2263.491          38.000  
> 2018 02 16 08 21 39.0000000  0  8                     
G30  22577527.002     -312868.117        3569.518          38.000  
G09  20301966.324       54381.302        -666.745          38.000  
G10  21239072.836      111862.060       -1355.323          38.000  
G23  22505124.652      177464.166       -2081.819          38.000  
G05  24161050.387     -311463.086        3610.390          38.000  
G01  22277409.543     -118408.138        1333.631          38.000  
G03  24920854.253      258165.812       -3052.530          38.000  
G11  21292474.697     -196608.996        2262.919          38.000  
> 2018 02 16 08 21 40.0000000  0  8                     
G30  22576847.837     -316437.152        3568.577          38.000  
G09  20302093.302       55048.443        -667.740          38.000  
G10  21239330.847      113217.953       -1356.544          38.000  
G23  22505520.880      179546.317       -2082.375          38.000  
G05  24160363.413     -315073.179        3609.745          38.000  
G01  22277155.874     -119741.280        1332.659          38.000  
G03  24921435.192      261218.701       -3053.318          38.000  
G11  21292044.214     -198871.297        2261.691          38.000  
> 2018 02 16 08 21 41.0000000  0  8                     
G30  22576168.778     -320005.511        3568.307          38.000  
G09  20302220.315       55716.027        -667.625          38.000  
G10  21239589.036      114574.800       -1357.054          38.000  
G23  22505917.143      181628.687       -2082.220          38.000  
G05  24159676.474     -318683.101        3610.027          38.000  
G01  22276902.330     -121073.661        1332.225          38.000  
G03  24922016.204      264271.952       -3053.316          38.000  
G11  21291613.875     -201132.662        2261.185          38.000  
> 2018 02 16 08 21 42.0000000  0  8                     
G30  22575489.827     -323573.355        3567.777          38.000  
G09  20302347.417       56383.904        -667.804          38.000  
G10  21239847.351      115932.387       -1358.016          38.000  
G23  22506313.407      183711.084       -2082.170          38.000  
G05  24158989.499     -322293.031        3610.201          38.000  
G01  22276648.894     -122405.477        1331.771          38.000  
G03  24922597.251      267325.325       -3053.086          38.000  
G11  21291183.732     -203393.296        2260.175          38.000  
> 2018 02 16 08 21 43.0000000  0  8                     
G30  22574811.018     -327140.544        3567.236          38.000  
G09  20302474.645       57052.248        -668.297          38.000  
G10  21240105.880      117291.027       -1358.931          38.000  
G23  22506709.706      185793.677       -2082.378          38.000  
G05  24158302.578     -325902.719        3609.848          38.000  
G01  22276395.601     -123736.531        1330.879          38.000  
G03  24923178.369      270379.073       -3053.727          38.000  
G11  21290753.731     -205652.901        2259.288          38.000  
> 2018 02 16 08 21 44.0000000  0  8                     
G30  22574132.299     -330707.285        3566.602          38.000  
G09  20302601.872       57720.810        -668.629          38.000  
G10  21240364.552      118650.343       -1359.575          38.000  
G23  22507106.005      187876.197       -2082.381          38.000  
G05  24157615.640     -329512.466        3609.795          38.000  
G01  22276142.379     -125067.074        1330.453          38.000  
G03  24923759.470      273432.853       -3053.834          38.000  
G11  21290323.892     -207911.828        2258.671          38.000  
> 2018 02 16 08 21 45.0000000  0  8                     
G30  22573453.669     -334273.514        3566.093          38.000  
G09  20302729.171       58389.662        -668.756          38.000  
G10  21240623.403      120010.482       -1360.290          38.000  
G23  22507502.304      189958.758       -2082.403          38.000  
G05  24156928.736     -333122.146        3609.787          38.000  
G01  22275889.300     -126396.971        1329.831          38.000  
G03  24924340.642      276486.783       -3053.984          38.000  
G11  21289894.178     -210169.925        2257.933          38.000  
> 2018 02 16 08 21 46.0000000  0  8                     
G30  22572775.093     -337839.273        3565.356          38.000  
G09  20302856.488       59058.810        -669.477          38.000  
G10  21240882.378      121371.412       -1361.879          38.000  
G23  22507898.603      192041.288       -2082.551          38.000  
G05  24156241.869     -336731.771        3609.443          38.000  
G01  22275636.328     -127726.246        1328.663          38.000  
G03  24924921.796      279540.782       -3054.140          38.000  
G11  21289464.589     -212427.199        2255.839          38.000  
> 2018 02 16 08 21 47.0000000  0  8                     
G30  22572096.696     -341404.333        3564.799          38.000  
G09  20302983.912       59728.435        -669.689          38.000  
G10  21241141.586      122733.409       -1362.451          38.000  
G23  22508294.938      194124.035       -2082.667          38.000  
G05  24155555.020     -340341.129        3609.350          38.000  
G01  22275383.535     -129054.735        1328.150          38.000  
G03  24925503.004      282595.113       -3054.365          38.000  
G11  21289035.268     -214683.436        2255.815          38.000  
> 2018 02 16 08 21 48.0000000  0  8                     
G30  22571418.388     -344968.818        3564.363          38.000  
G09  20303111.407       60398.441        -670.036          38.000  
G10  21241400.955      124096.317       -1363.078          38.000  
G23  22508691.291      196206.845       -2082.573          38.000  
G05  24154868.206     -343950.287        3609.193          38.000  
G01  22275130.885     -130382.480        1327.581          38.000  
G03  24926084.212      285649.623       -3054.474          38.000  
G11  21288606.143     -216938.690        2254.929          38.000  
> 2018 02 16 08 21 49.0000000  0  8                     
G30  22570740.222     -348532.646        3563.403          38.000  
G09  20303238.992       61068.904        -670.659          38.000  
G10  21241660.503      125460.235       -1364.374          38.000  
G23  22509087.662      198289.826       -2083.128          38.000  
G05  24154181.446     -347559.183        3608.668          38.000  
G01  22274878.378     -131709.382        1326.257          38.000  
G03  24926665.527      288704.372       -3054.923          38.000  
G11  21288177.197     -219192.937        2253.634          38.000  
> 2018 02 16 08 21 50.0000000  0  8                     
G30  22570062.200     -352095.712        3562.763          38.000  
G09  20303366.720       61739.956        -671.239          38.000  
G10  21241920.265      126825.264       -1365.789          38.000  
G23  22509484.086      200373.066       -2083.251          38.000  
G05  24153494.757     -351167.648        3608.238          38.000  
G01  22274626.049     -133035.363        1325.640          38.000  
G03  24927246.878      291759.471       -3055.242          38.000  
G11  21287748.448     -221446.054        2252.297          38.000  
> 2018 02 16 08 21 51.0000000  0  8                     
G30  22569384.232     -355658.288        3562.638          38.000  
G09  20303494.501       62411.304        -671.057          38.000  
G10  21242180.170      128191.215       -1365.918          38.000  
G23  22509880.528      202456.324       -2082.904          38.000  
G05  24152808.122     -354775.992        3608.593          38.000  
G01  22274373.864     -134360.642        1325.232          38.000  
G03  24927828.246      294814.640       -3054.869          38.000  
G11  21287319.859     -223698.167        2251.944          38.000  
> 2018 02 16 08 21 52.0000000  0  8                     
G30  22568706.406     -359220.364        3561.815          39.000  
G09  20303622.300       63082.979        -671.655          38.000  
G10  21242440.271      129558.065       -1367.190          38.000  
G23  22510276.952      204539.585       -2083.164          38.000  
G05  24152121.487     -358384.150        3608.064          38.000  
G01  22274121.839     -135685.202        1324.239          38.000  
G03  24928409.651      297869.884       -3055.230          38.000  
G11  21286891.467     -225949.384        2250.895          38.000  
> 2018 02 16 08 21 53.0000000  0  8                     
G30  22568028.670     -362781.995        3561.617          38.000  
G09  20303750.171       63754.953        -671.917          38.000  
G10  21242700.534      130925.753       -1367.863          38.000  
G23  22510673.359      206622.810       -2083.008          38.000  
G05  24151434.923     -361992.145        3608.111          38.000  
G01  22273869.904     -137009.095        1323.816          38.000  
G03  24928991.055      300925.141       -3054.923          38.000  
G11  21286463.254     -228199.689        2250.125          38.000  
> 2018 02 16 08 21 54.0000000  0  8                     
G30  22567351.005     -366343.139        3561.080          38.000  
G09  20303878.113       64427.235        -672.251          38.000  
G10  21242960.957      132294.292       -1369.036          38.000  
G23  22511069.819      208706.052       -2083.106          38.000  
G05  24150748.395     -365599.944        3607.877          38.000  
G01  22273618.111     -138332.229        1322.766          38.000  
G03  24929572.459      303980.464       -3055.256          38.000  
G11  21286035.184     -230449.108        2248.843          38.000  
> 2018 02 16 08 21 55.0000000  0  8                     
G30  22566673.412     -369903.899        3560.690          38.000  
G09  20304006.073       65099.766        -672.616          38.000  
G10  21243221.576      133663.727       -1369.604          38.000  
G23  22511466.207      210789.189       -2082.976          38.000  
G05  24150061.903     -369207.621        3607.711          38.000  
G01  22273366.408     -139654.732        1322.317          38.000  
G03  24930153.846      307035.723       -3055.133          38.000  
G11  21285607.310     -232697.552        2248.094          38.000  
> 2018 02 16 08 21 56.0000000  0  8                     
G30  22565995.943     -373463.952        3559.810          38.000  
G09  20304134.141       65772.845        -673.377          38.000  
G10  21243482.357      135034.281       -1370.987          38.000  
G23  22511862.685      212872.563       -2083.361          38.000  
G05  24149375.447     -372814.831        3607.092          38.000  
G01  22273114.937     -140976.253        1321.096          38.000  
G03  24930735.286      310091.232       -3055.365          38.000  
G11  21285179.686     -234944.853        2246.788          38.000  
> 2018 02 16 08 21 57.0000000  0  8                     
G30  22565318.582     -377023.430        3559.230          38.000  
G09  20304262.333       66446.375        -673.739          38.000  
G10  21243743.370      136405.848       -1372.073          38.000  
G23  22512259.127      214956.079       -2083.666          38.000  
G05  24148689.098     -376421.714        3606.793          38.000  
G01  22272863.628     -142296.902        1320.151          38.000  
G03  24931316.762      313146.907       -3055.839          38.000  
G11  21284752.241     -237191.063        2245.669          38.000  
> 2018 02 16 08 21 58.0000000  0  8                     
G30  22564641.328     -380582.515        3559.128          38.000  
G09  20304390.561       67120.183        -673.795          38.000  
G10  21244004.526      137778.236       -1372.737          38.000  
G23  22512655.605      217039.507       -2083.132          38.000  
G05  24148002.731     -380028.364        3606.754          38.000  
G01  22272612.461     -143616.840        1319.781          38.000  
G03  24931898.274      316202.499       -3055.355          38.000  
G11  21284324.957     -239436.412        2244.816          38.000  
> 2018 02 16 08 21 59.0000000  0  8                     
G30  22563964.146     -384141.115        3558.504          38.000  
G09  20304518.861       67794.363        -674.125          38.000  
G10  21244265.860      139151.645       -1373.524          38.000  
G23  22513052.065      219123.010       -2083.310          38.000  
G05  24147316.435     -383634.733        3606.524          38.000  
G01  22272361.454     -144935.973        1319.040          38.000  
G03  24932479.750      319258.148       -3055.474          38.000  
G11  21283897.888     -241680.678        2244.122          38.000  
> 2018 02 16 08 22 00.0000000  0  8                     
G30  22563287.035     -387699.360        3558.228          38.000  
G09  20304647.214       68468.806        -674.346          38.000  
G10  21244527.373      140525.875       -1374.475          38.000  
G23  22513448.525      221206.429       -2083.208          38.000  
G05  24146630.193     -387240.898        3606.286          39.000  
G01  22272110.555     -146254.383        1318.291          38.000  
G03  24933061.190      322313.699       -3055.233          39.000  
G11  21283470.979     -243924.048        2243.286          38.000  
> 2018 02 16 08 22 01.0000000  0  8                     
G30  22562610.014     -391257.218        3557.773          38.000  
G09  20304775.621       69143.558        -674.968          38.000  
G10  21244789.047      141900.978       -1375.482          38.000  
G23  22513845.021      223289.817       -2083.298          38.000  
G05  24145944.023     -390846.800        3605.731          38.000  
G01  22271859.817     -147572.040        1317.213          38.000  
G03  24933642.648      325369.205       -3055.409          38.000  
G11  21283044.267     -246166.490        2242.069          38.000  
> 2018 02 16 08 22 02.0000000  0  8                     
G30  22561933.046     -394814.754        3557.444          38.000  
G09  20304904.063       69818.537        -675.035          38.000  
G10  21245050.882      143276.843       -1376.321          38.000  
G23  22514241.481      225373.097       -2082.959          38.000  
G05  24145257.870     -394452.550        3605.770          39.000  
G01  22271609.204     -148889.031        1316.812          38.000  
G03  24934224.070      328424.567       -3055.198          38.000  
G11  21282617.679     -248408.121        2241.309          38.000  
> 2018 02 16 08 22 03.0000000  0  8                     
G30  22561256.185     -398371.839        3556.893          38.000  
G09  20305032.577       70493.916        -675.645          38.000  
G10  21245312.895      144653.718       -1377.326          38.000  
G23  22514637.941      227456.470       -2083.314          38.000  
G05  24144571.771     -398057.927        3605.211          38.000  
G01  22271358.716     -150205.159        1315.796          38.000  
G03  24934805.492      331479.947       -3055.419          38.000  
G11  21282191.342     -250648.640        2240.016          39.000  
> 2018 02 16 08 22 04.0000000  0  8                     
G30  22560579.396     -401928.305        3556.149          38.000  
G09  20305161.199       71169.881        -676.385          38.000  
G10  21245575.123      146031.717       -1378.492          38.000  
G23  22515034.473      229540.067       -2083.705          38.000  
G05  24143885.779     -401662.765        3604.551          38.000  
G01  22271108.478     -151520.249        1314.584          38.000  
G03  24935386.932      334535.513       -3055.770          38.000  
G11  21281765.220     -252887.970        2238.772          38.000  
> 2018 02 16 08 22 05.0000000  0  8                     
G30  22559902.714     -405484.224        3555.894          38.000  
G09  20305289.927       71846.342        -676.675          38.000  
G10  21245837.566      147410.786       -1379.340          38.000  
G23  22515430.986      231623.851       -2083.713          38.000  
G05  24143199.895     -405267.127        3604.270          38.000  
G01  22270858.366     -152834.385        1313.887          38.000  
G03  24935968.390      337591.164       -3055.397          38.000  
G11  21281339.276     -255126.215        2237.982          38.000  
> 2018 02 16 08 22 06.0000000  0  8                     
G30  22559226.139     -409039.677        3555.365          38.000  
G09  20305418.709       72523.231        -676.882          38.000  
G10  21246100.169      148790.786       -1380.398          38.000  
G23  22515827.536      233707.724       -2083.755          38.000  
G05  24142514.081     -408871.091        3604.030          38.000  
G01  22270608.450     -154147.606        1312.947          38.000  
G03  24936549.830      340646.845       -3055.375          38.000  
G11  21280913.582     -257363.430        2236.805          38.000  
> 2018 02 16 08 22 07.0000000  0  8                     
G30  22558549.600     -412594.914        3555.090          38.000  
G09  20305547.563       73200.344        -677.193          38.000  
G10  21246362.951      150171.618       -1381.313          38.000  
G23  22516224.067      235791.495       -2083.759          38.000  
G05  24141828.304     -412474.852        3603.744          38.000  
G01  22270358.694     -155460.168        1312.230          38.000  
G03  24937131.271      343702.336       -3055.316          38.000  
G11  21280487.996     -259599.787        2235.990          38.000  
> 2018 02 16 08 22 08.0000000  0  8                     
G30  22557873.132     -416149.791        3554.901          38.000  
G09  20305676.470       73877.837        -677.448          38.000  
G10  21246625.893      151553.294       -1381.956          38.000  
G23  22516620.581      237875.302       -2083.626          38.000  
G05  24141142.598     -416078.242        3603.258          38.000  
G01  22270109.100     -156771.898        1311.393          38.000  
G03  24937712.675      346757.760       -3055.186          38.000  
G11  21280062.606     -261835.205        2235.167          38.000  
> 2018 02 16 08 22 10.0000000  0  8                     
G30  22556520.447     -423258.222        3553.782          39.000  
G09  20305934.570       75234.214        -678.775          38.000  
G10  21247152.333      154319.582       -1384.140          38.000  
G23  22517413.733      242043.317       -2084.112          38.000  
G05  24139771.437     -423283.740        3602.164          38.000  
G01  22269610.429     -159392.580        1309.393          39.000  
G03  24938875.555      352868.647       -3055.393          38.000  
G11  21279212.398     -266302.966        2232.752          39.000  
> 2018 02 16 08 22 11.0000000  0  8                     
G30  22555844.230     -426811.807        3553.682          38.000  
G09  20306063.763       75913.079        -678.688          38.000  
G10  21247415.793      155704.188       -1384.652          38.000  
G23  22517810.336      244127.533       -2083.960          39.000  
G05  24139085.981     -426885.814        3602.181          38.000  
G01  22269361.370     -160701.544        1308.775          39.000  
G03  24939457.013      355924.106       -3054.970          38.000  
G11  21278787.579     -268535.331        2232.338          38.000  
> 2018 02 16 08 22 12.0000000  0  8                     
G30  22555168.066     -430365.127        3552.975          38.000  
G09  20306193.045       76592.288        -679.454          39.000  
G10  21247679.397      157089.605       -1386.084          38.000  
G23  22518206.957      246211.779       -2084.451          38.000  
G05  24138400.561     -430487.569        3601.417          38.000  
G01  22269112.437     -162009.726        1307.612          38.000  
G03  24940038.418      358979.448       -3055.406          39.000  
G11  21278362.958     -270766.810        2230.897          38.000  
> 2018 02 16 08 22 13.0000000  0  8                     
G30  22554491.991     -433917.984        3552.621          38.000  
G09  20306322.399       77272.036        -679.991          38.000  
G10  21247943.180      158476.024       -1386.741          38.000  
G23  22518603.595      248296.231       -2084.575          38.000  
G05  24137715.266     -434088.803        3601.102          38.000  
G01  22268863.718     -163316.919        1306.719          38.000  
G03  24940619.858      362034.845       -3055.357          38.000  
G11  21277938.497     -272997.251        2229.938          39.000  
> 2018 02 16 08 22 14.0000000  0  8                     
G30  22553815.953     -437470.600        3552.373          38.000  
G09  20306451.824       77952.119        -680.207          38.000  
G10  21248207.141      159863.263       -1387.753          38.000  
G23  22519000.252      250380.707       -2084.470          38.000  
G05  24137030.043     -437689.693        3600.703          38.000  
G01  22268615.106     -164623.317        1305.987          38.000  
G03  24941201.280      365090.109       -3055.224          38.000  
G11  21277514.215     -275226.868        2229.002          38.000  
> 2018 02 16 08 22 15.0000000  0  8                     
G30  22553139.932     -441022.982        3552.181          38.000  
G09  20306581.303       78632.545        -680.562          38.000  
G10  21248471.245      161251.258       -1388.380          38.000  
G23  22519396.909      252465.215       -2084.585          38.000  
G05  24136344.873     -441290.287        3600.387          38.000  
G01  22268366.673     -165928.948        1305.250          38.000  
G03  24941782.667      368145.216       -3055.091          38.000  
G11  21277090.076     -277455.672        2228.389          38.000  
> 2018 02 16 08 22 16.0000000  0  8                     
G30  22552463.964     -444575.017        3551.977          38.000  
G09  20306710.854       79313.442        -681.111          38.000  
G10  21248735.546      162640.191       -1389.471          38.000  
G23  22519793.619      254549.893       -2084.724          38.000  
G05  24135659.774     -444890.401        3599.907          38.000  
G01  22268118.365     -167233.667        1304.472          38.000  
G03  24942364.053      371200.327       -3055.086          38.000  
G11  21276666.133     -279683.514        2227.529          38.000  
> 2018 02 16 08 22 17.0000000  0  8                     
G30  22551788.051     -448126.865        3551.911          38.000  
G09  20306840.476       79994.663        -681.415          38.000  
G10  21249000.007      164029.830       -1389.946          38.000  
G23  22520190.311      256634.589       -2084.671          38.000  
G05  24134974.748     -448490.247        3599.763          38.000  
G01  22267870.254     -168537.624        1303.694          38.000  
G03  24942945.368      374255.243       -3054.703          38.000  
G11  21276242.334     -281910.617        2226.825          38.000  
> 2018 02 16 08 22 18.0000000  0  8                     
G30  22551112.155     -451678.504        3551.439          38.000  
G09  20306970.151       80676.219        -681.917          38.000  
G10  21249264.612      165420.227       -1390.867          38.000  
G23  22520587.021      258719.336       -2085.021          38.000  
G05  24134289.792     -452089.759        3599.279          38.000  
G01  22267622.268     -169840.814        1302.737          38.000  
G03  24943526.683      377310.027       -3054.833          38.000  
G11  21275818.677     -284136.953        2225.900          38.000  
> 2018 02 16 08 22 19.0000000  0  8                     
G30  22550436.384     -455229.776        3551.306          38.000  
G09  20307099.970       81358.314        -682.038          38.000  
G10  21249529.377      166811.546       -1391.595          38.000  
G23  22520983.767      260804.324       -2084.745          38.000  
G05  24133604.926     -455688.773        3599.066          38.000  
G01  22267374.460     -171143.038        1302.001          38.000  
G03  24944107.980      380364.837       -3054.511          38.000  
G11  21275395.181     -286362.376        2225.270          38.000  
> 2018 02 16 08 22 20.0000000  0  8                     
G30  22549760.649     -458780.781        3550.922          38.000  
G09  20307229.860       82040.855        -682.732          38.000  
G10  21249794.286      168203.680       -1392.645          39.000  
G23  22521380.549      262889.472       -2085.203          38.000  
G05  24132920.149     -459287.359        3598.397          38.000  
G01  22267126.831     -172444.418        1300.867          38.000  
G03  24944689.296      383419.612       -3054.774          38.000  
G11  21274971.882     -288586.922        2223.908          38.000  
> 2018 02 16 08 22 21.0000000  0  8                     
G30  22549084.986     -462331.467        3550.688          38.000  
G09  20307359.875       82723.900        -683.202          38.000  
G10  21250059.372      169596.674       -1393.294          38.000  
G23  22521777.366      264974.841       -2085.371          38.000  
G05  24132235.444     -462885.508        3598.184          38.000  
G01  22266879.363     -173744.911        1300.404          38.000  
G03  24945270.575      386474.361       -3054.596          38.000  
G11  21274548.726     -290810.679        2223.652          38.000  
> 2018 02 16 08 22 22.0000000  0  8                     
G30  22548409.340     -465882.132        3550.650          38.000  
G09  20307489.890       83407.142        -683.180          38.000  
G10  21250324.549      170990.218       -1393.589          38.000  
G23  22522174.184      267060.136       -2084.984          38.000  
G05  24131550.757     -466483.482        3598.044          38.000  
G01  22266632.038     -175044.761        1299.800          38.000  
G03  24945851.818      389528.830       -3054.186          38.000  
G11  21274125.676     -293033.859        2223.390          38.000  
> 2018 02 16 08 22 23.0000000  0  8                     
G30  22547733.677     -469432.772        3550.628          38.000  
G09  20307619.994       84090.680        -683.737          38.000  
G10  21250589.832      172384.359       -1394.570          38.000  
G23  22522571.019      269145.457       -2085.321          38.000  
G05  24130866.123     -470081.232        3597.629          38.000  
G01  22266384.820     -176343.941        1298.785          38.000  
G03  24946433.026      392583.067       -3054.102          38.000  
G11  21273702.734     -295256.469        2222.340          38.000  
> 2018 02 16 08 22 24.0000000  0  8                     
G30  22547058.085     -472983.011        3550.382          38.000  
G09  20307750.188       84774.833        -684.281          38.000  
G10  21250855.295      173779.405       -1395.181          38.000  
G23  22522967.908      271231.121       -2085.617          38.000  
G05  24130181.597     -473678.453        3597.354          38.000  
G01  22266137.799     -177642.158        1297.929          39.000  
G03  24947014.288      395637.413       -3054.141          38.000  
G11  21273279.989     -297478.170        2221.509          38.000  
> 2018 02 16 08 22 25.0000000  0  8                     
G30  22546382.528     -476533.032        3550.004          38.000  
G09  20307880.453       85459.404        -684.666          38.000  
G10  21251120.900      175175.201       -1395.943          38.000  
G23  22523364.797      273316.973       -2085.843          38.000  
G05  24129497.124     -477275.280        3596.933          38.000  
G01  22265890.920     -178939.560        1297.187          38.000  
G03  24947595.513      398691.697       -3054.121          39.000  
G11  21272857.333     -299699.166        2220.723          38.000  
> 2018 02 16 08 22 26.0000000  0  8                     
G30  22545707.044     -480082.802        3549.768          38.000  
G09  20308010.825       86144.512        -685.326          38.000  
G10  21251386.666      176571.797       -1396.794          38.000  
G23  22523761.775      275403.078       -2086.091          38.000  
G05  24128812.758     -480871.662        3596.189          39.000  
G01  22265644.167     -180236.073        1296.224          38.000  
G03  24948176.757      401745.997       -3054.345          38.000  
G11  21272434.820     -301919.425        2220.263          38.000  
> 2018 02 16 08 22 27.0000000  0  8                     
G30  22545031.595     -483632.348        3549.451          38.000  
G09  20308141.287       86830.096        -685.833          38.000  
G10  21251652.575      177969.092       -1397.743          38.000  
G23  22524158.789      277489.433       -2086.486          38.000  
G05  24128128.464     -484467.668        3595.975          38.000  
G01  22265397.592     -181531.745        1295.225          38.000  
G03  24948757.983      404800.273       -3054.311          38.000  
G11  21272012.432     -304138.997        2219.041          39.000  
> 2018 02 16 08 22 28.0000000  0  8                     
G30  22544356.181     -487181.645        3549.445          38.000  
G09  20308271.856       87516.174        -686.037          38.000  
G10  21251918.573      179367.140       -1398.150          38.000  
G23  22524555.821      279576.051       -2086.527          38.000  
G05  24127444.241     -488063.256        3595.586          38.000  
G01  22265151.196     -182826.594        1294.732          38.000  
G03  24949339.208      407854.548       -3053.921          38.000  
G11  21271590.205     -306357.884        2218.686          38.000  
> 2018 02 16 08 22 29.0000000  0  8                     
G30  22543680.839     -490730.703        3549.080          38.000  
G09  20308402.514       88202.806        -686.667          38.000  
G10  21252184.750      180765.946       -1398.900          38.000  
G23  22524952.978      281662.970       -2086.862          38.000  
G05  24126760.090     -491658.426        3595.160          38.000  
G01  22264904.943     -184120.565        1293.753          38.000  
G03  24949920.416      410908.870       -3054.129          38.000  
G11  21271168.121     -308576.086        2218.014          38.000  
> 2018 02 16 08 22 31.0000000  0  8                     
G30  22542330.209     -497828.366        3548.560          38.000  
G09  20308664.099       89577.383        -687.793          38.000  
G10  21252717.479      183565.490       -1400.556          38.000  
G23  22525747.399      285837.471       -2087.466          38.000  
G05  24125391.966     -498847.798        3594.320          38.000  
G01  22264412.902     -186706.248        1292.150          38.000  
G03  24951082.814      417017.388       -3054.334          38.000  
G11  21270324.256     -313010.741        2216.603          38.000  
> 2018 02 16 08 22 32.0000000  0  8                     
G30  22541654.921     -501377.006        3548.907          38.000  
G09  20308795.043       90265.322        -687.751          38.000  
G10  21252984.031      184966.168       -1400.784          38.000  
G23  22526144.663      287925.077       -2087.563          38.000  
G05  24124708.029     -502442.028        3594.413          38.000  
G01  22264167.078     -187997.959        1291.525          38.000  
G03  24951664.022      420071.557       -3053.810          38.000  
G11  21269902.458     -315227.297        2216.470          38.000  
> 2018 02 16 08 22 33.0000000  0  8                     
G30  22540979.651     -504925.580        3548.710          38.000  
G09  20308926.023       90953.628        -688.194          38.000  
G10  21253250.673      186367.348       -1401.202          38.000  
G23  22526541.945      290012.806       -2087.541          38.000  
G05  24124024.110     -506036.043        3593.968          38.000  
G01  22263921.379     -189289.047        1290.983          38.000  
G03  24952245.158      423125.623       -3053.785          38.000  
G11  21269480.749     -317443.435        2216.058          38.000  
> 2018 02 16 08 22 34.0000000  0  8                     
G30  22540304.416     -508473.956        3547.991          38.000  
G09  20309057.110       91642.468        -689.227          38.000  
G10  21253517.475      187769.240       -1402.320          38.000  
G23  22526939.298      292100.900       -2088.476          38.000  
G05  24123340.245     -509629.709        3593.232          38.000  
G01  22263675.840     -190579.339        1289.609          38.000  
G03  24952826.348      426179.752       -3054.367          38.000  
G11  21269059.129     -319658.955        2215.447          38.000  
> 2018 02 16 08 22 35.0000000  0  8                     
G30  22539629.235     -512022.098        3547.975          38.000  
G09  20309188.305       92331.874        -689.632          38.000  
G10  21253784.367      189171.748       -1402.873          38.000  
G23  22527336.705      294189.369       -2088.693          38.000  
G05  24122656.469     -513222.982        3593.044          38.000  
G01  22263430.445     -191868.787        1288.956          38.000  
G03  24953407.556      429233.976       -3054.223          38.000  
G11  21268637.635     -321873.984        2214.653          38.000  
> 2018 02 16 08 22 36.0000000  0  8                     
G30  22538954.036     -515570.274        3548.050          38.000  
G09  20309319.552       93021.599        -690.078          38.000  
G10  21254051.366      190574.704       -1403.462          38.000  
G23  22527734.166      296277.941       -2088.834          38.000  
G05  24121972.693     -516816.144        3592.957          38.000  
G01  22263185.175     -193157.689        1288.421          38.000  
G03  24953988.746      432288.054       -3054.195          38.000  
G11  21268216.176     -324088.698        2214.313          38.000  
> 2018 02 16 08 22 37.0000000  0  8                     
G30  22538278.855     -519118.329        3548.095          38.000  
G09  20309450.890       93711.750        -690.156          38.000  
G10  21254318.472      191978.165       -1403.677          38.000  
G23  22528131.662      298366.781       -2088.663          38.000  
G05  24121288.970     -520409.080        3593.191          38.000  
G01  22262940.012     -194445.931        1288.139          38.000  
G03  24954569.936      435342.114       -3053.869          38.000  
G11  21267794.807     -326303.004        2214.292          38.000  
> 2018 02 16 08 22 38.0000000  0  8                     
G30  22537603.692     -522666.308        3548.051          38.000  
G09  20309582.316       94402.353        -690.718          38.000  
G10  21254585.650      193382.169       -1404.000          38.000  
G23  22528529.212      300455.928       -2089.197          38.000  
G05  24120605.283     -524001.771        3592.817          38.000  
G01  22262695.010     -195733.482        1287.397          38.000  
G03  24955151.108      438396.187       -3053.924          38.000  
G11  21267373.544     -328516.868        2214.228          38.000  
> 2018 02 16 08 22 39.0000000  0  8                     
G30  22536928.564     -526214.143        3547.830          38.000  
G09  20309713.815       95093.423        -691.097          38.000  
G10  21254852.917      194786.671       -1404.883          38.000  
G23  22528926.852      302545.358       -2089.476          38.000  
G05  24119921.668     -527594.209        3592.490          38.000  
G01  22262450.133     -197020.348        1286.723          38.000  
G03  24955732.298      441450.285       -3053.811          38.000  
G11  21266952.318     -330730.467        2213.476          38.000  
> 2018 02 16 08 22 40.0000000  0  8                     
G30  22536253.473     -529761.804        3547.687          38.000  
G09  20309845.420       95785.035        -691.654          38.000  
G10  21255120.291      196191.740       -1405.256          38.000  
G23  22529324.527      304635.170       -2089.779          38.000  
G05  24119238.089     -531186.386        3592.340          38.000  
G01  22262205.381     -198306.495        1286.003          38.000  
G03  24956313.488      444504.509       -3054.033          38.000  
G11  21266531.163     -332943.584        2212.997          38.000  
> 2018 02 16 08 22 41.0000000  0  8                     
G30  22535578.399     -533309.240        3547.371          38.000  
G09  20309977.133       96477.235        -692.527          38.000  
G10  21255387.772      197597.421       -1405.754          38.000  
G23  22529722.255      306725.428       -2090.488          39.000  
G05  24118554.599     -534778.210        3591.763          38.000  
G01  22261960.790     -199591.862        1285.143          38.000  
G03  24956894.696      447558.889       -3054.170          38.000  
G11  21266110.097     -335156.266        2212.607          38.000  
> 2018 02 16 08 22 42.0000000  0  8                     
G30  22534903.379     -536856.577        3547.304          38.000  
G09  20310108.934       97169.868        -692.808          38.000  
G10  21255655.361      199003.607       -1406.235          38.000  
G23  22530120.074      308815.972       -2090.589          38.000  
G05  24117871.108     -538369.885        3591.709          38.000  
G01  22261716.323     -200876.613        1284.560          38.000  
G03  24957475.940      450613.339       -3054.465          38.000  
G11  21265689.103     -337368.555        2212.585          38.000  
> 2018 02 16 08 22 43.0000000  0  8                     
G30  22534228.376     -540403.721        3547.097          38.000  
G09  20310240.844       97863.080        -693.498          38.000  
G10  21255923.039      200410.301       -1407.087          38.000  
G23  22530517.963      310906.954       -2091.182          38.000  
G05  24117187.690     -541961.258        3591.111          38.000  
G01  22261471.982     -202160.622        1283.603          38.000  
G03  24958057.201      453667.927       -3054.628          38.000  
G11  21265268.163     -339580.617        2211.838          38.000  
> 2018 02 16 08 22 44.0000000  0  8                     
G30  22533553.428     -543950.602        3546.693          38.000  
G09  20310372.878       98556.892        -694.296          38.000  
G10  21256190.824      201817.562       -1407.540          38.000  
G23  22530915.942      312998.411       -2091.574          38.000  
G05  24116504.343     -545552.361        3590.944          38.000  
G01  22261227.766     -203443.906        1282.920          38.000  
G03  24958638.516      456722.733       -3054.901          38.000  
G11  21264847.311     -341792.204        2211.351          38.000  
> 2018 02 16 08 22 45.0000000  0  8                     
G30  22532878.515     -547497.199        3546.609          38.000  
G09  20310505.019       99251.333        -694.648          38.000  
G10  21256458.752      203225.486       -1408.123          38.000  
G23  22531314.046      315090.398       -2092.051          38.000  
G05  24115821.049     -549143.115        3590.868          38.000  
G01  22260983.693     -204726.392        1282.315          38.000  
G03  24959219.867      459777.828       -3055.056          38.000  
G11  21264426.549     -344003.352        2211.118          38.000  
> 2018 02 16 08 22 46.0000000  0  8                     
G30  22532203.602     -551043.751        3546.728          38.000  
G09  20310637.268       99946.182        -694.761          38.000  
G10  21256726.752      204633.797       -1408.166          38.000  
G23  22531712.204      317182.654       -2092.161          38.000  
G05  24115137.773     -552733.807        3590.939          38.000  
G01  22260739.728     -206008.363        1282.055          38.000  
G03  24959801.235      462832.950       -3054.934          38.000  
G11  21264005.823     -346214.250        2211.563          38.000  
> 2018 02 16 08 22 47.0000000  0  8                     
G30  22531528.724     -554590.203        3546.243          38.000  
G09  20310769.588      100641.507        -695.641          38.000  
G10  21256994.805      206042.462       -1409.003          38.000  
G23  22532110.450      319275.267       -2092.871          38.000  
G05  24114454.516     -556324.366        3590.476          38.000  
G01  22260495.887     -207289.732        1281.005          38.000  
G03  24960382.604      465888.185       -3055.373          38.000  
G11  21263585.133     -348425.072        2210.505          38.000  
> 2018 02 16 08 22 48.0000000  0  8                     
G30  22530853.919     -558136.400        3546.136          38.000  
G09  20310902.033      101337.426        -696.225          38.000  
G10  21257262.947      207451.674       -1409.433          38.000  
G23  22532508.751      321368.359       -2093.160          38.000  
G05  24113771.311     -559914.697        3590.385          38.000  
G01  22260252.171     -208570.416        1280.420          38.000  
G03  24960964.044      468943.674       -3055.484          38.000  
G11  21263164.532     -350635.524        2210.310          38.000  
> 2018 02 16 08 22 50.0000000  0  8                     
G30  22529504.450     -565228.125        3545.984          38.000  
G09  20311167.209      102730.951        -696.813          38.000  
G10  21257799.590      210271.658       -1409.960          38.000  
G23  22533305.620      325556.005       -2094.007          38.000  
G05  24112405.028     -567094.750        3590.123          38.000  
G01  22259765.098     -211129.790        1279.397          38.000  
G03  24962127.032      475055.410       -3055.864          38.000  
G11  21262323.455     -355055.435        2210.222          38.000  
> 2018 02 16 08 22 51.0000000  0  8                     
G30  22528829.751     -568773.727        3545.691          38.000  
G09  20311299.923      103428.508        -697.509          38.000  
G10  21258068.018      211682.253       -1410.746          38.000  
G23  22533704.153      327650.437       -2094.457          38.000  
G05  24111721.913     -570684.593        3589.911          38.000  
G01  22259521.739     -212408.599        1278.718          38.000  
G03  24962708.597      478111.589       -3056.230          38.000  
G11  21261902.961     -357265.222        2209.859          38.000  
> 2018 02 16 08 22 52.0000000  0  8                     
G30  22528155.053     -572319.224        3545.501          38.000  
G09  20311432.725      104126.482        -697.970          38.000  
G10  21258336.536      213093.208       -1411.108          38.000  
G23  22534102.775      329745.237       -2094.946          38.000  
G05  24111038.816     -574274.428        3589.853          38.000  
G01  22259278.488     -213686.906        1278.133          38.000  
G03  24963290.162      481167.887       -3056.211          38.000  
G11  21261482.503     -359474.810        2209.529          38.000  
> 2018 02 16 08 22 53.0000000  0  8                     
G30  22527480.408     -575864.563        3545.247          38.000  
G09  20311565.635      104824.959        -698.791          38.000  
G10  21258605.108      214504.564       -1411.602          38.000  
G23  22534501.487      331840.433       -2095.463          38.000  
G05  24110355.737     -577864.190        3589.777          38.000  
G01  22259035.327     -214964.696        1277.711          38.000  
G03  24963871.799      484224.420       -3056.630          38.000  
G11  21261062.045     -361684.243        2209.305          38.000  
> 2018 02 16 08 22 54.0000000  0  8                     
G30  22526805.817     -579409.517        3544.973          38.000  
G09  20311698.688      105524.136        -699.421          38.000  
G10  21258873.804      215916.551       -1411.873          38.000  
G23  22534900.341      333936.254       -2095.852          38.000  
G05  24109672.676     -581453.671        3589.537          38.000  
G01  22258792.308     -216241.698        1276.893          38.000  
G03  24964453.507      487281.375       -3056.854          38.000  
G11  21260641.658     -363893.196        2209.438          38.000  
> 2018 02 16 08 22 55.0000000  0  8                     
G30  22526131.297     -582954.204        3544.646          38.000  
G09  20311831.866      106223.893        -699.867          38.000  
G10  21259142.608      217328.949       -1412.410          38.000  
G23  22535299.285      336032.587       -2096.389          38.000  
G05  24108989.632     -585043.035        3589.476          38.000  
G01  22258549.432     -217518.095        1276.383          38.000  
G03  24965035.322      490338.678       -3057.235          38.000  
G11  21260221.307     -366102.092        2208.747          38.000  
> 2018 02 16 08 22 56.0000000  0  8                     
G30  22525456.813     -586498.715        3544.548          38.000  
G09  20311965.151      106924.126        -700.222          38.000  
G10  21259411.465      218741.745       -1412.842          38.000  
G23  22535698.300      338129.342       -2096.827          38.000  
G05  24108306.607     -588632.359        3589.618          38.000  
G01  22258306.646     -218793.980        1275.807          38.000  
G03  24965617.174      493396.224       -3057.585          38.000  
G11  21259801.010     -368310.818        2208.674          38.000  
> 2018 02 16 08 22 57.0000000  0  8                     
G30  22524782.328     -590043.142        3544.414          38.000  
G09  20312098.489      107624.767        -700.923          38.000  
G10  21259680.358      220154.815       -1413.002          38.000  
G23  22536097.351      340226.395       -2097.104          38.000  
G05  24107623.545     -592221.782        3589.635          38.000  
G01  22258063.931     -220069.461        1275.184          38.000  
G03  24966199.007      496453.905       -3057.705          38.000  
G11  21259380.695     -370519.511        2208.706          38.000  
> 2018 02 16 08 22 58.0000000  0  8                     
G30  22524107.916     -593587.299        3544.038          38.000  
G09  20312231.917      108325.945        -701.497          38.000  
G10  21259949.341      221568.368       -1413.616          38.000  
G23  22536496.527      342323.937       -2097.593          38.000  
G05  24106940.538     -595811.109        3589.440          38.000  
G01  22257821.323     -221344.381        1274.639          38.000  
G03  24966780.947      499511.944       -3058.021          38.000  
G11  21258960.451     -372727.903        2208.773          38.000  
> 2018 02 16 08 22 59.0000000  0  8                     
G30  22523433.539     -597131.057        3543.605          38.000  
G09  20312365.470      109027.786        -702.160          38.000  
G10  21260218.430      222982.414       -1414.304          38.000  
G23  22536895.793      344422.117       -2098.510          39.000  
G05  24106257.548     -599400.251        3589.032          39.000  
G01  22257578.841     -222618.628        1273.967          38.000  
G03  24967362.977      502570.467       -3058.765          38.000  
G11  21258540.225     -374936.140        2207.756          38.000  
> 2018 02 16 08 23 00.0000000  0  8                     
G30  22522759.233     -600674.521        3543.603          38.000  
G09  20312499.149      109730.226        -702.546          38.000  
G10  21260487.609      224396.921       -1414.455          38.000  
G23  22537295.165      346520.779       -2098.694          38.000  
G05  24105574.576     -602989.353        3589.379          38.000  
G01  22257336.465     -223892.299        1273.620          38.000  
G03  24967945.061      505629.327       -3058.731          38.000  
G11  21258120.053     -377144.179        2208.102          38.000  
> 2018 02 16 08 23 01.0000000  0  8                     
G30  22522084.946     -604217.904        3543.496          38.000  
G09  20312632.880      110432.964        -702.746          38.000  
G10  21260756.824      225811.655       -1414.743          38.000  
G23  22537694.592      348619.716       -2098.880          38.000  
G05  24104891.604     -606578.610        3589.469          38.000  
G01  22257094.161     -225165.657        1273.403          38.000  
G03  24968527.162      508688.358       -3058.813          38.000  
G11  21257699.881     -379352.246        2208.308          38.000  
> 2018 02 16 08 23 02.0000000  0  8                     
G30  22521410.622     -607761.367        3543.478          38.000  
G09  20312766.648      111135.895        -703.030          38.000  
G10  21261026.074      227226.456       -1414.647          38.000  
G23  22538094.018      350718.769       -2099.013          38.000  
G05  24104208.507     -610168.223        3589.844          39.000  
G01  22256851.893     -226438.828        1273.057          38.000  
G03  24969109.317      511747.411       -3059.076          38.000  
G11  21257279.691     -381560.387        2208.594          38.000  
> 2018 02 16 08 23 03.0000000  0  8                     
G30  22520736.388     -611304.457        3543.075          38.000  
G09  20312900.505      111839.420        -703.634          38.000  
G10  21261295.396      228641.730       -1415.360          38.000  
G23  22538493.551      352818.392       -2099.757          38.000  
G05  24103525.446     -613757.751        3589.665          38.000  
G01  22256609.696     -227711.433        1272.565          38.000  
G03  24969691.507      514806.890       -3059.543          38.000  
G11  21256859.483     -383768.483        2208.178          38.000  
> 2018 02 16 08 23 04.0000000  0  8                     
G30  22520062.244     -614847.130        3542.922          38.000  
G09  20313034.522      112543.596        -704.051          38.000  
G10  21261564.843      230057.538       -1415.606          38.000  
G23  22538893.228      354918.573       -2100.074          38.000  
G05  24102842.402     -617347.188        3589.820          38.000  
G01  22256367.642     -228983.419        1272.163          38.000  
G03  24970273.805      517866.870       -3059.778          38.000  
G11  21256439.346     -385976.256        2208.015          38.000  
> 2018 02 16 08 23 05.0000000  0  8                     
G30  22519388.081     -618389.712        3542.508          38.000  
G09  20313168.612      113248.085        -704.753          38.000  
G10  21261834.326      231473.560       -1416.230          38.000  
G23  22539292.922      357019.027       -2100.561          38.000  
G05  24102159.270     -620936.841        3589.743          38.000  
G01  22256125.660     -230255.092        1271.344          38.000  
G03  24970856.121      520927.044       -3060.379          38.000  
G11  21256019.210     -388184.048        2207.669          38.000  
> 2018 02 16 08 23 06.0000000  0  8                     
G30  22518714.008     -621931.922        3542.538          38.000  
G09  20313302.808      113953.112        -704.729          38.000  
G10  21262103.862      232890.054       -1416.176          38.000  
G23  22539692.724      359119.983       -2100.813          38.000  
G05  24101476.173     -624526.479        3590.082          38.000  
G01  22255883.749     -231526.249        1271.296          38.000  
G03  24971438.562      523987.636       -3060.397          38.000  
G11  21255599.109     -390391.588        2208.322          38.000  
> 2018 02 16 08 23 07.0000000  0  8                     
G30  22518039.989     -625473.947        3541.940          38.000  
G09  20313437.076      114658.534        -705.558          38.000  
G10  21262373.470      234306.791       -1416.800          38.000  
G23  22540092.579      361221.237       -2101.398          38.000  
G05  24100793.076     -628116.322        3590.046          38.000  
G01  22255641.910     -232797.082        1270.759          38.000  
G03  24972021.020      527048.496       -3060.920          38.000  
G11  21255179.008     -392599.240        2207.514          38.000  
> 2018 02 16 08 23 08.0000000  0  8                     
G30  22517366.041     -629015.571        3541.314          38.000  
G09  20313571.415      115364.525        -706.374          38.000  
G10  21262643.185      235724.025       -1417.646          38.000  
G23  22540492.523      363323.027       -2102.157          38.000  
G05  24100109.961     -631706.108        3589.639          38.000  
G01  22255400.196     -234067.348        1269.920          38.000  
G03  24972603.604      530109.834       -3061.663          38.000  
G11  21254758.943     -394806.645        2207.164          38.000  
> 2018 02 16 08 23 09.0000000  0  8                     
G30  22516692.164     -632556.773        3541.259          38.000  
G09  20313705.844      116071.080        -706.524          38.000  
G10  21262912.972      237141.753       -1417.668          38.000  
G23  22540892.557      365425.338       -2102.362          38.000  
G05  24099426.864     -635295.918        3590.131          38.000  
G01  22255158.571     -235337.070        1269.732          38.000  
G03  24973186.242      533171.640       -3061.668          38.000  
G11  21254338.950     -397013.779        2207.232          38.000  
> 2018 02 16 08 23 10.0000000  0  8                     
G30  22516018.377     -636097.615        3540.841          38.000  
G09  20313840.380      116778.147        -707.008          38.000  
G10  21263182.830      238559.948       -1418.203          38.000  
G23  22541292.698      367528.086       -2102.704          38.000  
G05  24098743.731     -638885.760        3589.963          38.000  
G01  22254917.053     -236606.306        1269.173          38.000  
G03  24973768.968      536233.885       -3062.155          38.000  
G11  21253918.992     -399220.664        2207.300          38.000  
> 2018 02 16 08 23 11.0000000  0  8                     
G30  22515344.625     -639638.265        3540.944          38.000  
G09  20313975.005      117485.538        -707.088          38.000  
G10  21263452.723      239978.366       -1418.056          38.000  
G23  22541692.893      369631.095       -2102.541          38.000  
G05  24098060.563     -642475.863        3590.734          39.000  
G01  22254675.589     -237875.277        1269.327          38.000  
G03  24974351.766      539296.378       -3062.027          38.000  
G11  21253498.981     -401427.677        2207.480          38.000  
> 2018 02 16 08 23 12.0000000  0  8                     
G30  22514670.909     -643178.605        3540.182          38.000  
G09  20314109.701      118193.361        -708.005          38.000  
G10  21263722.706      241397.169       -1419.014          38.000  
G23  22542093.159      371734.475       -2103.466          38.000  
G05  24097377.376     -646066.123        3590.484          38.000  
G01  22254434.214     -239143.836        1268.480          38.000  
G03  24974934.600      542359.240       -3062.933          38.000  
G11  21253079.041     -403634.554        2206.888          38.000  
> 2018 02 16 08 23 13.0000000  0  8                     
G30  22513997.265     -646718.590        3540.007          38.000  
G09  20314244.488      118901.635        -708.271          38.000  
G10  21263992.743      242816.380       -1419.213          38.000  
G23  22542493.514      373838.248       -2103.730          38.000  
G05  24096694.172     -649656.475        3590.626          38.000  
G01  22254192.875     -240411.956        1268.135          38.000  
G03  24975517.488      545422.506       -3063.312          38.000  
G11  21252659.119     -405841.208        2206.558          38.000  
> 2018 02 16 08 23 14.0000000  0  8                     
G30  22513323.710     -650258.297        3539.633          38.000  
G09  20314379.345      119610.256        -708.662          38.000  
G10  21264262.887      244235.928       -1419.578          38.000  
G23  22542893.905      375942.309       -2104.009          38.000  
G05  24096010.914     -653247.061        3590.827          38.000  
G01  22253951.608     -241679.756        1267.696          38.000  
G03  24976100.447      548486.056       -3063.590          38.000  
G11  21252239.197     -408047.756        2206.924          38.000  
> 2018 02 16 08 23 15.0000000  0  8                     
G30  22512650.245     -653797.482        3539.089          38.000  
G09  20314514.328      120319.484        -709.291          38.000  
G10  21264533.138      245656.055       -1420.233          38.000  
G23  22543294.386      378046.918       -2104.732          38.000  
G05  24095327.674     -656837.605        3590.797          38.000  
G01  22253710.465     -242946.978        1267.186          38.000  
G03  24976683.531      551550.187       -3064.138          38.000  
G11  21251819.328     -410254.030        2206.094          38.000  
> 2018 02 16 08 23 16.0000000  0  8                     
G30  22511976.850     -657336.239        3539.046          38.000  
G09  20314649.417      121029.207        -709.504          38.000  
G10  21264803.496      247076.679       -1420.553          38.000  
G23  22543694.956      380151.932       -2104.900          38.000  
G05  24094644.381     -660428.218        3590.819          38.000  
G01  22253469.448     -244213.712        1266.875          38.000  
G03  24977266.687      554614.778       -3064.465          38.000  
G11  21251399.531     -412460.078        2206.338          38.000  
> 2018 02 16 08 23 17.0000000  0  8                     
G30  22511303.474     -660874.853        3538.372          38.000  
G09  20314784.525      121739.123        -710.411          38.000  
G10  21265073.855      248497.450       -1421.138          38.000  
G23  22544095.544      382257.045       -2105.465          38.000  
G05  24093961.016     -664019.253        3590.975          38.000  
G01  22253228.430     -245480.296        1266.266          39.000  
G03  24977849.878      557679.504       -3065.020          38.000  
G11  21250979.699     -414666.131        2205.666          38.000  
> 2018 02 16 08 23 18.0000000  0  8                     
G30  22510630.223     -664412.808        3538.018          38.000  
G09  20314919.758      122449.689        -710.501          38.000  
G10  21265344.356      249918.937       -1421.591          38.000  
G23  22544496.256      384362.763       -2105.610          38.000  
G05  24093277.686     -667610.175        3591.237          38.000  
G01  22252987.538     -246746.207        1265.975          38.000  
G03  24978433.212      560744.893       -3065.378          38.000  
G11  21250559.973     -416871.697        2205.906          38.000  
> 2018 02 16 08 23 19.0000000  0  8                     
G30  22509957.061     -667950.302        3537.480          38.000  
G09  20315055.062      123160.749        -711.152          38.000  
G10  21265614.965      251340.952       -1421.987          38.000  
G23  22544897.041      386468.877       -2106.120          38.000  
G05  24092594.357     -671201.171        3591.243          38.000  
G01  22252746.717     -248011.648        1265.332          38.000  
G03  24979016.618      563810.746       -3065.825          38.000  
G11  21250140.301     -419077.028        2205.379          38.000  
> 2018 02 16 08 23 20.0000000  0  8                     
G30  22509283.989     -671487.343        3537.109          38.000  
G09  20315190.456      123872.266        -711.398          38.000  
G10  21265885.662      252763.468       -1422.459          38.000  
G23  22545297.897      388575.352       -2106.276          38.000  
G05  24091911.010     -674792.290        3591.427          38.000  
G01  22252505.986     -249276.625        1265.020          38.000  
G03  24979600.095      566877.043       -3066.247          38.000  
G11  21249720.683     -421282.077        2205.338          38.000  
> 2018 02 16 08 23 21.0000000  0  8                     
G30  22508610.970     -675023.940        3536.296          38.000  
G09  20315325.921      124584.215        -712.444          38.000  
G10  21266156.467      254186.474       -1423.400          38.000  
G23  22545698.806      390682.173       -2107.083          38.000  
G05  24091227.627     -678383.515        3591.097          38.000  
G01  22252265.361     -250541.180        1264.241          38.000  
G03  24980183.679      569943.760       -3067.099          38.000  
G11  21249301.136     -423486.815        2204.490          38.000  
> 2018 02 16 08 23 22.0000000  0  8                     
G30  22507938.022     -678560.127        3535.979          38.000  
G09  20315461.493      125296.533        -712.577          38.000  
G10  21266427.362      255609.920       -1423.904          38.000  
G23  22546099.769      392789.268       -2107.245          38.000  
G05  24090544.226     -681974.948        3591.435          38.000  
G01  22252024.809     -251805.328        1263.895          38.000  
G03  24980767.335      573010.841       -3067.377          38.000  
G11  21248881.643     -425691.258        2204.323          38.000  
> 2018 02 16 08 23 23.0000000  0  8                     
G30  22507265.200     -682095.826        3535.378          38.000  
G09  20315597.101      126009.290        -712.904          38.000  
G10  21266698.346      257033.923       -1424.187          38.000  
G23  22546500.803      394896.692       -2107.456          38.000  
G05  24089860.772     -685566.482        3591.730          38.000  
G01  22251784.345     -253069.005        1263.394          38.000  
G03  24981351.063      576078.358       -3067.677          38.000  
G11  21248462.239     -427895.436        2204.042          38.000  
> 2018 02 16 08 23 24.0000000  0  8                     
G30  22506592.449     -685631.093        3535.073          38.000  
G09  20315732.834      126722.426        -713.111          38.000  
G10  21266969.419      258458.413       -1424.489          38.000  
G23  22546901.874      397004.422       -2107.751          38.000  
G05  24089177.299     -689158.153        3591.860          38.000  
G01  22251543.935     -254332.300        1263.260          38.000  
G03  24981934.879      579146.270       -3067.986          38.000  
G11  21248042.853     -430099.328        2203.917          38.000  
> 2018 02 16 08 23 25.0000000  0  8                     
G30  22505919.788     -689165.956        3534.882          38.000  
G09  20315868.639      127435.922        -713.523          38.000  
G10  21267240.563      259883.377       -1424.901          38.000  
G23  22547302.998      399112.356       -2107.933          38.000  
G05  24088493.791     -692750.038        3592.141          38.000  
G01  22251303.597     -255595.173        1262.823          38.000  
G03  24982518.750      582214.511       -3068.249          38.000  
G11  21247623.539     -432302.910        2203.554          38.000  
> 2018 02 16 08 23 26.0000000  0  8                     
G30  22505247.216     -692700.398        3534.523          38.000  
G09  20316004.479      128149.735        -713.750          38.000  
G10  21267511.815      261308.812       -1425.603          38.000  
G23  22547704.121      401220.515       -2108.162          38.000  
G05  24087810.266     -696342.111        3592.358          38.000  
G01  22251063.330     -256857.695        1262.514          38.000  
G03  24983102.692      585283.092       -3068.477          38.000  
G11  21247204.278     -434506.155        2203.298          38.000  
> 2018 02 16 08 23 27.0000000  0  8                     
G30  22504574.768     -696234.216        3533.849          38.000  
G09  20316140.391      128864.072        -714.220          39.000  
G10  21267783.210      262734.951       -1426.181          38.000  
G23  22548105.352      403329.068       -2108.516          38.000  
G05  24087126.722     -699934.200        3592.505          38.000  
G01  22250823.188     -258119.637        1262.043          38.000  
G03  24983686.723      588352.190       -3068.892          38.000  
G11  21246785.053     -436708.944        2202.929          38.000  
> 2018 02 16 08 23 28.0000000  0  8                     
G30  22503902.429     -699767.439        3533.078          38.000  
G09  20316276.428      129578.917        -715.008          38.000  
G10  21268054.747      264161.747       -1426.848          38.000  
G23  22548506.655      405437.979       -2108.931          38.000  
G05  24086443.142     -703526.295        3592.356          38.000  
G01  22250583.172     -259381.010        1261.299          38.000  
G03  24984270.879      591421.798       -3069.686          38.000  
G11  21246366.006     -438911.207        2202.082          38.000  
> 2018 02 16 08 23 29.0000000  0  8                     
G30  22503230.160     -703300.218        3532.773          38.000  
G09  20316412.500      130294.065        -715.077          38.000  
G10  21268326.374      265589.085       -1427.395          38.000  
G23  22548908.011      407547.071       -2108.922          38.000  
G05  24085759.527     -707118.565        3592.609          38.000  
G01  22250343.226     -260641.984        1260.982          38.000  
G03  24984855.071      594491.702       -3069.786          38.000  
G11  21245946.996     -441113.121        2201.947          38.000  
> 2018 02 16 08 23 30.0000000  0  8                     
G30  22502558.017     -706832.449        3531.836          38.000  
G09  20316548.680      131009.655        -715.903          38.000  
G10  21268598.091      267017.002       -1428.455          38.000  
G23  22549309.421      409656.454       -2109.736          38.000  
G05  24085075.894     -710710.909        3592.331          38.000  
G01  22250103.388     -261902.461        1260.211          38.000  
G03  24985439.334      597562.042       -3070.506          38.000  
G11  21245528.128     -443314.503        2200.915          38.000  
> 2018 02 16 08 23 31.0000000  0  8                     
G30  22501885.927     -710364.219        3531.606          38.000  
G09  20316684.914      131725.550        -716.043          38.000  
G10  21268869.932      268445.540       -1428.635          38.000  
G23  22549710.848      411765.985       -2109.436          38.000  
G05  24084392.225     -714303.415        3592.717          38.000  
G01  22249863.622     -263162.500        1259.878          38.000  
G03  24986023.669      600632.705       -3070.799          38.000  
G11  21245109.278     -445515.526        2200.860          38.000  
> 2018 02 16 08 23 32.0000000  0  8                     
G30  22501213.945     -713895.528        3530.941          38.000  
G09  20316821.218      132441.753        -716.350          38.000  
G10  21269141.881      269874.617       -1429.347          38.000  
G23  22550112.312      413875.687       -2109.655          38.000  
G05  24083708.556     -717896.082        3592.673          39.000  
G01  22249623.891     -264422.140        1259.570          38.000  
G03  24986608.040      603703.649       -3070.987          38.000  
G11  21244690.517     -447716.122        2200.508          38.000  
> 2018 02 16 08 23 33.0000000  0  8                     
G30  22500542.087     -717426.260        3530.541          38.000  
G09  20316957.577      133158.381        -716.804          38.000  
G10  21269413.990      271304.376       -1430.052          38.000  
G23  22550513.847      415985.649       -2109.978          38.000  
G05  24083024.905     -721488.796        3592.687          38.000  
G01  22249384.285     -265681.217        1258.875          39.000  
G03  24987192.500      606775.025       -3071.572          38.000  
G11  21244271.828     -449916.140        2199.711          38.000  
> 2018 02 16 08 23 34.0000000  0  8                     
G30  22499870.301     -720956.479        3530.186          39.000  
G09  20317094.025      133875.346        -716.843          38.000  
G10  21269686.171      272734.718       -1430.570          38.000  
G23  22550915.399      418095.776       -2110.037          38.000  
G05  24082341.219     -725081.630        3593.083          39.000  
G01  22249144.769     -266939.823        1258.525          38.000  
G03  24987777.014      609846.711       -3071.643          38.000  
G11  21243853.264     -452115.652        2199.356          38.000  
> 2018 02 16 08 23 35.0000000  0  8                     
G30  22499198.623     -724486.154        3529.521          38.000  
G09  20317230.526      134592.696        -717.528          38.000  
G10  21269958.513      274165.814       -1431.275          38.000  
G23  22551316.988      420206.089       -2110.279          38.000  
G05  24081657.514     -728674.522        3592.853          39.000  
G01  22248905.360     -268197.940        1257.888          38.000  
G03  24988361.617      612918.750       -3072.282          38.000  
G11  21243434.807     -454314.607        2198.830          39.000  
> 2018 02 16 08 23 36.0000000  0  8                     
G30  22498527.087     -728015.153        3528.608          38.000  
G09  20317367.117      135310.507        -717.996          38.000  
G10  21270230.980      275597.664       -1432.207          38.000  
G23  22551718.594      422316.700       -2110.691          38.000  
G05  24080973.792     -732267.365        3592.774          38.000  
G01  22248666.076     -269455.394        1257.137          38.000  
G03  24988946.291      615991.230       -3072.663          38.000  
G11  21243016.494     -456512.865        2198.036          38.000  
> 2018 02 16 08 23 37.0000000  0  8                     
G30  22497855.605     -731543.713        3528.410          38.000  
G09  20317503.779      136028.611        -718.368          38.000  
G10  21270503.554      277030.129       -1432.827          38.000  
G23  22552120.236      424427.413       -2110.941          38.000  
G05  24080290.087     -735860.359        3592.981          38.000  
G01  22248426.845     -270712.418        1256.632          38.000  
G03  24989531.037      619063.961       -3072.789          38.000  
G11  21242598.269     -458710.622        2197.556          39.000  
> 2018 02 16 08 23 38.0000000  0  8                     
G30  22497184.248     -735071.666        3527.757          38.000  
G09  20317640.477      136747.086        -718.711          39.000  
G10  21270776.271      278463.300       -1433.805          38.000  
G23  22552521.949      426538.280       -2110.890          38.000  
G05  24079606.365     -739453.350        3592.986          39.000  
G01  22248187.740     -271968.883        1256.218          38.000  
G03  24990115.801      622137.053       -3073.353          38.000  
G11  21242180.188     -460907.707        2196.635          38.000  
> 2018 02 16 08 23 39.0000000  0  8                     
G30  22496512.980     -738599.043        3527.189          38.000  
G09  20317777.247      137465.912        -718.973          38.000  
G10  21271049.149      279897.257       -1434.126          39.000  
G23  22552923.663      428649.319       -2110.957          38.000  
G05  24078922.642     -743046.392        3593.101          38.000  
G01  22247948.724     -273224.797        1255.695          39.000  
G03  24990700.636      625210.437       -3073.552          39.000  
G11  21241762.231     -463104.132        2196.253          39.000  
> 2018 02 16 08 23 40.0000000  0  8                     
G30  22495841.837     -742125.834        3526.527          38.000  
G09  20317914.106      138185.133        -719.314          39.000  
G10  21271322.152      281331.971       -1434.890          38.000  
G23  22553325.430      430760.537       -2111.243          38.000  
G05  24078238.920     -746639.404        3593.088          38.000  
G01  22247709.868     -274480.107        1255.052          38.000  
G03  24991285.543      628284.151       -3073.735          38.000  
G11  21241344.418     -465299.869        2195.608          38.000  
> 2018 02 16 08 23 41.0000000  0  8                     
G30  22495170.838     -745651.988        3526.021          38.000  
G09  20318051.054      138904.787        -719.723          38.000  
G10  21271595.316      282767.510       -1435.692          38.000  
G23  22553727.197      432871.948       -2111.200          38.000  
G05  24077555.198     -750232.353        3593.085          38.000  
G01  22247471.120     -275734.777        1254.609          38.000  
G03  24991870.539      631358.247       -3073.988          39.000  
G11  21240926.747     -467494.829        2194.855          38.000  
> 2018 02 16 08 23 42.0000000  0  8                     
G30  22494499.927     -749177.618        3525.195          38.000  
G09  20318188.038      139624.700        -719.970          38.000  
G10  21271868.604      284203.712       -1436.987          38.000  
G23  22554129.000      434983.439       -2111.551          38.000  
G05  24076871.493     -753825.353        3592.874          38.000  
G01  22247232.515     -276988.924        1253.808          38.000  
G03  24992455.553      634432.556       -3074.408          38.000  
G11  21240509.202     -469689.163        2193.702          38.000  
> 2018 02 16 08 23 43.0000000  0  8                     
G30  22493829.124     -752702.636        3524.856          38.000  
G09  20318325.129      140345.069        -720.438          38.000  
G10  21272142.054      285640.826       -1437.469          38.000  
G23  22554530.821      437095.106       -2111.635          38.000  
G05  24076187.788     -757418.275        3592.937          38.000  
G01  22246993.982     -278242.412        1253.265          38.000  
G03  24993040.620      637507.213       -3074.735          38.000  
G11  21240091.817     -471882.636        2193.278          38.000  
> 2018 02 16 08 23 44.0000000  0  8                     
G30  22493158.482     -756227.053        3524.430          38.000  
G09  20318462.256      141065.763        -720.461          38.000  
G10  21272415.629      287078.706       -1437.886          38.000  
G23  22554932.677      439206.881       -2111.544          38.000  
G05  24075504.084     -761011.183        3593.206          38.000  
G01  22246755.555     -279495.308        1252.903          38.000  
G03  24993625.759      640582.109       -3074.672          38.000  
G11  21239674.575     -474075.401        2192.712          38.000  
> 2018 02 16 08 23 45.0000000  0  8                     
G30  22492487.875     -759751.120        3524.132          39.000  
G09  20318599.401      141786.586        -720.492          38.000  
G10  21272689.346      288517.174       -1438.497          38.000  
G23  22555334.516      441318.547       -2111.338          38.000  
G05  24074820.326     -764604.259        3593.674          38.000  
G01  22246517.236     -280747.803        1252.758          38.000  
G03  24994210.880      643657.041       -3074.591          38.000  
G11  21239257.387     -476267.601        2192.296          38.000  
> 2018 02 16 08 23 46.0000000  0  8                     
G30  22491817.358     -763274.746        3523.204          38.000  
G09  20318736.599      142507.625        -721.298          38.000  
G10  21272963.171      289956.265       -1439.769          38.000  
G23  22555736.337      443430.149       -2111.599          38.000  
G05  24074136.585     -768197.394        3593.006          38.000  
G01  22246278.989     -281999.771        1251.428          38.000  
G03  24994796.019      646732.085       -3075.170          38.000  
G11  21238840.360     -478459.160        2190.786          38.000  
> 2018 02 16 08 23 47.0000000  0  8                     
G30  22491146.966     -766797.714        3522.753          38.000  
G09  20318873.887      143229.115        -721.553          38.000  
G10  21273237.211      291396.373       -1440.259          38.000  
G23  22556138.229      445541.956       -2111.669          38.000  
G05  24073452.863     -771790.382        3593.090          39.000  
G01  22246040.902     -283251.053        1251.072          38.000  
G03  24995381.248      649807.459       -3075.344          39.000  
G11  21238423.511     -480649.738        2190.298          38.000  
> 2018 02 16 08 23 48.0000000  0  8                     
G30  22490476.699     -770320.088        3522.195          38.000  
G09  20319011.246      143950.941        -721.855          38.000  
G10  21273511.393      292837.313       -1441.196          38.000  
G23  22556540.121      447653.862       -2111.896          38.000  
G05  24072769.123     -775383.260        3592.723          38.000  
G01  22245802.922     -284501.656        1250.367          38.000  
G03  24995966.512      652883.061       -3075.848          38.000  
G11  21238006.770     -482839.523        2189.590          38.000  
> 2018 02 16 08 23 49.0000000  0  8                     
G30  22489806.521     -773841.833        3521.606          38.000  
G09  20319148.694      144673.161        -722.042          38.000  
G10  21273785.754      294279.141       -1441.930          38.000  
G23  22556942.013      449765.886       -2111.936          38.000  
G05  24072085.436     -778976.016        3592.866          38.000  
G01  22245565.068     -285751.542        1249.850          38.000  
G03  24996551.830      655958.900       -3075.855          38.000  
G11  21237590.243     -485028.373        2188.612          38.000  
> 2018 02 16 08 23 50.0000000  0  8                     
G30  22489136.433     -777363.172        3521.474          38.000  
G09  20319286.179      145395.588        -722.159          38.000  
G10  21274060.276      295721.644       -1442.847          38.000  
G23  22557343.905      451877.823       -2111.587          38.000  
G05  24071401.767     -782568.802        3593.155          38.000  
G01  22245327.302     -287000.914        1249.389          38.000  
G03  24997137.147      659034.782       -3075.627          38.000  
G11  21237173.841     -487216.570        2187.876          38.000  
> 2018 02 16 08 23 51.0000000  0  8                     
G30  22488466.452     -780883.921        3520.377          38.000  
G09  20319423.734      146118.373        -723.058          38.000  
G10  21274334.941      297165.096       -1443.880          38.000  
G23  22557745.797      453989.828       -2112.093          38.000  
G05  24070718.098     -786161.446        3592.584          38.000  
G01  22245089.680     -288249.597        1248.366          38.000  
G03  24997722.519      662110.859       -3076.212          38.000  
G11  21236757.636     -489403.793        2186.981          38.000  
> 2018 02 16 08 23 52.0000000  0  8                     
G30  22487796.596     -784404.010        3519.959          38.000  
G09  20319561.362      146841.583        -723.326          38.000  
G10  21274609.802      298609.508       -1444.638          38.000  
G23  22558147.708      456102.001       -2112.075          38.000  
G05  24070034.483     -789753.872        3592.593          38.000  
G01  22244852.219     -289497.486        1247.729          38.000  
G03  24998307.908      665187.192       -3076.261          38.000  
G11  21236341.609     -491590.024        2185.875          38.000  
> 2018 02 16 08 23 53.0000000  0  8                     
G30  22487126.865     -787923.571        3519.355          38.000  
G09  20319699.043      147565.122        -723.779          38.000  
G10  21274884.824      300054.772       -1445.611          38.000  
G23  22558549.653      458214.183       -2112.187          38.000  
G05  24069350.886     -793346.157        3592.212          39.000  
G01  22244614.900     -290744.671        1246.728          38.000  
G03  24998893.333      668263.677       -3076.649          38.000  
G11  21235925.762     -493775.376        2184.733          38.000  
> 2018 02 16 08 23 54.0000000  0  8                     
G30  22486457.223     -791442.617        3518.619          38.000  
G09  20319836.795      148288.946        -724.252          38.000  
G10  21275160.007      301500.838       -1446.876          38.000  
G23  22558951.599      460326.372       -2112.326          38.000  
G05  24068667.306     -796938.328        3591.956          38.000  
G01  22244377.707     -291991.227        1245.999          38.000  
G03  24999478.776      671340.236       -3076.903          38.000  
G11  21235510.074     -495959.934        2183.877          38.000  
> 2018 02 16 08 23 55.0000000  0  8                     
G30  22485787.671     -794961.042        3518.387          38.000  
G09  20319974.619      149013.189        -724.275          38.000  
G10  21275435.386      302947.961       -1447.294          38.000  
G23  22559353.563      462438.684       -2112.152          38.000  
G05  24067983.780     -800530.247        3591.997          38.000  
G01  22244140.656     -293236.969        1245.544          38.000  
G03  25000064.254      674417.011       -3076.738          38.000  
G11  21235094.620     -498143.366        2183.344          38.000  
> 2018 02 16 08 23 56.0000000  0  8                     
G30  22485118.279     -798478.762        3517.543          38.000  
G09  20320112.532      149737.924        -724.850          38.000  
G10  21275710.980      304396.119       -1448.507          38.000  
G23  22559755.562      464551.179       -2112.384          38.000  
G05  24067300.308     -804121.840        3591.632          38.000  
G01  22243903.784     -294481.823        1244.612          38.000  
G03  25000649.768      677494.036       -3076.934          38.000  
G11  21234679.361     -500325.715        2181.953          38.000  
> 2018 02 16 08 23 57.0000000  0  8                     
G30  22484448.959     -801996.137        3517.105          38.000  
G09  20320250.445      150462.804        -725.052          38.000  
G10  21275986.682      305844.995       -1449.337          38.000  
G23  22560157.526      466663.508       -2112.213          38.000  
G05  24066616.872     -807713.403        3591.510          38.000  
G01  22243666.984     -295726.128        1243.957          38.000  
G03  25001235.301      680570.985       -3076.954          38.000  
G11  21234264.210     -502507.318        2181.324          38.000  
> 2018 02 16 08 23 58.0000000  0  8                     
G30  22483779.693     -805513.125        3516.628          38.000  
G09  20320388.429      151187.903        -725.411          38.000  
G10  21276262.561      307294.600       -1450.299          38.000  
G23  22560559.472      468775.753       -2112.447          38.000  
G05  24065933.417     -811304.895        3591.384          38.000  
G01  22243430.309     -296969.827        1243.310          38.000  
G03  25001820.815      683647.904       -3077.030          38.000  
G11  21233849.220     -504688.103        2179.970          38.000  
> 2018 02 16 08 23 59.0000000  0  8                     
G30  22483110.516     -809029.694        3516.581          38.000  
G09  20320526.468      151913.232        -725.299          38.000  
G10  21276538.602      308745.103       -1450.747          38.000  
G23  22560961.382      470887.910       -2111.964          38.000  
G05  24065249.999     -814896.262        3591.446          38.000  
G01  22243193.759     -298212.865        1242.969          38.000  
G03  25002406.329      686724.783       -3076.701          38.000  
G11  21233434.409     -506867.950        2179.685          38.000  
> 2018 02 16 08 24 00.0000000  0  8                     
G30  22482441.410     -812545.682        3515.917          38.000  
G09  20320664.595      152638.969        -725.768          38.000  
G10  21276814.804      310196.576       -1451.774          38.000  
G23  22561363.310      473000.144       -2112.160          38.000  
G05  24064566.634     -818487.323        3591.011          38.000  
G01  22242957.387     -299455.056        1241.870          38.000  
G03  25002991.879      689801.810       -3077.015          38.000  
G11  21233019.812     -509046.767        2178.369          38.000  
> 2018 02 16 08 24 01.0000000  0  8                     
G30  22481772.448     -816061.175        3515.278          38.000  
G09  20320802.758      153365.012        -726.060          38.000  
G10  21277091.184      311648.937       -1452.752          38.000  
G23  22561765.238      475112.373       -2111.997          38.000  
G05  24063883.304     -822078.190        3590.975          38.000  
G01  22242721.123     -300696.531        1241.287          38.000  
G03  25003577.429      692878.845       -3076.955          38.000  
G11  21232605.340     -511224.659        2177.616          38.000  
> 2018 02 16 08 24 02.0000000  0  8                     
G30  22481103.557     -819576.242        3515.035          38.000  
G09  20320940.993      154091.367        -726.389          38.000  
G10  21277367.725      313102.135       -1453.710          38.000  
G23  22562167.166      477224.598       -2112.196          38.000  
G05  24063200.029     -825668.806        3590.574          39.000  
G01  22242485.038     -301937.243        1240.480          38.000  
G03  25004162.979      695955.894       -3076.958          38.000  
G11  21232191.100     -513401.617        2176.435          38.000  
> 2018 02 16 08 24 03.0000000  0  8                     
G30  22480434.791     -823090.685        3514.582          38.000  
G09  20321079.317      154818.182        -726.600          38.000  
G10  21277644.462      314556.431       -1454.295          38.000  
G23  22562569.147      479336.955       -2112.118          38.000  
G05  24062516.824     -829259.054        3590.441          38.000  
G01  22242249.095     -303177.043        1239.731          38.000  
G03  25004748.547      699033.086       -3076.855          38.000  
G11  21231777.057     -515577.390        2175.659          38.000  
> 2018 02 16 08 24 04.0000000  0  8                     
G30  22479766.132     -826604.651        3513.854          38.000  
G09  20321217.677      155545.342        -727.284          38.000  
G10  21277921.396      316011.656       -1455.467          38.000  
G23  22562971.111      481449.306       -2112.310          38.000  
G05  24061833.674     -832849.001        3589.780          39.000  
G01  22242013.313     -304416.043        1238.533          38.000  
G03  25005334.133      702110.302       -3077.126          38.000  
G11  21231363.175     -517752.197        2174.551          38.000  
> 2018 02 16 08 24 05.0000000  0  8                     
G30  22479097.527     -830118.199        3513.535          38.000  
G09  20321356.108      156272.779        -727.462          38.000  
G10  21278198.491      317467.758       -1456.417          38.000  
G23  22563373.074      483561.634       -2112.214          38.000  
G05  24061150.559     -836438.739        3589.740          39.000  
G01  22241777.674     -305654.325        1237.953          38.000  
G03  25005919.701      705187.475       -3077.069          38.000  
G11  21230949.507     -519926.043        2173.632          38.000  
> 2018 02 16 08 24 06.0000000  0  8                     
G30  22478428.975     -833631.503        3513.028          38.000  
G09  20321494.576      157000.357        -727.672          38.000  
G10  21278475.711      318924.517       -1457.385          38.000  
G23  22563774.985      485673.768       -2112.129          38.000  
G05  24060467.480     -840028.384        3589.548          38.000  
G01  22241542.125     -306891.000        1237.226          38.000  
G03  25006505.251      708264.432       -3076.940          38.000  
G11  21230535.982     -522099.145        2172.395          38.000  
> 2018 02 16 08 24 09.0000000  0  8                     
G30  22476423.785     -844168.710        3511.764          38.000  
G09  20321910.352      159185.275        -728.739          38.000  
G10  21279308.444      323300.526       -1459.910          38.000  
G23  22564980.804      492010.318       -2111.998          38.000  
G05  24058418.653     -850795.362        3588.508          38.000  
G01  22240836.459     -310600.061        1234.788          38.000  
G03  25008261.847      717495.262       -3076.801          38.000  
G11  21229296.568     -528612.259        2169.501          38.000  
> 2018 02 16 08 24 11.0000000  0  8                     
G30  22475087.396     -851191.430        3511.020          38.000  
G09  20322187.840      160643.650        -729.517          38.000  
G10  21279864.420      326222.383       -1461.526          38.000  
G23  22565784.696      496234.813       -2112.130          39.000  
G05  24057053.049     -857971.697        3587.839          38.000  
G01  22240366.844     -313067.997        1233.237          38.000  
G03  25009432.858      723648.966       -3076.729          38.000  
G11  21228471.234     -532949.456        2167.787          38.000  
> 2018 02 16 08 24 12.0000000  0  8                     
G30  22474419.291     -854702.200        3510.868          38.000  
G09  20322326.682      161373.355        -729.623          39.000  
G10  21280142.712      327684.708       -1462.559          38.000  
G23  22566186.659      498347.094       -2112.033          39.000  
G05  24056370.345     -861559.359        3587.700          38.000  
G01  22240132.259     -314300.711        1232.397          39.000  
G03  25010018.336      726725.738       -3076.488          39.000  
G11  21228058.835     -535116.537        2166.768          38.000  
> 2018 02 16 08 24 13.0000000  0  8                     
G30  22473751.294     -858212.648        3510.220          38.000  
G09  20322465.578      162103.349        -729.986          38.000  
G10  21280421.130      329147.829       -1463.538          39.000  
G23  22566588.605      500459.324       -2112.275          38.000  
G05  24055687.677     -865146.745        3587.266          38.000  
G01  22239897.835     -315532.674        1231.516          38.000  
G03  25010603.797      729802.380       -3076.622          38.000  
G11  21227646.632     -537282.748        2165.633          38.000  
> 2018 02 16 08 24 14.0000000  0  8                     
G30  22473083.314     -861722.800        3510.078          38.000  
G09  20322604.564      162833.664        -730.480          38.000  
G10  21280699.726      330611.744       -1464.376          38.000  
G23  22566990.551      502571.531       -2112.178          38.000  
G05  24055005.080     -868733.817        3586.888          38.000  
G01  22239663.555     -316763.855        1230.744          38.000  
G03  25011189.222      732878.897       -3076.600          38.000  
G11  21227234.590     -539448.113        2164.807          38.000  
> 2018 02 16 08 24 15.0000000  0  8                     
G30  22472415.423     -865232.540        3509.659          38.000  
G09  20322743.585      163564.380        -730.895          38.000  
G10  21280978.465      332076.626       -1465.342          38.000  
G23  22567392.515      504683.825       -2112.216          38.000  
G05  24054322.537     -872320.483        3586.477          38.000  
G01  22239429.435     -317994.156        1229.900          38.000  
G03  25011774.665      735955.373       -3076.470          38.000  
G11  21226822.745     -541612.406        2163.812          38.000  
> 2018 02 16 08 24 16.0000000  0  8                     
G30  22471747.622     -868741.867        3509.067          38.000  
G09  20322882.713      164295.521        -731.457          38.000  
G10  21281257.382      333542.427       -1466.376          38.000  
G23  22567794.460      506796.230       -2112.492          38.000  
G05  24053640.066     -875906.756        3586.030          38.000  
G01  22239195.476     -319223.586        1229.022          38.000  
G03  25012360.125      739031.825       -3076.531          38.000  
G11  21226411.079     -543775.721        2162.660          38.000  
> 2018 02 16 08 24 17.0000000  0  8                     
G30  22471079.875     -872250.931        3509.028          38.000  
G09  20323021.912      165026.969        -731.489          38.000  
G10  21281536.478      335009.018       -1466.814          38.000  
G23  22568196.442      508908.619       -2112.298          38.000  
G05  24052957.665     -879492.697        3585.972          38.000  
G01  22238961.677     -320452.194        1228.401          38.000  
G03  25012945.532      742108.133       -3076.066          38.000  
G11  21225999.573     -545938.177        2162.078          38.000  
> 2018 02 16 08 24 18.0000000  0  8                     
G30  22470412.216     -875759.585        3508.513          38.000  
G09  20323161.201      165758.875        -732.094          38.000  
G10  21281815.736      336476.548       -1467.879          38.000  
G23  22568598.477      511021.142       -2112.404          38.000  
G05  24052275.390     -883078.181        3585.337          38.000  
G01  22238728.058     -321679.906        1227.384          38.000  
G03  25013530.922      745184.440       -3076.161          38.000  
G11  21225588.228     -548099.680        2161.211          38.000  
> 2018 02 16 08 24 19.0000000  0  8                     
G30  22469744.594     -879267.990        3508.630          38.000  
G09  20323300.526      166491.083        -732.022          38.000  
G10  21282095.153      337944.864       -1468.391          38.000  
G23  22569000.494      513133.667       -2112.258          38.000  
G05  24051593.151     -886663.344        3585.279          38.000  
G01  22238494.563     -322906.826        1226.759          38.000  
G03  25014116.293      748260.590       -3075.769          38.000  
G11  21225177.080     -550260.269        2160.422          38.000  
> 2018 02 16 08 24 22.0000000  0  8                     
G30  22467741.977     -889791.859        3507.781          38.000  
G09  20323718.876      168689.603        -733.321          38.000  
G10  21282934.265      342354.366       -1470.879          38.000  
G23  22570206.510      519471.254       -2112.446          38.000  
G05  24049546.773     -897417.015        3584.084          38.000  
G01  22237795.009     -326583.040        1224.246          38.000  
G03  25015872.246      757488.016       -3075.449          38.000  
G11  21223944.510     -556737.287        2157.959          38.000  
> 2018 02 16 08 24 23.0000000  0  8                     
G30  22467074.497     -893299.328        3507.419          38.000  
G09  20323858.469      169423.131        -733.565          38.000  
G10  21283214.272      343825.703       -1471.489          38.000  
G23  22570608.528      521583.880       -2112.503          38.000  
G05  24048864.784     -901000.900        3583.847          38.000  
G01  22237562.158     -327806.854        1223.508          38.000  
G03  25016457.474      760563.543       -3075.277          38.000  
G11  21223533.969     -558894.679        2157.201          38.000  
> 2018 02 16 08 24 24.0000000  0  8                     
G30  22466407.089     -896806.558        3507.142          38.000  
G09  20323998.133      170157.053        -734.008          38.000  
G10  21283494.423      345297.858       -1472.314          38.000  
G23  22571010.581      523696.590       -2112.681          38.000  
G05  24048182.884     -904584.405        3583.326          38.000  
G01  22237329.431     -329029.862        1222.684          38.000  
G03  25017042.721      763638.951       -3075.101          38.000  
G11  21223123.589     -561051.239        2156.328          38.000  
> 2018 02 16 08 24 25.0000000  0  8                     
G30  22465739.735     -900313.586        3506.655          38.000  
G09  20324137.869      170891.328        -734.651          38.000  
G10  21283774.716      346770.755       -1473.486          38.000  
G23  22571412.634      525809.374       -2113.026          38.000  
G05  24047501.002     -908167.585        3582.835          38.000  
G01  22237096.848     -330252.075        1221.581          38.000  
G03  25017627.913      766714.248       -3075.331          38.000  
G11  21222713.352     -563207.044        2155.314          38.000  
> 2018 02 16 08 24 26.0000000  0  8                     
G30  22465072.416     -903820.301        3506.722          38.000  
G09  20324277.694      171626.081        -734.918          38.000  
G10  21284055.135      348244.476       -1473.948          38.000  
G23  22571814.723      527922.353       -2113.021          38.000  
G05  24046819.263     -911750.297        3582.561          38.000  
G01  22236864.462     -331473.404        1221.085          38.000  
G03  25018213.124      769789.504       -3075.176          38.000  
G11  21222303.294     -565361.985        2154.789          38.000  
> 2018 02 16 08 24 27.0000000  0  8                     
G30  22464405.133     -907326.864        3506.410          38.000  
G09  20324417.572      172361.129        -735.216          38.000  
G10  21284335.714      349718.857       -1474.951          38.000  
G23  22572216.811      530035.356       -2113.070          38.000  
G05  24046137.542     -915332.743        3582.256          38.000  
G01  22236632.182     -332694.003        1220.297          38.000  
G03  25018798.263      772864.559       -3074.993          38.000  
G11  21221893.361     -567516.266        2153.872          38.000  
> 2018 02 16 08 24 28.0000000  0  8                     
G30  22463737.886     -910833.178        3506.427          38.000  
G09  20324557.541      173096.642        -735.538          39.000  
G10  21284616.419      351194.010       -1475.504          38.000  
G23  22572618.936      532148.524       -2112.973          38.000  
G05  24045455.910     -918914.756        3581.905          38.000  
G01  22236400.063     -333913.733        1219.604          38.000  
G03  25019383.438      775939.585       -3074.802          38.000  
G11  21221483.570     -569669.739        2153.279          38.000  
> 2018 02 16 08 24 29.0000000  0  8                     
G30  22463070.693     -914339.293        3505.956          38.000  
G09  20324697.562      173832.540        -736.109          38.000  
G10  21284897.302      352669.867       -1476.405          38.000  
G23  22573021.114      534261.838       -2113.446          38.000  
G05  24044774.332     -922496.442        3581.331          38.000  
G01  22236168.088     -335132.701        1218.543          38.000  
G03  25019968.577      779014.467       -3074.923          38.000  
G11  21221073.905     -571822.515        2152.432          38.000  
> 2018 02 16 08 24 30.0000000  0  8                     
G30  22462403.517     -917845.298        3505.858          38.000  
G09  20324837.673      174568.758        -736.373          38.000  
G10  21285178.275      354146.351       -1476.844          38.000  
G23  22573423.274      536375.190       -2113.449          38.000  
G05  24044092.807     -926077.862        3581.326          38.000  
G01  22235936.219     -336350.943        1217.760          38.000  
G03  25020553.698      782089.181       -3074.674          38.000  
G11  21220664.365     -573974.670        2151.979          38.000  
> 2018 02 16 08 24 31.0000000  0  8                     
G30  22461736.377     -921351.040        3505.704          38.000  
G09  20324977.856      175305.469        -736.816          38.000  
G10  21285459.390      355623.581       -1477.656          38.000  
G23  22573825.524      538488.785       -2113.565          38.000  
G05  24043411.408     -929658.829        3580.681          38.000  
G01  22235704.565     -337568.342        1217.178          38.000  
G03  25021138.801      785163.876       -3074.542          38.000  
G11  21220255.004     -576126.089        2151.150          38.000  
> 2018 02 16 08 24 32.0000000  0  8                     
G30  22461069.326     -924856.556        3505.644          38.000  
G09  20325118.128      176042.661        -737.363          38.000  
G10  21285740.649      357101.551       -1478.370          38.000  
G23  22574227.791      540602.598       -2113.625          38.000  
G05  24042730.062     -933239.409        3580.410          38.000  
G01  22235473.072     -338784.888        1216.337          38.000  
G03  25021723.869      788238.542       -3074.468          38.000  
G11  21219845.767     -578276.797        2150.583          38.000  
> 2018 02 16 08 24 33.0000000  0  8                     
G30  22460402.258     -928361.923        3505.421          38.000  
G09  20325258.489      176780.205        -737.550          38.000  
G10  21286021.996      358580.139       -1478.958          38.000  
G23  22574630.059      542716.565       -2113.990          38.000  
G05  24042048.716     -936819.694        3580.094          38.000  
G01  22235241.722     -340000.716        1215.626          38.000  
G03  25022308.936      791313.083       -3074.341          38.000  
G11  21219436.656     -580426.872        2149.786          38.000  
> 2018 02 16 08 24 34.0000000  0  8                     
G30  22459735.261     -931867.113        3505.146          38.000  
G09  20325398.903      177518.204        -738.081          38.000  
G10  21286303.487      360059.397       -1479.325          38.000  
G23  22575032.380      544830.720       -2114.266          38.000  
G05  24041367.460     -940399.639        3579.911          38.000  
G01  22235010.515     -341215.741        1214.704          38.000  
G03  25022894.039      794387.568       -3074.366          38.000  
G11  21219027.634     -582576.314        2149.436          38.000  
> 2018 02 16 08 24 35.0000000  0  8                     
G30  22459068.282     -935372.083        3504.859          38.000  
G09  20325539.443      178256.701        -738.572          38.000  
G10  21286585.103      361539.345       -1480.325          38.000  
G23  22575434.719      546945.130       -2114.390          38.000  
G05  24040686.311     -943979.155        3579.344          38.000  
G01  22234779.468     -342429.953        1213.878          38.000  
G03  25023479.107      797462.048       -3074.301          38.000  
G11  21218618.737     -584725.157        2148.632          38.000  
> 2018 02 16 08 24 36.0000000  0  8                     
G30  22458401.320     -938876.943        3505.025          38.000  
G09  20325680.055      178995.569        -738.727          38.000  
G10  21286866.808      363019.843       -1480.457          38.000  
G23  22575837.129      549059.736       -2114.671          38.000  
G05  24040005.197     -947558.433        3579.345          38.000  
G01  22234548.529     -343643.473        1213.456          38.000  
G03  25024064.157      800536.405       -3074.038          38.000  
G11  21218209.894     -586873.443        2148.030          38.000  
> 2018 02 16 08 24 37.0000000  0  8                     
G30  22457734.395     -942381.578        3504.810          38.000  
G09  20325820.791      179734.968        -739.491          38.000  
G10  21287148.674      364501.072       -1481.409          39.000  
G23  22576239.575      551174.589       -2114.832          38.000  
G05  24039324.155     -951137.304        3578.792          38.000  
G01  22234317.768     -344856.142        1212.396          38.000  
G03  25024649.206      803610.806       -3074.271          38.000  
G11  21217801.212     -589021.111        2147.536          38.000  
> 2018 02 16 08 24 38.0000000  0  8                     
G30  22457067.576     -945885.790        3503.949          38.000  
G09  20325961.617      180475.037        -740.389          39.000  
G10  21287430.701      365983.146       -1482.272          38.000  
G23  22576642.111      553289.937       -2115.427          38.000  
G05  24038643.220     -954715.628        3578.128          39.000  
G01  22234087.187     -346067.848        1211.265          38.000  
G03  25025234.292      806685.412       -3074.730          39.000  
G11  21217392.672     -591167.956        2146.909          39.000  
> 2018 02 16 08 24 39.0000000  0  8                     
G30  22456400.812     -949389.687        3504.082          38.000  
G09  20326102.550      181215.769        -740.621          38.000  
G10  21287712.853      367465.951       -1482.810          38.000  
G23  22577044.700      555405.755       -2115.547          38.000  
G05  24037962.357     -958293.445        3578.051          38.000  
G01  22233856.783     -347278.609        1210.709          38.000  
G03  25025819.413      809760.169       -3074.411          38.000  
G11  21216984.276     -593314.174        2146.237          38.000  
> 2018 02 16 08 24 40.0000000  0  8                     
G30  22455733.993     -952893.833        3503.752          38.000  
G09  20326243.483      181956.535        -741.257          38.000  
G10  21287995.022      368948.936       -1483.524          38.000  
G23  22577447.307      557521.385       -2115.921          38.000  
G05  24037281.511     -961871.369        3577.534          38.000  
G01  22233626.416     -348489.078        1210.011          38.000  
G03  25026404.427      812834.505       -3074.437          38.000  
G11  21216575.897     -595460.262        2145.541          38.000  
> 2018 02 16 08 24 41.0000000  0  8                     
G30  22455067.282     -956397.382        3502.996          38.000  
G09  20326384.595      182698.213        -742.413          38.000  
G10  21288277.407      370432.946       -1484.665          38.000  
G23  22577850.039      559637.772       -2117.014          38.000  
G05  24036600.791     -965448.558        3576.610          38.000  
G01  22233396.281     -349698.335        1208.389          38.000  
G03  25026989.548      815909.312       -3075.344          38.000  
G11  21216167.679     -597605.415        2144.409          38.000  
> 2018 02 16 08 24 42.0000000  0  8                     
G30  22454400.696     -959900.322        3502.981          38.000  
G09  20326525.921      183440.846        -742.819          38.000  
G10  21288559.969      371918.032       -1485.020          38.000  
G23  22578252.914      561754.898       -2117.052          38.000  
G05  24035920.213     -969024.985        3576.326          38.000  
G01  22233166.396     -350906.415        1207.679          38.000  
G03  25027574.759      818984.583       -3075.145          38.000  
G11  21215759.640     -599749.592        2144.420          38.000  
> 2018 02 16 08 24 43.0000000  0  8                     
G30  22453734.182     -963402.823        3502.456          38.000  
G09  20326667.408      184184.211        -743.618          38.000  
G10  21288842.693      373403.855       -1486.083          38.000  
G23  22578655.878      563872.612       -2117.800          38.000  
G05  24035239.743     -972600.887        3575.877          38.000  
G01  22232936.672     -352113.545        1206.979          38.000  
G03  25028160.023      822060.144       -3075.500          38.000  
G11  21215351.690     -601893.159        2143.301          38.000  
> 2018 02 16 08 24 44.0000000  0  8                     
G30  22453067.721     -966905.109        3502.190          38.000  
G09  20326808.948      184928.131        -744.122          38.000  
G10  21289125.524      374890.316       -1486.854          38.000  
G23  22579058.932      565990.701       -2118.300          38.000  
G05  24034559.291     -976176.425        3575.444          39.000  
G01  22232707.090     -353319.855        1205.972          38.000  
G03  25028745.323      825135.828       -3075.790          38.000  
G11  21214943.883     -604036.205        2142.705          38.000  
> 2018 02 16 08 24 45.0000000  0  8                     
G30  22452401.278     -970407.344        3502.165          38.000  
G09  20326950.578      185672.449        -744.595          38.000  
G10  21289408.480      376377.209       -1487.293          38.000  
G23  22579462.039      568109.020       -2118.553          38.000  
G05  24033878.892     -979751.800        3575.277          38.000  
G01  22232477.652     -354525.576        1205.364          38.000  
G03  25029330.587      828211.466       -3075.674          38.000  
G11  21214536.148     -606178.930        2142.334          38.000  
> 2018 02 16 08 24 46.0000000  0  8                     
G30  22451734.852     -973909.439        3502.282          38.000  
G09  20327092.297      186417.208        -744.567          38.000  
G10  21289691.507      377864.598       -1487.159          38.000  
G23  22579865.200      570227.629       -2118.386          38.000  
G05  24033198.564     -983326.963        3575.413          38.000  
G01  22232248.339     -355730.657        1205.040          38.000  
G03  25029915.851      831287.120       -3075.343          38.000  
G11  21214128.430     -608321.259        2142.977          38.000  
> 2018 02 16 08 24 47.0000000  0  8                     
G30  22451068.445     -977411.402        3502.156          38.000  
G09  20327234.124      187162.480        -745.249          38.000  
G10  21289974.642      379352.443       -1487.892          38.000  
G23  22580268.432      572346.602       -2118.895          38.000  
G05  24032518.291     -986901.885        3575.048          38.000  
G01  22232019.169     -356935.053        1204.258          38.000  
G03  25030501.151      834362.861       -3075.544          38.000  
G11  21213720.820     -610463.299        2141.908          38.000  
> 2018 02 16 08 24 48.0000000  0  8                     
G30  22450402.091     -980913.285        3501.947          38.000  
G09  20327376.022      187908.148        -745.664          38.000  
G10  21290257.884      380840.717       -1488.551          38.000  
G23  22580671.718      574465.819       -2119.131          38.000  
G05  24031838.053     -990476.657        3574.779          38.000  
G01  22231790.088     -358138.844        1203.444          38.000  
G03  25031086.433      837438.597       -3075.569          38.000  
G11  21213313.246     -612605.048        2141.530          38.000  
> 2018 02 16 08 24 49.0000000  0  8                     
G30  22449735.756     -984414.937        3501.876          38.000  
G09  20327518.027      188654.403        -746.266          38.000  
G10  21290541.197      382329.545       -1488.840          38.000  
G23  22581075.111      576585.520       -2119.751          38.000  
G05  24031157.833     -994051.146        3574.688          38.000  
G01  22231561.150     -359341.920        1202.865          38.000  
G03  25031671.768      840514.517       -3075.611          38.000  
G11  21212905.796     -614746.391        2141.368          38.000  
> 2018 02 16 08 24 50.0000000  0  8                     
G30  22449069.402     -987916.576        3501.668          38.000  
G09  20327660.103      189401.006        -746.820          38.000  
G10  21290824.564      383818.733       -1489.148          38.000  
G23  22581478.487      578705.389       -2119.908          38.000  
G05  24030477.648     -997625.582        3574.495          38.000  
G01  22231332.301     -360544.524        1202.470          38.000  
G03  25032257.086      843590.402       -3075.834          38.000  
G11  21212498.311     -616887.515        2141.539          38.000  
> 2018 02 16 08 24 51.0000000  0  8                     
G30  22448403.084     -991418.115        3501.758          38.000  
G09  20327802.233      190148.051        -747.028          38.000  
G10  21291108.003      385308.253       -1489.533          38.000  
G23  22581881.969      580825.607       -2120.168          38.000  
G05  24029797.464    -1001199.884        3574.595          38.000  
G01  22231103.596     -361746.503        1201.852          38.000  
G03  25032842.475      846666.366       -3075.710          38.000  
G11  21212090.879     -619028.516        2141.022          38.000  
> 2018 02 16 08 24 52.0000000  0  8                     
G30  22447736.819     -994919.413        3501.341          38.000  
G09  20327944.507      190895.677        -747.938          38.000  
G10  21291391.548      386798.325       -1490.358          38.000  
G23  22582285.488      582946.274       -2120.745          38.000  
G05  24029117.387    -1004773.920        3574.011          38.000  
G01  22230875.033     -362947.801        1201.034          38.000  
G03  25033427.846      849742.538       -3076.259          38.000  
G11  21211683.519     -621169.117        2140.409          38.000  
> 2018 02 16 08 24 53.0000000  0  8                     
G30  22447070.609     -998420.556        3501.156          38.000  
G09  20328086.851      191643.767        -748.092          38.000  
G10  21291675.201      388288.822       -1490.516          38.000  
G23  22582689.095      585067.322       -2121.132          38.000  
G05  24028437.292    -1008347.818        3573.970          39.000  
G01  22230646.542     -364148.509        1200.719          38.000  
G03  25034013.236      852818.827       -3076.164          38.000  
G11  21211276.213     -623309.476        2140.438          38.000  
> 2018 02 16 08 24 54.0000000  0  8                     
G30  22446404.451    -1001921.373        3500.581          38.000  
G09  20328229.321      192392.558        -749.134          38.000  
G10  21291958.979      389779.954       -1491.149          38.000  
G23  22583092.810      587188.934       -2121.923          38.000  
G05  24027757.268    -1011921.382        3573.407          38.000  
G01  22230418.212     -365348.403        1199.460          38.000  
G03  25034598.696      855895.476       -3076.890          38.000  
G11  21210869.013     -625449.341        2140.212          38.000  
> 2018 02 16 08 24 55.0000000  0  8                     
G30  22445738.312    -1005421.952        3500.795          38.000  
G09  20328371.916      193141.928        -749.353          38.000  
G10  21292242.775      391271.513       -1491.547          38.000  
G23  22583496.632      589311.021       -2121.967          38.000  
G05  24027077.298    -1015494.757        3573.795          38.000  
G01  22230190.024     -366547.663        1199.284          38.000  
G03  25035184.193      858972.343       -3076.672          38.000  
G11  21210461.868     -627589.024        2139.755          38.000  
> 2018 02 16 08 24 56.0000000  0  8                     
G30  22445072.173    -1008922.464        3500.554          39.000  
G09  20328514.582      193891.658        -749.943          38.000  
G10  21292526.696      392763.405       -1492.124          38.000  
G23  22583900.543      591433.414       -2122.565          38.000  
G05  24026397.311    -1019068.091        3573.288          38.000  
G01  22229961.908     -367746.429        1198.469          38.000  
G03  25035769.725      862049.295       -3076.987          38.000  
G11  21210054.722     -629728.595        2139.485          38.000  
> 2018 02 16 08 24 57.0000000  0  8                     
G30  22444406.069    -1012422.798        3500.138          38.000  
G09  20328657.320      194641.896        -750.321          38.000  
G10  21292810.670      394255.664       -1492.361          39.000  
G23  22584304.473      593556.175       -2122.763          38.000  
G05  24025717.341    -1022641.358        3573.321          38.000  
G01  22229733.899     -368944.643        1197.960          39.000  
G03  25036355.257      865126.422       -3077.138          38.000  
G11  21209647.612     -631867.952        2139.308          38.000  
> 2018 02 16 08 24 58.0000000  0  8                     
G30  22443739.984    -1015923.038        3500.391          38.000  
G09  20328800.165      195392.559        -750.601          38.000  
G10  21293094.716      395748.303       -1492.439          38.000  
G23  22584708.473      595679.307       -2123.148          38.000  
G05  24025037.389    -1026214.580        3573.304          38.000  
G01  22229505.980     -370142.379        1197.536          38.000  
G03  25036940.861      868203.710       -3077.278          38.000  
G11  21209240.538     -634007.095        2139.555          38.000  
> 2018 02 16 08 24 59.0000000  0  8                     
G30  22443073.987    -1019422.998        3499.742          38.000  
G09  20328943.117      196143.810        -751.589          38.000  
G10  21293378.816      397241.352       -1493.457          38.000  
G23  22585112.581      597802.922       -2123.926          38.000  
G05  24024357.454    -1029787.635        3572.677          39.000  
G01  22229278.186     -371339.468        1196.680          38.000  
G03  25037526.500      871281.284       -3077.935          38.000  
G11  21208833.482     -636146.171        2138.847          38.000  
> 2018 02 16 08 25 00.0000000  0  8                     
G30  22442408.027    -1022922.568        3499.480          38.000  
G09  20329086.230      196895.755        -752.148          38.000  
G10  21293663.023      398734.978       -1493.767          38.000  
G23  22585516.814      599927.140       -2124.317          38.000  
G05  24023677.574    -1033360.452        3572.826          38.000  
G01  22229050.499     -372535.839        1196.274          38.000  
G03  25038112.193      874359.265       -3077.964          38.000  
G11  21208426.532     -638284.806        2138.510          38.000  
> 2018 02 16 08 25 01.0000000  0  8                     
G30  22441742.155    -1026421.803        3499.314          38.000  
G09  20329229.432      197648.336        -752.665          38.000  
G10  21293947.337      400229.142       -1494.101          38.000  
G23  22585921.137      602051.947       -2124.834          38.000  
G05  24022997.729    -1036933.058        3572.765          38.000  
G01  22228822.954     -373731.520        1195.656          38.000  
G03  25038697.975      877437.648       -3078.328          38.000  
G11  21208019.619     -640423.148        2138.500          38.000  
> 2018 02 16 08 25 02.0000000  0  8                     
G30  22441076.302    -1029920.898        3498.950          38.000  
G09  20329372.724      198401.343        -753.184          38.000  
G10  21294231.758      401723.840       -1495.572          38.000  
G23  22586325.549      604177.103       -2125.300          38.000  
G05  24022317.866    -1040505.697        3572.742          38.000  
G01  22228595.518     -374926.742        1195.051          38.000  
G03  25039283.793      880516.229       -3078.649          38.000  
G11  21207612.866     -642560.780        2134.994          38.000  
> 2018 02 16 08 25 03.0000000  0  8                     
G30  22440410.502    -1033419.658        3498.117          38.000  
G09  20329516.123      199154.945        -753.706          38.000  
G10  21294516.322      403219.186       -1495.256          38.000  
G23  22586730.067      606302.789       -2125.894          38.000  
G05  24021638.039    -1044078.188        3572.706          38.000  
G01  22228368.188     -376121.349        1194.313          38.000  
G03  25039869.701      883595.163       -3079.182          38.000  
G11  21207206.203     -644697.801        2136.823          38.000  
> 2018 02 16 08 25 04.0000000  0  8                     
G30  22439744.774    -1036918.145        3498.732          38.000  
G09  20329659.647      199909.143        -753.996          38.000  
G10  21294801.012      404715.094       -1495.713          38.000  
G23  22587134.676      608428.990       -2126.136          38.000  
G05  24020958.248    -1047650.577        3572.753          38.000  
G01  22228140.965     -377315.372        1194.114          38.000  
G03  25040455.662      886674.459       -3079.110          38.000  
G11  21206799.647     -646834.235        2136.702          38.000  
> 2018 02 16 08 25 05.0000000  0  8                     
G30  22439079.081    -1040416.356        3498.259          38.000  
G09  20329803.242      200663.839        -754.767          38.000  
G10  21295085.754      406211.535       -1496.568          38.000  
G23  22587539.373      610555.624       -2126.714          38.000  
G05  24020278.421    -1051222.943        3572.604          38.000  
G01  22227913.832     -378508.870        1193.328          38.000  
G03  25041041.694      889754.051       -3079.467          38.000  
G11  21206393.234     -648970.142        2135.757          38.000  
> 2018 02 16 08 25 06.0000000  0  8                     
G30  22438413.353    -1043914.694        3498.900          38.000  
G09  20329946.874      201418.659        -754.215          38.000  
G10  21295370.551      407708.080       -1495.923          38.000  
G23  22587944.089      612682.337       -2126.195          38.000  
G05  24019598.576    -1054795.657        3573.447          38.000  
G01  22227686.717     -379702.242        1193.838          38.000  
G03  25041627.709      892833.596       -3078.961          38.000  
G11  21205986.803     -651105.970        2136.280          38.000  
> 2018 02 16 08 25 07.0000000  0  8                     
G30  22437747.535    -1047413.416        3498.492          38.000  
G09  20330090.469      202173.376        -755.104          38.000  
G10  21295655.294      409204.495       -1496.847          38.000  
G23  22588348.751      614808.853       -2126.779          38.000  
G05  24018918.588    -1058369.018        3573.286          38.000  
G01  22227459.584     -380895.747        1193.141          38.000  
G03  25042213.670      895912.834       -3079.485          38.000  
G11  21205580.354     -653241.949        2135.600          38.000  
> 2018 02 16 08 25 08.0000000  0  8                     
G30  22437081.789    -1050911.763        3498.544          38.000  
G09  20330234.190      202928.678        -755.276          38.000  
G10  21295940.162      410701.492       -1496.922          38.000  
G23  22588753.520      616935.918       -2126.962          38.000  
G05  24018238.618    -1061942.289        3573.545          38.000  
G01  22227232.576     -382088.667        1193.021          38.000  
G03  25042799.702      898992.489       -3079.511          38.000  
G11  21205174.013     -655377.338        2135.478          38.000  
> 2018 02 16 08 25 09.0000000  0  8                     
G30  22436416.132    -1054409.757        3498.030          38.000  
G09  20330378.053      203684.528        -755.832          38.000  
G10  21296225.137      412199.039       -1497.559          38.000  
G23  22589158.378      619063.479       -2127.515          38.000  
G05  24017558.631    -1065515.530        3573.551          38.000  
G01  22227005.675     -383281.033        1192.334          38.000  
G03  25043385.824      902072.555       -3080.045          38.000  
G11  21204767.761     -657512.163        2134.797          38.000  
> 2018 02 16 08 25 10.0000000  0  8                     
G30  22435750.565    -1057907.386        3497.082          38.000  
G09  20330521.988      204440.967        -756.946          38.000  
G10  21296510.219      413697.146       -1498.626          38.000  
G23  22589563.344      621191.595       -2128.859          38.000  
G05  24016878.696    -1069088.698        3572.788          38.000  
G01  22226778.899     -384472.846        1191.168          38.000  
G03  25043972.017      905153.062       -3081.065          38.000  
G11  21204361.633     -659646.420        2133.521          38.000  
