     2.11           O                   G                   RINEX VERSION / TYPE
WALKEGNOS           ISMB                  20180216  082111  PGM / RUN BY / DATE 
                                                            COMMENT             
                                                            MARKER NAME         
1                                                           MARKER NUMBER       
NavSAS              ISMB / POLITO                           OBSERVER / AGENCY   
1                                    NVSFW ver              REC # / TYPE / VERS 
1                   PATCH                                   ANT # / TYPE        
        0.0000        0.0000        0.0000                  APPROX POSITION XYZ 
        0.0000        0.0000        0.0000                  ANTENNA: DELTA H/E/N
     1     0                                                WAVELENGTH FACT L1/2
     4    L1    C1    D1    S1                              # / TYPES OF OBSERV 
     1.000                                                  INTERVAL            
  2018    02    16     8    21   11.0000000     GPS         TIME OF FIRST OBS   
                                                            END OF HEADER       
 18  2 16  8 21 11.0000000  2  1
            *** FROM NOW ON KINEMATIC DATA! ***             COMMENT             
 18  2 16  8 21 11.0000000  0  8G30G03G05G09G10G11G01G23             0.000308839
   -208337.430    22468232.928        3587.574          42.000  
    181611.652    24776261.282       -3038.518          43.000  
   -216679.657    24051929.375        3611.871          43.000  
     35966.586    20170088.771        -652.009          43.000  
     74435.463    21103550.378       -1333.550          43.000  
   -136887.714    21176222.425        2280.586          43.000  
    -82059.660    22156200.976        1351.306          42.000  
    121241.484    22365692.684       -2071.626          43.000  
 18  2 16  8 21 12.0000000  0  8G30G03G05G09G10G11G01G23             0.000309022
   -211924.476    22467550.403        3586.920          43.000  
    184650.761    24776839.559       -3039.200          43.000  
   -220291.226    24051242.132        3611.689          43.000  
     36619.131    20170212.943        -652.797          43.000  
     75769.703    21103804.296       -1334.374          43.000  
   -139167.786    21175788.548        2279.922          43.000  
    -83410.383    22155943.930        1350.491          43.000  
    123313.602    22366086.999       -2072.202          43.000  
 18  2 16  8 21 13.0000000  0  8G30G03G05G09G10G11G01G23             0.000309205
   -215511.075    22466867.878        3586.702          43.000  
    187690.328    24777417.979       -3039.441          43.000  
   -223902.908    24050554.872        3612.075          43.000  
     37272.146    20170337.240        -652.941          43.000  
     77104.443    21104058.305       -1334.565          43.000  
   -141447.599    21175354.741        2280.128          43.000  
    -84760.658    22155686.973        1350.341          43.000  
    125386.101    22366481.351       -2072.292          43.000  
 18  2 16  8 21 14.0000000  0  8G30G03G05G09G10G11G01G23             0.000309387
   -219097.539    22466185.371        3586.251          43.000  
    190730.040    24777996.453       -3039.971          43.000  
   -227515.020    24049867.540        3612.222          43.000  
     37925.316    20170461.519        -653.363          43.000  
     78439.389    21104312.348       -1335.310          43.000  
   -143727.363    21174920.917        2279.770          43.000  
    -86110.796    22155430.070        1350.008          43.000  
    127458.683    22366875.738       -2072.784          43.000  
 18  2 16  8 21 15.0000000  0  8G30G03G05G09G10G11G01G23             0.000309570
   -222683.449    22465503.024        3585.776          43.000  
    193770.290    24778574.998       -3040.370          43.000  
   -231127.136    24049180.172        3612.350          43.000  
     38579.042    20170585.923        -653.930          43.000  
     79774.973    21104566.464       -1335.720          43.000  
   -146006.831    21174487.129        2279.469          43.000  
    -87460.375    22155173.275        1349.623          43.000  
    129531.718    22367270.197       -2073.147          43.000  
 18  2 16  8 21 16.0000000  0  8G30G03G05G09G10G11G01G23             0.000309753
   -226268.981    22464820.731        3585.376          43.000  
    196810.914    24779153.579       -3040.756          43.000  
   -234739.446    24048492.768        3612.454          43.000  
     39233.138    20170710.399        -654.272          43.000  
     81110.987    21104820.722       -1336.164          43.000  
   -148286.057    21174053.412        2279.235          43.000  
    -88809.562    22154916.515        1349.025          43.000  
    131605.027    22367664.709       -2073.396          43.000  
 18  2 16  8 21 17.0000000  0  8G30G03G05G09G10G11G01G23             0.000309936
   -229854.126    22464138.528        3585.056          43.000  
    199851.875    24779732.250       -3040.964          43.000  
   -238351.976    24047805.347        3612.818          43.000  
     39887.569    20170834.928        -654.359          43.000  
     82447.453    21105075.070       -1336.501          43.000  
   -150565.027    21173619.749        2279.055          43.000  
    -90158.401    22154659.880        1348.755          43.000  
    133678.586    22368059.275       -2073.526          43.000  
 18  2 16  8 21 18.0000000  0  8G30G03G05G09G10G11G01G23             0.000310119
   -233438.774    22463456.378        3584.548          43.000  
    202893.306    24780311.028       -3041.405          43.000  
   -241964.584    24047117.872        3612.752          42.000  
     40542.489    20170959.547        -654.956          43.000  
     83784.477    21105329.525       -1337.329          43.000  
   -152843.591    21173186.121        2278.625          43.000  
    -91506.759    22154403.298        1348.283          43.000  
    135752.507    22368453.966       -2073.930          43.000  
 18  2 16  8 21 19.0000000  0  8G30G03G05G09G10G11G01G23             0.000310303
   -237022.898    22462774.353        3584.025          43.000  
    205935.218    24780889.912       -3041.994          43.000  
   -245577.267    24046430.397        3612.847          42.000  
     41197.886    20171084.273        -655.649          43.000  
     85122.129    21105584.051       -1337.742          43.000  
   -155121.811    21172752.618        2278.176          43.000  
    -92854.620    22154146.824        1347.767          43.000  
    137826.795    22368848.710       -2074.393          43.000  
 18  2 16  8 21 20.0000000  0  8G30G03G05G09G10G11G01G23             0.000310486
   -240606.239    22462092.507        3582.987          43.000  
    208977.829    24781468.904       -3042.867          43.000  
   -249189.806    24045742.958        3612.577          42.000  
     41853.957    20171209.123        -656.316          43.000  
     86460.622    21105838.774       -1338.787          42.000  
   -157399.365    21172319.259        2277.292          43.000  
    -94201.734    22153890.493        1346.791          43.000  
    139901.657    22369243.544       -2075.092          43.000  
 18  2 16  8 21 21.0000000  0  8G30G03G05G09G10G11G01G23             0.000310668
   -244188.856    22461410.785        3582.419          43.000  
    212021.103    24782048.022       -3043.424          43.000  
   -252802.207    24045055.555        3612.585          42.000  
     42510.702    20171334.117        -656.866          43.000  
     87799.933    21106093.622       -1339.526          43.000  
   -159676.287    21171885.989        2276.775          43.000  
    -95548.147    22153634.323        1346.222          42.000  
    141977.055    22369638.450       -2075.487          43.000  
 18  2 16  8 21 22.0000000  0  8G30G03G05G09G10G11G01G23             0.000310850
   -247770.761    22460729.136        3582.099          43.000  
    215064.990    24782627.228       -3043.572          42.000  
   -256414.528    24044368.151        3612.975          43.000  
     43168.066    20171459.200        -657.057          43.000  
     89140.005    21106348.631       -1340.110          43.000  
   -161952.564    21171452.844        2276.634          43.000  
    -96893.911    22153378.242        1346.121          43.000  
    144052.944    22370033.480       -2075.501          43.000  
 18  2 16  8 21 23.0000000  0  8G30G03G05G09G10G11G01G23             0.000311033
   -251352.119    22460047.629        3581.247          43.000  
    218109.324    24783206.560       -3044.324          43.000  
   -260026.910    24043680.748        3612.638          43.000  
     43825.880    20171584.373        -657.937          43.000  
     90480.780    21106603.765       -1340.955          43.000  
   -164228.392    21171019.770        2275.815          43.000  
    -98239.143    22153122.286        1345.215          43.000  
    146129.148    22370428.564       -2076.172          43.000  
 18  2 16  8 21 24.0000000  0  8G30G03G05G09G10G11G01G23             0.000311215
   -254932.914    22459366.248        3580.671          43.000  
    221154.114    24783785.981       -3044.912          43.000  
   -263639.343    24042993.326        3612.606          43.000  
     44484.131    20171709.617        -658.254          43.000  
     91822.188    21106859.024       -1341.634          43.000  
   -166503.730    21170586.768        2275.279          43.000  
    -99583.854    22152866.437        1344.545          43.000  
    148205.651    22370823.720       -2076.560          43.000  
 18  2 16  8 21 25.0000000  0  8G30G03G05G09G10G11G01G23             0.000311397
   -258513.241    22458684.937        3580.135          43.000  
    224199.246    24784365.437       -3045.351          43.000  
   -267251.930    24042305.869        3612.582          43.000  
     45142.754    20171834.950        -658.925          43.000  
     93164.171    21107114.408       -1342.367          43.000  
   -168778.624    21170153.855        2274.632          43.000  
   -100928.147    22152610.624        1344.152          43.000  
    150282.359    22371218.893       -2076.903          43.000  
 18  2 16  8 21 26.0000000  0  8G30G03G05G09G10G11G01G23             0.000311579
   -262092.919    22458003.735        3579.482          42.000  
    227244.871    24784944.983       -3045.772          43.000  
   -270864.510    24041618.412        3612.752          43.000  
     45801.853    20171960.373        -659.115          43.000  
     94506.851    21107369.917       -1343.111          43.000  
   -171052.920    21169721.031        2274.070          43.000  
   -102271.836    22152354.919        1343.554          42.000  
    152359.406    22371614.120       -2077.087          43.000  
 18  2 16  8 21 27.0000000  0  8G30G03G05G09G10G11G01G23             0.000311765
   -265672.064    22457322.657        3578.851          43.000  
    230290.871    24785524.637       -3046.155          43.000  
   -274477.173    24040930.937        3612.808          42.000  
     46461.355    20172085.903        -659.620          43.000  
     95850.263    21107625.569       -1343.612          43.000  
   -173326.703    21169288.351        2273.618          43.000  
   -103615.025    22152099.302        1342.973          43.000  
    154436.691    22372009.419       -2077.341          43.000  
 18  2 16  8 21 28.0000000  0  8G30G03G05G09G10G11G01G23             0.000311946
   -269250.732    22456641.686        3578.355          42.000  
    233337.187    24786104.343       -3046.567          42.000  
   -278089.965    24040243.445        3612.778          43.000  
     47121.188    20172211.451        -660.054          43.000  
     97194.268    21107881.364       -1344.360          43.000  
   -175600.011    21168855.760        2273.050          43.000  
   -104957.776    22151843.793        1342.454          43.000  
    156514.121    22372404.717       -2077.471          43.000  
 18  2 16  8 21 29.0000000  0  8G30G03G05G09G10G11G01G23             0.000312128
   -272828.658    22455960.787        3577.727          42.000  
    236384.060    24786684.158       -3046.982          42.000  
   -281702.639    24039555.988        3612.746          43.000  
     47781.585    20172337.088        -660.380          42.000  
     98539.136    21108137.302       -1345.126          43.000  
   -177872.556    21168423.312        2272.334          43.000  
   -106299.817    22151588.427        1341.800          43.000  
    158591.978    22372800.141       -2077.955          43.000  
 18  2 16  8 21 30.0000000  0  8G30G03G05G09G10G11G01G23             0.000312310
   -276405.864    22455280.067        3577.026          42.000  
    239431.464    24787264.079       -3047.499          42.000  
   -285315.210    24038868.495        3612.703          42.000  
     48442.560    20172462.886        -661.108          43.000  
     99884.833    21108393.383       -1346.277          43.000  
   -180144.353    21167991.042        2271.444          43.000  
   -107641.178    22151333.186        1341.241          43.000  
    160670.185    22373195.600       -2078.242          43.000  
 18  2 16  8 21 31.0000000  0  8G30G03G05G09G10G11G01G23             0.000312490
   -279982.675    22454599.418        3576.850          43.000  
    242479.033    24787844.018       -3047.379          43.000  
   -288927.984    24038181.020        3613.149          43.000  
     49103.716    20172588.701        -660.934          43.000  
    101231.126    21108649.607       -1346.207          43.000  
   -182415.706    21167558.844        2271.513          43.000  
   -108982.158    22151078.016        1340.933          43.000  
    162748.407    22373591.096       -2078.008          43.000  
 18  2 16  8 21 32.0000000  0  8G30G03G05G09G10G11G01G23             0.000312671
   -283559.106    22453918.858        3576.066          43.000  
    245526.785    24788423.993       -3048.027          43.000  
   -292540.971    24037493.456        3612.868          43.000  
     49765.110    20172714.553        -661.663          43.000  
    102577.962    21108905.902       -1347.200          43.000  
   -184686.604    21167126.682        2270.511          42.000  
   -110322.791    22150822.936        1340.355          43.000  
    164826.645    22373986.555       -2078.358          43.000  
 18  2 16  8 21 33.0000000  0  8G30G03G05G09G10G11G01G23             0.000312852
   -287134.998    22453238.388        3575.562          43.000  
    248574.832    24789004.003       -3048.322          43.000  
   -296154.031    24036805.909        3612.969          43.000  
     50426.825    20172840.440        -662.015          43.000  
    103925.504    21109162.323       -1347.935          43.000  
   -186956.875    21166694.662        2269.830          43.000  
   -111662.893    22150567.927        1339.787          43.000  
    166905.024    22374382.068       -2078.496          43.000  
 18  2 16  8 21 34.0000000  0  8G30G03G05G09G10G11G01G23             0.000313033
   -290710.249    22452558.061        3574.838          43.000  
    251623.263    24789584.086       -3048.690          43.000  
   -299767.042    24036118.381        3613.000          43.000  
     51088.986    20172966.470        -662.429          43.000  
    105273.810    21109418.904       -1349.001          43.000  
   -189226.435    21166262.786        2269.011          43.000  
   -113002.365    22150313.061        1339.055          43.000  
    168983.629    22374777.617       -2078.775          43.000  
 18  2 16  8 21 35.0000000  0  8G30G03G05G09G10G11G01G23             0.000313214
   -294284.784    22451877.840        3574.451          43.000  
    254672.149    24790164.257       -3048.846          43.000  
   -303379.888    24035430.870        3612.978          43.000  
     51751.670    20173092.590        -662.746          43.000  
    106623.109    21109675.682       -1349.370          43.000  
   -191495.099    21165831.070        2268.534          43.000  
   -114341.118    22150058.285        1338.605          43.000  
    171062.544    22375173.219       -2078.822          43.000  
 18  2 16  8 21 36.0000000  0  8G30G03G05G09G10G11G01G23             0.000313395
   -297858.676    22451197.781        3573.626          43.000  
    257721.397    24790744.518       -3049.280          42.000  
   -306992.677    24034743.377        3612.688          43.000  
     52414.774    20173218.781        -663.181          43.000  
    107973.223    21109932.603       -1350.264          42.000  
   -193763.024    21165399.480        2267.719          43.000  
   -115679.243    22149803.633        1337.878          43.000  
    173141.655    22375568.857       -2079.143          43.000  
 18  2 16  8 21 37.0000000  0  8G30G03G05G09G10G11G01G23             0.000313575
   -301432.112    22450517.775        3573.164          43.000  
    260770.822    24791324.796       -3049.366          42.000  
   -310605.583    24034055.884        3613.027          43.000  
     53078.140    20173344.990        -663.387          42.000  
    109324.023    21110189.649       -1351.030          42.000  
   -196030.302    21164968.050        2267.048          43.000  
   -117016.871    22149549.071        1337.422          43.000  
    175220.794    22375964.513       -2079.123          43.000  
 18  2 16  8 21 38.0000000  0  8G30G03G05G09G10G11G01G23             0.000313754
   -305004.928    22449837.931        3572.425          42.000  
    263820.578    24791905.129       -3049.942          43.000  
   -314218.391    24033368.392        3612.773          43.000  
     53741.920    20173471.324        -663.950          43.000  
    110675.617    21110446.873       -1352.326          43.000  
   -198296.814    21164536.728        2265.858          43.000  
   -118353.870    22149294.670        1336.711          43.000  
    177300.106    22376360.204       -2079.436          43.000  
 18  2 16  8 21 39.0000000  0  8G30G03G05G09G10G11G01G23             0.000313936
   -308577.159    22449158.157        3571.987          43.000  
    266870.599    24792485.532       -3050.071          43.000  
   -317831.156    24032680.899        3612.769          43.000  
     54406.078    20173597.712        -664.327          43.000  
    112028.114    21110704.259       -1352.815          43.000  
   -200562.497    21164105.584        2265.446          42.000  
   -119690.236    22149040.358        1336.152          43.000  
    179379.535    22376755.914       -2079.407          43.000  
 18  2 16  8 21 40.0000000  0  8G30G03G05G09G10G11G01G23             0.000314118
   -312148.820    22448478.491        3571.370          43.000  
    269920.865    24793065.972       -3050.328          43.000  
   -321443.876    24031993.442        3612.777          43.000  
     55070.575    20173724.171        -664.650          43.000  
    113381.391    21110961.769       -1353.613          43.000  
   -202827.403    21163674.601        2264.546          43.000  
   -121025.985    22148786.153        1335.511          43.000  
    181459.084    22377151.641       -2079.634          43.000  
 18  2 16  8 21 41.0000000  0  8G30G03G05G09G10G11G01G23             0.000314297
   -315719.897    22447798.950        3570.905          43.000  
    272971.385    24793646.465       -3050.488          43.000  
   -325056.508    24031305.985        3612.691          43.000  
     55735.443    20173850.701        -664.929          42.000  
    114735.523    21111219.458       -1354.414          43.000  
   -205091.485    21163243.743        2263.827          43.000  
   -122361.089    22148532.127        1334.879          43.000  
    183538.726    22377547.369       -2079.611          42.000  
 18  2 16  8 21 42.0000000  0  8G30G03G05G09G10G11G01G23             0.000314477
   -319290.357    22447119.516        3570.239          42.000  
    276022.179    24794227.012       -3050.766          43.000  
   -328669.020    24030618.546        3612.540          43.000  
     56400.735    20173977.303        -665.485          43.000  
    116090.503    21111477.273       -1355.577          43.000  
   -207354.731    21162813.082        2262.710          43.000  
   -123695.513    22148278.191        1334.244          43.000  
    185618.523    22377943.132       -2079.793          42.000  
 18  2 16  8 21 43.0000000  0  8G30G03G05G09G10G11G01G23             0.000314657
   -322860.180    22446440.190        3569.511          42.000  
    279073.265    24794807.612       -3051.238          43.000  
   -332281.383    24029931.142        3612.274          43.000  
     57066.418    20174103.977        -665.858          43.000  
    117446.470    21111735.301       -1356.206          43.000  
   -209616.997    21162382.581        2261.985          42.000  
   -125029.221    22148024.379        1333.418          43.000  
    187698.455    22378338.949       -2079.992          43.000  
 18  2 16  8 21 44.0000000  0  8G30G03G05G09G10G11G01G23             0.000314840
   -326429.469    22445760.952        3569.085          42.000  
    282124.504    24795388.230       -3051.248          43.000  
   -335893.673    24029243.757        3612.357          43.000  
     57732.443    20174230.722        -666.200          43.000  
    118803.267    21111993.509       -1357.083          43.000  
   -211878.450    21161952.259        2261.172          43.000  
   -126362.290    22147770.728        1332.858          42.000  
    189778.444    22378734.747       -2079.945          43.000  
 18  2 16  8 21 45.0000000  0  8G30G03G05G09G10G11G01G23             0.000315017
   -329998.067    22445081.858        3568.434          42.000  
    285176.056    24795968.955       -3051.508          43.000  
   -339505.711    24028556.407        3612.040          42.000  
     58398.940    20174357.556        -666.588          43.000  
    120161.056    21112251.895       -1358.026          42.000  
   -214138.915    21161522.098        2260.245          43.000  
   -127694.553    22147517.185        1332.042          43.000  
    191858.626    22379130.600       -2080.093          43.000  
 18  2 16  8 21 46.0000000  0  8G30G03G05G09G10G11G01G23             0.000315197
   -333566.109    22444402.871        3567.884          42.000  
    288227.791    24796549.699       -3051.688          43.000  
   -343117.629    24027869.093        3612.012          43.000  
     59065.784    20174484.480        -666.814          43.000  
    121519.666    21112510.424       -1359.134          43.000  
   -216398.510    21161092.116        2258.996          43.000  
   -129026.136    22147263.784        1331.281          43.000  
    193938.875    22379526.452       -2080.078          43.000  
 18  2 16  8 21 47.0000000  0  8G30G03G05G09G10G11G01G23             0.000315374
   -337133.721    22443723.955        3567.224          43.000  
    291279.569    24797130.442       -3051.927          43.000  
   -346729.530    24027181.779        3611.687          43.000  
     59732.867    20174611.403        -667.341          42.000  
    122879.124    21112769.132       -1359.967          43.000  
   -218657.263    21160662.295        2258.258          42.000  
   -130357.162    22147010.508        1330.531          43.000  
    196019.069    22379922.305       -2080.394          43.000  
 18  2 16  8 21 48.0000000  0  8G30G03G05G09G10G11G01G23             0.000315555
   -340700.596    22443045.200        3566.703          43.000  
    294331.675    24797711.257       -3052.050          43.000  
   -350341.081    24026494.518        3611.537          42.000  
     60400.482    20174738.470        -667.655          43.000  
    124239.652    21113028.054       -1360.793          43.000  
   -220914.914    21160232.670        2257.366          43.000  
   -131687.299    22146757.394        1329.910          42.000  
    198099.495    22380318.193       -2080.389          43.000  
 18  2 16  8 21 49.0000000  0  8G30G03G05G09G10G11G01G23             0.000315739
   -344266.965    22442366.535        3566.340          43.000  
    297383.887    24798292.107       -3052.034          43.000  
   -353952.516    24025807.258        3611.589          43.000  
     61068.410    20174865.572        -667.830          42.000  
    125601.037    21113287.119       -1361.534          43.000  
   -223171.692    21159803.241        2256.594          43.000  
   -133016.758    22146504.404        1329.426          43.000  
    200179.925    22380714.081       -2080.125          43.000  
 18  2 16  8 21 50.0000000  0  8G30G03G05G09G10G11G01G23             0.000315930
   -347832.936    22441687.959        3565.795          43.000  
    300436.068    24798872.904       -3052.041          43.000  
   -357563.901    24025120.033        3611.324          43.000  
     61736.547    20174992.693        -668.249          42.000  
    126963.139    21113546.309       -1362.739          43.000  
   -225427.717    21159373.938        2255.372          43.000  
   -134345.629    22146251.540        1328.582          43.000  
    202260.271    22381109.969       -2080.260          43.000  
 18  2 16  8 21 51.0000000  0  8G30G03G05G09G10G11G01G23             0.000316109
   -351398.277    22441009.490        3565.090          42.000  
    303488.478    24799453.772       -3052.396          42.000  
   -361175.004    24024432.862        3611.044          42.000  
     62405.134    20175119.902        -668.740          42.000  
    128326.343    21113805.732       -1363.606          43.000  
   -227682.608    21158944.849        2254.559          42.000  
   -135673.680    22145998.818        1327.759          43.000  
    204340.753    22381505.858       -2080.457          43.000  
 18  2 16  8 21 52.0000000  0  8G30G03G05G09G10G11G01G23             0.000316291
   -354963.199    22440331.110        3564.603          43.000  
    306540.876    24800034.623       -3052.423          43.000  
   -364785.997    24023745.708        3610.875          43.000  
     63073.965    20175247.183        -668.944          43.000  
    129690.334    21114065.297       -1364.351          43.000  
   -229936.644    21158515.903        2253.581          43.000  
   -137001.078    22145746.221        1327.015          43.000  
    206421.169    22381901.764       -2080.447          43.000  
 18  2 16  8 21 53.0000000  0  8G30G03G05G09G10G11G01G23             0.000316472
   -358527.631    22439652.820        3564.282          43.000  
    309593.351    24800615.455       -3052.443          43.000  
   -368396.796    24023058.591        3610.749          42.000  
     63743.134    20175374.518        -669.287          43.000  
    131055.227    21114325.041       -1365.211          43.000  
   -232189.761    21158087.154        2252.726          43.000  
   -138327.763    22145493.768        1326.390          43.000  
    208501.595    22382297.652       -2080.351          43.000  
 18  2 16  8 21 54.0000000  0  8G30G03G05G09G10G11G01G23             0.000316653
   -362091.658    22438974.619        3563.835          43.000  
    312645.779    24801196.306       -3052.467          43.000  
   -372007.486    24022371.491        3610.578          43.000  
     64412.538    20175501.888        -669.662          43.000  
    132420.882    21114584.910       -1366.225          43.000  
   -234442.069    21157658.565        2251.683          43.000  
   -139653.796    22145241.422        1325.595          43.000  
    210581.945    22382693.522       -2080.349          43.000  
 18  2 16  8 21 55.0000000  0  8G30G03G05G09G10G11G01G23             0.000316834
   -365655.054    22438296.525        3563.290          43.000  
    315698.394    24801777.228       -3052.493          43.000  
   -375617.812    24021684.463        3610.437          43.000  
     65082.411    20175629.384        -669.916          43.000  
    133787.675    21114844.994       -1367.011          43.000  
   -236693.169    21157230.191        2250.828          43.000  
   -140978.949    22144989.254        1324.975          43.000  
    212662.441    22383089.428       -2080.275          43.000  
 18  2 16  8 21 56.0000000  0  8G30G03G05G09G10G11G01G23             0.000317015
   -369217.900    22437618.503        3562.862          43.000  
    318751.132    24802358.132       -3052.528          43.000  
   -379227.808    24020997.471        3610.148          43.000  
     65752.707    20175756.951        -670.171          43.000  
    135155.446    21115105.256       -1367.902          43.000  
   -238943.248    21156802.014        2249.902          43.000  
   -142303.247    22144737.247        1324.205          43.000  
    214743.041    22383485.352       -2080.376          43.000  
 18  2 16  8 21 57.0000000  0  8G30G03G05G09G10G11G01G23             0.000317195
   -372780.270    22436940.606        3562.176          43.000  
    321803.892    24802939.054       -3052.701          43.000  
   -382837.564    24020310.567        3609.701          43.000  
     66423.346    20175884.553        -670.771          43.000  
    136524.133    21115365.733       -1369.200          43.000  
   -241192.349    21156374.033        2248.654          43.000  
   -143626.783    22144485.383        1323.134          43.000  
    216823.647    22383881.276       -2080.629          42.000  
 18  2 16  8 21 58.0000000  0  8G30G03G05G09G10G11G01G23             0.000317375
   -376342.152    22436262.816        3561.634          43.000  
    324856.705    24803519.976       -3052.867          43.000  
   -386447.021    24019623.718        3609.289          43.000  
     67094.351    20176012.245        -671.159          43.000  
    137893.715    21115626.335       -1370.229          43.000  
   -243440.498    21155946.231        2247.523          43.000  
   -144949.525    22144233.662        1322.413          43.000  
    218904.293    22384277.218       -2080.596          42.000  
 18  2 16  8 21 59.0000000  0  8G30G03G05G09G10G11G01G23             0.000317556
   -379903.553    22435585.098        3561.412          43.000  
    327909.548    24804100.898       -3052.674          43.000  
   -390056.181    24018936.922        3609.193          43.000  
     67765.738    20176140.009        -671.366          43.000  
    139264.321    21115887.151       -1370.806          43.000  
   -245687.546    21155518.625        2246.872          43.000  
   -146271.439    22143982.102        1321.727          43.000  
    220984.991    22384673.178       -2080.510          43.000  
 18  2 16  8 22  0.0000000  0  8G30G03G05G09G10G11G01G23             0.000317736
   -383464.627    22434907.433        3560.997          43.000  
    330962.269    24804681.837       -3052.554          43.000  
   -393665.194    24018250.162        3609.092          43.000  
     68437.345    20176267.826        -671.599          43.000  
    140635.722    21116148.110       -1371.754          43.000  
   -247933.750    21155091.180        2245.964          43.000  
   -147592.691    22143730.685        1321.024          42.000  
    223065.579    22385069.084       -2080.467          43.000  
 18  2 16  8 22  1.0000000  0  8G30G03G05G09G10G11G01G23             0.000317917
   -387025.106    22434229.893        3560.445          43.000  
    334015.134    24805262.759       -3052.635          43.000  
   -397273.736    24017563.473        3608.584          43.000  
     69109.464    20176395.715        -672.071          42.000  
    142008.191    21116409.266       -1372.665          43.000  
   -250178.827    21154663.949        2244.866          43.000  
   -148912.983    22143479.447        1320.080          43.000  
    225146.331    22385465.008       -2080.532          43.000  
 18  2 16  8 22  2.0000000  0  8G30G03G05G09G10G11G01G23             0.000318096
   -390585.194    22433552.425        3559.991          43.000  
    337067.953    24805843.699       -3052.658          43.000  
   -400882.001    24016876.856        3608.095          43.000  
     69781.899    20176523.693        -672.504          43.000  
    143381.519    21116670.601       -1373.877          43.000  
   -252422.978    21154236.898        2243.570          43.000  
   -150232.508    22143228.351        1319.215          43.000  
    227227.084    22385860.985       -2080.639          42.000  
 18  2 16  8 22  3.0000000  0  8G30G03G05G09G10G11G01G23             0.000318277
   -394144.984    22432875.010        3559.848          42.000  
    340120.633    24806424.603       -3052.382          43.000  
   -404490.089    24016190.257        3608.129          43.000  
     70454.584    20176651.688        -672.642          43.000  
    144755.695    21116932.096       -1374.348          42.000  
   -254666.208    21153810.025        2243.004          43.000  
   -151551.336    22142977.381        1318.655          43.000  
    229307.739    22386256.909       -2080.393          43.000  
 18  2 16  8 22  4.0000000  0  8G30G03G05G09G10G11G01G23             0.000318458
   -397704.232    22432197.703        3558.972          43.000  
    343173.410    24807005.543       -3052.876          43.000  
   -408097.718    24015503.729        3607.356          43.000  
     71127.758    20176779.774        -673.512          43.000  
    146130.910    21117193.788       -1375.715          43.000  
   -256908.336    21153383.348        2241.546          43.000  
   -152869.219    22142726.607        1317.363          43.000  
    231388.557    22386652.887       -2080.887          43.000  
 18  2 16  8 22  5.0000000  0  8G30G03G05G09G10G11G01G23             0.000318636
   -401263.052    22431520.467        3558.737          43.000  
    346226.174    24807586.465       -3052.694          43.000  
   -411704.982    24014817.290        3607.195          43.000  
     71801.311    20176907.948        -673.636          43.000  
    147507.067    21117455.658       -1376.497          43.000  
   -259149.477    21152956.886        2240.818          43.000  
   -154186.257    22142475.976        1316.820          43.000  
    233469.422    22387048.864       -2080.718          43.000  
 18  2 16  8 22  6.0000000  0  8G30G03G05G09G10G11G01G23             0.000318817
   -404821.358    22430843.320        3558.094          43.000  
    349279.013    24808167.387       -3052.834          43.000  
   -415311.787    24014130.923        3606.709          43.000  
     72475.358    20177036.230        -674.153          43.000  
    148884.228    21117717.707       -1377.653          42.000  
   -261389.542    21152530.620        2239.424          43.000  
   -155502.333    22142225.524        1315.681          43.000  
    235550.456    22387444.895       -2080.992          43.000  
 18  2 16  8 22  7.0000000  0  8G30G03G05G09G10G11G01G23             0.000318998
   -408379.204    22430166.263        3557.798          43.000  
    352331.884    24808748.345       -3052.652          43.000  
   -418918.155    24013444.663        3606.339          43.000  
     73149.877    20177164.601        -674.519          43.000  
    150262.428    21117979.953       -1378.442          42.000  
   -263628.508    21152104.569        2238.691          43.000  
   -156817.495    22141975.268        1314.910          43.000  
    237631.618    22387840.927       -2081.039          43.000  
 18  2 16  8 22  8.0000000  0  8G30G03G05G09G10G11G01G23             0.000319179
   -411936.741    22429489.295        3557.229          43.000  
    355384.636    24809329.267       -3052.797          43.000  
   -422524.240    24012758.457        3605.865          43.000  
     73824.695    20177293.008        -675.068          43.000  
    151641.459    21118242.378       -1379.588          43.000  
   -265866.597    21151678.661        2237.571          43.000  
   -158131.889    22141725.155        1313.888          43.000  
    239712.758    22388236.958       -2081.249          43.000  
 18  2 16  8 22  9.0000000  0  8G30G03G05G09G10G11G01G23             0.000319358
   -415493.914    22428812.380        3557.047          43.000  
    358437.330    24809910.171       -3052.567          43.000  
   -426129.950    24012072.305        3605.666          43.000  
     74499.901    20177421.486        -675.282          43.000  
    153021.387    21118504.963       -1380.373          43.000  
   -268103.719    21151252.950        2236.768          43.000  
   -159445.442    22141475.185        1313.298          43.000  
    241793.948    22388632.989       -2081.101          43.000  
 18  2 16  8 22 10.0000000  0  8G30G03G05G09G10G11G01G23             0.000319538
   -419050.834    22428135.502        3556.643          43.000  
    361489.873    24810491.057       -3052.614          43.000  
   -429735.380    24011386.223        3605.133          43.000  
     75175.402    20177550.036        -675.710          43.000  
    154402.087    21118767.691       -1381.324          43.000  
   -270340.026    21150827.399        2235.714          43.000  
   -160758.234    22141225.376        1312.284          43.000  
    243875.116    22389029.020       -2081.258          43.000  
 18  2 16  8 22 11.0000000  0  8G30G03G05G09G10G11G01G23             0.000319718
   -422607.308    22427458.713        3556.373          43.000  
    364542.441    24811071.943       -3052.360          43.000  
   -433340.331    24010700.214        3604.876          43.000  
     75851.395    20177678.657        -676.052          43.000  
    155783.803    21119030.616       -1382.050          43.000  
   -272575.254    21150402.045        2234.851          43.000  
   -162070.080    22140975.764        1311.531          43.000  
    245956.452    22389425.087       -2081.214          43.000  
 18  2 16  8 22 12.0000000  0  8G30G03G05G09G10G11G01G23             0.000319899
   -426163.567    22426781.977        3556.385          43.000  
    367594.838    24811652.793       -3052.052          43.000  
   -436945.012    24010014.240        3604.647          42.000  
     76527.670    20177807.332        -676.203          43.000  
    157166.289    21119293.719       -1382.670          43.000  
   -274809.676    21149976.869        2234.188          43.000  
   -163381.202    22140726.277        1310.977          43.000  
    248037.754    22389821.172       -2081.070          43.000  
 18  2 16  8 22 13.0000000  0  8G30G03G05G09G10G11G01G23             0.000320079
   -429719.624    22426105.277        3555.788          43.000  
    370647.033    24812233.608       -3052.170          43.000  
   -440549.450    24009328.337        3604.113          43.000  
     77204.213    20177936.096        -676.825          43.000  
    158549.511    21119556.966       -1383.691          43.000  
   -277043.320    21149551.819        2233.097          43.000  
   -164691.580    22140476.932        1309.783          43.000  
    250119.005    22390217.221       -2081.345          43.000  
 18  2 16  8 22 14.0000000  0  8G30G03G05G09G10G11G01G23             0.000320258
   -433275.407    22425428.631        3556.026          43.000  
    373699.131    24812814.423       -3051.716          43.000  
   -444153.522    24008642.524        3604.285          43.000  
     77881.129    20178064.896        -676.674          43.000  
    159933.569    21119820.337       -1384.179          43.000  
   -279276.112    21149126.947        2232.735          42.000  
   -166001.159    22140227.695        1309.519          43.000  
    252200.316    22390613.288       -2080.969          43.000  
 18  2 16  8 22 15.0000000  0  8G30G03G05G09G10G11G01G23             0.000320439
   -436831.040    22424752.002        3555.754          43.000  
    376750.995    24813395.202       -3051.609          43.000  
   -447757.365    24007956.729        3603.961          43.000  
     78558.297    20178193.731        -677.052          43.000  
    161318.312    21120083.834       -1384.853          42.000  
   -281508.150    21148702.182        2231.801          42.000  
   -167310.037    22139978.619        1308.711          43.000  
    254281.570    22391009.355       -2080.968          42.000  
 18  2 16  8 22 16.0000000  0  8G30G03G05G09G10G11G01G23             0.000320619
   -440386.088    22424075.499        3554.967          43.000  
    379803.077    24813975.999       -3052.031          43.000  
   -451360.502    24007271.059        3602.873          43.000  
     79236.187    20178322.728        -678.207          43.000  
    162704.219    21120347.563       -1386.279          43.000  
   -283739.027    21148277.650        2230.552          43.000  
   -168617.765    22139729.757        1307.274          43.000  
    256363.238    22391405.475       -2081.800          43.000  
 18  2 16  8 22 17.0000000  0  8G30G03G05G09G10G11G01G23             0.000320799
   -443940.926    22423399.031        3554.808          43.000  
    382854.991    24814556.796       -3051.666          43.000  
   -454963.347    24006585.442        3602.786          42.000  
     79914.391    20178451.796        -678.265          43.000  
    164090.865    21120611.417       -1386.869          43.000  
   -285969.112    21147853.243        2229.732          43.000  
   -169924.729    22139481.038        1306.610          43.000  
    258444.917    22391801.613       -2081.504          43.000  
 18  2 16  8 22 18.0000000  0  8G30G03G05G09G10G11G01G23             0.000320979
   -447495.398    22422722.653        3554.579          43.000  
    385906.967    24815137.557       -3051.747          42.000  
   -458565.678    24005899.951        3602.395          42.000  
     80593.142    20178580.953        -678.821          42.000  
    165478.452    21120875.485       -1387.793          43.000  
   -288198.280    21147429.050        2229.028          43.000  
   -171230.742    22139232.516        1305.814          42.000  
    260526.858    22392197.787       -2081.764          43.000  
 18  2 16  8 22 19.0000000  0  8G30G03G05G09G10G11G01G23             0.000321159
   -451049.510    22422046.329        3553.910          43.000  
    388958.939    24815718.336       -3052.018          43.000  
   -462167.518    24005214.531        3601.562          43.000  
     81272.392    20178710.200        -679.525          43.000  
    166866.917    21121139.715       -1388.991          43.000  
   -290426.535    21147005.018        2227.847          43.000  
   -172535.814    22138984.154        1304.579          43.000  
    262609.003    22392593.997       -2082.309          42.000  
 18  2 16  8 22 20.0000000  0  8G30G03G05G09G10G11G01G23             0.000321339
   -454603.246    22421370.075        3553.808          43.000  
    392010.969    24816299.115       -3051.822          42.000  
   -465768.855    24004529.218        3601.307          43.000  
     81952.204    20178839.554        -679.840          43.000  
    168256.332    21121404.123       -1389.680          43.000  
   -292653.854    21146581.183        2227.220          43.000  
   -173839.921    22138735.971        1303.856          43.000  
    264691.420    22392990.279       -2082.244          43.000  
 18  2 16  8 22 21.0000000  0  8G30G03G05G09G10G11G01G23             0.000321518
   -458156.763    22420693.858        3553.460          43.000  
    395062.904    24816879.894       -3051.902          43.000  
   -469369.820    24003843.995        3600.826          42.000  
     82632.414    20178968.997        -680.328          43.000  
    169646.499    21121668.673       -1390.543          43.000  
   -294880.389    21146157.473        2226.198          42.000  
   -175143.225    22138487.967        1303.022          43.000  
    266773.954    22393386.578       -2082.506          42.000  
 18  2 16  8 22 22.0000000  0  8G30G03G05G09G10G11G01G23             0.000321697
   -461710.048    22420017.676        3553.565          43.000  
    398114.759    24817460.637       -3051.433          43.000  
   -472970.405    24003158.807        3600.815          43.000  
     83313.070    20179098.512        -680.549          43.000  
    171037.442    21121933.367       -1390.854          43.000  
   -297106.171    21145733.905        2225.961          43.000  
   -176445.688    22138240.124        1302.447          43.000  
    268856.662    22393782.895       -2082.410          43.000  
 18  2 16  8 22 23.0000000  0  8G30G03G05G09G10G11G01G23             0.000321877
   -465263.265    22419341.530        3553.403          43.000  
    401166.405    24818041.344       -3051.302          43.000  
   -476570.765    24002473.673        3600.607          43.000  
     83993.997    20179228.098        -680.806          42.000  
    172428.978    21122198.168       -1391.633          42.000  
   -299331.388    21145310.463        2225.044          43.000  
   -177747.491    22137992.406        1301.762          43.000  
    270939.378    22394179.230       -2082.490          43.000  
 18  2 16  8 22 24.0000000  0  8G30G03G05G09G10G11G01G23             0.000322057
   -468816.277    22418665.402        3553.081          43.000  
    404217.976    24818622.016       -3051.446          42.000  
   -480170.726    24001788.610        3599.885          42.000  
     84675.381    20179357.737        -681.557          43.000  
    173821.270    21122463.130       -1392.589          42.000  
   -301555.863    21144887.164        2224.168          43.000  
   -179048.462    22137744.830        1300.746          43.000  
    273022.267    22394575.565       -2082.835          43.000  
 18  2 16  8 22 25.0000000  0  8G30G03G05G09G10G11G01G23             0.000322236
   -472369.072    22417989.328        3552.824          43.000  
    407269.493    24819202.724       -3051.417          43.000  
   -483770.317    24001103.655        3599.504          43.000  
     85357.190    20179487.484        -681.944          43.000  
    175214.300    21122728.217       -1393.293          42.000  
   -303779.628    21144463.972        2223.443          43.000  
   -180348.618    22137497.416        1299.841          43.000  
    275105.355    22394971.971       -2083.124          42.000  
 18  2 16  8 22 26.0000000  0  8G30G03G05G09G10G11G01G23             0.000322414
   -475921.598    22417313.307        3552.451          43.000  
    410321.025    24819783.413       -3051.546          43.000  
   -487369.481    24000418.771        3599.006          42.000  
     86039.528    20179617.321        -682.611          43.000  
    176608.112    21122993.447       -1394.022          43.000  
   -306002.641    21144040.976        2222.886          43.000  
   -181647.893    22137250.144        1298.754          43.000  
    277188.701    22395368.413       -2083.482          43.000  
 18  2 16  8 22 29.0000000  0  8G30G03G05G09G10G11G01G23             0.000322947
   -486577.673    22415285.512        3551.987          42.000  
    419475.735    24821525.482       -3051.248          43.000  
   -498164.407    23998364.584        3598.032          43.000  
     88089.657    20180007.437        -683.881          43.000  
    180794.102    21123790.030       -1396.088          43.000  
   -312667.477    21142772.686        2220.856          43.000  
   -185540.569    22136509.402        1296.659          43.000  
    283440.417    22396558.097       -2084.049          43.000  
 18  2 16  8 22 30.0000000  0  8G30G03G05G09G10G11G01G23             0.000323127
   -490129.462    22414609.652        3551.822          42.000  
    422527.126    24822106.154       -3051.329          43.000  
   -501762.133    23997679.968        3597.633          43.000  
     88773.839    20180137.631        -684.403          43.000  
    182190.695    21124055.778       -1396.690          43.000  
   -314887.938    21142350.156        2220.483          43.000  
   -186836.666    22136262.774        1295.807          43.000  
    285524.679    22396954.718       -2084.346          43.000  
 18  2 16  8 22 31.0000000  0  8G30G03G05G09G10G11G01G23             0.000323307
   -493681.109    22413933.792        3551.385          43.000  
    425578.469    24822686.808       -3051.534          42.000  
   -505359.554    23996995.388        3597.113          43.000  
     89458.451    20180267.914        -684.937          43.000  
    183587.853    21124321.652       -1397.564          43.000  
   -317107.924    21141927.714        2219.475          43.000  
   -188132.017    22136016.288        1294.855          43.000  
    287609.148    22397351.375       -2084.733          43.000  
 18  2 16  8 22 32.0000000  0  8G30G03G05G09G10G11G01G23             0.000323489
   -497232.526    22413257.968        3551.294          43.000  
    428629.857    24823267.462       -3051.411          42.000  
   -508956.579    23996310.915        3596.916          43.000  
     90143.614    20180398.286        -685.381          42.000  
    184985.753    21124587.650       -1398.268          43.000  
   -319327.268    21141505.397        2219.029          43.000  
   -189426.541    22135769.928        1294.195          43.000  
    289693.943    22397748.103       -2084.877          43.000  
 18  2 16  8 22 33.0000000  0  8G30G03G05G09G10G11G01G23             0.000323667
   -500783.755    22412582.197        3551.259          43.000  
    431681.284    24823848.116       -3051.368          43.000  
   -512553.241    23995626.496        3596.576          43.000  
     90829.282    20180528.784        -685.785          43.000  
    186384.296    21124853.773       -1398.713          43.000  
   -321546.030    21141083.188        2218.544          42.000  
   -190720.257    22135523.747        1293.411          43.000  
    291779.055    22398144.902       -2085.122          43.000  
 18  2 16  8 22 34.0000000  0  8G30G03G05G09G10G11G01G23             0.000323847
   -504334.791    22411906.462        3551.214          43.000  
    434732.752    24824428.805       -3051.238          43.000  
   -516149.566    23994942.130        3596.457          43.000  
     91515.459    20180659.353        -686.099          43.000  
    187783.530    21125120.057       -1399.112          43.000  
   -323764.213    21140661.068        2218.601          43.000  
   -192013.196    22135277.708        1292.828          43.000  
    293864.482    22398541.720       -2085.275          42.000  
 18  2 16  8 22 35.0000000  0  8G30G03G05G09G10G11G01G23             0.000324028
   -507885.760    22411230.745        3550.772          43.000  
    437784.141    24825009.459       -3051.448          43.000  
   -519745.665    23994257.818        3595.851          43.000  
     92202.038    20180790.011        -686.817          43.000  
    189183.209    21125386.395       -1400.121          43.000  
   -325982.083    21140239.020        2217.505          43.000  
   -193305.483    22135031.777        1291.788          43.000  
    295950.115    22398938.626       -2085.895          43.000  
 18  2 16  8 22 36.0000000  0  8G30G03G05G09G10G11G01G23             0.000324207
   -511436.565    22410555.046        3550.979          43.000  
    440835.580    24825590.131       -3051.204          43.000  
   -523341.456    23993573.559        3595.854          42.000  
     92889.118    20180920.759        -687.118          43.000  
    190583.517    21125652.876       -1400.399          43.000  
   -328199.413    21139817.079        2217.172          43.000  
   -194597.020    22134786.006        1291.411          43.000  
    298036.059    22399335.569       -2085.831          43.000  
 18  2 16  8 22 37.0000000  0  8G30G03G05G09G10G11G01G23             0.000324387
   -514987.316    22409879.347        3550.674          42.000  
    443886.971    24826170.785       -3051.444          43.000  
   -526937.068    23992889.354        3595.522          43.000  
     93576.597    20181051.614        -687.747          42.000  
    191984.304    21125919.428       -1401.075          43.000  
   -330416.411    21139395.209        2216.793          42.000  
   -195887.927    22134540.343        1290.553          43.000  
    300122.223    22399732.547       -2086.268          43.000  
 18  2 16  8 22 39.0000000  0  8G30G03G05G09G10G11G01G23             0.000324747
   -522088.341    22408528.073        3550.318          43.000  
    449989.931    24827332.182       -3051.543          43.000  
   -534127.430    23991521.088        3594.867          42.000  
     94953.047    20181313.520        -688.792          43.000  
    194787.581    21126452.890       -1402.256          42.000  
   -334849.078    21138551.719        2215.777          43.000  
   -198467.564    22134049.445        1288.991          43.000  
    304295.582    22400526.718       -2087.130          43.000  
 18  2 16  8 22 40.0000000  0  8G30G03G05G09G10G11G01G23             0.000324927
   -525638.330    22407852.517        3549.934          43.000  
    453041.812    24827912.907       -3051.737          42.000  
   -537721.917    23990837.079        3594.438          43.000  
     95642.329    20181444.696        -689.446          43.000  
    196190.332    21126719.817       -1402.975          43.000  
   -337064.529    21138130.136        2215.203          43.000  
   -199756.041    22133804.264        1288.233          43.000  
    306383.065    22400923.946       -2087.591          43.000  
 18  2 16  8 22 41.0000000  0  8G30G03G05G09G10G11G01G23             0.000325107
   -529188.323    22407176.961        3550.106          43.000  
    456093.652    24828493.633       -3051.786          43.000  
   -541316.312    23990153.071        3594.385          43.000  
     96331.959    20181575.927        -689.680          42.000  
    197593.473    21126986.816       -1403.284          43.000  
   -339279.759    21137708.623        2215.136          43.000  
   -201043.969    22133559.173        1287.736          43.000  
    308470.753    22401321.246       -2087.705          43.000  
 18  2 16  8 22 42.0000000  0  8G30G03G05G09G10G11G01G23             0.000325287
   -532738.136    22406501.458        3549.846          43.000  
    459145.603    24829074.376       -3051.875          43.000  
   -544910.446    23989469.152        3594.102          42.000  
     97022.137    20181707.246        -690.340          43.000  
    198997.176    21127253.958       -1403.638          43.000  
   -341494.542    21137287.164        2215.199          43.000  
   -202331.186    22133314.224        1286.996          42.000  
    310558.845    22401718.599       -2088.169          42.000  
 18  2 16  8 22 43.0000000  0  8G30G03G05G09G10G11G01G23             0.000325466
   -536287.834    22405825.973        3549.632          43.000  
    462197.632    24829655.173       -3052.005          43.000  
   -548504.404    23988785.233        3593.779          43.000  
     97712.782    20181838.690        -690.982          43.000  
    200401.291    21127521.136       -1404.455          42.000  
   -343709.151    21136865.724        2214.321          43.000  
   -203617.780    22133069.383        1286.208          42.000  
    312647.256    22402115.989       -2088.624          42.000  
 18  2 16  8 22 44.0000000  0  8G30G03G05G09G10G11G01G23             0.000325645
   -539837.433    22405150.506        3549.687          42.000  
    465249.737    24830235.970       -3051.973          43.000  
   -552098.206    23988101.368        3593.839          43.000  
     98403.871    20181970.207        -691.197          43.000  
    201805.852    21127788.421       -1404.483          43.000  
   -345923.457    21136444.336        2214.237          43.000  
   -204903.767    22132824.684        1285.876          43.000  
    314736.008    22402513.467       -2088.808          43.000  
 18  2 16  8 22 45.0000000  0  8G30G03G05G09G10G11G01G23             0.000325823
   -543386.915    22404475.075        3549.518          43.000  
    468301.929    24830816.785       -3052.032          43.000  
   -555691.858    23987417.538        3593.872          43.000  
     99095.430    20182101.812        -691.598          43.000  
    203210.885    21128055.777       -1405.049          43.000  
   -348137.489    21136023.020        2214.009          43.000  
   -206189.130    22132580.093        1285.141          43.000  
    316825.093    22402910.999       -2089.092          43.000  
 18  2 16  8 22 46.0000000  0  8G30G03G05G09G10G11G01G23             0.000326004
   -546936.260    22403799.644        3549.472          42.000  
    471354.274    24831397.617       -3052.294          43.000  
   -559285.318    23986733.726        3593.547          43.000  
     99787.499    20182233.507        -692.117          42.000  
    204616.420    21128323.258       -1405.503          43.000  
   -350351.180    21135601.794        2214.262          43.000  
   -207473.885    22132335.609        1284.646          43.000  
    318914.568    22403308.621       -2089.466          43.000  
 18  2 16  8 22 47.0000000  0  8G30G03G05G09G10G11G01G23             0.000326183
   -550485.629    22403124.230        3549.378          43.000  
    474406.577    24831978.450       -3052.193          43.000  
   -562878.820    23986049.897        3593.522          43.000  
    100479.892    20182365.255        -692.510          43.000  
    206022.147    21128590.776       -1405.888          43.000  
   -352564.931    21135180.532        2213.611          43.000  
   -208758.193    22132091.214        1284.098          43.000  
    321004.248    22403706.296       -2089.668          43.000  
 18  2 16  8 22 48.0000000  0  8G30G03G05G09G10G11G01G23             0.000326363
   -554034.727    22402448.853        3549.191          43.000  
    477459.177    24832559.354       -3052.523          43.000  
   -566472.044    23985366.121        3593.377          42.000  
    101172.917    20182497.128        -693.165          43.000  
    207428.476    21128858.382       -1406.379          43.000  
   -354778.269    21134759.305        2213.260          43.000  
   -210041.770    22131846.945        1283.519          43.000  
    323094.462    22404104.078       -2090.267          43.000  
 18  2 16  8 22 49.0000000  0  8G30G03G05G09G10G11G01G23             0.000326542
   -557583.604    22401773.529        3548.850          42.000  
    480512.012    24833140.294       -3052.896          43.000  
   -570065.060    23984682.398        3593.030          43.000  
    101866.506    20182629.127        -693.802          42.000  
    208835.301    21129126.096       -1407.015          42.000  
   -356991.312    21134338.186        2212.829          43.000  
   -211324.676    22131602.836        1282.587          42.000  
    325185.139    22404501.914       -2090.899          43.000  
 18  2 16  8 22 50.0000000  0  8G30G03G05G09G10G11G01G23             0.000326720
   -561132.387    22401098.223        3548.806          42.000  
    483564.962    24833721.233       -3052.923          43.000  
   -573658.041    23983998.676        3593.065          43.000  
    102560.515    20182761.197        -694.083          43.000  
    210242.509    21129393.863       -1407.010          43.000  
   -359204.147    21133917.120        2213.316          43.000  
   -212607.089    22131358.799        1282.247          43.000  
    327276.153    22404899.804       -2091.176          43.000  
 18  2 16  8 22 51.0000000  0  8G30G03G05G09G10G11G01G23             0.000326898
   -564681.205    22400422.899        3549.009          43.000  
    486617.911    24834302.191       -3052.663          42.000  
   -577251.106    23983314.935        3593.343          43.000  
    103254.845    20182893.338        -694.250          43.000  
    211649.888    21129661.684       -1407.304          43.000  
   -361417.120    21133496.001        2213.034          43.000  
   -213889.109    22131114.851        1281.996          42.000  
    329367.374    22405297.765       -2091.133          43.000  
 18  2 16  8 22 52.0000000  0  8G30G03G05G09G10G11G01G23             0.000327070
   -568229.834    22399747.611        3548.552          43.000  
    489671.117    24834883.202       -3053.361          43.000  
   -580844.058    23982631.195        3592.910          43.000  
    103949.700    20183025.587        -695.089          43.000  
    213057.718    21129929.576       -1408.005          43.000  
   -363629.851    21133074.918        2212.515          43.000  
   -215170.552    22130870.992        1281.209          43.000  
    331459.036    22405695.797       -2091.829          43.000  
 18  2 16  8 22 53.0000000  0  8G30G03G05G09G10G11G01G23             0.000327248
   -571778.318    22399072.358        3548.387          43.000  
    492724.502    24835464.232       -3053.543          43.000  
   -584436.947    23981947.508        3592.792          43.000  
    104645.017    20183157.889        -695.500          43.000  
    214465.930    21130197.558       -1408.400          43.000  
   -365842.416    21132653.888        2212.484          43.000  
   -216451.457    22130627.259        1280.694          43.000  
    333551.100    22406093.901       -2092.267          42.000  
 18  2 16  8 22 54.0000000  0  8G30G03G05G09G10G11G01G23             0.000327427
   -575326.509    22398397.159        3548.179          43.000  
    495778.229    24836045.314       -3053.746          43.000  
   -588029.668    23981263.822        3592.757          43.000  
    105340.960    20183290.316        -696.003          43.000  
    215874.688    21130465.629       -1408.712          43.000  
   -368054.616    21132232.929        2212.639          43.000  
   -217731.703    22130383.651        1280.126          43.000  
    335643.690    22406492.112       -2092.676          42.000  
 18  2 16  8 22 55.0000000  0  8G30G03G05G09G10G11G01G23             0.000327604
   -578874.579    22397721.996        3547.850          43.000  
    498832.142    24836626.486       -3054.176          43.000  
   -591622.414    23980580.153        3592.603          43.000  
    106037.340    20183422.851        -696.727          43.000  
    217283.712    21130733.772       -1409.377          43.000  
   -370266.883    21131811.935        2211.863          43.000  
   -219011.484    22130140.114        1279.370          43.000  
    337736.635    22406890.377       -2093.248          43.000  
 18  2 16  8 22 56.0000000  0  8G30G03G05G09G10G11G01G23             0.000327783
   -582422.493    22397046.851        3547.798          43.000  
    501886.269    24837207.676       -3054.202          43.000  
   -595215.155    23979896.466        3592.781          43.000  
    106734.178    20183555.475        -697.080          43.000  
    218693.090    21131001.986       -1409.510          43.000  
   -372479.024    21131390.994        2212.042          43.000  
   -220290.789    22129896.684        1279.103          43.000  
    339829.977    22407288.713       -2093.565          43.000  
 18  2 16  8 22 57.0000000  0  8G30G03G05G09G10G11G01G23             0.000327962
   -585970.384    22396371.705        3548.165          43.000  
    504940.503    24837788.884       -3053.967          43.000  
   -598808.026    23979212.780        3593.236          43.000  
    107431.333    20183688.134        -697.062          43.000  
    220102.707    21131270.200       -1409.440          43.000  
   -374691.171    21130970.036        2212.352          43.000  
   -221569.733    22129653.308        1279.045          42.000  
    341923.575    22407687.121       -2093.449          43.000  
 18  2 16  8 22 58.0000000  0  8G30G03G05G09G10G11G01G23             0.000328141
   -589518.053    22395696.614        3547.815          43.000  
    507995.021    24838370.163       -3054.367          43.000  
   -602400.884    23978529.093        3593.170          43.000  
    108128.993    20183820.901        -697.591          43.000  
    221512.731    21131538.521       -1409.807          42.000  
   -376903.091    21130549.131        2212.541          43.000  
   -222848.174    22129410.021        1278.499          42.000  
    344017.605    22408085.600       -2093.971          43.000  
 18  2 16  8 22 59.0000000  0  8G30G03G05G09G10G11G01G23             0.000328318
   -593065.542    22395021.540        3547.310          43.000  
    511049.802    24838951.479       -3054.980          43.000  
   -605993.756    23977845.388        3592.793          43.000  
    108827.129    20183953.775        -698.398          43.000  
    222923.052    21131806.878       -1410.584          43.000  
   -379115.073    21130128.208        2211.799          43.000  
   -224126.129    22129166.842        1277.638          42.000  
    346112.046    22408484.169       -2094.695          43.000  
 18  2 16  8 23  0.0000000  0  8G30G03G05G09G10G11G01G23             0.000328497
   -596612.680    22394346.555        3547.084          43.000  
    514104.998    24839532.865       -3055.203          42.000  
   -609586.528    23977161.702        3592.932          43.000  
    109525.864    20184086.721        -698.842          42.000  
    224333.889    21132075.360       -1410.922          43.000  
   -381326.765    21129707.321        2211.666          43.000  
   -225403.489    22128923.769        1277.245          42.000  
    348207.033    22408882.845       -2095.076          43.000  
 18  2 16  8 23  1.0000000  0  8G30G03G05G09G10G11G01G23             0.000328675
   -600159.613    22393671.607        3547.012          43.000  
    517160.499    24840114.305       -3055.596          43.000  
   -613179.332    23976478.015        3592.950          43.000  
    110225.081    20184219.791        -699.293          43.000  
    225745.081    21132343.896       -1411.270          43.000  
   -383538.355    21129286.470        2211.619          43.000  
   -226680.380    22128680.804        1276.890          43.000  
    350302.434    22409281.592       -2095.434          43.000  
 18  2 16  8 23  2.0000000  0  8G30G03G05G09G10G11G01G23             0.000328852
   -603706.232    22392996.712        3546.521          43.000  
    520216.364    24840695.817       -3056.007          43.000  
   -616772.100    23975794.328        3592.741          42.000  
    110924.842    20184352.951        -699.934          43.000  
    227156.716    21132612.521       -1411.653          43.000  
   -385749.691    21128865.673        2211.730          43.000  
   -227956.723    22128437.928        1276.064          43.000  
    352398.323    22409680.446       -2095.966          43.000  
 18  2 16  8 23  3.0000000  0  8G30G03G05G09G10G11G01G23             0.000329030
   -607252.571    22392321.870        3546.456          43.000  
    523272.608    24841277.382       -3056.164          43.000  
   -620364.888    23975110.624        3593.031          42.000  
    111625.131    20184486.219        -700.300          43.000  
    228568.744    21132881.235       -1412.037          43.000  
   -387961.009    21128444.875        2211.305          43.000  
   -229232.576    22128195.196        1275.881          42.000  
    354494.691    22410079.372       -2096.353          43.000  
 18  2 16  8 23  4.0000000  0  8G30G03G05G09G10G11G01G23             0.000329209
   -610798.702    22391647.082        3546.223          43.000  
    526329.145    24841859.054       -3056.543          42.000  
   -623957.762    23974426.919        3593.097          43.000  
    112325.850    20184619.557        -700.726          43.000  
    229981.089    21133150.003       -1412.264          42.000  
   -390172.246    21128024.077        2211.310          43.000  
   -230507.999    22127952.481        1275.349          43.000  
    356591.427    22410478.388       -2096.751          43.000  
 18  2 16  8 23  5.0000000  0  8G30G03G05G09G10G11G01G23             0.000329386
   -614344.550    22390972.312        3546.248          43.000  
    529386.036    24842440.763       -3056.607          43.000  
   -627550.697    23973743.232        3593.471          43.000  
    113027.066    20184753.003        -701.012          43.000  
    231393.837    21133418.843       -1412.387          43.000  
   -392383.324    21127603.315        2211.465          43.000  
   -231782.967    22127709.873        1275.240          43.000  
    358688.600    22410877.474       -2096.935          43.000  
 18  2 16  8 23  6.0000000  0  8G30G03G05G09G10G11G01G23             0.000329565
   -617890.163    22390297.596        3545.644          43.000  
    532443.219    24843022.542       -3057.149          43.000  
   -631143.746    23973059.510        3593.241          43.000  
    113728.701    20184886.520        -701.731          43.000  
    232806.924    21133687.754       -1412.953          43.000  
   -394594.264    21127182.607        2211.415          43.000  
   -233057.529    22127467.319        1274.512          43.000  
    360786.131    22411276.615       -2097.432          42.000  
 18  2 16  8 23  7.0000000  0  8G30G03G05G09G10G11G01G23             0.000329744
   -621435.712    22389622.915        3545.328          42.000  
    535500.571    24843604.340       -3057.650          43.000  
   -634737.089    23972375.698        3593.273          43.000  
    114430.587    20185020.109        -702.225          43.000  
    234220.162    21133956.682       -1413.557          43.000  
   -396805.441    21126761.827        2210.937          43.000  
   -234331.857    22127224.836        1273.954          42.000  
    362883.900    22411675.791       -2098.104          43.000  
 18  2 16  8 23  8.0000000  0  8G30G03G05G09G10G11G01G23             0.000329922
   -624980.873    22388948.288        3545.138          43.000  
    538558.361    24844186.227       -3057.856          43.000  
   -638330.437    23971691.922        3593.587          43.000  
    115133.045    20185153.787        -702.637          43.000  
    235633.848    21134225.700       -1413.800          43.000  
   -399016.371    21126341.101        2210.890          43.000  
   -235605.667    22126982.407        1273.730          43.000  
    364982.139    22412075.074       -2098.281          43.000  
 18  2 16  8 23  9.0000000  0  8G30G03G05G09G10G11G01G23             0.000330100
   -628525.813    22388273.714        3544.912          43.000  
    541616.436    24844768.185       -3058.026          43.000  
   -641923.982    23971008.093        3593.845          43.000  
    115835.858    20185287.519        -702.833          43.000  
    237047.838    21134494.772       -1413.972          43.000  
   -401227.247    21125920.375        2210.988          43.000  
   -236879.140    22126740.067        1273.481          43.000  
    367080.700    22412474.411       -2098.523          43.000  
 18  2 16  8 23 10.0000000  0  8G30G03G05G09G10G11G01G23             0.000330277
   -632070.431    22387599.212        3544.559          43.000  
    544674.908    24845350.197       -3058.483          43.000  
   -645517.598    23970324.245        3593.861          43.000  
    116539.168    20185421.376        -703.497          43.000  
    238462.259    21134763.951       -1414.459          43.000  
   -403437.905    21125499.720        2211.048          43.000  
   -238152.153    22126497.835        1272.976          43.000  
    369179.688    22412873.837       -2099.039          43.000  
 18  2 16  8 23 11.0000000  0  8G30G03G05G09G10G11G01G23             0.000330455
   -635614.556    22386924.782        3543.822          43.000  
    547733.921    24845932.316       -3059.279          43.000  
   -649111.180    23969640.398        3593.518          43.000  
    117243.072    20185555.322        -704.240          43.000  
    239877.197    21135033.202       -1415.216          43.000  
   -405648.388    21125079.084        2210.111          43.000  
   -239424.588    22126255.710        1272.081          43.000  
    371279.216    22413273.353       -2099.753          43.000  
 18  2 16  8 23 12.0000000  0  8G30G03G05G09G10G11G01G23             0.000330633
   -639158.256    22386250.441        3543.657          43.000  
    550793.429    24846514.543       -3059.642          43.000  
   -652704.783    23968956.568        3593.809          43.000  
    117947.529    20185689.376        -704.519          43.000  
    241292.639    21135302.541       -1415.474          43.000  
   -407858.621    21124658.500        2210.233          43.000  
   -240696.506    22126013.692        1271.849          43.000  
    373379.251    22413672.976       -2100.143          43.000  
 18  2 16  8 23 13.0000000  0  8G30G03G05G09G10G11G01G23             0.000330812
   -642701.841    22385576.117        3543.474          43.000  
    553853.082    24847096.787       -3059.897          42.000  
   -656298.747    23968272.649        3594.089          43.000  
    118652.201    20185823.483        -704.837          43.000  
    242708.263    21135571.935       -1415.810          43.000  
   -410068.899    21124237.899        2210.195          43.000  
   -241968.234    22125771.691        1271.563          43.000  
    375479.426    22414072.617       -2100.333          43.000  
 18  2 16  8 23 15.0000000  0  8G30G03G05G09G10G11G01G23             0.000331166
   -649787.610    22384227.739        3542.909          43.000  
    559973.889    24848261.525       -3060.333          43.000  
   -663486.757    23966904.847        3594.602          43.000  
    120063.187    20186091.983        -705.525          43.000  
    245541.048    21136110.990       -1416.346          43.000  
   -414488.605    21123396.858        2210.170          43.000  
   -244510.136    22125287.977        1271.054          43.000  
    379681.199    22414872.220       -2100.785          43.000  
 18  2 16  8 23 16.0000000  0  8G30G03G05G09G10G11G01G23             0.000331345
   -653329.827    22383553.683        3542.161          43.000  
    563034.000    24848844.038       -3061.161          43.000  
   -667080.851    23966220.910        3594.292          43.000  
    120769.443    20186226.411        -706.422          43.000  
    246958.182    21136380.651       -1417.079          43.000  
   -416698.099    21122976.400        2209.437          43.000  
   -245780.345    22125046.245        1270.194          43.000  
    381782.749    22415272.128       -2101.596          43.000  
 18  2 16  8 23 17.0000000  0  8G30G03G05G09G10G11G01G23             0.000331523
   -656871.680    22382879.700        3541.668          43.000  
    566096.501    24849426.639       -3061.710          43.000  
   -670675.117    23965536.937        3594.405          43.000  
    121476.090    20186360.876        -706.751          43.000  
    248375.736    21136650.402       -1417.642          43.000  
   -418907.412    21122555.960        2209.205          43.000  
   -247050.163    22124804.602        1269.695          43.000  
    383884.621    22415672.126       -2101.897          43.000  
 18  2 16  8 23 18.0000000  0  8G30G03G05G09G10G11G01G23             0.000331700
   -660413.161    22382205.769        3541.394          42.000  
    569158.371    24850009.312       -3062.055          43.000  
   -674269.553    23964852.947        3594.604          43.000  
    122183.168    20186495.411        -707.273          43.000  
    249793.710    21136920.224       -1418.207          43.000  
   -421116.468    21122135.609        2209.151          43.000  
   -248319.584    22124563.049        1269.266          42.000  
    385986.825    22416072.142       -2102.257          43.000  
 18  2 16  8 23 19.0000000  0  8G30G03G05G09G10G11G01G23             0.000331877
   -663954.245    22381531.929        3541.114          43.000  
    572220.632    24850592.039       -3062.236          42.000  
   -677864.141    23964168.921        3594.886          43.000  
    122890.632    20186630.037        -707.506          43.000  
    251212.129    21137190.136       -1418.333          43.000  
   -423325.398    21121715.258        2209.028          43.000  
   -249588.622    22124321.567        1269.054          43.000  
    388089.348    22416472.212       -2102.463          43.000  
 18  2 16  8 23 20.0000000  0  8G30G03G05G09G10G11G01G23             0.000332054
   -667494.868    22380858.141        3540.599          43.000  
    575283.344    24851174.837       -3062.721          43.000  
   -681458.831    23963484.876        3594.917          43.000  
    123598.559    20186764.733        -707.928          42.000  
    252631.060    21137460.137       -1418.916          43.000  
   -425534.018    21121294.961        2208.668          42.000  
   -250857.186    22124080.174        1268.559          43.000  
    390192.253    22416872.389       -2102.908          42.000  
 18  2 16  8 23 21.0000000  0  8G30G03G05G09G10G11G01G23             0.000332233
   -671035.082    22380184.479        3540.246          43.000  
    578346.434    24851757.725       -3063.002          43.000  
   -685053.695    23962800.815        3595.126          42.000  
    124306.881    20186899.519        -708.325          43.000  
    254050.446    21137730.227       -1419.352          42.000  
   -427742.388    21120874.717        2208.447          43.000  
   -252125.349    22123838.835        1268.175          43.000  
    392295.455    22417272.637       -2103.225          43.000  
 18  2 16  8 23 22.0000000  0  8G30G03G05G09G10G11G01G23             0.000332411
   -674574.777    22379510.888        3539.513          43.000  
    581410.027    24852340.720       -3063.849          43.000  
   -688648.608    23962116.735        3594.884          42.000  
    125015.700    20187034.395        -708.971          43.000  
    255470.399    21138000.442       -1420.297          43.000  
   -429950.337    21120454.545        2207.862          43.000  
   -253393.000    22123597.621        1267.395          43.000  
    394399.044    22417672.939       -2103.850          42.000  
 18  2 16  8 23 23.0000000  0  8G30G03G05G09G10G11G01G23             0.000332587
   -678113.936    22378837.405        3539.264          43.000  
    584474.094    24852923.804       -3063.954          43.000  
   -692243.589    23961432.619        3595.276          43.000  
    125725.007    20187169.360        -709.202          43.000  
    256890.946    21138270.765       -1420.354          43.000  
   -432157.976    21120034.444        2207.697          43.000  
   -254660.148    22123356.496        1267.275          43.000  
    396503.028    22418073.330       -2103.905          42.000  
 18  2 16  8 23 24.0000000  0  8G30G03G05G09G10G11G01G23             0.000332765
   -681652.785    22378163.993        3538.930          43.000  
    587538.415    24853506.959       -3064.281          43.000  
   -695838.866    23960748.450        3595.635          43.000  
    126434.571    20187304.396        -709.456          43.000  
    258311.853    21138541.141       -1420.786          43.000  
   -434365.440    21119614.361        2207.566          43.000  
   -255927.006    22123115.425        1266.947          43.000  
    398607.144    22418473.721       -2103.939          43.000  
 18  2 16  8 23 25.0000000  0  8G30G03G05G09G10G11G01G23             0.000332944
   -685191.110    22377490.652        3538.247          43.000  
    590603.181    24854090.151       -3064.863          43.000  
   -699434.223    23960064.281        3595.557          43.000  
    127144.581    20187439.521        -710.075          43.000  
    259733.359    21138811.642       -1421.680          43.000  
   -436572.507    21119194.368        2207.040          43.000  
   -257193.368    22122874.444        1266.271          43.000  
    400711.623    22418874.202       -2104.562          43.000  
 18  2 16  8 23 26.0000000  0  8G30G03G05G09G10G11G01G23             0.000333120
   -688728.830    22376817.437        3537.534          43.000  
    593668.487    24854673.503       -3065.521          43.000  
   -703029.580    23959380.094        3595.434          43.000  
    127855.115    20187574.718        -710.664          43.000  
    261155.491    21139082.251       -1422.516          43.000  
   -438779.023    21118774.481        2206.291          43.000  
   -258459.164    22122633.569        1265.591          43.000  
    402816.487    22419274.754       -2104.965          43.000  
 18  2 16  8 23 27.0000000  0  8G30G03G05G09G10G11G01G23             0.000333297
   -692266.050    22376144.329        3537.073          43.000  
    596734.190    24855256.873       -3065.763          43.000  
   -706625.048    23958695.889        3595.665          43.000  
    128566.069    20187709.987        -711.045          43.000  
    262578.244    21139353.002       -1422.913          43.000  
   -440985.196    21118354.667        2206.044          43.000  
   -259724.495    22122392.784        1265.174          43.000  
    404921.645    22419675.341       -2105.230          43.000  
 18  2 16  8 23 28.0000000  0  8G30G03G05G09G10G11G01G23             0.000333475
   -695802.923    22375471.310        3536.658          43.000  
    599800.131    24855840.296       -3065.980          43.000  
   -710220.790    23958011.630        3595.848          42.000  
    129277.238    20187845.327        -711.221          43.000  
    264001.388    21139623.807       -1423.264          43.000  
   -443191.135    21117934.887        2205.898          43.000  
   -260989.525    22122152.089        1264.958          43.000  
    407026.901    22420075.965       -2105.280          43.000  
 18  2 16  8 23 29.0000000  0  8G30G03G05G09G10G11G01G23             0.000333652
   -699339.245    22374798.362        3535.880          43.000  
    602866.515    24856423.809       -3066.653          43.000  
   -713816.611    23957327.354        3595.756          42.000  
    129988.867    20187980.738        -711.968          42.000  
    265425.177    21139894.755       -1424.158          43.000  
   -445396.575    21117515.216        2205.158          42.000  
   -262254.028    22121911.482        1264.119          43.000  
    409132.467    22420476.642       -2105.856          43.000  
 18  2 16  8 23 30.0000000  0  8G30G03G05G09G10G11G01G23             0.000333829
   -702875.113    22374125.504        3535.807          43.000  
    605933.216    24857007.394       -3066.687          43.000  
   -717412.600    23956643.060        3596.331          43.000  
    130700.804    20188116.221        -711.864          43.000  
    266849.466    21140165.793       -1424.502          43.000  
   -447601.613    21117095.633        2205.034          43.000  
   -263518.144    22121670.929        1264.105          43.000  
    411238.208    22420877.355       -2105.733          43.000  
 18  2 16  8 23 31.0000000  0  8G30G03G05G09G10G11G01G23             0.000334007
   -706410.542    22373452.754        3535.212          43.000  
    609000.213    24857591.014       -3067.200          43.000  
   -721008.760    23955958.748        3596.226          43.000  
    131413.041    20188251.758        -712.279          43.000  
    268274.337    21140436.937       -1424.000          43.000  
   -449806.281    21116676.086        2204.505          43.000  
   -264781.846    22121430.448        1263.526          43.000  
    413344.089    22421278.086       -2105.876          43.000  
 18  2 16  8 23 32.0000000  0  8G30G03G05G09G10G11G01G23             0.000334190
   -709945.549    22372780.074        3534.835          43.000  
    612067.468    24858174.688       -3067.379          43.000  
   -724605.129    23955274.382        3596.504          42.000  
    132125.558    20188387.348        -712.555          43.000  
    269699.710    21140708.153       -1425.465          43.000  
   -452010.565    21116256.629        2204.131          43.000  
   -266045.170    22121190.056        1263.140          43.000  
    415450.097    22421678.852       -2106.068          43.000  
 18  2 16  8 23 33.0000000  0  8G30G03G05G09G10G11G01G23             0.000334367
   -713479.929    22372107.520        3534.231          43.000  
    615135.187    24858758.469       -3067.832          43.000  
   -728201.500    23954590.034        3596.537          43.000  
    132838.535    20188523.027        -713.003          43.000  
    271125.828    21140979.548       -1426.224          43.000  
   -454214.239    21115837.279        2203.552          43.000  
   -267307.911    22120949.789        1262.621          43.000  
    417556.398    22422079.654       -2106.270          42.000  
 18  2 16  8 23 34.0000000  0  8G30G03G05G09G10G11G01G23             0.000334543
   -717013.765    22371435.073        3533.505          43.000  
    618203.256    24859342.303       -3068.390          42.000  
   -731797.945    23953905.651        3596.364          43.000  
    133551.892    20188658.778        -713.655          43.000  
    272552.570    21141251.050       -1427.428          43.000  
   -456417.362    21115418.036        2202.554          43.000  
   -268570.147    22120709.612        1261.906          43.000  
    419662.909    22422480.528       -2106.723          43.000  
 18  2 16  8 23 35.0000000  0  8G30G03G05G09G10G11G01G23             0.000334722
   -720547.073    22370762.697        3533.197          43.000  
    621271.655    24859926.191       -3068.422          43.000  
   -735394.477    23953221.231        3596.693          43.000  
    134265.588    20188794.601        -713.657          43.000  
    273980.014    21141522.677       -1427.577          43.000  
   -458619.959    21114998.900        2202.539          43.000  
   -269831.873    22120469.506        1261.564          43.000  
    421769.590    22422881.419       -2106.561          42.000  
 18  2 16  8 23 36.0000000  0  8G30G03G05G09G10G11G01G23             0.000334898
   -724079.899    22370090.429        3532.716          43.000  
    624340.317    24860510.169       -3068.652          42.000  
   -738991.147    23952536.830        3596.905          43.000  
    134979.590    20188930.459        -714.021          43.000  
    275408.054    21141794.411       -1428.267          43.000  
   -460822.035    21114579.853        2202.004          43.000  
   -271093.169    22120229.489        1261.200          43.000  
    423876.382    22423282.329       -2106.696          42.000  
 18  2 16  8 23 37.0000000  0  8G30G03G05G09G10G11G01G23             0.000335074
   -727612.180    22369418.286        3532.124          42.000  
    627409.314    24861094.164       -3069.051          43.000  
   -742587.864    23951852.393        3596.878          43.000  
    135693.948    20189066.389        -714.468          43.000  
    276836.787    21142066.253       -1429.034          42.000  
   -463023.511    21114160.914        2201.224          43.000  
   -272353.927    22119989.562        1260.529          43.000  
    425983.348    22423683.238       -2107.042          42.000  
 18  2 16  8 23 38.0000000  0  8G30G03G05G09G10G11G01G23             0.000335249
   -731144.018    22368746.196        3531.658          42.000  
    630478.515    24861678.213       -3069.306          42.000  
   -746184.749    23951167.920        3597.035          43.000  
    136408.538    20189202.336        -714.715          43.000  
    278266.059    21142338.237       -1429.803          42.000  
   -465224.493    21113742.064        2200.533          43.000  
   -273614.270    22119749.724        1260.128          43.000  
    428090.338    22424084.183       -2106.955          42.000  
 18  2 16  8 23 40.0000000  0  8G30G03G05G09G10G11G01G23             0.000335602
   -738205.550    22367402.427        3530.344          42.000  
    636618.278    24862846.579       -3070.015          43.000  
   -753378.142    23949799.045        3596.888          43.000  
    137839.239    20189474.589        -715.452          43.000  
    281127.383    21142882.724       -1431.047          42.000  
   -469623.997    21112904.865        2199.295          42.000  
   -276132.852    22119270.458        1258.891          43.000  
    432305.238    22424886.234       -2107.420          43.000  
 18  2 16  8 23 41.0000000  0  8G30G03G05G09G10G11G01G23             0.000335778
   -741735.371    22366730.749        3529.735          42.000  
    639688.692    24863430.861       -3070.271          43.000  
   -756974.767    23949114.608        3596.885          43.000  
    138555.210    20189610.840        -715.880          43.000  
    282559.248    21143155.209       -1431.990          43.000  
   -471822.649    21112486.479        2198.632          42.000  
   -277391.187    22119031.014        1258.297          43.000  
    434412.981    22425287.305       -2107.503          43.000  
 18  2 16  8 23 42.0000000  0  8G30G03G05G09G10G11G01G23             0.000335954
   -745264.776    22366059.124        3529.133          43.000  
    642759.237    24864015.178       -3070.623          43.000  
   -760571.536    23948430.171        3596.755          42.000  
    139271.380    20189747.127        -716.265          43.000  
    283991.689    21143427.783       -1433.190          43.000  
   -474020.737    21112068.183        2197.544          43.000  
   -278649.099    22118791.622        1257.647          42.000  
    436520.697    22425688.393       -2107.722          43.000  
 18  2 16  8 23 43.0000000  0  8G30G03G05G09G10G11G01G23             0.000336130
   -748793.728    22365387.588        3528.886          42.000  
    645829.937    24864599.513       -3070.653          43.000  
   -764168.410    23947745.716        3597.080          43.000  
    139987.789    20189883.468        -716.366          43.000  
    285424.843    21143700.500       -1433.268          42.000  
   -476218.169    21111650.048        2197.260          43.000  
   -279906.541    22118552.356        1257.316          43.000  
    438628.427    22426089.499       -2107.574          43.000  
 18  2 16  8 23 44.0000000  0  8G30G03G05G09G10G11G01G23             0.000336306
   -752322.050    22364716.159        3528.047          42.000  
    648900.950    24865183.937       -3071.175          43.000  
   -767765.197    23947061.297        3596.722          43.000  
    140704.587    20190019.862        -716.950          43.000  
    286858.833    21143973.378       -1434.376          43.000  
   -478414.813    21111232.038        2196.288          43.000  
   -281163.315    22118313.197        1256.365          42.000  
    440736.309    22426490.605       -2107.990          43.000  
 18  2 16  8 23 45.0000000  0  8G30G03G05G09G10G11G01G23             0.000336482
   -755849.969    22364044.802        3527.661          43.000  
    651972.035    24865768.343       -3071.193          43.000  
   -771362.121    23946376.824        3596.926          42.000  
    141421.571    20190156.310        -717.110          43.000  
    288293.454    21144246.381       -1434.892          43.000  
   -480610.870    21110814.171        2195.764          43.000  
   -282419.665    22118074.127        1256.193          43.000  
    442844.115    22426891.711       -2107.809          43.000  
 18  2 16  8 23 46.0000000  0  8G30G03G05G09G10G11G01G23             0.000336660
   -759377.241    22363373.588        3527.179          43.000  
    655043.424    24866352.821       -3071.235          42.000  
   -774958.921    23945692.387        3596.987          43.000  
    142138.962    20190292.829        -717.377          43.000  
    289728.907    21144519.544       -1435.893          43.000  
   -482806.078    21110396.429        2194.772          42.000  
   -283675.298    22117835.165        1255.467          43.000  
    444952.091    22427292.852       -2107.859          42.000  
 18  2 16  8 23 47.0000000  0  8G30G03G05G09G10G11G01G23             0.000336836
   -762904.139    22362702.428        3526.491          43.000  
    658114.867    24866937.281       -3071.682          43.000  
   -778555.834    23945007.914        3596.793          43.000  
    142856.513    20190429.366        -717.843          43.000  
    291165.088    21144792.851       -1436.592          43.000  
   -485000.591    21109978.812        2194.035          43.000  
   -284930.502    22117596.310        1254.776          43.000  
    447059.951    22427693.958       -2107.949          43.000  
 18  2 16  8 23 48.0000000  0  8G30G03G05G09G10G11G01G23             0.000337008
   -766430.285    22362031.446        3525.977          43.000  
    661186.674    24867521.831       -3071.792          43.000  
   -782152.498    23944323.494        3596.687          43.000  
    143574.560    20190565.993        -718.143          43.000  
    292602.244    21145066.319       -1437.395          43.000  
   -487194.142    21109561.410        2193.352          43.000  
   -286184.882    22117357.597        1254.124          43.000  
    449168.080    22428095.136       -2108.127          43.000  
 18  2 16  8 23 49.0000000  0  8G30G03G05G09G10G11G01G23             0.000337185
   -769955.679    22361360.571        3525.433          42.000  
    664258.874    24868106.469       -3071.969          43.000  
   -785748.890    23943639.129        3596.639          43.000  
    144293.150    20190702.762        -718.398          43.000  
    294040.433    21145340.018       -1438.249          43.000  
   -489386.651    21109144.222        2192.419          43.000  
   -287438.412    22117119.064        1253.534          43.000  
    451276.452    22428496.331       -2108.057          43.000  
 18  2 16  8 23 50.0000000  0  8G30G03G05G09G10G11G01G23             0.000337364
   -773480.644    22360689.804        3524.661          43.000  
    667331.129    24868691.108       -3072.372          43.000  
   -789345.309    23942954.745        3596.389          42.000  
    145011.932    20190839.514        -718.934          43.000  
    295479.287    21145613.825       -1439.467          43.000  
   -491578.478    21108727.105        2191.175          42.000  
   -288691.416    22116880.602        1252.665          43.000  
    453384.758    22428897.526       -2108.360          43.000  
 18  2 16  8 23 51.0000000  0  8G30G03G05G09G10G11G01G23             0.000337542
   -777004.994    22360019.162        3523.936          43.000  
    670403.603    24869275.800       -3072.699          43.000  
   -792941.557    23942270.397        3596.107          42.000  
    145731.114    20190976.373        -719.413          43.000  
    296919.149    21145887.829       -1440.349          43.000  
   -493769.296    21108310.185        2190.337          43.000  
   -289943.700    22116642.318        1251.907          43.000  
    455493.164    22429298.740       -2108.518          43.000  
 18  2 16  8 23 52.0000000  0  8G30G03G05G09G10G11G01G23             0.000337715
   -780528.889    22359348.591        3523.451          42.000  
    673476.128    24869860.475       -3072.706          43.000  
   -796537.780    23941586.067        3595.996          43.000  
    146450.515    20191113.285        -719.685          43.000  
    298359.756    21146161.958       -1441.170          43.000  
   -495959.346    21107893.408        2189.485          42.000  
   -291195.385    22116404.106        1251.177          43.000  
    457601.521    22429699.953       -2108.514          43.000  
 18  2 16  8 23 53.0000000  0  8G30G03G05G09G10G11G01G23             0.000337892
   -784052.104    22358678.127        3523.178          43.000  
    676548.944    24870445.203       -3072.604          43.000  
   -800133.726    23940901.791        3596.091          43.000  
    147170.385    20191250.269        -719.783          43.000  
    299801.354    21146436.283       -1441.680          42.000  
   -498148.372    21107476.863        2188.965          42.000  
   -292446.254    22116166.055        1250.753          43.000  
    459710.049    22430101.184       -2108.222          42.000  
 18  2 16  8 23 54.0000000  0  8G30G03G05G09G10G11G01G23             0.000338069
   -787574.990    22358007.735        3522.788          42.000  
    679621.673    24871029.913       -3072.630          43.000  
   -803729.735    23940217.497        3596.083          43.000  
    147890.383    20191387.271        -720.033          43.000  
    301243.591    21146710.733       -1442.743          43.000  
   -500336.731    21107060.461        2187.815          43.000  
   -293696.634    22115928.129        1250.203          43.000  
    461818.412    22430502.397       -2108.270          42.000  
 18  2 16  8 23 55.0000000  0  8G30G03G05G09G10G11G01G23             0.000338252
   -791097.438    22357337.414        3522.221          43.000  
    682694.424    24871614.641       -3072.811          43.000  
   -807325.683    23939533.202        3595.916          43.000  
    148610.600    20191524.326        -720.368          43.000  
    302686.680    21146985.326       -1443.429          43.000  
   -502524.180    21106644.185        2187.065          43.000  
   -294946.396    22115690.310        1249.479          43.000  
    463926.691    22430903.574       -2108.235          42.000  
 18  2 16  8 23 56.0000000  0  8G30G03G05G09G10G11G01G23             0.000338430
   -794619.227    22356667.255        3521.647          43.000  
    685767.399    24872199.423       -3072.961          43.000  
   -810921.320    23938848.962        3595.591          43.000  
    149331.271    20191661.471        -720.717          42.000  
    304130.783    21147260.152       -1444.411          43.000  
   -504710.608    21106228.104        2186.089          43.000  
   -296195.319    22115452.634        1248.659          43.000  
    466035.127    22431304.788       -2108.380          42.000  
 18  2 16  8 23 57.0000000  0  8G30G03G05G09G10G11G01G23             0.000338606
   -798140.615    22355997.148        3521.239          43.000  
    688840.352    24872784.186       -3072.990          43.000  
   -814516.895    23938164.757        3595.473          43.000  
    150052.149    20191798.634        -720.951          43.000  
    305575.648    21147535.103       -1445.209          43.000  
   -506896.199    21105812.185        2185.245          42.000  
   -297443.626    22115215.102        1248.017          43.000  
    468143.456    22431706.001       -2108.252          42.000  
 18  2 16  8 23 58.0000000  0  8G30G03G05G09G10G11G01G23             0.000338782
   -801661.590    22355327.149        3520.867          43.000  
    691913.255    24873368.950       -3072.823          43.000  
   -818112.381    23937480.552        3595.427          43.000  
    150773.252    20191935.850        -721.205          43.000  
    307021.254    21147810.214       -1446.062          43.000  
   -509080.998    21105396.444        2184.191          43.000  
   -298691.323    22114977.676        1247.539          43.000  
    470251.689    22432107.196       -2108.075          43.000  
 18  2 16  8 23 59.0000000  0  8G30G03G05G09G10G11G01G23             0.000338960
   -805182.075    22354657.222        3520.342          43.000  
    694986.227    24873953.732       -3072.933          43.000  
   -821707.672    23936796.383        3595.232          43.000  
    151494.663    20192073.138        -721.481          43.000  
    308467.850    21148085.486       -1446.926          43.000  
   -511264.749    21104980.882        2183.334          42.000  
   -299938.263    22114740.375        1246.638          43.000  
    472359.931    22432508.356       -2108.142          43.000  
 18  2 16  8 24  0.0000000  0  8G30G03G05G09G10G11G01G23             0.000339137
   -808701.798    22353987.437        3519.776          43.000  
    698059.518    24874538.567       -3073.113          43.000  
   -825302.471    23936112.339        3594.957          43.000  
    152216.664    20192210.533        -721.869          43.000  
    309915.586    21148360.991       -1447.896          43.000  
   -513447.314    21104565.535        2182.340          43.000  
   -301184.197    22114503.289        1245.782          43.000  
    474468.444    22432909.604       -2108.257          43.000  
 18  2 16  8 24  1.0000000  0  8G30G03G05G09G10G11G01G23             0.000339314
   -812221.116    22353317.742        3519.094          43.000  
    701132.733    24875123.366       -3073.190          43.000  
   -828897.138    23935428.295        3594.506          42.000  
    152938.894    20192347.963        -722.309          43.000  
    311364.125    21148636.639       -1448.922          43.000  
   -515629.006    21104150.366        2181.281          42.000  
   -302429.483    22114266.328        1244.994          43.000  
    476576.859    22433310.818       -2108.378          42.000  
 18  2 16  8 24  2.0000000  0  8G30G03G05G09G10G11G01G23             0.000339490
   -815739.972    22352648.118        3518.390          43.000  
    704205.983    24875708.184       -3073.524          43.000  
   -832491.574    23934744.286        3594.093          43.000  
    153661.447    20192485.447        -722.928          43.000  
    312813.530    21148912.465       -1450.267          43.000  
   -517809.781    21103735.358        2179.880          43.000  
   -303673.998    22114029.492        1243.862          43.000  
    478685.269    22433712.049       -2108.655          43.000  
 18  2 16  8 24  3.0000000  0  8G30G03G05G09G10G11G01G23             0.000339667
   -819258.462    22351978.584        3518.450          42.000  
    707279.127    24876293.001       -3072.940          43.000  
   -836085.863    23934060.314        3594.332          43.000  
    154384.212    20192622.985        -722.668          43.000  
    314263.790    21149188.434       -1450.524          43.000  
   -519989.595    21103320.546        2179.585          43.000  
   -304917.853    22113792.781        1243.638          43.000  
    480793.583    22434113.244       -2108.244          43.000  
 18  2 16  8 24  4.0000000  0  8G30G03G05G09G10G11G01G23             0.000339844
   -822776.349    22351309.139        3517.807          43.000  
    710352.424    24876877.837       -3073.090          43.000  
   -839679.749    23933376.448        3593.946          43.000  
    155107.451    20192760.613        -723.201          43.000  
    315715.089    21149464.618       -1451.514          42.000  
   -522168.310    21102905.967        2178.453          43.000  
   -306160.785    22113556.267        1242.699          42.000  
    482902.016    22434514.457       -2108.256          42.000  
 18  2 16  8 24  5.0000000  0  8G30G03G05G09G10G11G01G23             0.000340020
   -826293.908    22350639.783        3517.460          43.000  
    713425.590    24877462.672       -3072.972          43.000  
   -843273.483    23932692.583        3593.730          43.000  
    155830.897    20192898.276        -723.432          43.000  
    317167.183    21149740.944       -1452.437          43.000  
   -524346.171    21102491.513        2177.557          43.000  
   -307403.059    22113319.859        1242.022          43.000  
    485010.336    22434915.652       -2108.169          43.000  
 18  2 16  8 24  6.0000000  0  8G30G03G05G09G10G11G01G23             0.000340196
   -829811.096    22349970.481        3517.127          43.000  
    716498.674    24878047.453       -3072.958          42.000  
   -846867.004    23932008.735        3593.561          43.000  
    156554.597    20193035.992        -723.717          43.000  
    318620.068    21150017.432       -1453.410          43.000  
   -526523.155    21102077.237        2176.350          43.000  
   -308644.611    22113083.577        1241.247          43.000  
    487118.589    22435316.866       -2108.091          43.000  
 18  2 16  8 24  7.0000000  0  8G30G03G05G09G10G11G01G23             0.000340373
   -833327.983    22349301.268        3516.524          43.000  
    719571.580    24878632.217       -3072.930          42.000  
   -850460.373    23931324.977        3593.152          43.000  
    157278.497    20193173.744        -724.120          43.000  
    320073.756    21150294.026       -1454.182          43.000  
   -528699.247    21101663.159        2175.572          43.000  
   -309885.514    22112847.438        1240.436          43.000  
    489226.702    22435718.043       -2108.231          43.000  
 18  2 16  8 24  8.0000000  0  8G30G03G05G09G10G11G01G23             0.000340550
   -836844.397    22348632.109        3516.388          43.000  
    722644.507    24879216.963       -3072.659          43.000  
   -854053.380    23930641.201        3593.052          43.000  
    158002.782    20193311.568        -724.276          43.000  
    321528.425    21150570.835       -1454.865          43.000  
   -530874.307    21101249.258        2174.873          43.000  
   -311125.548    22112611.460        1239.868          43.000  
    491334.874    22436119.203       -2107.938          43.000  
 18  2 16  8 24  9.0000000  0  8G30G03G05G09G10G11G01G23             0.000340726
   -840360.468    22347963.021        3516.208          43.000  
    725717.338    24879801.691       -3072.410          43.000  
   -857646.144    23929957.532        3592.952          43.000  
    158727.336    20193449.463        -724.292          43.000  
    322983.910    21150847.787       -1455.544          43.000  
   -533048.442    21100835.537        2174.052          43.000  
   -312364.842    22112375.607        1239.256          42.000  
    493442.996    22436520.362       -2107.825          43.000  
 18  2 16  8 24 10.0000000  0  8G30G03G05G09G10G11G01G23             0.000340903
   -843876.116    22347293.987        3515.626          43.000  
    728790.123    24880386.437       -3072.552          43.000  
   -861238.580    23929273.899        3592.545          43.000  
    159452.257    20193587.430        -724.939          43.000  
    324440.279    21151124.918       -1456.674          43.000  
   -535221.650    21100422.012        2172.819          43.000  
   -313603.310    22112139.932        1238.262          42.000  
    495551.127    22436921.504       -2107.874          43.000  
 18  2 16  8 24 11.0000000  0  8G30G03G05G09G10G11G01G23             0.000341080
   -847391.481    22346625.042        3515.301          42.000  
    731862.746    24880971.147       -3072.493          43.000  
   -864830.789    23928590.320        3592.197          43.000  
    160177.416    20193725.433        -725.274          43.000  
    325897.479    21151402.227       -1457.457          43.000  
   -537393.922    21100008.630        2171.963          42.000  
   -314841.069    22111904.383        1237.482          43.000  
    497659.173    22437322.646       -2107.894          42.000  
 18  2 16  8 24 12.0000000  0  8G30G03G05G09G10G11G01G23             0.000341257
   -850906.291    22345956.187        3514.799          42.000  
    734935.463    24881555.857       -3072.470          43.000  
   -868422.493    23927906.830        3591.808          42.000  
    160903.072    20193863.524        -725.608          43.000  
    327355.733    21151679.733       -1458.444          43.000  
   -539565.073    21099595.480        2170.874          43.000  
   -316077.834    22111669.012        1236.541          43.000  
    499767.405    22437723.823       -2108.067          42.000  
 18  2 16  8 24 13.0000000  0  8G30G03G05G09G10G11G01G23             0.000341433
   -854420.963    22345287.385        3514.651          42.000  
    738007.893    24882140.532       -3072.251          43.000  
   -872014.086    23927223.340        3591.562          42.000  
    161628.861    20194001.634        -725.816          43.000  
    328814.644    21151957.364       -1459.207          43.000  
   -541735.490    21099182.456        2170.030          42.000  
   -317314.018    22111433.766        1235.981          43.000  
    501875.419    22438124.983       -2107.881          43.000  
 18  2 16  8 24 14.0000000  0  8G30G03G05G09G10G11G01G23             0.000341610
   -857935.220    22344618.655        3514.212          43.000  
    741080.286    24882725.171       -3072.239          42.000  
   -875605.282    23926539.957        3591.140          43.000  
    162355.052    20194139.833        -726.218          43.000  
    330274.449    21152235.174       -1460.094          43.000  
   -543904.964    21098769.610        2169.142          43.000  
   -318549.306    22111198.699        1234.938          43.000  
    503983.519    22438526.160       -2108.002          42.000  
 18  2 16  8 24 15.0000000  0  8G30G03G05G09G10G11G01G23             0.000341787
   -861449.237    22343949.942        3513.958          43.000  
    744152.490    24883309.791       -3072.038          43.000  
   -879196.235    23925856.610        3590.930          42.000  
    163081.486    20194278.068        -726.431          43.000  
    331735.056    21152513.109       -1460.942          42.000  
   -546073.542    21098356.925        2168.299          42.000  
   -319783.885    22110963.757        1234.288          42.000  
    506091.540    22438927.302       -2107.910          42.000  
 18  2 16  8 24 16.0000000  0  8G30G03G05G09G10G11G01G23             0.000341963
   -864962.796    22343281.337        3513.325          42.000  
    747224.721    24883894.430       -3072.257          43.000  
   -882786.709    23925173.352        3590.232          42.000  
    163808.410    20194416.428        -727.231          42.000  
    333196.635    21152791.240       -1462.143          43.000  
   -548241.081    21097944.454        2166.969          42.000  
   -321017.518    22110728.994        1233.170          42.000  
    508199.711    22439328.479       -2108.229          42.000  
 18  2 16  8 24 17.0000000  0  8G30G03G05G09G10G11G01G23             0.000342139
   -868475.805    22342612.821        3512.761          42.000  
    750297.080    24884479.087       -3072.389          43.000  
   -886376.591    23924490.219        3589.559          43.000  
    164535.903    20194554.859        -727.751          42.000  
    334659.278    21153069.550       -1463.138          43.000  
   -550407.486    21097532.216        2165.904          43.000  
   -322250.094    22110494.445        1232.105          43.000  
    510308.160    22439729.692       -2108.633          42.000  
 18  2 16  8 24 18.0000000  0  8G30G03G05G09G10G11G01G23             0.000342315
   -871988.505    22341944.377        3512.449          43.000  
    753369.330    24885063.725       -3072.205          43.000  
   -889966.142    23923807.158        3589.380          43.000  
    165263.752    20194693.362        -728.046          42.000  
    336122.753    21153348.039       -1463.944          43.000  
   -552573.015    21097120.120        2164.967          43.000  
   -323481.850    22110260.057        1231.303          43.000  
    512416.631    22440130.906       -2108.621          43.000  
 18  2 16  8 24 19.0000000  0  8G30G03G05G09G10G11G01G23             0.000342492
   -875500.914    22341276.004        3512.486          43.000  
    756441.468    24885648.346       -3071.678          43.000  
   -893555.317    23923124.168        3589.314          43.000  
    165991.968    20194831.954        -728.148          43.000  
    337587.060    21153626.688       -1464.334          43.000  
   -554737.630    21096708.204        2164.443          43.000  
   -324712.794    22110025.830        1230.850          43.000  
    514525.148    22440532.172       -2108.281          43.000  
 18  2 16  8 24 20.0000000  0  8G30G03G05G09G10G11G01G23             0.000342667
   -879013.088    22340607.667        3512.031          43.000  
    759513.464    24886232.931       -3071.949          43.000  
   -897144.174    23922441.214        3588.677          43.000  
    166720.497    20194970.582        -728.624          42.000  
    339052.164    21153905.499       -1465.450          42.000  
   -556901.407    21096296.466        2163.325          43.000  
   -325942.953    22109791.746        1229.792          42.000  
    516633.676    22440933.421       -2108.563          43.000  
 18  2 16  8 24 21.0000000  0  8G30G03G05G09G10G11G01G23             0.000342845
   -882524.986    22339939.347        3511.799          43.000  
    762585.328    24886817.498       -3071.770          43.000  
   -900732.686    23921758.349        3588.465          43.000  
    167449.391    20195109.299        -729.025          43.000  
    340518.054    21154184.434       -1466.251          43.000  
   -559064.365    21095884.835        2162.605          43.000  
   -327172.296    22109557.823        1228.950          43.000  
    518742.259    22441334.670       -2108.577          43.000  
 18  2 16  8 24 22.0000000  0  8G30G03G05G09G10G11G01G23             0.000343021
   -886036.688    22339271.100        3511.627          43.000  
    765656.000    24887401.994       -3071.488          43.000  
   -904320.893    23921075.520        3588.045          43.000  
    168178.580    20195248.052        -729.298          43.000  
    341984.650    21154463.530       -1466.808          43.000  
   -561226.563    21095473.383        2161.974          43.000  
   -328400.907    22109324.060        1228.282          43.000  
    520850.828    22441735.919       -2108.489          43.000  
 18  2 16  8 24 23.0000000  0  8G30G03G05G09G10G11G01G23             0.000343197
   -889548.205    22338602.887        3511.608          43.000  
    768728.506    24887986.490       -3071.297          43.000  
   -907908.806    23920392.763        3587.974          43.000  
    168908.085    20195386.894        -729.479          43.000  
    343451.981    21154742.752       -1467.504          43.000  
   -563387.963    21095062.073        2161.141          43.000  
   -329628.751    22109090.422        1227.671          43.000  
    522959.423    22442137.168       -2108.458          43.000  
 18  2 16  8 24 24.0000000  0  8G30G03G05G09G10G11G01G23             0.000343375
   -893059.566    22337934.711        3511.404          43.000  
    771799.794    24888570.932       -3071.102          43.000  
   -911496.440    23919710.059        3587.563          43.000  
    169637.866    20195525.755        -729.801          43.000  
    344920.004    21155022.098       -1468.274          43.000  
   -565548.648    21094650.889        2160.382          43.000  
   -330855.875    22108856.910        1226.833          43.000  
    525068.010    22442538.417       -2108.536          43.000  
 18  2 16  8 24 25.0000000  0  8G30G03G05G09G10G11G01G23             0.000343551
   -896570.678    22337266.570        3511.149          43.000  
    774870.978    24889155.374       -3070.995          43.000  
   -915083.696    23919027.426        3587.187          43.000  
    170368.053    20195664.722        -730.216          43.000  
    346388.814    21155301.606       -1469.181          43.000  
   -567708.546    21094239.884        2159.647          42.000  
   -332082.175    22108623.541        1225.957          43.000  
    527176.699    22442939.702       -2108.631          43.000  
 18  2 16  8 24 26.0000000  0  8G30G03G05G09G10G11G01G23             0.000343726
   -900081.532    22336598.465        3510.880          43.000  
    777942.075    24889739.781       -3070.779          43.000  
   -918670.569    23918344.848        3586.828          43.000  
    171098.646    20195803.743        -730.590          42.000  
    347858.368    21155581.256       -1469.660          43.000  
   -569867.647    21093829.022        2159.037          43.000  
   -333307.657    22108390.332        1225.301          43.000  
    529285.513    22443341.004       -2108.638          43.000  
 18  2 16  8 24 27.0000000  0  8G30G03G05G09G10G11G01G23             0.000343902
   -903592.288    22335930.396        3510.891          43.000  
    781012.962    24890324.169       -3070.522          42.000  
   -922257.192    23917662.340        3586.692          43.000  
    171829.525    20195942.818        -730.762          43.000  
    349328.564    21155861.013       -1470.371          43.000  
   -572026.102    21093418.284        2158.272          43.000  
   -334532.429    22108157.266        1224.631          43.000  
    531394.340    22443742.289       -2108.592          43.000  
 18  2 16  8 24 28.0000000  0  8G30G03G05G09G10G11G01G23             0.000344079
   -907102.942    22335262.345        3510.866          43.000  
    784083.627    24890908.504       -3070.245          43.000  
   -925843.569    23916979.869        3586.546          43.000  
    172560.694    20196081.964        -731.020          43.000  
    350799.375    21156140.896       -1470.928          42.000  
   -574183.925    21093007.654        2157.758          43.000  
   -335756.523    22107924.326        1224.071          42.000  
    533503.180    22444143.573       -2108.632          43.000  
 18  2 16  8 24 29.0000000  0  8G30G03G05G09G10G11G01G23             0.000344256
   -910613.453    22334594.294        3510.449          43.000  
    787154.128    24891492.803       -3070.376          43.000  
   -929429.625    23916297.469        3585.828          43.000  
    173292.207    20196221.163        -731.747          43.000  
    352270.844    21156420.885       -1471.840          42.000  
   -576341.083    21092597.167        2156.761          43.000  
   -336979.864    22107691.546        1222.929          43.000  
    535612.081    22444544.876       -2108.928          43.000  
 18  2 16  8 24 31.0000000  0  8G30G03G05G09G10G11G01G23             0.000344608
   -917633.916    22333258.334        3510.200          43.000  
    793294.826    24892661.348       -3070.163          43.000  
   -936600.748    23914932.847        3585.353          43.000  
    174756.422    20196499.795        -732.440          43.000  
    355215.823    21156981.312       -1472.967          43.000  
   -580653.375    21091776.568        2155.456          43.000  
   -339424.235    22107226.397        1221.575          43.000  
    539830.326    22445347.570       -2109.144          43.000  
 18  2 16  8 24 32.0000000  0  8G30G03G05G09G10G11G01G23             0.000344784
   -921144.046    22332590.372        3510.697          43.000  
    796364.859    24893245.558       -3069.240          43.000  
   -940185.951    23914250.608        3585.739          43.000  
    175488.970    20196639.191        -732.013          43.000  
    356689.167    21157261.677       -1472.941          43.000  
   -582808.702    21091366.438        2155.686          43.000  
   -340645.406    22106994.011        1221.513          43.000  
    541939.518    22445748.926       -2108.564          43.000  
 18  2 16  8 24 33.0000000  0  8G30G03G05G09G10G11G01G23             0.000344962
   -924654.340    22331922.374        3509.946          42.000  
    799434.484    24893829.696       -3069.772          43.000  
   -943771.143    23913568.351        3584.733          43.000  
    176221.613    20196778.605        -733.045          43.000  
    358162.861    21157542.113       -1474.332          43.000  
   -584963.709    21090956.362        2154.459          43.000  
   -341866.146    22106761.696        1220.181          43.000  
    544048.562    22446150.265       -2109.404          42.000  
 18  2 16  8 24 34.0000000  0  8G30G03G05G09G10G11G01G23             0.000345132
   -928164.180    22331254.466        3510.017          43.000  
    802504.319    24894413.870       -3069.523          43.000  
   -947355.729    23912886.236        3584.715          43.000  
    176954.963    20196918.145        -733.262          42.000  
    359637.481    21157822.728       -1474.524          43.000  
   -587117.798    21090546.428        2154.287          43.000  
   -343085.828    22106529.613        1219.596          43.000  
    546158.069    22446551.674       -2109.420          43.000  
 18  2 16  8 24 35.0000000  0  8G30G03G05G09G10G11G01G23             0.000345309
   -931673.810    22330586.611        3509.762          43.000  
    805574.139    24894998.026       -3069.595          43.000  
   -950939.927    23912204.176        3584.287          43.000  
    177688.792    20197057.791        -733.808          43.000  
    361112.747    21158103.468       -1475.392          43.000  
   -589271.305    21090136.620        2153.387          43.000  
   -344304.707    22106297.637        1218.790          43.000  
    548267.813    22446953.156       -2109.567          43.000  
 18  2 16  8 24 36.0000000  0  8G30G03G05G09G10G11G01G23             0.000345488
   -935183.344    22329918.775        3509.831          43.000  
    808643.829    24895582.165       -3069.262          43.000  
   -954523.873    23911522.187        3584.228          43.000  
    178422.986    20197197.509        -734.028          43.000  
    362588.586    21158384.298       -1475.779          42.000  
   -591424.278    21089726.919        2153.025          43.000  
   -345522.891    22106065.822        1218.296          43.000  
    550377.722    22447354.672       -2109.692          43.000  
 18  2 16  8 24 37.0000000  0  8G30G03G05G09G10G11G01G23             0.000345664
   -938692.690    22329250.973        3509.407          43.000  
    811713.503    24896166.303       -3069.466          43.000  
   -958107.458    23910840.251        3583.538          43.000  
    179157.659    20197337.298        -734.748          43.000  
    364065.088    21158665.270       -1476.714          43.000  
   -593576.646    21089317.308        2152.195          43.000  
   -346740.292    22105834.168        1217.187          43.000  
    552487.881    22447756.207       -2110.149          43.000  
 18  2 16  8 24 38.0000000  0  8G30G03G05G09G10G11G01G23             0.000345841
   -942201.856    22328583.208        3509.138          43.000  
    814783.171    24896750.442       -3069.600          43.000  
   -961690.717    23910158.387        3583.222          43.000  
    179892.796    20197477.177        -735.283          43.000  
    365542.213    21158946.368       -1477.091          43.000  
   -595728.436    21088907.839        2152.028          43.000  
   -347956.929    22105602.657        1216.336          42.000  
    554598.294    22448157.831       -2110.431          43.000  
 18  2 16  8 24 39.0000000  0  8G30G03G05G09G10G11G01G23             0.000346019
   -945711.012    22327915.425        3509.195          43.000  
    817852.676    24897334.562       -3069.379          43.000  
   -965273.800    23909476.559        3583.083          43.000  
    180628.265    20197617.145        -735.643          43.000  
    367019.764    21159227.537       -1477.822          43.000  
   -597879.911    21088498.424        2151.245          43.000  
   -349172.956    22105371.253        1215.741          42.000  
    556708.836    22448559.456       -2110.603          43.000  
 18  2 16  8 24 40.0000000  0  8G30G03G05G09G10G11G01G23             0.000346196
   -949219.926    22327247.695        3509.061          43.000  
    820922.250    24897918.700       -3069.321          43.000  
   -968856.489    23908794.784        3582.783          43.000  
    181364.272    20197757.238        -736.105          42.000  
    368497.983    21159508.849       -1478.318          43.000  
   -600030.761    21088089.134        2150.710          43.000  
   -350388.172    22105140.010        1215.141          43.000  
    558819.720    22448961.151       -2110.748          43.000  
 18  2 16  8 24 41.0000000  0  8G30G03G05G09G10G11G01G23             0.000346373
   -952728.790    22326579.965        3508.815          43.000  
    823991.719    24898502.803       -3069.334          42.000  
   -972439.001    23908113.063        3582.448          42.000  
    182100.628    20197897.367        -736.488          42.000  
    369976.685    21159790.233       -1478.881          43.000  
   -602181.238    21087679.916        2150.299          42.000  
   -351602.766    22104908.875        1214.334          43.000  
    560930.776    22449362.865       -2111.107          43.000  
 18  2 16  8 24 42.0000000  0  8G30G03G05G09G10G11G01G23             0.000346551
   -956237.647    22325912.272        3508.794          43.000  
    827061.066    24899086.888       -3069.253          43.000  
   -976021.355    23907431.360        3582.204          42.000  
    182837.332    20198037.567        -736.914          43.000  
    371455.841    21160071.723       -1479.222          42.000  
   -604331.339    21087270.733        2150.195          43.000  
   -352816.764    22104677.864        1213.633          43.000  
    563041.987    22449764.632       -2111.332          43.000  
 18  2 16  8 24 43.0000000  0  8G30G03G05G09G10G11G01G23             0.000346728
   -959746.314    22325244.596        3508.523          42.000  
    830130.473    24899670.973       -3069.391          43.000  
   -979603.401    23906749.728        3581.847          43.000  
    183574.535    20198177.839        -737.430          43.000  
    372935.500    21160353.286       -1480.005          43.000  
   -606481.077    21086861.675        2149.410          42.000  
   -354030.046    22104446.996        1212.947          42.000  
    565153.533    22450166.435       -2111.749          43.000  
 18  2 16  8 24 44.0000000  0  8G30G03G05G09G10G11G01G23             0.000346906
   -963254.891    22324576.937        3508.599          43.000  
    833199.864    24900255.057       -3069.283          42.000  
   -983185.232    23906068.132        3581.761          42.000  
    184312.179    20198318.218        -737.845          42.000  
    374415.667    21160634.937       -1480.325          42.000  
   -608630.401    21086452.689        2149.081          43.000  
   -355242.651    22104216.253        1212.370          42.000  
    567265.327    22450568.273       -2111.830          42.000  
 18  2 16  8 24 45.0000000  0  8G30G03G05G09G10G11G01G23             0.000347083
   -966763.243    22323909.315        3508.421          43.000  
    836269.372    24900839.160       -3069.428          43.000  
   -986766.735    23905386.589        3581.454          43.000  
    185050.355    20198458.687        -738.275          43.000  
    375896.422    21160916.714       -1480.867          43.000  
   -610779.263    21086043.774        2148.738          43.000  
   -356454.516    22103985.636        1211.770          43.000  
    569377.521    22450970.237       -2112.270          43.000  
 18  2 16  8 24 46.0000000  0  8G30G03G05G09G10G11G01G23             0.000347260
   -970271.555    22323241.710        3508.380          43.000  
    839338.829    24901423.263       -3069.358          43.000  
   -990348.098    23904705.083        3581.334          42.000  
    185788.923    20198599.226        -738.598          43.000  
    377377.632    21161198.580       -1481.163          43.000  
   -612927.772    21085634.931        2148.804          43.000  
   -357665.782    22103755.143        1211.061          43.000  
    571489.932    22451372.201       -2112.399          42.000  
 18  2 16  8 24 47.0000000  0  8G30G03G05G09G10G11G01G23             0.000347438
   -973779.850    22322574.070        3508.191          43.000  
    842408.229    24902007.347       -3069.477          42.000  
   -993929.364    23904023.594        3581.122          42.000  
    186527.849    20198739.838        -739.185          43.000  
    378859.129    21161480.499       -1481.784          43.000  
   -615076.164    21085226.088        2148.031          43.000  
   -358876.519    22103524.722        1210.388          42.000  
    573602.558    22451774.236       -2112.800          42.000  
 18  2 16  8 24 48.0000000  0  8G30G03G05G09G10G11G01G23             0.000347614
   -977287.823    22321906.519        3508.113          42.000  
    845477.889    24902591.486       -3069.525          43.000  
   -997510.238    23903342.177        3581.035          42.000  
    187267.438    20198880.592        -739.674          43.000  
    380341.304    21161762.544       -1482.262          42.000  
   -617224.021    21084817.370        2147.797          43.000  
   -360086.409    22103294.480        1209.710          42.000  
    575715.696    22452176.342       -2113.072          42.000  
 18  2 16  8 24 49.0000000  0  8G30G03G05G09G10G11G01G23             0.000347792
   -980795.597    22321239.004        3507.589          43.000  
    848547.675    24903175.606       -3069.915          42.000  
  -1001090.846    23902660.813        3580.411          42.000  
    188007.563    20199021.436        -740.540          42.000  
    381824.028    21162044.678       -1483.159          42.000  
   -619371.474    21084408.723        2147.059          42.000  
   -361295.622    22103064.363        1208.867          42.000  
    577829.255    22452578.538       -2113.891          42.000  
 18  2 16  8 24 50.0000000  0  8G30G03G05G09G10G11G01G23             0.000347970
   -984303.353    22320571.507        3508.347          42.000  
    851617.444    24903759.780       -3069.115          42.000  
  -1004671.387    23901979.449        3581.157          42.000  
    188748.039    20199162.333        -740.011          42.000  
    383307.092    21162326.883       -1482.416          42.000  
   -621518.705    21084000.112        2148.211          42.000  
   -362504.308    22102834.352        1209.011          42.000  
    579943.020    22452980.788       -2113.252          42.000  
 18  2 16  8 24 51.0000000  0  8G30G03G05G09G10G11G01G23             0.000348147
   -987811.291    22319903.973        3507.927          42.000  
    854687.013    24904343.901       -3069.671          42.000  
  -1008252.079    23901298.068        3580.606          42.000  
    189488.687    20199303.284        -740.825          43.000  
    384790.220    21162609.125       -1483.443          43.000  
   -623666.103    21083591.483        2147.086          43.000  
   -363712.700    22102604.414        1208.112          42.000  
    582056.843    22453383.038       -2113.987          42.000  
 18  2 16  8 24 52.0000000  0  8G30G03G05G09G10G11G01G23             0.000348324
   -991319.038    22319236.458        3507.827          42.000  
    857756.724    24904928.039       -3069.581          43.000  
  -1011832.576    23900616.722        3580.627          43.000  
    190229.862    20199444.342        -741.219          43.000  
    386273.835    21162891.455       -1483.682          43.000  
   -625813.164    21083182.908        2147.047          42.000  
   -364920.441    22102374.565        1207.633          43.000  
    584171.056    22453785.359       -2114.120          42.000  
 18  2 16  8 24 53.0000000  0  8G30G03G05G09G10G11G01G23             0.000348501
   -994826.664    22318568.979        3507.716          42.000  
    860826.557    24905512.195       -3069.735          43.000  
  -1015412.933    23899935.394        3580.399          42.000  
    190971.507    20199585.471        -741.787          43.000  
    387757.871    21163173.857       -1484.196          43.000  
   -627959.982    21082774.386        2146.818          43.000  
   -366127.603    22102144.840        1207.036          43.000  
    586285.635    22454187.733       -2114.589          42.000  
 18  2 16  8 24 54.0000000  0  8G30G03G05G09G10G11G01G23             0.000348678
   -998334.251    22317901.517        3507.421          43.000  
    863896.411    24906096.387       -3070.007          43.000  
  -1018993.289    23899254.048        3580.252          42.000  
    191713.510    20199726.672        -742.343          43.000  
    389242.229    21163456.331       -1484.455          43.000  
   -630106.621    21082365.900        2146.952          43.000  
   -367334.293    22101915.241        1206.357          43.000  
    588400.476    22454590.179       -2115.092          42.000  
 18  2 16  8 24 55.0000000  0  8G30G03G05G09G10G11G01G23             0.000348855
  -1001841.682    22317234.073        3507.357          43.000  
    866966.441    24906680.597       -3070.121          43.000  
  -1022573.505    23898572.756        3580.138          43.000  
    192456.012    20199867.981        -742.766          43.000  
    390726.933    21163738.858       -1485.014          43.000  
   -632253.176    21081957.450        2146.313          43.000  
   -368540.399    22101685.714        1205.832          43.000  
    590515.709    22454992.715       -2115.460          43.000  
 18  2 16  8 24 56.0000000  0  8G30G03G05G09G10G11G01G23             0.000349033
  -1005348.838    22316566.683        3507.243          43.000  
    870036.731    24907264.861       -3070.136          42.000  
  -1026153.506    23897891.517        3580.061          42.000  
    193199.117    20200009.396        -743.273          42.000  
    392212.161    21164021.474       -1485.319          43.000  
   -634399.381    21081549.054        2146.167          42.000  
   -369745.820    22101456.329        1205.264          42.000  
    592631.442    22455395.340       -2115.767          43.000  
 18  2 16  8 24 57.0000000  0  8G30G03G05G09G10G11G01G23             0.000349200
  -1008855.749    22315899.347        3507.141          42.000  
    873107.304    24907849.160       -3070.331          43.000  
  -1029733.331    23897210.296        3580.100          42.000  
    193942.777    20200150.919        -743.600          42.000  
    393697.877    21164304.180       -1485.732          42.000  
   -636545.312    21081140.693        2145.980          42.000  
   -370950.612    22101227.070        1204.798          43.000  
    594747.650    22455798.054       -2116.118          43.000  
 18  2 16  8 24 58.0000000  0  8G30G03G05G09G10G11G01G23             0.000349376
  -1012362.523    22315232.028        3506.788          43.000  
    876178.033    24908433.495       -3070.769          43.000  
  -1033313.106    23896529.093        3579.869          43.000  
    194686.895    20200292.531        -744.192          43.000  
    395183.955    21164586.975       -1486.003          43.000  
   -638691.017    21080732.368        2146.131          43.000  
   -372154.886    22100997.899        1204.101          43.000  
    596864.230    22456200.822       -2116.730          42.000  
 18  2 16  8 24 59.0000000  0  8G30G03G05G09G10G11G01G23             0.000349552
  -1015868.772    22314564.817        3506.318          43.000  
    879249.322    24909017.919       -3071.312          43.000  
  -1036892.448    23895847.944        3579.356          43.000  
    195431.870    20200434.304        -745.130          43.000  
    396670.723    21164869.896       -1486.970          43.000  
   -640836.343    21080324.132        2145.192          42.000  
   -373358.258    22100768.908        1203.194          43.000  
    598981.571    22456603.732       -2117.534          42.000  
 18  2 16  8 25  0.0000000  0  8G30G03G05G09G10G11G01G23             0.000349727
  -1019374.717    22313897.641        3505.910          43.000  
    882320.941    24909602.415       -3071.725          43.000  
  -1040471.640    23895166.831        3579.298          43.000  
    196177.424    20200576.184        -745.708          43.000  
    398157.969    21165152.923       -1487.411          43.000  
   -642981.368    21079915.932        2144.886          43.000  
   -374560.994    22100540.041        1202.521          43.000  
    601099.409    22457006.750       -2117.952          42.000  
 18  2 16  8 25  1.0000000  0  8G30G03G05G09G10G11G01G23             0.000349902
  -1022880.530    22313230.519        3505.767          43.000  
    885392.748    24910186.964       -3071.841          43.000  
  -1044050.813    23894485.753        3579.235          43.000  
    196923.434    20200718.135        -746.210          43.000  
    399645.565    21165436.004       -1487.757          43.000  
   -645126.287    21079507.786        2144.874          43.000  
   -375763.256    22100311.246        1202.143          42.000  
    603217.634    22457409.858       -2118.320          43.000  
 18  2 16  8 25  2.0000000  0  8G30G03G05G09G10G11G01G23             0.000350078
  -1026386.099    22312563.415        3505.553          43.000  
    888464.827    24910771.585       -3072.020          43.000  
  -1047629.919    23893804.675        3579.225          43.000  
    197669.951    20200860.212        -746.513          43.000  
    401133.769    21165719.210       -1488.826          43.000  
   -647270.354    21079099.765        2140.221          43.000  
   -376964.964    22100082.577        1201.613          43.000  
    605336.305    22457813.019       -2118.691          43.000  
 18  2 16  8 25  3.0000000  0  8G30G03G05G09G10G11G01G23             0.000350255
  -1029891.385    22311896.400        3505.034          43.000  
    891537.261    24911356.241       -3072.535          43.000  
  -1051208.930    23893123.615        3579.065          43.000  
    198417.052    20201002.378        -747.184          43.000  
    402622.609    21166002.524       -1488.942          42.000  
   -649413.944    21078691.851        2143.698          43.000  
   -378166.084    22099854.032        1200.882          43.000  
    607455.475    22458216.287       -2119.323          43.000  
 18  2 16  8 25  4.0000000  0  8G30G03G05G09G10G11G01G23             0.000350431
  -1033396.825    22311229.331        3505.318          43.000  
    894609.598    24911940.898       -3072.550          43.000  
  -1054788.289    23892442.466        3579.410          43.000  
    199164.287    20201144.562        -747.553          43.000  
    404111.580    21166285.890       -1489.540          43.000  
   -651557.322    21078284.008        2143.181          43.000  
   -379367.062    22099625.505        1200.592          43.000  
    609574.707    22458619.573       -2119.423          42.000  
 18  2 16  8 25  5.0000000  0  8G30G03G05G09G10G11G01G23             0.000350606
  -1036901.978    22310562.316        3505.060          42.000  
    897682.261    24912525.590       -3072.798          43.000  
  -1058367.584    23891761.370        3579.332          42.000  
    199912.051    20201286.853        -748.059          42.000  
    405601.056    21166569.329       -1489.724          43.000  
   -653700.196    21077876.237        2142.730          43.000  
   -380567.516    22099397.067        1200.335          43.000  
    611694.412    22459022.948       -2119.845          43.000  
 18  2 16  8 25  6.0000000  0  8G30G03G05G09G10G11G01G23             0.000350783
  -1040406.918    22309895.355        3504.675          42.000  
    900755.213    24913110.372       -3073.333          43.000  
  -1061946.909    23891080.221        3579.198          42.000  
    200660.278    20201429.233        -748.611          43.000  
    407091.012    21166852.857       -1490.381          43.000  
   -655842.614    21077468.555        2142.138          43.000  
   -381767.474    22099168.719        1199.576          43.000  
    613814.529    22459426.413       -2120.487          43.000  
 18  2 16  8 25  7.0000000  0  8G30G03G05G09G10G11G01G23             0.000350958
  -1043911.564    22309228.429        3504.905          42.000  
    903828.507    24913695.189       -3073.116          43.000  
  -1065526.193    23890399.107        3579.575          43.000  
    201409.053    20201571.721        -748.728          43.000  
    408581.488    21167136.492       -1490.416          43.000  
   -657984.499    21077060.963        2141.855          43.000  
   -382966.903    22098940.460        1199.483          43.000  
    615935.124    22459829.931       -2120.478          43.000  
 18  2 16  8 25  8.0000000  0  8G30G03G05G09G10G11G01G23             0.000351133
  -1047415.874    22308561.575        3504.233          43.000  
    906902.209    24914280.114       -3073.885          43.000  
  -1069105.438    23889718.012        3579.286          43.000  
    202158.380    20201714.315        -749.552          43.000  
    410072.528    21167420.252       -1491.272          43.000  
   -660125.856    21076653.478        2141.150          43.000  
   -384165.783    22098712.326        1198.597          43.000  
    618056.219    22460233.574       -2121.297          43.000  
 18  2 16  8 25  9.0000000  0  8G30G03G05G09G10G11G01G23             0.000351309
  -1050919.757    22307894.811        3503.795          42.000  
    909976.379    24914865.128       -3074.316          43.000  
  -1072684.553    23889036.934        3579.149          43.000  
    202908.361    20201857.035        -750.263          42.000  
    411564.178    21167704.101       -1491.817          43.000  
   -662266.574    21076246.117        2140.494          43.000  
   -385364.062    22098484.300        1198.206          43.000  
    620177.907    22460637.343       -2121.990          43.000  
 18  2 16  8 25 10.0000000  0  8G30G03G05G09G10G11G01G23             0.000351485
  -1054423.260    22307228.100        3503.869          43.000  
    913051.001    24915450.195       -3074.205          42.000  
  -1076263.613    23888355.856        3579.655          43.000  
    203658.918    20201999.862        -750.269          43.000  
    413056.408    21167988.058       -1491.853          43.000  
   -664406.716    21075838.864        2140.412          43.000  
   -386561.737    22098256.398        1198.024          43.000  
    622300.111    22461041.200       -2121.873          43.000  
 18  2 16  8 25 11.0000000  0  8G30G03G05G09G10G11G01G23             0.000351660
  -1057927.003    22306561.371        3503.702          43.000  
    916125.450    24916035.245       -3074.605          42.000  
  -1079843.233    23887674.689        3579.642          43.000  
    204409.449    20202142.689        -750.837          43.000  
    414548.590    21168272.032       -1492.365          43.000  
   -666546.921    21075431.558        2139.936          42.000  
   -387759.473    22098028.479        1197.493          43.000  
    624422.236    22461445.040       -2122.411          43.000  
 18  2 16  8 25 12.0000000  0  8G30G03G05G09G10G11G01G23             0.000351836
  -1061430.417    22305894.695        3503.395          42.000  
    919200.275    24916620.366       -3074.862          42.000  
  -1083422.905    23886993.504        3579.809          43.000  
    205160.477    20202285.624        -751.220          43.000  
    416041.238    21168556.078       -1492.769          43.000  
   -668686.655    21075024.377        2139.698          43.000  
   -388956.743    22097800.631        1197.207          43.000  
    626544.789    22461848.934       -2122.634          43.000  
 18  2 16  8 25 13.0000000  0  8G30G03G05G09G10G11G01G23             0.000352012
  -1064933.421    22305228.073        3502.855          43.000  
    922275.569    24917205.577       -3075.420          42.000  
  -1087002.547    23886312.319        3579.805          43.000  
    205912.075    20202428.647        -751.763          43.000  
    417534.448    21168840.214       -1493.381          43.000  
   -670825.823    21074617.302        2139.012          43.000  
   -390153.463    22097572.890        1196.618          43.000  
    628667.874    22462252.917       -2123.228          43.000  
 18  2 16  8 25 14.0000000  0  8G30G03G05G09G10G11G01G23             0.000352187
  -1068436.194    22304561.505        3502.497          43.000  
    925351.141    24917790.841       -3075.842          43.000  
  -1090582.346    23885631.098        3579.793          43.000  
    206664.058    20202571.743        -752.215          43.000  
    419028.007    21169124.456       -1493.829          43.000  
   -672964.630    21074210.300        2138.446          43.000  
   -391349.812    22097345.239        1196.118          43.000  
    630791.282    22462656.971       -2123.622          43.000  
                            4  1
            *** END OF RINEX FILE***                        COMMENT
