     3.03           OBSERVATION DATA    M: Mixed            RINEX VERSION / TYPE
RTKCONV 2.4.3 b34                       20250227 094104 UTC PGM / RUN BY / DATE 
format: RINEX                                               COMMENT             
log: E:\Nguyends_doa\RX\RX1\RinexObservables_20180216_082102COMMENT             
                                                            MARKER NAME         
                                                            MARKER NUMBER       
                                                            MARKER TYPE         
                                                            OBSERVER / AGENCY   
                                                            REC # / TYPE / VERS 
                                                            ANT # / TYPE        
        0.0000        0.0000        0.0000                  APPROX POSITION XYZ 
        0.0000        0.0000        0.0000                  ANTENNA: DELTA H/E/N
G    4 C1C L1C D1C S1C                                      SYS / # / OBS TYPES 
  2018    02    16    08    21   02.0000000     GPS         TIME OF FIRST OBS   
  2018    02    16    08    24   48.0000000     GPS         TIME OF LAST OBS    
G L1C                                                       SYS / PHASE SHIFT   
  0                                                         GLONASS SLOT / FRQ #
 C1C    0.000 C1P    0.000 C2C    0.000 C2P    0.000        GLONASS COD/PHS/BIS 
                                                            END OF HEADER       
> 2018 02 16 08 21 02.0000000  0  8                     
G03  24797239.532      154014.9281      -3024.426          50.000  
G10  21127448.784       65366.0111      -1319.297          50.000  
G30  22500558.956     -184253.2321       3601.190          50.000  
G01  22184697.886      -68161.9531       1365.645          50.000  
G23  22388326.893      103746.3841      -2057.615          50.000  
G05  24084293.410     -184974.0371       3621.227          50.000  
G09  20195154.543       31165.8641       -637.411          50.000  
G11  21206308.875     -115158.5521       2292.746          50.000  
> 2018 02 16 08 21 03.0000000  0  8                     
G03  24797815.129      157039.506       -3024.554          50.000  
G10  21127699.898       66685.502       -1319.453          50.000  
G30  22499873.679     -187854.315        3601.135          50.000  
G01  22184438.070      -69527.375        1365.401          50.000  
G23  22388718.474      105804.127       -2057.740          50.000  
G05  24083604.291     -188595.356        3621.543          50.000  
G09  20195275.856       31803.447        -637.622          50.000  
G11  21205872.638     -117451.065        2292.572          50.000  
> 2018 02 16 08 21 04.0000000  0  8                     
G03  24798390.798      160064.563       -3025.112          50.000  
G10  21127951.100       68005.486       -1320.050          50.000  
G30  22499188.491     -191454.000        3600.663          50.000  
G01  22184178.380      -70892.267        1364.748          50.000  
G23  22389110.163      107862.371       -2058.311          50.000  
G05  24082915.190     -192216.697        3621.544          50.000  
G09  20195397.276       32441.577        -638.145          50.000  
G11  21205436.437     -119743.333        2292.271          50.000  
> 2018 02 16 08 21 05.0000000  0  8                     
G03  24798966.520      163090.055       -3025.873          50.000  
G10  21128202.392       69325.923       -1320.763          50.000  
G30  22498503.357     -195055.331        3600.037          50.000  
G01  22183918.761      -72256.713        1364.136          50.000  
G23  22389501.906      109921.061       -2059.016          50.000  
G05  24082226.071     -195838.112        3621.369          50.000  
G09  20195518.821       33080.228        -639.005          50.000  
G11  21205000.272     -122035.416        2291.899          50.000  
> 2018 02 16 08 21 06.0000000  0  8                     
G03  24799542.385      166116.087       -3026.253          50.000  
G10  21128453.792       70646.923       -1321.211          50.000  
G30  22497818.348     -198655.184        3599.675          50.000  
G01  22183659.231      -73620.569        1363.618          50.000  
G23  22389893.756      111980.301       -2059.445          50.000  
G05  24081536.916     -199459.487        3621.452          50.000  
G09  20195640.474       33719.482        -639.533          50.000  
G11  21204564.197     -124327.120        2291.920          50.000  
> 2018 02 16 08 21 07.0000000  0  8                     
G03  24800118.321      169142.691       -3026.752          50.000  
G10  21128705.262       71968.501       -1321.736          50.000  
G30  22497133.393     -202254.522        3599.155          50.000  
G01  22183399.827      -74983.839        1363.125          50.000  
G23  22390285.713      114040.102       -2059.919          50.000  
G05  24080847.797     -203080.830        3621.451          50.000  
G09  20195762.251       34359.352        -640.050          50.000  
G11  21204128.157     -126618.624        2291.392          51.000  
> 2018 02 16 08 21 08.0000000  0  8                     
G03  24800694.365      172169.794       -3027.072          50.000  
G10  21128956.858       73290.602       -1322.080          50.000  
G30  22496448.544     -205853.429        3598.923          50.000  
G01  22183140.476      -76346.595        1362.755          51.000  
G23  22390677.795      116100.391       -2060.317          50.000  
G05  24080158.661     -206702.204        3621.632          50.000  
G09  20195884.136       34999.776        -640.456          50.000  
G11  21203692.153     -128909.841        2291.277          50.000  
> 2018 02 16 08 21 09.0000000  0  8                     
G03  24801270.552      175197.697       -3028.133          50.000  
G10  21129208.579       74613.525       -1323.163          51.000  
G30  22495763.839     -209451.583        3597.946          51.000  
G01  22182881.321      -77708.542        1361.665          50.000  
G23  22391070.002      118161.435       -2061.255          50.000  
G05  24079469.577     -210323.327        3621.158          50.000  
G09  20196006.145       35641.028        -641.471          50.000  
G11  21203256.238     -131200.486        2290.494          50.000  
> 2018 02 16 08 21 10.0000000  0  8                     
G03  24801846.845      178226.039       -3028.136          50.000  
G10  21129460.443       75936.911       -1323.238          50.000  
G30  22495079.205     -213049.338        3597.931          50.000  
G01  22182622.220      -79070.045        1361.640          50.000  
G23  22391462.299      120222.885       -2061.198          50.000  
G05  24078780.476     -213944.562        3621.749          51.000  
G09  20196128.262       36282.752        -641.450          50.000  
G11  21202820.395     -133490.845        2290.861          50.000  
> 2018 02 16 08 21 11.0000000  0  8                     
G03  24802423.157      181254.552       -3028.590          50.000  
G10  21129712.307       77260.514       -1323.671          51.000  
G30  22494394.607     -216646.956        3597.538          50.000  
G01  22182363.173      -80431.379        1361.259          50.000  
G23  22391854.595      122284.465       -2061.615          50.000  
G05  24078091.358     -217566.178        3621.857          50.000  
G09  20196250.415       36924.687        -642.018          50.000  
G11  21202384.515     -135781.350        2290.470          51.000  
> 2018 02 16 08 21 12.0000000  0  8                     
G03  24802999.540      184283.588       -3029.275          50.000  
G10  21129964.314       78584.673       -1324.354          50.000  
G30  22493710.099     -220244.073        3596.866          50.000  
G01  22182104.233      -81792.184        1360.576          50.000  
G23  22392246.999      124346.504       -2062.180          50.000  
G05  24077402.149     -221187.832        3621.762          50.000  
G09  20196372.657       37567.154        -642.672          50.000  
G11  21201948.708     -138071.505        2289.972          50.000  
> 2018 02 16 08 21 13.0000000  0  8                     
G03  24803576.067      187313.156       -3029.962          50.000  
G10  21130216.392       79909.428       -1325.159          50.000  
G30  22493025.679     -223840.672        3596.177          50.000  
G01  22181845.365      -83152.451        1359.856          50.000  
G23  22392639.474      126409.015       -2062.864          50.000  
G05  24076712.977     -224809.502        3621.571          50.000  
G09  20196495.024       38210.177        -643.414          50.000  
G11  21201512.990     -140361.300        2289.484          50.000  
> 2018 02 16 08 21 14.0000000  0  8                     
G03  24804152.700      190343.373       -3030.340          50.000  
G10  21130468.631       81234.875       -1325.722          50.000  
G30  22492341.403     -227436.623        3595.814          50.000  
G01  22181586.621      -84512.069        1359.498          50.000  
G23  22393032.056      128472.099       -2063.152          50.000  
G05  24076023.822     -228431.103        3621.806          50.000  
G09  20196617.498       38853.856        -643.783          50.000  
G11  21201077.343     -142650.567        2289.385          50.000  
> 2018 02 16 08 21 15.0000000  0  8                     
G03  24804729.387      193373.765       -3030.466          50.000  
G10  21130720.888       82560.593       -1325.781          50.000  
G30  22491657.127     -231032.397        3595.652          50.000  
G01  22181327.931      -85871.512        1359.444          50.000  
G23  22393424.675      130535.274       -2063.183          50.000  
G05  24075334.596     -232053.078        3622.172          50.000  
G09  20196739.990       39497.726        -644.046          50.000  
G11  21200641.678     -144939.893        2289.308          50.000  
> 2018 02 16 08 21 16.0000000  0  8                     
G03  24805306.128      196404.657       -3031.123          50.000  
G10  21130973.270       83886.878       -1326.519          50.000  
G30  22490972.958     -234627.654        3594.971          50.000  
G01  22181069.331      -87230.433        1358.689          50.000  
G23  22393817.364      132598.860       -2063.796          50.000  
G05  24074645.334     -235675.119        3622.080          50.000  
G09  20196862.608       40142.084        -644.571          50.000  
G11  21200206.085     -147228.839        2288.796          50.000  
> 2018 02 16 08 21 17.0000000  0  8                     
G03  24805882.975      199435.927       -3031.263          50.000  
G10  21131225.742       85213.647       -1326.790          50.000  
G30  22490288.896     -238222.501        3594.813          50.000  
G01  22180810.802      -88588.974        1358.561          50.000  
G23  22394210.125      134662.719       -2063.797          50.000  
G05  24073956.037     -239297.342        3622.507          50.000  
G09  20196985.296       40786.833        -644.755          50.000  
G11  21199770.581     -149517.512        2288.699          50.000  
> 2018 02 16 08 21 18.0000000  0  8                     
G03  24806459.859      202467.503       -3032.033          50.000  
G10  21131478.302       86540.815       -1327.835          50.000  
G30  22489604.905     -241817.003        3593.995          50.000  
G01  22180552.326      -89947.184        1357.729          50.000  
G23  22394602.904      136726.785       -2064.476          50.000  
G05  24073266.704     -242919.809        3622.223          50.000  
G09  20197108.057       41431.890        -645.530          50.000  
G11  21199335.095     -151805.931        2288.018          50.000  
> 2018 02 16 08 21 19.0000000  0  8                     
G03  24807036.867      205499.722       -3032.634          50.000  
G10  21131731.006       87868.778       -1328.344          50.000  
G30  22488921.040     -245410.812        3593.360          50.000  
G01  22180294.030      -91304.733        1357.140          50.000  
G23  22394995.791      138791.378       -2064.942          50.000  
G05  24072577.406     -246542.189        3622.224          50.000  
G09  20197230.924       42077.581        -646.054          50.000  
G11  21198899.716     -154093.845        2287.539          50.000  
> 2018 02 16 08 21 20.0000000  0  8                     
G03  24807613.965      208532.533       -3032.712          50.000  
G10  21131983.817       89197.475       -1328.618          50.000  
G30  22488237.264     -249003.962        3593.203          50.000  
G01  22180035.786      -92661.648        1356.962          50.000  
G23  22395388.766      140856.440       -2064.878          50.000  
G05  24071888.073     -250164.523        3622.704          50.000  
G09  20197353.916       42723.871        -646.194          50.000  
G11  21198464.427     -156381.197        2287.463          50.000  
> 2018 02 16 08 21 21.0000000  0  8                     
G03  24808191.153      211565.691       -3033.267          50.000  
G10  21132236.771       90526.670       -1329.354          50.000  
G30  22487553.595     -252596.689        3592.567          50.000  
G01  22179777.651      -94018.178        1356.382          50.000  
G23  22395781.777      142921.732       -2065.350          50.000  
G05  24071198.739     -253787.035        3622.661          50.000  
G09  20197476.962       43370.501        -646.704          50.000  
G11  21198029.209     -158668.230        2286.930          50.000  
> 2018 02 16 08 21 22.0000000  0  8                     
G03  24808768.429      214599.270       -3033.820          50.000  
G10  21132489.814       91856.437       -1330.360          50.000  
G30  22486870.015     -256188.904        3591.864          50.000  
G01  22179519.604      -95374.242        1355.784          50.000  
G23  22396174.842      144987.306       -2065.747          50.000  
G05  24070509.388     -257409.667        3622.701          50.000  
G09  20197600.098       44017.556        -647.333          50.000  
G11  21197594.098     -160954.814        2286.311          50.000  
> 2018 02 16 08 21 23.0000000  0  8                     
G03  24809345.778      217633.282       -3033.860          50.000  
G10  21132743.000       93186.881       -1330.384          50.000  
G30  22486186.543     -259780.589        3591.783          50.000  
G01  22179261.647      -96729.804        1355.714          50.000  
G23  22396567.961      147053.184       -2065.662          50.000  
G05  24069819.983     -261032.371        3623.139          50.000  
G09  20197723.305       44665.041        -647.372          50.000  
G11  21197159.077     -163240.976        2286.322          50.000  
> 2018 02 16 08 21 24.0000000  0  8                     
G03  24809923.215      220667.743       -3034.606          50.000  
G10  21132996.294       94517.962       -1331.323          50.000  
G30  22485503.178     -263371.707        3590.932          50.000  
G01  22179003.815      -98084.837        1354.804          50.000  
G23  22396961.133      149119.365       -2066.229          50.000  
G05  24069130.597     -264655.133        3622.904          50.000  
G09  20197846.601       45312.973        -648.048          50.000  
G11  21196724.109     -165526.631        2285.560          50.000  
> 2018 02 16 08 21 25.0000000  0  8                     
G03  24810500.742      223702.674       -3035.133          50.000  
G10  21133249.730       95849.743       -1332.064          50.000  
G30  22484819.938     -266962.223        3590.234          50.000  
G01  22178746.054      -99439.331        1354.299          50.000  
G23  22397354.394      151185.874       -2066.656          50.000  
G05  24068441.192     -268277.919        3622.830          50.000  
G09  20197969.969       45961.393        -648.722          50.000  
G11  21196289.284     -167811.731        2284.866          50.000  
> 2018 02 16 08 21 26.0000000  0  8                     
G03  24811078.340      226737.996       -3035.476          50.000  
G10  21133503.274       97182.136       -1332.880          50.000  
G30  22484136.788     -270552.204        3589.717          50.000  
G01  22178488.436     -100793.313        1353.729          50.000  
G23  22397747.692      153252.625       -2066.840          50.000  
G05  24067751.769     -271900.792        3622.954          50.000  
G09  20198093.426       46610.193        -648.897          50.000  
G11  21195854.531     -170096.320        2284.277          50.000  
> 2018 02 16 08 21 27.0000000  0  8                     
G03  24811656.046      229773.831       -3036.165          50.000  
G10  21133756.978       98515.372       -1333.593          50.000  
G30  22483453.762     -274141.530        3588.910          50.000  
G01  22178230.890     -102146.679        1352.956          50.000  
G23  22398141.042      155319.733       -2067.353          50.000  
G05  24067062.346     -275523.626        3622.727          50.000  
G09  20198217.008       47259.523        -649.646          50.000  
G11  21195419.885     -172380.277        2283.594          50.000  
> 2018 02 16 08 21 28.0000000  0  8                     
G03  24812233.823      232810.131       -3036.419          50.000  
G10  21134010.843       99849.362       -1334.211          50.000  
G30  22482770.844     -277730.211        3588.497          50.000  
G01  22177973.451     -103499.450        1352.627          50.000  
G23  22398534.465      157387.156       -2067.442          50.000  
G05  24066372.942     -279146.444        3622.953          50.000  
G09  20198340.662       47909.343        -649.947          50.000  
G11  21194985.382     -174663.603        2283.183          50.000  
> 2018 02 16 08 21 29.0000000  0  8                     
G03  24812811.671      235846.710       -3036.706          50.000  
G10  21134264.816      101183.930       -1334.785          50.000  
G30  22482088.033     -281318.432        3588.044          50.000  
G01  22177716.119     -104851.782        1352.076          50.000  
G23  22398927.923      159454.703       -2067.569          50.000  
G05  24065683.483     -282769.409        3623.069          50.000  
G09  20198464.369       48559.447        -650.139          50.000  
G11  21194550.950     -176946.445        2282.656          50.000  
> 2018 02 16 08 21 30.0000000  0  8                     
G03  24813389.609      238883.781       -3036.995          50.000  
G10  21134518.931      102519.301       -1335.725          50.000  
G30  22481405.347     -284905.964        3587.554          50.000  
G01  22177458.877     -106203.469        1351.706          50.000  
G23  22399321.399      161522.582       -2067.669          50.000  
G05  24064994.079     -286392.302        3623.221          50.000  
G09  20198588.201       49210.086        -650.553          50.000  
G11  21194116.679     -179228.567        2281.963          50.000  
> 2018 02 16 08 21 31.0000000  0  8                     
G03  24813967.654      241921.395       -3037.647          50.000  
G10  21134773.243      103855.641       -1336.513          50.000  
G30  22480722.804     -288492.743        3586.603          50.000  
G01  22177201.795     -107554.419        1350.767          50.000  
G23  22399714.982      163590.851       -2068.216          50.000  
G05  24064304.692     -290015.046        3622.888          50.000  
G09  20198712.123       49861.291        -651.270          50.000  
G11  21193682.569     -181509.882        2281.183          50.000  
> 2018 02 16 08 21 32.0000000  0  8                     
G03  24814545.753      244959.359       -3038.102          50.000  
G10  21135027.662      105192.687       -1337.340          50.000  
G30  22480040.386     -292078.948        3585.924          50.000  
G01  22176944.839     -108904.832        1350.177          50.000  
G23  22400108.583      165659.310       -2068.552          50.000  
G05  24063615.305     -293637.820        3622.794          50.000  
G09  20198836.116       50512.893        -651.816          50.000  
G11  21193248.566     -183790.566        2280.416          50.000  
> 2018 02 16 08 21 33.0000000  0  8                     
G03  24815123.958      247997.833       -3038.477          50.000  
G10  21135282.278      106530.658       -1338.132          50.000  
G30  22479358.075     -295664.409        3585.306          50.000  
G01  22176688.007     -110254.503        1349.587          50.000  
G23  22400502.255      167728.115       -2068.734          50.000  
G05  24062925.936     -297260.448        3622.801          50.000  
G09  20198960.199       51165.032        -652.179          50.000  
G11  21192814.707     -186070.409        2279.696          50.000  
> 2018 02 16 08 21 34.0000000  0  8                     
G03  24815702.182      251036.483       -3038.651          50.000  
G10  21135536.983      107869.187       -1338.985          50.000  
G30  22478675.871     -299249.448        3584.892          50.000  
G01  22176431.247     -111603.761        1349.117          50.000  
G23  22400895.928      169796.943       -2068.773          50.000  
G05  24062236.549     -300883.231        3622.953          50.000  
G09  20199084.353       51817.414        -652.367          50.000  
G11  21192380.972     -188349.742        2278.947          50.000  
> 2018 02 16 08 21 35.0000000  0  8                     
G03  24816280.442      254075.341       -3038.985          50.000  
G10  21135791.849      109208.452       -1339.544          50.000  
G30  22477993.757     -302834.017        3584.270          50.000  
G01  22176174.577     -112952.552        1348.523          50.000  
G23  22401289.636      171865.813       -2068.917          50.000  
G05  24061547.126     -304506.127        3622.916          50.000  
G09  20199208.542       52470.062        -652.824          50.000  
G11  21191947.344     -190628.456        2278.481          50.000  
> 2018 02 16 08 21 36.0000000  0  8                     
G03  24816858.808      257114.644       -3039.250          50.000  
G10  21136046.876      110548.619       -1340.220          50.000  
G30  22477311.786     -306417.864        3583.798          50.000  
G01  22175918.049     -114300.619        1348.006          50.000  
G23  22401683.398      173934.980       -2068.985          50.000  
G05  24060857.757     -308128.865        3622.928          50.000  
G09  20199332.839       53123.227        -653.114          50.000  
G11  21191513.877     -192906.316        2277.785          50.000  
> 2018 02 16 08 21 37.0000000  0  8                     
G03  24817437.193      260154.038       -3039.231          50.000  
G10  21136301.992      111889.380       -1340.819          50.000  
G30  22476629.868     -310001.330        3583.458          50.000  
G01  22175661.593     -115648.281        1347.650          50.000  
G23  22402077.124      176004.084       -2068.851          50.000  
G05  24060168.334     -311751.790        3623.238          50.000  
G09  20199457.136       53776.557        -653.166          50.000  
G11  21191080.500     -195183.633        2277.297          50.000  
> 2018 02 16 08 21 38.0000000  0  8                     
G03  24818015.613      263193.561       -3039.620          50.000  
G10  21136557.251      113230.744       -1341.972          50.000  
G30  22475948.040     -313584.374        3582.846          50.000  
G01  22175405.226     -116995.499        1346.929          50.000  
G23  22402470.867      178073.169       -2069.080          50.000  
G05  24059478.894     -315374.827        3623.074          50.000  
G09  20199581.505       54430.114        -653.657          50.000  
G11  21190647.248     -197460.371        2276.190          50.000  
> 2018 02 16 08 21 39.0000000  0  8                     
G03  24818594.105      266233.480       -3039.985          50.000  
G10  21136812.706      114573.138       -1342.650          50.000  
G30  22475266.354     -317166.705        3582.112          50.000  
G01  22175148.984     -118341.975        1346.275          50.000  
G23  22402864.647      180142.501       -2069.290          50.000  
G05  24058789.507     -318997.694        3622.882          50.000  
G09  20199705.980       55084.160        -654.166          50.000  
G11  21190214.192     -199736.151        2275.532          50.000  
> 2018 02 16 08 21 40.0000000  0  8                     
G03  24819172.650      269273.769       -3040.341          50.000  
G10  21137068.358      115916.441       -1343.556          50.000  
G30  22474584.794     -320748.344        3581.440          50.000  
G01  22174892.885     -119687.706        1345.577          50.000  
G23  22403258.463      182212.058       -2069.498          50.000  
G05  24058100.138     -322620.395        3622.790          50.000  
G09  20199830.527       55738.681        -654.613          50.000  
G11  21189781.297     -202011.048        2274.703          50.000  
> 2018 02 16 08 21 41.0000000  0  8                     
G03  24819751.303      272314.540       -3041.183          50.000  
G10  21137324.171      117260.824       -1345.020          50.000  
G30  22473903.377     -324329.175        3580.271          50.000  
G01  22174636.983     -121032.560        1344.249          50.000  
G23  22403652.349      184281.958       -2070.190          50.000  
G05  24057410.805     -326242.777        3622.042          50.000  
G09  20199955.199       56393.799        -655.550          50.000  
G11  21189348.599     -204284.871        2273.147          50.000  
> 2018 02 16 08 21 42.0000000  0  8                     
G03  24820329.991      275355.596       -3040.968          50.000  
G10  21137580.181      118606.062       -1345.741          50.000  
G30  22473222.085     -327909.366        3580.103          50.000  
G01  22174381.206     -122376.719        1344.047          50.000  
G23  22404046.272      186352.011       -2069.876          50.000  
G05  24056721.525     -329865.032        3622.393          50.000  
G09  20200079.943       57049.343        -655.545          50.000  
G11  21188916.061     -206557.855        2272.510          50.000  
> 2018 02 16 08 21 43.0000000  0  8                     
G03  24820908.661      278396.548       -3040.644          50.000  
G10  21137836.280      119951.918       -1345.786          50.000  
G30  22472540.864     -331489.313        3580.083          50.000  
G01  22174125.482     -123720.543        1343.876          50.000  
G23  22404440.141      188421.834       -2069.468          50.000  
G05  24056032.192     -333487.510        3622.813          50.000  
G09  20200204.705       57704.923        -655.360          50.000  
G11  21188483.649     -208830.239        2272.449          50.000  
> 2018 02 16 08 21 44.0000000  0  8                     
G03  24821487.368      281437.555       -3041.042          50.000  
G10  21138092.521      121298.473       -1346.875          50.000  
G30  22471859.715     -335068.838        3579.293          50.000  
G01  22173869.848     -125063.847        1343.009          50.000  
G23  22404833.992      190491.582       -2069.725          50.000  
G05  24055342.841     -337110.037        3622.551          50.000  
G09  20200329.484       58360.703        -655.903          50.000  
G11  21188051.379     -211101.934        2271.387          50.000  
> 2018 02 16 08 21 45.0000000  0  8                     
G03  24822066.110      284478.891       -3041.311          50.000  
G10  21138348.960      122646.034       -1347.842          50.000  
G30  22471178.690     -338647.657        3578.633          50.000  
G01  22173614.392     -126406.342        1342.258          50.000  
G23  22405227.897      192561.546       -2069.903          50.000  
G05  24054653.543     -340732.302        3622.328          49.000  
G09  20200454.371       59016.979        -656.335          50.000  
G11  21187619.270     -213372.613        2270.412          50.000  
> 2018 02 16 08 21 46.0000000  0  8                     
G03  24822644.905      287520.476       -3041.448          50.000  
G10  21138605.559      123994.498       -1348.909          50.000  
G30  22470497.773     -342225.848        3578.131          50.000  
G01  22173359.044     -127748.079        1341.594          50.000  
G23  22405621.820      194631.646       -2069.880          50.000  
G05  24053964.281     -344354.368        3622.230          50.000  
G09  20200579.347       59673.673        -656.602          50.000  
G11  21187187.358     -215642.364        2269.242          50.000  
> 2018 02 16 08 21 47.0000000  0  8                     
G03  24823223.718      290562.187       -3041.441          50.000  
G10  21138862.337      125343.893       -1349.402          50.000  
G30  22469816.981     -345803.522        3577.731          50.000  
G01  22173103.856     -129089.163        1341.076          50.000  
G23  22406015.760      196701.773       -2069.814          50.000  
G05  24053275.037     -347976.326        3622.208          50.000  
G09  20200704.358       60330.698        -656.862          50.000  
G11  21186755.607     -217911.180        2268.805          50.000  
> 2018 02 16 08 21 48.0000000  0  8                     
G03  24823802.568      293604.043       -3041.828          50.000  
G10  21139119.293      126694.168       -1350.543          50.000  
G30  22469136.279     -349380.653        3576.991          50.000  
G01  22172848.776     -130429.552        1340.164          50.000  
G23  22406409.700      198771.945       -2070.079          50.000  
G05  24052585.829     -351598.139        3621.835          50.000  
G09  20200829.459       60988.058        -657.412          50.000  
G11  21186324.034     -220179.086        2267.665          50.000  
> 2018 02 16 08 21 49.0000000  0  8                     
G03  24824381.417      296645.928       -3041.842          50.000  
G10  21139376.375      128045.230       -1351.380          50.000  
G30  22468455.666     -352957.340        3576.481          50.000  
G01  22172593.803     -131769.327        1339.511          50.000  
G23  22406803.623      200842.061       -2070.040          50.000  
G05  24051896.639     -355219.889        3621.751          50.000  
G09  20200954.596       61645.666        -657.694          50.000  
G11  21185892.640     -222446.187        2266.784          50.000  
> 2018 02 16 08 21 50.0000000  0  8                     
G03  24824960.319      299688.072       -3042.152          50.000  
G10  21139633.671      129397.285       -1352.699          50.000  
G30  22467775.142     -356533.364        3575.763          50.000  
G01  22172339.026     -133108.252        1338.606          50.000  
G23  22407197.599      202912.353       -2070.286          50.000  
G05  24051207.502     -358841.328        3621.383          50.000  
G09  20201079.822       62303.751        -658.239          50.000  
G11  21185461.407     -224712.259        2265.355          50.000  
> 2018 02 16 08 21 51.0000000  0  8                     
G03  24825539.294      302730.492       -3042.268          50.000  
G10  21139891.181      130750.499       -1353.400          50.000  
G30  22467094.779     -360108.691        3575.235          50.000  
G01  22172084.393     -134446.282        1337.881          50.000  
G23  22407591.593      204982.850       -2070.298          50.000  
G05  24050518.419     -362462.412        3621.201          50.000  
G09  20201205.155       62962.352        -658.542          50.000  
G11  21185030.424     -226977.135        2264.732          50.000  
> 2018 02 16 08 21 52.0000000  0  8                     
G03  24826118.232      305772.927       -3042.354          50.000  
G10  21140148.835      132104.531       -1354.319          50.000  
G30  22466414.505     -363683.581        3574.749          50.000  
G01  22171829.902     -135783.658        1337.123          50.000  
G23  22407985.570      207053.299       -2070.347          50.000  
G05  24049829.371     -366083.374        3621.002          50.000  
G09  20201330.542       63621.221        -658.941          50.000  
G11  21184599.602     -229241.144        2263.721          50.000  
> 2018 02 16 08 21 53.0000000  0  8                     
G03  24826697.224      308815.544       -3042.286          50.000  
G10  21140406.685      133459.577       -1355.131          50.000  
G30  22465734.339     -367257.851        3574.374          50.000  
G01  22171575.572     -137120.184        1336.532          50.000  
G23  22408379.599      209123.880       -2070.230          50.000  
G05  24049140.395     -369704.020        3620.896          50.000  
G09  20201456.019       64280.536        -659.113          50.000  
G11  21184168.994     -231504.104        2262.883          50.000  
> 2018 02 16 08 21 54.0000000  0  8                     
G03  24827276.234      311858.151       -3042.684          50.000  
G10  21140664.678      134815.403       -1356.474          50.000  
G30  22465054.244     -370831.707        3573.607          50.000  
G01  22171321.368     -138456.051        1335.512          50.000  
G23  22408773.594      211194.399       -2070.541          50.000  
G05  24048451.437     -373324.534        3620.388          50.000  
G09  20201581.549       64940.110        -659.748          50.000  
G11  21183738.512     -233766.230        2261.396          50.000  
> 2018 02 16 08 21 55.0000000  0  8                     
G03  24827855.208      314900.764       -3042.687          50.000  
G10  21140922.867      136172.190       -1357.221          50.000  
G30  22464374.256     -374405.115        3573.158          50.000  
G01  22171067.288     -139791.200        1334.803          50.000  
G23  22409167.605      213264.892       -2070.466          50.000  
G05  24047762.497     -376944.859        3620.207          50.000  
G09  20201707.114       65599.986        -660.067          50.000  
G11  21183308.243     -236027.341        2260.700          50.000  
> 2018 02 16 08 21 56.0000000  0  8                     
G03  24828434.200      317943.314       -3042.364          50.000  
G10  21141181.218      137529.779       -1357.860          50.000  
G30  22463694.339     -377978.135        3572.941          50.000  
G01  22170813.334     -141125.683        1334.295          50.000  
G23  22409561.600      215335.310       -2070.251          50.000  
G05  24047073.611     -380565.040        3620.237          50.000  
G09  20201832.716       66260.103        -660.111          50.000  
G11  21182878.136     -238287.595        2259.963          50.000  
> 2018 02 16 08 21 57.0000000  0  8                     
G03  24829013.246      320986.213       -3043.147          50.000  
G10  21141439.782      138888.594       -1359.518          50.000  
G30  22463014.566     -381550.374        3571.763          50.000  
G01  22170559.593     -142459.085        1332.797          50.000  
G23  22409955.629      217406.051       -2070.981          50.000  
G05  24046384.796     -384184.660        3619.245          50.000  
G09  20201958.442       66920.874        -661.179          50.000  
G11  21182448.261     -240546.570        2258.308          50.000  
> 2018 02 16 08 21 58.0000000  0  8                     
G03  24829592.328      324029.351       -3043.070          50.000  
G10  21141698.562      140248.511       -1360.444          50.000  
G30  22462334.918     -385121.925        3571.403          50.000  
G01  22170306.032     -143791.487        1332.078          50.000  
G23  22410349.731      219477.031       -2070.927          50.000  
G05  24045696.106     -387803.794        3619.103          50.000  
G09  20202084.294       67582.210        -661.418          50.000  
G11  21182018.618     -242804.383        2257.204          50.000  
> 2018 02 16 08 21 59.0000000  0  8                     
G03  24830171.391      327072.368       -3042.936          50.000  
G10  21141957.519      141609.290       -1361.074          50.000  
G30  22461655.341     -388693.156        3571.114          50.000  
G01  22170052.614     -145123.238        1331.454          50.000  
G23  22410743.796      221547.893       -2070.763          50.000  
G05  24045007.433     -391422.785        3618.943          50.000  
G09  20202210.181       68243.765        -661.622          50.000  
G11  21181589.136     -245061.260        2256.552          50.000  
> 2018 02 16 08 22 00.0000000  0  8                     
G03  24830750.455      330115.406       -3042.932          50.000  
G10  21142216.638      142971.001       -1362.032          50.000  
G30  22460975.853     -392263.914        3570.626          50.000  
G01  22169799.338     -146454.176        1330.680          50.000  
G23  22411137.880      223618.797       -2070.815          50.000  
G05  24044318.815     -395041.469        3618.656          50.000  
G09  20202336.140       68905.693        -662.022          50.000  
G11  21181159.869     -247317.151        2255.518          50.000  
> 2018 02 16 08 22 01.0000000  0  8                     
G03  24831329.536      333158.464       -3043.143          50.000  
G10  21142475.953      144333.663       -1363.178          50.000  
G30  22460296.437     -395834.206        3569.980          50.000  
G01  22169546.223     -147784.282        1329.626          50.000  
G23  22411531.981      225689.746       -2071.056          50.000  
G05  24043630.268     -398659.829        3618.135          50.000  
G09  20202462.188       69567.999        -662.584          50.000  
G11  21180730.780     -249572.037        2254.332          50.000  
> 2018 02 16 08 22 02.0000000  0  8                     
G03  24831908.618      336201.532       -3042.739          50.000  
G10  21142735.430      145697.234       -1363.826          50.000  
G30  22459617.129     -399404.046        3569.955          50.000  
G01  22169293.287     -149113.551        1329.176          50.000  
G23  22411926.064      227760.745       -2070.685          50.000  
G05  24042941.774     -402277.857        3618.192          50.000  
G09  20202588.289       70230.682        -662.490          50.000  
G11  21180301.870     -251825.947        2253.540          50.000  
> 2018 02 16 08 22 03.0000000  0  8                     
G03  24832487.663      339244.437       -3042.562          50.000  
G10  21142995.066      147061.636       -1364.469          50.000  
G30  22458937.874     -402973.604        3569.674          50.000  
G01  22169040.441     -150442.157        1328.549          50.000  
G23  22412320.148      229831.629       -2070.541          50.000  
G05  24042253.317     -405895.709        3618.043          50.000  
G09  20202714.427       70893.591        -662.745          50.000  
G11  21179873.138     -254078.949        2252.914          50.000  
> 2018 02 16 08 22 04.0000000  0  8                     
G03  24833066.709      342287.358       -3042.856          50.000  
G10  21143254.882      148427.007       -1365.763          50.000  
G30  22458258.690     -406542.704        3568.953          50.000  
G01  22168787.790     -151769.889        1327.380          50.000  
G23  22412714.231      231902.590       -2070.903          50.000  
G05  24041564.948     -409513.187        3617.356          50.000  
G09  20202840.654       71556.911        -663.452          50.000  
G11  21179444.603     -256330.927        2251.570          50.000  
> 2018 02 16 08 22 05.0000000  0  8                     
G03  24833645.790      345330.561       -3043.201          50.000  
G10  21143514.930      149793.603       -1367.052          50.000  
G30  22457579.649     -410111.086        3568.174          50.000  
G01  22168535.337     -153096.485        1326.193          50.000  
G23  22413108.386      233973.902       -2071.369          50.000  
G05  24040876.687     -413130.015        3616.614          50.000  
G09  20202967.005       72220.912        -664.218          50.000  
G11  21179016.301     -258581.622        2250.212          50.000  
> 2018 02 16 08 22 06.0000000  0  8                     
G03  24834224.925      348373.861       -3043.412          50.000  
G10  21143775.174      151161.222       -1368.289          50.000  
G30  22456900.716     -413678.932        3567.491          50.000  
G01  22168283.080     -154422.102        1325.059          50.000  
G23  22413502.595      236045.395       -2071.665          50.000  
G05  24040188.515     -416746.357        3616.030          50.000  
G09  20203093.464       72885.424        -664.825          50.000  
G11  21178588.212     -260831.234        2248.854          50.000  
> 2018 02 16 08 22 07.0000000  0  8                     
G03  24834804.043      351417.207       -3043.188          50.000  
G10  21144035.615      152529.896       -1368.945          50.000  
G30  22456221.871     -417246.312        3567.351          50.000  
G01  22168031.002     -155746.799        1324.467          50.000  
G23  22413896.821      238117.022       -2071.524          50.000  
G05  24039500.433     -420362.255        3615.834          50.000  
G09  20203220.013       73550.402        -665.003          50.000  
G11  21178160.321     -263079.728        2248.205          50.000  
> 2018 02 16 08 22 08.0000000  0  8                     
G03  24835383.124      354460.193       -3042.623          50.000  
G10  21144296.181      153899.161       -1369.411          50.000  
G30  22455543.027     -420813.608        3567.414          50.000  
G01  22167779.031     -157070.950        1324.055          50.000  
G23  22414290.994      240188.400       -2071.069          50.000  
G05  24038812.368     -423978.095        3615.966          50.000  
G09  20203346.579       74215.466        -664.937          50.000  
G11  21177732.572     -265327.574        2247.671          50.000  
> 2018 02 16 08 22 09.0000000  0  8                     
G03  24835962.152      357502.989       -3042.664          50.000  
G10  21144556.891      155269.184       -1370.409          50.000  
G30  22454864.237     -424380.688        3567.005          51.000  
G01  22167527.185     -158394.400        1323.099          50.000  
G23  22414685.149      242259.697       -2071.235          51.000  
G05  24038124.339     -427593.712        3615.542          50.000  
G09  20203473.181       74880.769        -665.401          50.000  
G11  21177304.984     -267574.598        2246.636          50.000  
> 2018 02 16 08 22 10.0000000  0  8                     
G03  24836541.144      360545.591       -3042.574          51.000  
G10  21144817.743      156639.945       -1371.238          50.000  
G30  22454185.482     -427947.544        3566.681          51.000  
G01  22167275.481     -159717.139        1322.335          50.000  
G23  22415079.286      244330.921       -2071.247          50.000  
G05  24037436.364     -431209.083        3615.189          51.000  
G09  20203599.819       75546.325        -665.718          51.000  
G11  21176877.522     -269820.854        2245.783          50.000  
> 2018 02 16 08 22 11.0000000  0  8                     
G03  24837120.154      363588.277       -3042.589          50.000  
G10  21145078.791      158011.785       -1372.243          50.000  
G30  22453506.816     -431513.908        3566.254          50.000  
G01  22167023.957     -161038.871        1321.351          50.000  
G23  22415473.476      246402.370       -2071.449          50.000  
G05  24036748.478     -434823.923        3614.691          50.000  
G09  20203726.582       76212.430        -666.224          50.000  
G11  21176450.273     -272065.967        2244.733          50.000  
> 2018 02 16 08 22 12.0000000  0  8                     
G03  24837699.182      366631.043       -3042.616          50.000  
G10  21145340.036      159384.633       -1373.190          50.000  
G30  22452828.258     -435079.791        3565.836          50.000  
G01  22166772.629     -162359.619        1320.445          50.000  
G23  22415867.703      248474.040       -2071.638          50.000  
G05  24036060.699     -438438.241        3614.250          50.000  
G09  20203853.452       76879.079        -666.772          50.000  
G11  21176023.239     -274310.023        2243.709          50.000  
> 2018 02 16 08 22 13.0000000  0  8                     
G03  24838278.192      369673.747       -3042.560          50.000  
G10  21145601.460      160758.370       -1374.054          50.000  
G30  22452149.771     -438645.344        3565.528          51.000  
G01  22166521.462     -163679.504        1319.598          50.000  
G23  22416261.929      250545.796       -2071.684          50.000  
G05  24035373.010     -442052.163        3613.828          50.000  
G09  20203980.393       77546.125        -667.120          50.000  
G11  21175596.402     -276553.153        2242.808          50.000  
> 2018 02 16 08 22 14.0000000  0  8                     
G03  24838857.166      372716.365       -3042.391          50.000  
G10  21145863.027      162132.944       -1374.808          50.000  
G30  22451471.302     -442210.596        3565.280          50.000  
G01  22166270.474     -164998.546        1318.835          50.000  
G23  22416656.191      252617.637       -2071.704          50.000  
G05  24034685.374     -445665.709        3613.571          50.000  
G09  20204107.406       78213.573        -667.454          50.000  
G11  21175169.708     -278795.421        2242.045          50.000  
> 2018 02 16 08 22 15.0000000  0  8                     
G03  24839436.140      375758.896       -3042.221          50.000  
G10  21146124.772      163508.366       -1375.567          50.000  
G30  22450792.905     -445775.564        3565.099          50.000  
G01  22166019.611     -166316.757        1318.074          50.000  
G23  22417050.471      254689.559       -2071.670          50.000  
G05  24033997.828     -449278.876        3613.231          50.000  
G09  20204234.491       78881.409        -667.751          50.000  
G11  21174743.210     -281036.794        2241.219          50.000  
> 2018 02 16 08 22 16.0000000  0  8                     
G03  24840015.096      378801.273       -3042.140          51.000  
G10  21146386.643      164884.568       -1376.430          50.000  
G30  22450114.561     -449340.314        3564.795          50.000  
G01  22165768.926     -167634.189        1317.176          50.000  
G23  22417444.751      256761.518       -2071.864          50.000  
G05  24033310.335     -452891.727        3612.767          50.000  
G09  20204361.647       79549.586        -668.217          50.000  
G11  21174316.837     -283277.355        2240.274          50.000  
> 2018 02 16 08 22 17.0000000  0  8                     
G03  24840594.017      381843.554       -3042.086          50.000  
G10  21146648.674      166261.569       -1377.287          50.000  
G30  22449436.271     -452904.809        3564.552          50.000  
G01  22165518.385     -168950.800        1316.294          50.000  
G23  22417839.049      258833.563       -2071.982          50.000  
G05  24032622.896     -456504.210        3612.392          50.000  
G09  20204488.874       80218.151        -668.609          51.000  
G11  21173890.607     -285517.108        2239.452          50.000  
> 2018 02 16 08 22 18.0000000  0  8                     
G03  24841172.973      384885.942       -3042.333          50.000  
G10  21146910.902      167639.572       -1378.375          50.000  
G30  22448758.052     -456468.844        3563.928          50.000  
G01  22165268.040     -170266.381        1315.171          50.000  
G23  22418233.401      260905.918       -2072.427          50.000  
G05  24031935.582     -460116.118        3611.730          50.000  
G09  20204616.209       80887.324        -669.413          50.000  
G11  21173464.592     -287755.845        2238.425          50.000  
> 2018 02 16 08 22 19.0000000  0  8                     
G03  24841751.930      387928.338       -3042.191          50.000  
G10  21147173.291      169018.457       -1379.130          50.000  
G30  22448079.923     -460032.538        3563.740          50.000  
G01  22165017.873     -171581.037        1314.403          50.000  
G23  22418627.806      262978.483       -2072.427          50.000  
G05  24031248.321     -463727.552        3611.451          51.000  
G09  20204743.651       81556.995        -669.704          50.000  
G11  21173038.755     -289993.674        2237.570          50.000  
> 2018 02 16 08 22 20.0000000  0  8                     
G03  24842330.832      390970.550       -3042.158          50.000  
G10  21147435.822      170398.058       -1380.052          50.000  
G30  22447401.811     -463596.084        3563.369          50.000  
G01  22164767.850     -172894.962        1313.500          50.000  
G23  22419022.211      265051.090       -2072.696          50.000  
G05  24030561.150     -467338.690        3610.909          50.000  
G09  20204871.146       82226.992        -670.221          50.000  
G11  21172613.043     -292230.799        2236.668          50.000  
> 2018 02 16 08 22 21.0000000  0  8                     
G03  24842909.771      394012.842       -3042.214          50.000  
G10  21147698.515      171778.593       -1380.956          50.000  
G30  22446723.771     -467159.243        3563.019          50.000  
G01  22164518.005     -174207.895        1312.504          50.000  
G23  22419416.670      267123.988       -2072.925          50.000  
G05  24029874.068     -470949.302        3610.461          50.000  
G09  20204998.767       82897.568        -670.768          50.000  
G11  21172187.511     -294466.985        2235.804          50.000  
> 2018 02 16 08 22 22.0000000  0  8                     
G03  24843488.692      397055.091       -3041.867          50.000  
G10  21147961.386      173159.914       -1381.242          50.000  
G30  22446045.767     -470722.145        3563.128          50.000  
G01  22164268.321     -175519.979        1311.991          50.000  
G23  22419811.164      269197.076       -2072.817          50.000  
G05  24029187.058     -474559.492        3610.334          50.000  
G09  20205126.459       83568.602        -670.899          50.000  
G11  21171762.138     -296702.389        2235.600          50.000  
> 2018 02 16 08 22 23.0000000  0  8                     
G03  24844067.594      400097.253       -3041.936          50.000  
G10  21148224.382      174541.977       -1382.315          50.000  
G30  22445367.798     -474284.839        3562.742          50.000  
G01  22164018.798     -176831.249        1311.021          50.000  
G23  22420205.694      271270.316       -2073.134          50.000  
G05  24028500.137     -478169.320        3609.821          50.000  
G09  20205254.222       84240.057        -671.463          50.000  
G11  21171336.891     -298937.076        2234.398          50.000  
> 2018 02 16 08 22 24.0000000  0  8                     
G03  24844646.461      403139.341       -3041.663          50.000  
G10  21148487.504      175924.780       -1382.811          50.000  
G30  22444689.865     -477847.329        3562.741          50.000  
G01  22163769.436     -178141.720        1310.502          50.000  
G23  22420600.242      273343.719       -2073.086          50.000  
G05  24027813.270     -481778.780        3609.642          50.000  
G09  20205382.075       84911.942        -671.698          50.000  
G11  21170911.752     -301171.038        2233.927          50.000  
> 2018 02 16 08 22 25.0000000  0  8                     
G03  24845225.400      406181.570       -3042.317          50.000  
G10  21148750.822      177308.515       -1384.192          50.000  
G30  22444012.022     -481409.420        3561.902          50.000  
G01  22163520.235     -179451.167        1308.946          50.000  
G23  22420994.862      275417.512       -2074.017          50.000  
G05  24027126.528     -485387.671        3608.617          50.000  
G09  20205510.053       85584.468        -672.813          50.000  
G11  21170486.808     -303404.100        2232.587          50.000  
> 2018 02 16 08 22 26.0000000  0  8                     
G03  24845804.285      409223.742       -3042.150          50.000  
G10  21149014.265      178692.976       -1384.647          50.000  
G30  22443334.214     -484971.304        3561.792          50.000  
G01  22163271.230     -180759.804        1308.246          50.000  
G23  22421389.535      277491.500       -2074.079          50.000  
G05  24026439.857     -488996.183        3608.327          50.000  
G09  20205638.103       86257.449        -673.171          50.000  
G11  21170062.008     -305636.468        2232.288          50.000  
> 2018 02 16 08 22 27.0000000  0  8                     
G03  24846383.187      412265.855       -3041.981          50.000  
G10  21149277.851      180078.104       -1385.399          50.000  
G30  22442656.442     -488533.014        3561.748          50.000  
G01  22163022.350     -182067.652        1307.561          50.000  
G23  22421784.261      279565.686       -2074.176          50.000  
G05  24025753.239     -492604.353        3608.127          50.000  
G09  20205766.259       86930.865        -673.478          50.000  
G11  21169637.333     -307868.229        2231.498          50.000  
> 2018 02 16 08 22 28.0000000  0  8                     
G03  24846962.108      415308.076       -3042.156          50.000  
G10  21149541.597      181464.102       -1386.315          50.000  
G30  22441978.759     -492094.383        3561.326          50.000  
G01  22162773.631     -183374.548        1306.517          50.000  
G23  22422179.042      281640.238       -2074.579          50.000  
G05  24025066.747     -496212.009        3607.570          50.000  
G09  20205894.523       87604.894        -674.189          50.000  
G11  21169212.783     -310099.170        2230.608          50.000  
> 2018 02 16 08 22 29.0000000  0  8                     
G03  24847541.029      418350.305       -3042.159          50.000  
G10  21149805.487      182850.820       -1387.057          50.000  
G30  22441301.112     -495655.532        3561.075          50.000  
G01  22162525.091     -184680.616        1305.669          50.000  
G23  22422573.858      283715.070       -2074.928          50.000  
G05  24024380.309     -499819.261        3607.096          50.000  
G09  20206022.894       88279.430        -674.742          50.000  
G11  21168788.394     -312329.451        2229.975          50.000  
> 2018 02 16 08 22 30.0000000  0  8                     
G03  24848119.949      421392.483       -3042.266          50.000  
G10  21150069.502      184238.193       -1387.689          50.000  
G30  22440623.465     -499216.524        3560.750          50.000  
G01  22162276.712     -185985.928        1304.837          51.000  
G23  22422968.728      285790.115       -2075.270          50.000  
G05  24023693.924     -503426.200        3606.644          50.000  
G09  20206151.337       88954.402        -675.338          50.000  
G11  21168364.094     -314559.130        2229.600          50.000  
> 2018 02 16 08 22 31.0000000  0  8                     
G03  24848698.905      424434.882       -3042.334          50.000  
G10  21150333.660      185626.422       -1388.540          51.000  
G30  22439945.908     -502777.120        3560.550          50.000  
G01  22162028.529     -187290.219        1303.981          50.000  
G23  22423363.704      287865.645       -2075.595          51.000  
G05  24023007.646     -507032.563        3606.248          50.000  
G09  20206279.904       89630.078        -675.886          50.000  
G11  21167939.954     -316788.048        2228.563          50.000  
> 2018 02 16 08 22 32.0000000  0  8                     
G03  24849277.862      427477.276       -3041.939          50.000  
G10  21150597.978      187015.318       -1388.814          50.000  
G30  22439268.404     -506337.536        3560.765          50.000  
G01  22161780.471     -188593.737        1303.580          50.000  
G23  22423758.717      289941.455       -2075.508          50.000  
G05  24022321.440     -510638.578        3606.292          50.000  
G09  20206408.579       90306.238        -675.939          50.000  
G11  21167515.887     -319016.384        2228.421          50.000  
> 2018 02 16 08 22 33.0000000  0  8                     
G03  24849856.765      430519.418       -3042.099          50.000  
G10  21150862.333      188404.583       -1389.536          50.000  
G30  22438590.864     -509898.043        3560.431          50.000  
G01  22161532.520     -189896.740        1302.637          50.000  
G23  22424153.730      292017.283       -2075.968          50.000  
G05  24021635.270     -514244.519        3605.693          50.000  
G09  20206537.290       90982.628        -676.633          50.000  
G11  21167091.926     -321244.433        2227.730          50.000  
> 2018 02 16 08 22 34.0000000  0  8                     
G03  24850435.685      433561.709       -3042.225          50.000  
G10  21151126.848      189794.629       -1390.073          50.000  
G30  22437913.378     -513458.258        3560.191          50.000  
G01  22161284.749     -191198.864        1301.852          50.000  
G23  22424548.814      294093.529       -2076.349          50.000  
G05  24020949.153     -517850.030        3605.427          50.000  
G09  20206666.108       91659.629        -677.194          50.000  
G11  21166668.073     -323471.809        2227.937          50.000  
> 2018 02 16 08 22 35.0000000  0  8                     
G03  24851014.624      436604.006       -3042.293          50.000  
G10  21151391.470      191185.212       -1390.910          50.000  
G30  22437235.927     -517018.332        3560.034          50.000  
G01  22161037.084     -192500.250        1301.021          50.000  
G23  22424943.969      296170.055       -2076.661          50.000  
G05  24020263.072     -521455.230        3605.044          50.000  
G09  20206795.033       92337.102        -677.675          50.000  
G11  21166244.291     -325698.757        2226.592          50.000  
> 2018 02 16 08 22 36.0000000  0  8                     
G03  24851593.580      439646.406       -3042.343          50.000  
G10  21151656.218      192576.483       -1391.575          50.000  
G30  22436558.513     -520578.174        3559.826          50.000  
G01  22160789.598     -193800.823        1300.271          50.000  
G23  22425339.178      298246.965       -2076.988          50.000  
G05  24019577.098     -525060.065        3604.768          50.000  
G09  20206924.065       93015.143        -678.223          50.000  
G11  21165820.635     -327925.141        2226.070          50.000  
> 2018 02 16 08 22 37.0000000  0  8                     
G03  24852172.554      442688.916       -3042.408          50.000  
G10  21151921.090      193968.392       -1392.111          50.000  
G30  22435881.134     -524137.795        3559.644          50.000  
G01  22160542.255     -195100.606        1299.544          50.000  
G23  22425734.495      300324.257       -2077.313          50.000  
G05  24018891.195     -528664.540        3604.463          50.000  
G09  20207053.204       93693.743        -678.750          50.000  
G11  21165397.050     -330151.003        2225.721          50.000  
> 2018 02 16 08 22 38.0000000  0  8                     
G03  24852751.528      445731.435       -3042.528          50.000  
G10  21152186.052      195360.855       -1392.517          50.000  
G30  22435203.790     -527697.316        3559.493          50.000  
G01  22160295.055     -196399.711        1298.759          50.000  
G23  22426129.829      302401.837       -2077.726          50.000  
G05  24018205.328     -532268.780        3604.102          50.000  
G09  20207182.415       94372.790        -679.218          50.000  
G11  21164973.572     -332376.423        2225.694          50.000  
> 2018 02 16 08 22 39.0000000  0  8                     
G03  24853330.485      448773.880       -3042.130          50.000  
G10  21152451.103      196753.678       -1392.885          50.000  
G30  22434526.429     -531256.820        3559.753          50.000  
G01  22160047.944     -197698.248        1298.516          50.000  
G23  22426525.217      304479.612       -2077.650          50.000  
G05  24017519.480     -535872.903        3604.351          50.000  
G09  20207311.697       95052.203        -679.314          50.000  
G11  21164550.129     -334601.673        2225.237          50.000  
> 2018 02 16 08 22 40.0000000  0  8                     
G03  24853909.441      451816.263       -3042.236          50.000  
G10  21152716.226      198146.922       -1393.367          50.000  
G30  22433849.068     -534816.317        3559.603          50.000  
G01  22159800.958     -198996.223        1297.837          50.000  
G23  22426920.641      306557.592       -2078.003          50.000  
G05  24016833.667     -539476.897        3604.055          50.000  
G09  20207441.069       95731.978        -679.841          50.000  
G11  21164126.723     -336826.631        2224.814          50.000  
> 2018 02 16 08 22 41.0000000  0  8                     
G03  24854488.397      454858.828       -3042.424          50.000  
G10  21152981.456      199540.793       -1393.951          50.000  
G30  22433171.779     -538375.572        3559.392          50.000  
G01  22159554.098     -200293.415        1297.058          50.000  
G23  22427316.154      308636.014       -2078.398          50.000  
G05  24016147.925     -543080.559        3603.721          50.000  
G09  20207570.530       96412.348        -680.424          50.000  
G11  21163703.406     -339051.126        2224.485          50.000  
> 2018 02 16 08 22 42.0000000  0  8                     
G03  24855067.425      457901.553       -3042.642          50.000  
G10  21153246.811      200935.268       -1394.413          50.000  
G30  22432494.507     -541934.608        3559.049          50.000  
G01  22159307.416     -201589.862        1296.221          50.000  
G23  22427711.738      310714.880       -2079.004          50.000  
G05  24015462.219     -546683.923        3603.342          50.000  
G09  20207700.099       97093.292        -681.115          50.000  
G11  21163280.196     -341275.131        2224.399          50.000  
> 2018 02 16 08 22 43.0000000  0  8                     
G03  24855646.453      460944.320       -3042.823          50.000  
G10  21153512.237      202330.119       -1395.163          50.000  
G30  22431817.271     -545493.577        3558.906          50.000  
G01  22159060.806     -202885.720        1295.539          50.000  
G23  22428107.376      312794.027       -2079.356          50.000  
G05  24014776.549     -550287.144        3603.064          50.000  
G09  20207829.774       97774.664        -681.635          50.000  
G11  21162857.004     -343499.002        2223.539          50.000  
> 2018 02 16 08 22 44.0000000  0  8                     
G03  24856225.445      463986.999       -3042.786          50.000  
G10  21153777.735      203725.262       -1395.380          50.000  
G30  22431139.999     -549052.601        3558.938          50.000  
G01  22158814.285     -204181.128        1295.099          50.000  
G23  22428503.068      314873.346       -2079.520          50.000  
G05  24014090.897     -553890.369        3603.078          50.000  
G09  20207959.503       98456.335        -681.956          50.000  
G11  21162433.847     -345722.738        2223.451          50.000  
> 2018 02 16 08 22 45.0000000  0  8                     
G03  24856804.491      467029.828       -3042.712          50.000  
G10  21154043.323      205120.925       -1395.724          50.000  
G30  22430462.763     -552611.454        3558.940          50.000  
G01  22158567.907     -205475.867        1294.597          50.000  
G23  22428898.813      316953.068       -2079.719          50.000  
G05  24013405.262     -557493.381        3603.115          50.000  
G09  20208089.304       99138.531        -682.251          50.000  
G11  21162010.745     -347946.138        2223.365          50.000  
> 2018 02 16 08 22 46.0000000  0  8                     
G03  24857383.537      470072.756       -3042.956          50.000  
G10  21154308.981      206517.046       -1396.203          50.000  
G30  22429785.563     -556170.203        3558.702          50.000  
G01  22158321.636     -206770.022        1293.872          50.000  
G23  22429294.648      319033.137       -2080.235          50.000  
G05  24012719.663     -561096.260        3602.826          50.000  
G09  20208219.229       99821.191        -682.869          50.000  
G11  21161587.713     -350169.233        2223.427          50.000  
> 2018 02 16 08 22 47.0000000  0  8                     
G03  24857962.654      473116.006       -3043.270          50.000  
G10  21154574.765      207913.729       -1397.089          50.000  
G30  22429108.399     -559728.635        3558.426          50.000  
G01  22158075.508     -208063.383        1292.997          50.000  
G23  22429690.571      321113.765       -2080.752          50.000  
G05  24012034.118     -564698.810        3602.508          50.000  
G09  20208349.262      100504.521        -683.481          50.000  
G11  21161164.736     -352392.033        2222.364          50.000  
> 2018 02 16 08 22 48.0000000  0  8                     
G03  24858541.842      476159.542       -3043.646          50.000  
G10  21154840.656      209310.984       -1397.553          50.000  
G30  22428431.306     -563286.785        3558.002          50.000  
G01  22157829.523     -209356.027        1292.288          50.000  
G23  22430086.603      323194.914       -2081.416          50.000  
G05  24011348.627     -568301.097        3602.176          50.000  
G09  20208479.420      101188.483        -684.231          50.000  
G11  21160741.847     -354614.447        2222.120          50.000  
> 2018 02 16 08 22 49.0000000  0  8                     
G03  24859121.067      479203.406       -3043.537          50.000  
G10  21155106.672      210708.839       -1397.707          50.000  
G30  22427754.266     -566844.638        3558.169          50.000  
G01  22157583.681     -210647.916        1292.007          50.000  
G23  22430482.741      325276.617       -2081.525          50.000  
G05  24010663.189     -571903.093        3602.340          50.000  
G09  20208609.703      101873.096        -684.424          50.000  
G11  21160319.013     -356836.469        2222.254          50.000  
> 2018 02 16 08 22 50.0000000  0  8                     
G03  24859700.345      482247.532       -3044.121          50.000  
G10  21155372.760      212107.224       -1398.271          50.000  
G30  22427077.280     -570402.249        3557.644          50.000  
G01  22157337.964     -211939.144        1291.063          50.000  
G23  22430878.951      327358.798       -2082.256          50.000  
G05  24009977.769     -575504.896        3601.878          50.000  
G09  20208740.094      102558.293        -685.333          50.000  
G11  21159896.250     -359058.127        2222.184          50.000  
> 2018 02 16 08 22 51.0000000  0  8                     
G03  24860279.623      485291.656       -3044.092          50.000  
G10  21155638.901      213505.774       -1398.759          50.000  
G30  22426400.277     -573959.900        3557.666          50.000  
G01  22157092.318     -213229.999        1290.683          50.000  
G23  22431275.232      329441.194       -2082.509          50.000  
G05  24009292.367     -579106.790        3601.949          50.000  
G09  20208870.537      103243.786        -685.623          50.000  
G11  21159473.451     -361279.930        2221.668          50.000  
> 2018 02 16 08 22 52.0000000  0  8                     
G03  24860858.954      488335.981       -3044.172          50.000  
G10  21155905.114      214904.738       -1398.934          50.000  
G30  22425723.309     -577517.395        3557.654          50.000  
G01  22156846.780     -214520.299        1290.263          50.000  
G23  22431671.585      331523.992       -2082.755          50.000  
G05  24008606.947     -582708.612        3601.998          50.000  
G09  20209001.071      103929.775        -685.992          50.000  
G11  21159050.705     -363501.521        2221.628          50.000  
> 2018 02 16 08 22 53.0000000  0  8                     
G03  24861438.322      491380.546       -3044.664          50.000  
G10  21156171.398      216304.124       -1399.598          50.000  
G30  22425046.395     -581074.697        3557.203          50.000  
G01  22156601.349     -215810.028        1289.429          50.000  
G23  22432068.009      333607.227       -2083.435          50.000  
G05  24007921.581     -586310.324        3601.628          50.000  
G09  20209131.711      104616.281        -686.792          50.000  
G11  21158627.996     -365722.909        2221.248          50.000  
> 2018 02 16 08 22 54.0000000  0  8                     
G03  24862017.760      494425.505       -3044.674          50.000  
G10  21156437.807      217704.102       -1399.605          50.000  
G30  22424369.516     -584631.659        3557.235          50.000  
G01  22156356.061     -217099.056        1289.158          50.000  
G23  22432464.541      335691.047       -2083.645          50.000  
G05  24007236.232     -589911.821        3601.845          50.000  
G09  20209262.477      105303.444        -687.008          50.000  
G11  21158205.375     -367943.880        2221.690          50.000  
> 2018 02 16 08 22 55.0000000  0  8                     
G03  24862597.235      497470.674       -3045.439          50.000  
G10  21156704.270      219104.398       -1400.808          50.000  
G30  22423692.691     -588188.475        3556.559          50.000  
G01  22156110.880     -218387.576        1288.055          50.000  
G23  22432861.162      337775.258       -2084.590          50.000  
G05  24006550.884     -593513.304        3601.285          50.000  
G09  20209393.331      105991.083        -688.096          50.000  
G11  21157782.737     -370164.888        2220.361          50.000  
> 2018 02 16 08 22 56.0000000  0  8                     
G03  24863176.745      500516.007       -3045.066          50.000  
G10  21156970.787      220504.968       -1400.403          50.000  
G30  22423015.866     -591745.188        3556.993          50.000  
G01  22155865.753     -219675.676        1288.218          50.000  
G23  22433257.818      339859.793       -2084.379          50.000  
G05  24005865.535     -597114.837        3601.872          50.000  
G09  20209524.258      106679.113        -687.894          50.000  
G11  21157360.099     -372385.836        2221.198          50.000  
> 2018 02 16 08 22 57.0000000  0  8                     
G03  24863756.327      503561.658       -3045.623          50.000  
G10  21157237.393      221906.007       -1401.120          50.000  
G30  22422339.095     -595301.655        3556.522          50.000  
G01  22155620.733     -220963.203        1287.412          50.000  
G23  22433654.600      341944.810       -2085.083          50.000  
G05  24005180.204     -600716.297        3601.630          50.000  
G09  20209655.309      107367.690        -688.647          50.000  
G11  21156937.515     -374606.561        2220.783          50.000  
> 2018 02 16 08 22 58.0000000  0  8                     
G03  24864335.962      506607.640       -3045.949          50.000  
G10  21157504.088      223307.490       -1401.355          50.000  
G30  22421662.377     -598857.862        3556.278          50.000  
G01  22155375.820     -222250.179        1286.930          50.000  
G23  22434051.453      344030.308       -2085.504          50.000  
G05  24004494.874     -604317.686        3601.554          50.000  
G09  20209786.450      108056.820        -689.183          50.000  
G11  21156514.984     -376827.015        2220.985          50.000  
> 2018 02 16 08 22 59.0000000  0  8                     
G03  24864915.669      509653.984       -3046.619          50.000  
G10  21157770.872      224709.385       -1402.278          50.000  
G30  22420985.713     -602413.783        3555.677          50.000  
G01  22155131.014     -223536.578        1286.055          50.000  
G23  22434448.413      346116.315       -2086.375          50.000  
G05  24003809.561     -607919.001        3601.185          50.000  
G09  20209917.698      108746.518        -690.099          50.000  
G11  21156092.453     -379047.428        2220.069          50.000  
> 2018 02 16 08 23 00.0000000  0  8                     
G03  24865495.430      512700.657       -3046.564          50.000  
G10  21158037.710      226111.682       -1402.225          50.000  
G30  22420309.084     -605969.454        3555.821          51.000  
G01  22154886.334     -224822.457        1285.872          51.000  
G23  22434845.445      348202.776       -2086.453          50.000  
G05  24003124.248     -611520.299        3601.578          50.000  
G09  20210049.017      109436.733        -690.251          51.000  
G11  21155669.958     -381267.658        2220.343          51.000  
> 2018 02 16 08 23 01.0000000  0  8                     
G03  24866075.244      515747.579       -3047.093          51.000  
G10  21158304.620      227514.300       -1402.790          50.000  
G30  22419632.509     -609524.951        3555.377          51.000  
G01  22154641.707     -226107.916        1285.211          50.000  
G23  22435242.566      350289.604       -2087.046          50.000  
G05  24002438.936     -615121.676        3601.438          51.000  
G09  20210180.444      110127.371        -690.845          50.000  
G11  21155247.462     -383487.819        2220.069          50.000  
> 2018 02 16 08 23 02.0000000  0  8                     
G03  24866655.147      518794.989       -3047.487          50.000  
G10  21158571.637      228917.485       -1403.211          50.000  
G30  22418956.024     -613080.041        3555.061          50.000  
G01  22154397.187     -227392.731        1284.674          50.000  
G23  22435639.777      352377.033       -2087.549          50.000  
G05  24001753.641     -618722.908        3601.336          50.000  
G09  20210311.996      110818.669        -691.447          50.000  
G11  21154825.057     -385707.611        2220.191          50.000  
> 2018 02 16 08 23 03.0000000  0  8                     
G03  24867235.122      521842.790       -3047.617          50.000  
G10  21158838.743      230321.064       -1403.445          50.000  
G30  22418279.556     -616634.819        3554.971          50.000  
G01  22154152.793     -228677.019        1284.407          50.000  
G23  22436037.095      354464.953       -2087.804          50.000  
G05  24001068.346     -622324.134        3601.632          50.000  
G09  20210443.655      111510.515        -691.751          50.000  
G11  21154402.651     -387927.381        2219.929          50.000  
> 2018 02 16 08 23 04.0000000  0  8                     
G03  24867815.168      524890.918       -3048.205          50.000  
G10  21159105.903      231725.015       -1404.054          50.000  
G30  22417603.160     -620189.350        3554.480          50.000  
G01  22153908.487     -229960.852        1283.715          50.000  
G23  22436434.502      356553.286       -2088.431          50.000  
G05  24000383.051     -625925.417        3601.432          50.000  
G09  20210575.385      112202.831        -692.467          50.000  
G11  21153980.263     -390147.009        2219.580          50.000  
> 2018 02 16 08 23 05.0000000  0  8                     
G03  24868395.286      527939.479       -3048.743          50.000  
G10  21159373.170      233129.434       -1404.635          50.000  
G30  22416926.818     -623743.526        3554.027          50.000  
G01  22153664.289     -231244.142        1283.046          50.000  
G23  22436831.998      358642.132       -2089.071          50.000  
G05  23999697.738     -629526.667        3601.236          50.000  
G09  20210707.241      112895.712        -693.119          50.000  
G11  21153557.911     -392366.418        2219.282          50.000  
> 2018 02 16 08 23 06.0000000  0  8                     
G03  24868975.476      530988.330       -3048.831          50.000  
G10  21159640.490      234534.176       -1404.621          50.000  
G30  22416250.511     -627297.491        3554.079          50.000  
G01  22153420.163     -232527.052        1282.943          50.000  
G23  22437229.548      360731.330       -2089.125          50.000  
G05  23999012.425     -633128.065        3601.637          50.000  
G09  20210839.186      113589.003        -693.255          50.000  
G11  21153135.594     -394585.706        2219.863          50.000  
> 2018 02 16 08 23 07.0000000  0  8                     
G03  24869555.683      534037.362       -3049.192          50.000  
G10  21159907.847      235939.093       -1405.074          50.000  
G30  22415574.222     -630851.346        3553.777          50.000  
G01  22153176.072     -233809.693        1282.457          50.000  
G23  22437627.170      362820.768       -2089.573          49.000  
G05  23998327.041     -636729.723        3601.748          50.000  
G09  20210971.166      114282.584        -693.753          50.000  
G11  21152713.242     -396805.190        2219.364          50.000  
> 2018 02 16 08 23 08.0000000  0  8                     
G03  24870136.015      537087.008       -3049.811          50.000  
G10  21160175.310      237344.632       -1405.715          50.000  
G30  22414898.058     -634404.651        3553.155          50.000  
G01  22152932.142     -235091.650        1281.757          50.000  
G23  22438024.880      364910.868       -2090.266          50.000  
G05  23997641.710     -640331.214        3601.563          50.000  
G09  20211103.290      114976.888        -694.490          50.000  
G11  21152290.961     -399024.269        2218.982          50.000  
> 2018 02 16 08 23 09.0000000  0  8                     
G03  24870716.383      540136.810       -3049.938          50.000  
G10  21160442.809      238750.355       -1405.859          50.000  
G30  22414221.912     -637957.880        3553.159          50.000  
G01  22152688.230     -236373.392        1281.573          50.000  
G23  22438422.645      367001.156       -2090.433          50.000  
G05  23996956.308     -643933.030        3601.936          50.000  
G09  20211235.467      115671.433        -694.681          50.000  
G11  21151868.662     -401243.424        2219.141          50.000  
> 2018 02 16 08 23 10.0000000  0  8                     
G03  24871296.805      543186.968       -3049.945          50.000  
G10  21160710.398      240156.464       -1405.959          50.000  
G30  22413545.802     -641510.799        3553.131          50.000  
G01  22152444.407     -237654.718        1281.520          50.000  
G23  22438820.481      369091.830       -2090.478          50.000  
G05  23996270.888     -647534.968        3602.417          50.000  
G09  20211367.716      116366.420        -694.830          50.000  
G11  21151446.400     -403462.397        2219.661          50.000  
> 2018 02 16 08 23 11.0000000  0  8                     
G03  24871877.280      546237.402       -3050.471          50.000  
G10  21160978.004      241562.815       -1406.341          50.000  
G30  22412869.745     -645063.512        3552.735          50.000  
G01  22152200.638     -238935.734        1280.968          50.000  
G23  22439218.388      371182.784       -2090.990          50.000  
G05  23995585.415     -651137.127        3602.380          50.000  
G09  20211500.018      117061.750        -695.365          50.000  
G11  21151024.119     -405681.463        2219.078          50.000  
> 2018 02 16 08 23 12.0000000  0  8                     
G03  24872457.844      549288.263       -3050.859          50.000  
G10  21161245.718      242969.625       -1406.821          50.000  
G30  22412193.760     -648615.843        3552.332          50.000  
G01  22151956.958     -240216.287        1280.501          50.000  
G23  22439616.367      373274.173       -2091.435          50.000  
G05  23994899.923     -654739.367        3602.464          50.000  
G09  20211632.445      117757.576        -695.911          50.000  
G11  21150601.892     -407900.318        2218.899          50.000  
> 2018 02 16 08 23 13.0000000  0  8                     
G03  24873038.516      552339.683       -3051.473          50.000  
G10  21161513.521      244377.004       -1407.426          50.000  
G30  22411517.864     -652167.663        3551.796          50.000  
G01  22151713.385     -241496.254        1279.915          50.000  
G23  22440014.453      375366.108       -2091.974          50.000  
G05  23994214.432     -658341.563        3602.383          50.000  
G09  20211764.962      118454.012        -696.518          50.000  
G11  21150179.718     -410118.839        2218.558          50.000  
> 2018 02 16 08 23 14.0000000  0  8                     
G03  24873619.241      555391.405       -3051.801          50.000  
G10  21161781.396      245784.708       -1407.844          50.000  
G30  22410842.022     -655719.218        3551.513          50.000  
G01  22151469.884     -242775.898        1279.612          50.000  
G23  22440412.593      377458.326       -2092.257          50.000  
G05  23993528.923     -661943.987        3602.629          50.000  
G09  20211897.550      119150.795        -696.863          50.000  
G11  21149757.580     -412337.210        2218.665          50.000  
> 2018 02 16 08 23 15.0000000  0  8                     
G03  24874200.020      558443.438       -3052.036          50.000  
G10  21162049.342      247192.741       -1408.052          50.000  
G30  22410166.234     -659270.489        3551.220          50.000  
G01  22151226.436     -244055.202        1279.244          50.000  
G23  22440810.786      379550.833       -2092.507          50.000  
G05  23992843.342     -665546.629        3602.891          50.000  
G09  20212030.210      119847.940        -697.235          50.000  
G11  21149335.425     -414555.592        2218.402          50.000  
> 2018 02 16 08 23 16.0000000  0  8                     
G03  24874780.889      561495.945       -3052.680          50.000  
G10  21162317.359      248601.265       -1408.580          50.000  
G30  22409490.534     -662821.320        3550.679          50.000  
G01  22150983.096     -245334.028        1278.668          50.000  
G23  22441209.051      381643.767       -2093.025          50.000  
G05  23992157.779     -669149.340        3602.831          51.000  
G09  20212162.976      120545.580        -697.827          50.000  
G11  21148913.340     -416773.711        2218.068          50.000  
> 2018 02 16 08 23 17.0000000  0  8                     
G03  24875361.846      564548.812       -3052.788          50.000  
G10  21162585.484      250010.194       -1408.811          50.000  
G30  22408814.907     -666371.795        3550.561          50.000  
G01  22150739.791     -246612.474        1278.514          50.000  
G23  22441607.387      383737.025       -2093.166          50.000  
G05  23991472.180     -672752.225        3603.219          50.000  
G09  20212295.815      121243.615        -697.971          50.000  
G11  21148491.274     -418991.645        2218.097          50.000  
> 2018 02 16 08 23 18.0000000  0  8                     
G03  24875942.893      567602.243       -3053.702          50.000  
G10  21162853.716      251419.732       -1409.983          50.000  
G30  22408139.368     -669921.709        3549.597          50.000  
G01  22150496.630     -247890.344        1277.565          50.000  
G23  22442005.813      385830.787       -2094.055          50.000  
G05  23990786.546     -676355.099        3602.853          50.000  
G09  20212428.760      121942.240        -698.951          50.000  
G11  21148069.315     -421209.137        2217.397          50.000  
> 2018 02 16 08 23 19.0000000  0  8                     
G03  24876524.012      570656.061       -3053.745          50.000  
G10  21163122.037      252829.703       -1409.885          50.000  
G30  22407463.919     -673471.245        3549.575          50.000  
G01  22150253.540     -249167.819        1277.536          50.000  
G23  22442404.292      387924.859       -2093.970          50.000  
G05  23990100.929     -679958.138        3603.367          50.000  
G09  20212561.777      122641.262        -698.978          50.000  
G11  21147647.374     -423426.515        2217.477          50.000  
> 2018 02 16 08 23 20.0000000  0  8                     
G03  24877105.220      573710.286       -3054.497          50.000  
G10  21163390.412      254240.144       -1410.675          50.000  
G30  22406788.542     -677020.357        3548.888          50.000  
G01  22150010.521     -250444.868        1276.788          50.000  
G23  22442802.843      390019.272       -2094.634          50.000  
G05  23989415.259     -683561.320        3603.220          50.000  
G09  20212694.884      123340.704        -699.677          50.000  
G11  21147225.468     -425643.625        2216.926          50.000  
> 2018 02 16 08 23 21.0000000  0  8                     
G03  24877686.499      576764.912       -3054.442          50.000  
G10  21163658.894      255651.064       -1410.752          50.000  
G30  22406113.236     -680569.034        3548.806          50.000  
G01  22149767.591     -251721.498        1276.789          50.000  
G23  22443201.447      392114.004       -2094.545          50.000  
G05  23988729.571     -687164.640        3603.704          50.000  
G09  20212828.061      124040.564        -699.722          50.000  
G11  21146803.616     -427860.456        2217.062          50.000  
> 2018 02 16 08 23 23.0000000  0  8                     
G03  24878849.290      582875.398       -3055.551          50.000  
G10  21164196.162      258474.402       -1412.063          50.000  
G30  22404762.909     -687665.050        3547.612          50.000  
G01  22149281.965     -254273.461        1275.639          50.000  
G23  22443998.852      396304.417       -2095.436          50.000  
G05  23987358.123     -694371.710        3603.734          50.000  
G09  20213094.667      125441.522        -700.801          50.000  
G11  21145960.091     -432293.215        2216.155          50.000  
> 2018 02 16 08 23 24.0000000  0  8                     
G03  24879430.784      585931.202       -3056.039          50.000  
G10  21164464.930      259886.788       -1412.625          50.000  
G30  22404087.853     -691212.419        3547.054          50.000  
G01  22149039.268     -255548.837        1275.110          50.000  
G23  22444397.635      398400.026       -2095.835          50.000  
G05  23986672.328     -697975.499        3603.828          50.000  
G09  20213228.077      126142.563        -701.298          50.000  
G11  21145538.382     -434509.194        2215.774          50.000  
> 2018 02 16 08 23 25.0000000  0  8                     
G03  24880012.385      588987.554       -3056.578          50.000  
G10  21164733.823      261299.866       -1413.391          50.000  
G30  22403412.940     -694759.167        3546.443          50.000  
G01  22148796.678     -256823.622        1274.499          50.000  
G23  22444796.507      400496.074       -2096.275          50.000  
G05  23985986.569     -701579.273        3603.797          50.000  
G09  20213361.577      126844.155        -701.831          50.000  
G11  21145116.781     -436724.674        2215.257          50.000  
> 2018 02 16 08 23 26.0000000  0  8                     
G03  24880594.093      592044.517       -3056.920          50.000  
G10  21165002.859      262713.670       -1413.980          50.000  
G30  22402738.134     -698305.230        3546.086          50.000  
G01  22148554.231     -258097.758        1274.162          50.000  
G23  22445195.469      402592.600       -2096.372          50.000  
G05  23985300.791     -705182.972        3604.011          50.000  
G09  20213495.201      127546.353        -702.098          50.000  
G11  21144695.286     -438939.537        2214.909          50.000  
> 2018 02 16 08 23 28.0000000  0  8                     
G03  24881757.759      598159.660       -3057.872          50.000  
G10  21165541.270      265543.061       -1415.163          50.000  
G30  22401388.827     -705395.832        3544.877          50.000  
G01  22148069.588     -260644.623        1273.058          50.000  
G23  22445993.535      406786.515       -2097.192          50.000  
G05  23983929.219     -712390.696        3604.081          50.000  
G09  20213762.701      128951.975        -703.128          50.000  
G11  21143852.565     -443368.150        2214.005          50.000  
> 2018 02 16 08 23 29.0000000  0  8                     
G03  24882339.682      601217.646       -3058.224          50.000  
G10  21165810.610      266958.447       -1415.683          50.000  
G30  22400714.307     -708940.546        3544.383          50.000  
G01  22147827.355     -261917.533        1272.619          50.000  
G23  22446392.604      408883.677       -2097.366          50.000  
G05  23983243.352     -715994.906        3604.239          50.000  
G09  20213896.522      129655.198        -703.486          50.000  
G11  21143431.285     -445581.987        2213.564          50.000  
> 2018 02 16 08 23 30.0000000  0  8                     
G03  24882921.676      604276.091       -3058.186          50.000  
G10  21166080.075      268374.491       -1416.113          50.000  
G30  22400039.876     -712484.669        3544.305          50.000  
G01  22147585.230     -263189.890        1272.575          50.000  
G23  22446791.745      410981.164       -2097.167          50.000  
G05  23982557.503     -719599.139        3604.716          50.000  
G09  20214030.414      130358.888        -703.432          50.000  
G11  21143010.112     -447795.272        2213.431          50.000  
> 2018 02 16 08 23 31.0000000  0  8                     
G03  24883503.742      607334.939       -3058.839          50.000  
G10  21166349.683      269791.210       -1416.710          50.000  
G30  22399365.553     -716028.250        3543.552          50.000  
G01  22147343.212     -264461.748        1271.865          50.000  
G23  22447190.921      413078.899       -2097.609          50.000  
G05  23981871.619     -723203.464        3604.603          50.000  
G09  20214164.396      131062.978        -704.079          50.000  
G11  21142589.047     -450008.099        2212.835          50.000  
> 2018 02 16 08 23 32.0000000  0  8                     
G03  24884085.897      610394.131       -3059.234          50.000  
G10  21166619.380      271208.521       -1417.429          50.000  
G30  22398691.337     -719571.312        3542.844          50.000  
G01  22147101.265     -265733.137        1271.296          50.000  
G23  22447590.150      415176.840       -2097.910          50.000  
G05  23981185.716     -726807.895        3604.598          50.000  
G09  20214298.450      131767.431        -704.687          50.000  
G11  21142168.034     -452220.449        2212.261          50.000  
> 2018 02 16 08 23 33.0000000  0  8                     
G03  24884668.069      613453.443       -3059.501          50.000  
G10  21166889.167      272626.228       -1417.939          50.000  
G30  22398017.174     -723114.097        3542.524          50.000  
G01  22146859.372     -267004.275        1270.901          50.000  
G23  22447989.362      417274.739       -2097.927          50.000  
G05  23980499.760     -730412.665        3604.828          50.000  
G09  20214432.521      132472.002        -704.761          50.000  
G11  21141747.094     -454432.526        2211.879          50.000  
> 2018 02 16 08 23 34.0000000  0  8                     
G03  24885250.296      616513.057       -3059.821          50.000  
G10  21167159.060      274044.512       -1418.883          50.000  
G30  22397343.101     -726656.390        3541.975          50.000  
G01  22146617.569     -268274.966        1270.407          50.000  
G23  22448388.628      419372.796       -2098.193          50.000  
G05  23979813.768     -734017.563        3604.870          50.000  
G09  20214566.664      133176.897        -705.118          50.000  
G11  21141326.225     -456644.109        2211.153          50.000  
> 2018 02 16 08 23 35.0000000  0  8                     
G03  24885832.629      619573.186       -3060.022          50.000  
G10  21167429.115      275463.689       -1419.151          50.000  
G30  22396669.153     -730197.973        3541.598          50.000  
G01  22146375.890     -269544.974        1270.013          50.000  
G23  22448787.929      421471.205       -2098.209          50.000  
G05  23979127.794     -737622.369        3605.096          50.000  
G09  20214700.914      133882.325        -705.313          50.000  
G11  21140905.499     -458854.967        2210.912          50.000  
> 2018 02 16 08 23 36.0000000  0  8                     
G03  24886414.981      622633.535       -3060.593          50.000  
G10  21167699.277      276883.406       -1420.122          50.000  
G30  22395995.312     -733739.121        3540.824          50.000  
G01  22146134.283     -270814.586        1269.317          50.000  
G23  22449187.266      423569.677       -2098.595          50.000  
G05  23978441.767     -741227.352        3604.945          50.000  
G09  20214835.182      134588.001        -705.877          50.000  
G11  21140484.880     -461065.368        2210.126          50.000  
> 2018 02 16 08 23 37.0000000  0  8                     
G03  24886997.457      625694.445       -3061.035          50.000  
G10  21167969.635      278304.051       -1420.969          50.000  
G30  22395321.596     -737279.482        3540.130          50.000  
G01  22145892.837     -272083.427        1268.588          50.000  
G23  22449586.674      425668.552       -2098.932          50.000  
G05  23977755.793     -744832.158        3604.866          50.000  
G09  20214969.574      135294.276        -706.412          50.000  
G11  21140064.422     -463274.934        2209.311          50.000  
> 2018 02 16 08 23 38.0000000  0  8                     
G03  24887579.987      628755.649       -3061.375          50.000  
G10  21168240.083      279725.342       -1421.913          50.000  
G30  22394647.988     -740819.307        3539.513          50.000  
G01  22145651.498     -273351.761        1268.059          50.000  
G23  22449986.101      427767.561       -2099.081          50.000  
G05  23977069.801     -748437.033        3604.904          50.000  
G09  20215104.039      136000.873        -706.740          50.000  
G11  21139644.053     -465483.899        2208.461          50.000  
> 2018 02 16 08 23 39.0000000  0  8                     
G03  24888162.553      631817.082       -3061.617          50.000  
G10  21168510.673      281147.341       -1422.264          50.000  
G30  22393974.469     -744358.657        3538.996          50.000  
G01  22145410.230     -274619.628        1267.562          50.000  
G23  22450385.545      429866.641       -2099.187          50.000  
G05  23976383.792     -752042.019        3604.934          50.000  
G09  20215238.557      136707.753        -707.110          50.000  
G11  21139223.827     -467692.288        2208.092          50.000  
> 2018 02 16 08 23 40.0000000  0  8                     
G03  24888745.155      634878.690       -3061.608          50.000  
G10  21168781.371      282569.941       -1422.697          50.000  
G30  22393301.039     -747897.569        3538.802          50.000  
G01  22145169.052     -275887.060        1267.280          50.000  
G23  22450784.989      431965.734       -2098.993          50.000  
G05  23975697.764     -755647.151        3605.291          50.000  
G09  20215373.111      137414.854        -707.047          50.000  
G11  21138803.691     -469900.134        2207.783          50.000  
> 2018 02 16 08 23 41.0000000  0  8                     
G03  24889327.774      637940.433       -3061.756          50.000  
G10  21169052.194      283993.127       -1423.375          50.000  
G30  22392627.680     -751436.065        3538.336          50.000  
G01  22144927.945     -277154.074        1266.873          50.000  
G23  22451184.433      434064.809       -2099.010          50.000  
G05  23975011.701     -759252.453        3605.467          50.000  
G09  20215507.718      138122.151        -707.288          50.000  
G11  21138383.643     -472107.448        2207.121          50.000  
> 2018 02 16 08 23 42.0000000  0  8                     
G03  24889910.501      641002.668       -3062.211          50.000  
G10  21169323.196      285417.253       -1424.620          50.000  
G30  22391954.483     -754973.778        3537.572          50.000  
G01  22144686.999     -278420.297        1266.058          50.000  
G23  22451583.949      436164.216       -2099.325          50.000  
G05  23974325.673     -762857.534        3605.226          50.000  
G09  20215642.415      138830.018        -707.864          50.000  
G11  21137963.757     -474313.852        2205.959          50.000  
> 2018 02 16 08 23 43.0000000  0  8                     
G03  24890493.299      644065.245       -3062.792          50.000  
G10  21169594.358      286842.291       -1425.365          50.000  
G30  22391281.410     -758510.852        3536.734          50.000  
G01  22144446.179     -279685.862        1265.235          50.000  
G23  22451983.482      438263.812       -2099.686          50.000  
G05  23973639.681     -766462.529        3604.949          50.000  
G09  20215777.201      139538.297        -708.480          50.000  
G11  21137544.067     -476519.411        2205.219          50.000  
> 2018 02 16 08 23 44.0000000  0  8                     
G03  24891076.098      647127.933       -3062.780          50.000  
G10  21169865.663      288267.955       -1425.924          50.000  
G30  22390608.392     -762047.496        3536.363          50.000  
G01  22144205.447     -280950.964        1264.830          50.000  
G23  22452383.016      440363.374       -2099.590          50.000  
G05  23972953.636     -770067.641        3605.148          50.000  
G09  20215912.005      140246.777        -708.605          50.000  
G11  21137124.467     -478724.384        2204.709          50.000  
> 2018 02 16 08 23 45.0000000  0  8                     
G03  24891658.985      650190.875       -3062.926          50.000  
G10  21170137.130      289694.439       -1426.718          50.000  
G30  22389935.498     -765583.557        3535.893          50.000  
G01  22143964.823     -282215.443        1264.284          50.000  
G23  22452782.567      442463.041       -2099.572          50.000  
G05  23972267.626     -773672.703        3605.147          50.000  
G09  20216046.880      140955.615        -708.896          50.000  
G11  21136705.027     -480928.570        2203.945          50.000  
> 2018 02 16 08 23 46.0000000  0  8                     
G03  24892241.908      653254.142       -3063.282          50.000  
G10  21170408.739      291121.761       -1427.827          50.000  
G30  22389262.747     -769118.957        3535.173          50.000  
G01  22143724.341     -283479.211        1263.489          50.000  
G23  22453182.154      444562.886       -2099.822          50.000  
G05  23971581.635     -777277.625        3604.940          50.000  
G09  20216181.863      141664.880        -709.366          50.000  
G11  21136285.749     -483131.905        2202.752          50.000  
> 2018 02 16 08 23 47.0000000  0  8                     
G03  24892824.849      656317.545       -3063.761          50.000  
G10  21170680.509      292549.908       -1428.757          50.000  
G30  22388590.068     -772653.882        3534.343          50.000  
G01  22143483.950     -284742.447        1262.696          50.000  
G23  22453581.741      446662.724       -2100.149          50.000  
G05  23970895.625     -780882.576        3604.670          50.000  
G09  20216316.881      142374.396        -709.976          50.000  
G11  21135866.595     -485334.458        2201.961          50.000  
> 2018 02 16 08 23 48.0000000  0  8                     
G03  24893407.880      659381.380       -3063.763          50.000  
G10  21170952.475      293979.091       -1429.347          50.000  
G30  22387917.549     -776188.011        3534.013          50.000  
G01  22143243.718     -286004.797        1262.164          50.000  
G23  22453981.382      448762.867       -2100.073          50.000  
G05  23970209.669     -784487.220        3604.755          50.000  
G09  20216451.989      143084.471        -710.051          50.000  
G11  21135447.674     -487535.976        2201.328          50.000  
> 2018 02 16 08 23 49.0000000  0  8                     
G03  24893990.910      662445.321       -3064.093          50.000  
G10  21171224.585      295409.018       -1430.360          50.000  
G30  22387245.102     -779721.663        3533.320          50.000  
G01  22143003.612     -287266.594        1261.433          50.000  
G23  22454381.005      450862.981       -2100.180          50.000  
G05  23969523.731     -788091.868        3604.557          50.000  
G09  20216587.168      143794.799        -710.528          50.000  
G11  21135028.877     -489736.753        2200.331          50.000  
> 2018 02 16 08 23 50.0000000  0  8                     
G03  24894573.941      665509.106       -3063.852          50.000  
G10  21171496.766      296839.414       -1431.048          50.000  
G30  22386572.726     -783255.094        3533.158          50.000  
G01  22142763.560     -288528.062        1261.113          50.000  
G23  22454780.592      452962.819       -2099.844          50.000  
G05  23968837.739     -791696.753        3604.832          50.000  
G09  20216722.347      144505.118        -710.474          50.000  
G11  21134610.188     -491937.038        2199.565          50.000  
> 2018 02 16 08 23 51.0000000  0  8                     
G03  24895157.007      668573.166       -3064.182          50.000  
G10  21171769.161      298270.847       -1431.827          50.000  
G30  22385900.458     -786787.865        3532.454          50.000  
G01  22142523.668     -289788.760        1260.336          50.000  
G23  22455180.215      455062.811       -2100.044          50.000  
G05  23968151.801     -795301.421        3604.594          50.000  
G09  20216857.615      145215.877        -710.958          50.000  
G11  21134191.678     -494136.279        2198.850          50.000  
> 2018 02 16 08 23 52.0000000  0  8                     
G03  24895740.127      671637.449       -3064.177          51.000  
G10  21172041.735      299703.209       -1432.580          50.000  
G30  22385228.297     -790320.006        3532.008          50.000  
G01  22142283.902     -291048.699        1259.791          50.000  
G23  22455579.855      457162.923       -2099.958          50.000  
G05  23967465.916     -798905.889        3604.608          51.000  
G09  20216992.955      145927.034        -711.121          50.000  
G11  21133773.346     -496334.579        2198.095          50.000  
> 2018 02 16 08 23 53.0000000  0  8                     
G03  24896323.247      674701.738       -3064.057          50.000  
G10  21172314.434      301136.293       -1433.191          50.000  
G30  22384556.225     -793851.747        3531.776          50.000  
G01  22142044.260     -292308.087        1259.333          50.000  
G23  22455979.460      459262.932       -2099.745          50.000  
G05  23966780.014     -802510.361        3604.710          50.000  
G09  20217128.313      146638.384        -711.193          50.000  
G11  21133355.157     -498532.120        2197.447          50.000  
> 2018 02 16 08 23 54.0000000  0  8                     
G03  24896906.367      677766.050       -3064.122          50.000  
G10  21172587.276      302570.105       -1434.196          50.000  
G30  22383884.242     -797383.046        3531.248          50.000  
G01  22141804.726     -293566.882        1258.702          50.000  
G23  22456379.065      461362.868       -2099.728          50.000  
G05  23966094.111     -806114.785        3604.567          50.000  
G09  20217263.707      147349.960        -711.529          50.000  
G11  21132937.129     -500728.895        2196.285          50.000  
> 2018 02 16 08 23 55.0000000  0  8                     
G03  24897489.522      680830.582       -3064.586          50.000  
G10  21172860.333      304004.981       -1435.284          50.000  
G30  22383212.385     -800913.706        3530.384          50.000  
G01  22141565.335     -294824.861        1257.594          50.000  
G23  22456778.706      463462.933       -2100.066          50.000  
G05  23965408.262     -809718.945        3604.078          50.000  
G09  20217399.208      148061.964        -712.169          50.000  
G11  21132519.298     -502924.569        2195.270          50.000  
> 2018 02 16 08 23 56.0000000  0  8                     
G03  24898072.678      683895.074       -3064.429          50.000  
G10  21173133.515      305440.600       -1435.945          50.000  
G30  22382540.599     -804443.977        3530.090          50.000  
G01  22141326.051     -296082.264        1257.131          50.000  
G23  22457178.311      465562.886       -2099.880          50.000  
G05  23964722.414     -813323.067        3604.078          50.000  
G09  20217534.726      148774.153        -712.268          50.000  
G11  21132101.628     -505119.473        2194.554          50.000  
> 2018 02 16 08 23 57.0000000  0  8                     
G03  24898655.869      686959.824       -3064.667          50.000  
G10  21173406.893      306877.269       -1436.954          50.000  
G30  22381868.938     -807973.564        3529.471          50.000  
G01  22141086.963     -297338.776        1256.284          50.000  
G23  22457577.952      467663.017       -2100.001          50.000  
G05  23964036.636     -816926.845        3603.798          50.000  
G09  20217670.352      149486.834        -712.718          50.000  
G11  21131684.171     -507313.269        2193.483          50.000  
> 2018 02 16 08 23 58.0000000  0  8                     
G03  24899239.096      690024.696       -3064.904          50.000  
G10  21173680.450      308314.834       -1438.122          50.000  
G30  22381197.385     -811502.586        3528.781          50.000  
G01  22140848.001     -298594.505        1255.360          50.000  
G23  22457977.610      469763.212       -2100.186          50.000  
G05  23963350.912     -820530.374        3603.411          50.000  
G09  20217806.032      150199.889        -713.226          50.000  
G11  21131266.876     -509506.110        2192.126          50.000  
> 2018 02 16 08 23 59.0000000  0  8                     
G03  24899822.359      693089.716       -3064.989          50.000  
G10  21173954.203      309753.477       -1438.967          50.000  
G30  22380525.938     -815031.014        3528.238          50.000  
G01  22140609.217     -299849.402        1254.578          50.000  
G23  22458377.287      471863.503       -2100.217          50.000  
G05  23962665.242     -824133.610        3603.220          50.000  
G09  20217941.801      150913.358        -713.567          50.000  
G11  21130849.813     -511697.816        2191.392          50.000  
> 2018 02 16 08 24 00.0000000  0  8                     
G03  24900405.675      696155.023       -3065.400          50.000  
G10  21174228.171      311193.238       -1440.251          50.000  
G30  22379854.635     -818558.710        3527.372          50.000  
G01  22140370.594     -301103.319        1253.489          50.000  
G23  22458777.017      473964.036       -2100.601          50.000  
G05  23961979.644     -827736.385        3602.573          50.000  
G09  20218077.694      151627.383        -714.272          50.000  
G11  21130432.947     -513888.350        2189.991          50.000  
> 2018 02 16 08 24 01.0000000  0  8                     
G03  24900989.010      699220.354       -3065.193          50.000  
G10  21174502.335      312633.881       -1440.881          50.000  
G30  22379183.439     -822085.932        3527.156          50.000  
G01  22140132.114     -302356.490        1252.982          50.000  
G23  22459176.729      476064.559       -2100.375          50.000  
G05  23961294.116     -831338.949        3602.610          50.000  
G09  20218213.624      152341.719        -714.325          50.000  
G11  21130016.277     -516077.938        2189.288          50.000  
> 2018 02 16 08 24 02.0000000  0  8                     
G03  24901572.290      702285.470       -3065.033          50.000  
G10  21174776.607      314075.154       -1441.754          50.000  
G30  22378512.260     -825612.913        3526.847          50.000  
G01  22139893.759     -303609.133        1252.347          50.000  
G23  22459576.405      478164.840       -2100.167          50.000  
G05  23960608.571     -834941.511        3602.548          50.000  
G09  20218349.572      153056.141        -714.505          50.000  
G11  21129599.750     -518266.836        2188.303          50.000  
> 2018 02 16 08 24 03.0000000  0  8                     
G03  24902155.553      705350.496       -3064.832          50.000  
G10  21175051.039      315517.292       -1442.395          50.000  
G30  22377841.171     -829139.527        3526.546          50.000  
G01  22139655.493     -304861.115        1251.789          50.000  
G23  22459976.064      480265.019       -2099.992          50.000  
G05  23959923.044     -838543.922        3602.444          50.000  
G09  20218485.555      153770.786        -714.650          50.000  
G11  21129183.384     -520454.778        2187.682          50.000  
> 2018 02 16 08 24 04.0000000  0  8                     
G03  24902738.780      708415.440       -3064.892          50.000  
G10  21175325.615      316960.247       -1443.330          50.000  
G30  22377170.136     -832665.767        3526.066          50.000  
G01  22139417.389     -306112.400        1250.930          50.000  
G23  22460375.687      482365.115       -2100.070          50.000  
G05  23959237.571     -842146.156        3602.133          50.000  
G09  20218621.574      154485.672        -714.992          50.000  
G11  21128767.196     -522641.844        2186.716          50.000  
> 2018 02 16 08 24 05.0000000  0  8                     
G03  24903322.025      711480.337       -3064.738          50.000  
G10  21175600.369      318404.059       -1444.095          50.000  
G30  22376499.208     -836191.595        3525.787          50.000  
G01  22139179.427     -307362.942        1250.303          50.000  
G23  22460775.327      484465.167       -2099.889          50.000  
G05  23958552.133     -845748.161        3602.034          50.000  
G09  20218757.682      155200.845        -715.160          50.000  
G11  21128351.188     -524827.972        2185.815          50.000  
> 2018 02 16 08 24 06.0000000  0  8                     
G03  24903905.288      714545.437       -3064.901          50.000  
G10  21175875.337      319848.968       -1445.321          50.000  
G30  22375828.369     -839716.758        3525.143          50.000  
G01  22138941.662     -308612.473        1249.312          50.000  
G23  22461175.004      486565.438       -2100.061          50.000  
G05  23957866.784     -849349.661        3601.576          50.000  
G09  20218893.880      155916.565        -715.648          50.000  
G11  21127935.393     -527012.943        2184.505          50.000  
> 2018 02 16 08 24 07.0000000  0  8                     
G03  24904488.533      717610.433       -3064.815          50.000  
G10  21176150.467      321294.751       -1446.040          50.000  
G30  22375157.619     -843241.566        3524.745          50.000  
G01  22138704.022     -309861.288        1248.588          50.000  
G23  22461574.644      488665.637       -2100.008          50.000  
G05  23957181.471     -852950.942        3601.266          50.000  
G09  20219030.131      156632.549        -715.960          50.000  
G11  21127519.814     -529196.942        2183.717          50.000  
> 2018 02 16 08 24 08.0000000  0  8                     
G03  24905071.742      720675.277       -3064.742          50.000  
G10  21176425.739      322741.328       -1446.916          50.000  
G30  22374486.941     -846766.072        3524.405          50.000  
G01  22138466.524     -311109.414        1247.832          50.000  
G23  22461974.285      490765.723       -2099.968          50.000  
G05  23956496.194     -856552.044        3601.056          50.000  
G09  20219166.436      157348.750        -716.305          50.000  
G11  21127104.377     -531380.082        2182.790          50.000  
> 2018 02 16 08 24 09.0000000  0  8                     
G03  24905654.987      723740.148       -3064.609          50.000  
G10  21176701.208      324188.862       -1447.752          50.000  
G30  22373816.335     -850290.090        3524.038          50.000  
G01  22138229.188     -312356.661        1247.076          50.000  
G23  22462373.926      492865.884       -2099.933          50.000  
G05  23955811.007     -860152.760        3600.815          50.000  
G09  20219302.795      158065.355        -716.540          50.000  
G11  21126689.136     -533562.184        2181.908          50.000  
> 2018 02 16 08 24 10.0000000  0  8                     
G03  24906238.196      726804.898       -3064.368          50.000  
G10  21176976.802      325637.188       -1448.455          50.000  
G30  22373145.799     -853813.774        3523.820          50.000  
G01  22137991.977     -313603.168        1246.477          50.000  
G23  22462773.567      494965.984       -2099.760          50.000  
G05  23955125.873     -863753.227        3600.657          50.000  
G09  20219439.225      158782.234        -716.705          50.000  
G11  21126274.039     -535743.423        2180.982          50.000  
> 2018 02 16 08 24 11.0000000  0  8                     
G03  24906821.423      729869.737       -3065.088          50.000  
G10  21177252.628      327086.617       -1450.175          50.000  
G30  22372475.372     -857336.912        3522.565          50.000  
G01  22137754.962     -314848.702        1244.816          50.000  
G23  22463173.243      497066.252       -2100.590          50.000  
G05  23954440.810     -867353.210        3599.450          50.000  
G09  20219575.708      159499.609        -717.893          50.000  
G11  21125859.209     -537923.476        2179.303          50.000  
> 2018 02 16 08 24 12.0000000  0  8                     
G03  24907404.686      732934.767       -3064.740          50.000  
G10  21177528.669      328537.171       -1450.722          50.000  
G30  22371805.051     -860859.423        3522.544          50.000  
G01  22137518.162     -316093.164        1244.269          50.000  
G23  22463572.955      499166.791       -2100.347          50.000  
G05  23953755.872     -870952.618        3599.475          50.000  
G09  20219712.353      160217.578        -717.912          50.000  
G11  21125444.595     -540102.320        2178.615          50.000  
> 2018 02 16 08 24 13.0000000  0  8                     
G03  24907987.913      735999.637       -3064.247          50.000  
G10  21177804.852      329988.528       -1451.182          50.000  
G30  22371134.802     -864381.642        3522.579          50.000  
G01  22137281.469     -317336.893        1243.862          50.000  
G23  22463972.667      501267.255       -2099.921          50.000  
G05  23953070.971     -874551.760        3599.507          50.000  
G09  20219849.033      160935.814        -717.859          50.000  
G11  21125030.123     -542280.288        2178.036          50.000  
> 2018 02 16 08 24 14.0000000  0  8                     
G03  24908571.086      739064.309       -3064.534          50.000  
G10  21178081.161      331440.610       -1452.385          50.000  
G30  22370464.606     -867903.627        3521.939          50.000  
G01  22137044.936     -318579.918        1242.754          50.000  
G23  22464372.362      503367.625       -2100.236          50.000  
G05  23952386.123     -878150.683        3598.865          50.000  
G09  20219985.749      161654.278        -718.531          50.000  
G11  21124615.811     -544457.491        2176.818          50.000  
> 2018 02 16 08 24 15.0000000  0  8                     
G03  24909154.260      742128.857       -3064.680          50.000  
G10  21178357.648      332893.558       -1453.511          50.000  
G30  22369794.446     -871425.303        3521.358          50.000  
G01  22136808.547     -319822.152        1241.712          50.000  
G23  22464772.038      505467.989       -2100.506          50.000  
G05  23951701.346     -881749.293        3598.287          50.000  
G09  20220122.536      162373.058        -719.088          50.000  
G11  21124201.697     -546633.722        2175.636          50.000  
> 2018 02 16 08 24 16.0000000  0  8                     
G03  24909737.451      745193.481       -3064.372          50.000  
G10  21178634.332      334347.532       -1454.248          50.000  
G30  22369124.394     -874946.468        3521.203          50.000  
G01  22136572.337     -321063.386        1241.036          50.000  
G23  22465171.768      507568.561       -2100.431          50.000  
G05  23951016.658     -885347.372        3598.115          50.000  
G09  20220259.413      163092.367        -719.292          50.000  
G11  21123787.761     -548808.866        2174.841          50.000  
> 2018 02 16 08 24 17.0000000  0  8                     
G03  24910320.624      748258.001       -3064.071          50.000  
G10  21178911.177      335802.339       -1454.876          50.000  
G30  22368454.395     -878467.314        3521.001          50.000  
G01  22136336.287     -322303.801        1240.372          50.000  
G23  22465571.498      509669.159       -2100.263          50.000  
G05  23950332.043     -888945.101        3597.910          50.000  
G09  20220396.361      163812.028        -719.486          50.000  
G11  21123374.022     -550983.109        2174.140          50.000  
> 2018 02 16 08 24 18.0000000  0  8                     
G03  24910903.780      751322.434       -3064.464          50.000  
G10  21179188.183      337257.000       -1456.230          50.000  
G30  22367784.467     -881987.838        3520.233          50.000  
G01  22136100.398     -323543.379        1239.081          50.000  
G23  22465971.246      511769.814       -2100.826          50.000  
G05  23949647.480     -892542.460        3597.083          50.000  
G09  20220533.381      164532.061        -720.339          50.000  
G11  21122960.443     -553156.457        2172.713          50.000  
> 2018 02 16 08 24 19.0000000  0  8                     
G03  24911486.918      754386.929       -3064.416          50.000  
G10  21179465.385      338714.658       -1457.043          50.000  
G30  22367114.593     -885507.902        3519.979          50.000  
G01  22135864.705     -324781.965        1238.219          50.000  
G23  22466371.030      513870.682       -2100.851          50.000  
G05  23948963.025     -896139.286        3596.687          50.000  
G09  20220670.508      165252.620        -720.691          50.000  
G11  21122547.079     -555328.725        2171.847          50.000  
> 2018 02 16 08 24 20.0000000  0  8                     
G03  24912070.109      757451.598       -3064.284          50.000  
G10  21179742.784      340172.438       -1457.838          50.000  
G30  22366444.862     -889027.386        3519.708          50.000  
G01  22135629.227     -326019.441        1237.328          50.000  
G23  22466770.867      515971.892       -2100.858          50.000  
G05  23948278.695     -899735.462        3596.262          50.000  
G09  20220807.760      165973.833        -720.966          50.000  
G11  21122133.947     -557499.822        2170.917          50.000  
> 2018 02 16 08 24 21.0000000  0  8                     
G03  24912653.247      760515.997       -3063.835          50.000  
G10  21180020.307      341630.867       -1458.350          50.000  
G30  22365775.167     -892546.745        3519.704          50.000  
G01  22135393.857     -327256.255        1236.893          50.000  
G23  22467170.686      518073.009       -2100.635          50.000  
G05  23947594.401     -903331.430        3596.266          50.000  
G09  20220945.029      166695.267        -721.133          50.000  
G11  21121720.922     -559670.240        2170.537          50.000  
> 2018 02 16 08 24 22.0000000  0  8                     
G03  24913236.366      763580.264       -3063.980          50.000  
G10  21180297.992      343090.050       -1459.182          50.000  
G30  22365105.490     -896065.864        3519.266          50.000  
G01  22135158.665     -328492.269        1235.828          51.000  
G23  22467570.524      520174.167       -2100.801          50.000  
G05  23946910.178     -906927.060        3595.752          51.000  
G09  20221082.371      167417.035        -721.597          50.000  
G11  21121308.059     -561839.851        2169.620          50.000  
> 2018 02 16 08 24 23.0000000  0  8                     
G03  24913819.433      766644.339       -3063.825          50.000  
G10  21180575.802      344549.957       -1460.106          50.000  
G30  22364435.866     -899584.802        3519.004          50.000  
G01  22134923.598     -329727.542        1235.053          50.000  
G23  22467970.379      522275.343       -2101.034          50.000  
G05  23946226.009     -910522.389        3595.327          50.000  
G09  20221219.801      168139.120        -722.035          50.000  
G11  21120895.338     -564008.676        2168.600          50.000  
> 2018 02 16 08 24 24.0000000  0  8                     
G03  24914402.463      769708.112       -3063.525          50.000  
G10  21180853.737      346010.461       -1460.672          50.000  
G30  22363766.260     -903103.679        3518.970          50.000  
G01  22134688.656     -330962.191        1234.480          50.000  
G23  22468370.198      524376.406       -2100.895          50.000  
G05  23945541.876     -914117.548        3595.192          50.000  
G09  20221357.232      168861.389        -722.248          50.000  
G11  21120482.742     -566176.883        2167.995          50.000  
> 2018 02 16 08 24 25.0000000  0  8                     
G03  24914985.458      772771.825       -3063.446          50.000  
G10  21181131.814      347471.782       -1461.503          50.000  
G30  22363096.690     -906622.265        3518.714          50.000  
G01  22134453.874     -332195.970        1233.631          50.000  
G23  22468770.035      526477.619       -2100.995          50.000  
G05  23944857.814     -917712.287        3594.791          50.000  
G09  20221494.752      169584.094        -722.627          50.000  
G11  21120070.289     -568344.254        2167.206          50.000  
> 2018 02 16 08 24 26.0000000  0  8                     
G03  24915568.399      775835.240       -3063.135          50.000  
G10  21181410.017      348933.667       -1461.953          50.000  
G30  22362427.138     -910140.812        3518.680          50.000  
G01  22134219.201     -333429.125        1232.979          50.000  
G23  22469169.873      528578.757       -2100.986          50.000  
G05  23944173.788     -921306.842        3594.608          50.000  
G09  20221632.308      170307.011        -722.889          50.000  
G11  21119657.980     -570511.036        2166.744          50.000  
> 2018 02 16 08 24 27.0000000  0  8                     
G03  24916151.340      778898.477       -3063.088          50.000  
G10  21181688.327      350396.208       -1462.839          50.000  
G30  22361757.603     -913659.211        3518.386          50.000  
G01  22133984.688     -334661.549        1232.088          50.000  
G23  22469569.710      530679.929       -2101.128          50.000  
G05  23943489.833     -924901.108        3594.169          50.000  
G09  20221769.953      171030.242        -723.325          50.000  
G11  21119245.777     -572677.142        2165.786          50.000  
> 2018 02 16 08 24 28.0000000  0  8                     
G03  24916734.263      781961.751       -3063.030          50.000  
G10  21181966.798      351859.630       -1463.635          50.000  
G30  22361088.158     -917177.255        3518.166          50.000  
G01  22133750.335     -335893.032        1231.312          50.000  
G23  22469969.619      532781.375       -2101.310          50.000  
G05  23942805.950     -928494.871        3593.772          50.000  
G09  20221907.687      171754.016        -723.781          50.000  
G11  21118833.753     -574842.350        2164.976          50.000  
> 2018 02 16 08 24 29.0000000  0  8                     
G03  24917317.133      785024.794       -3062.969          50.000  
G10  21182245.394      353323.638       -1464.351          50.000  
G30  22360418.695     -920695.224        3517.905          50.000  
G01  22133516.108     -337123.837        1230.415          50.000  
G23  22470369.509      534882.830       -2101.523          50.000  
G05  23942122.120     -932088.398        3593.346          50.000  
G09  20222045.457      172478.067        -724.231          50.000  
G11  21118421.836     -577006.974        2164.260          50.000  
> 2018 02 16 08 24 30.0000000  0  8                     
G03  24917899.985      788087.704       -3062.796          50.000  
G10  21182524.115      354788.323       -1464.848          50.000  
G30  22359749.286     -924213.032        3517.775          50.000  
G01  22133282.042     -338353.895        1229.752          50.000  
G23  22470769.418      536984.391       -2101.592          50.000  
G05  23941438.362     -935681.610        3593.073          50.000  
G09  20222183.317      173202.485        -724.544          50.000  
G11  21118010.062     -579170.935        2163.931          50.000  
> 2018 02 16 08 24 31.0000000  0  8                     
G03  24918482.837      791150.604       -3062.596          50.000  
G10  21182802.979      356253.750       -1465.571          50.000  
G30  22359079.930     -927730.572        3517.718          50.000  
G01  22133048.136     -339583.081        1229.087          50.000  
G23  22471169.363      539086.189       -2101.622          50.000  
G05  23940754.675     -939274.388        3592.818          50.000  
G09  20222321.266      173927.402        -724.888          50.000  
G11  21117598.396     -581334.148        2163.063          50.000  
> 2018 02 16 08 24 32.0000000  0  8                     
G03  24919065.688      794213.463       -3062.905          50.000  
G10  21183081.986      357719.909       -1466.589          50.000  
G30  22358410.610     -931247.883        3517.124          50.000  
G01  22132814.392     -340811.436        1227.885          50.000  
G23  22471569.379      541188.200       -2102.162          50.000  
G05  23940071.078     -942866.775        3592.128          50.000  
G09  20222459.304      174652.776        -725.691          50.000  
G11  21117186.890     -583496.646        2162.023          50.000  
> 2018 02 16 08 24 33.0000000  0  8                     
G03  24919648.504      797276.231       -3062.837          50.000  
G10  21183361.100      359186.731       -1467.252          50.000  
G30  22357741.326     -934765.030        3516.966          50.000  
G01  22132580.790     -342039.028        1227.129          50.000  
G23  22471969.412      543290.380       -2102.340          50.000  
G05  23939387.534     -946458.829        3591.807          50.000  
G09  20222597.414      175378.560        -726.066          50.000  
G11  21116775.510     -585658.516        2161.477          50.000  
> 2018 02 16 08 24 34.0000000  0  8                     
G03  24920231.303      800338.833       -3062.253          50.000  
G10  21183640.339      360654.126       -1467.249          50.000  
G30  22357072.059     -938282.102        3517.289          50.000  
G01  22132347.331     -343265.946        1226.861          50.000  
G23  22472369.464      545392.659       -2102.088          50.000  
G05  23938704.026     -950050.636        3591.922          50.000  
G09  20222735.595      176104.681        -726.027          50.000  
G11  21116364.218     -587819.841        2161.617          50.000  
> 2018 02 16 08 24 35.0000000  0  8                     
G03  24920814.101      803401.392       -3062.289          50.000  
G10  21183919.704      362122.143       -1468.178          50.000  
G30  22356402.811     -941798.985        3517.019          50.000  
G01  22132113.997     -344492.076        1225.964          50.000  
G23  22472769.552      547495.158       -2102.394          50.000  
G05  23938020.590     -953642.097        3591.527          50.000  
G09  20222873.865      176831.251        -726.567          50.000  
G11  21115953.052     -589980.591        2160.573          50.000  
> 2018 02 16 08 24 36.0000000  0  8                     
G03  24921396.881      806463.923       -3062.444          50.000  
G10  21184199.157      363590.824       -1469.013          50.000  
G30  22355733.616     -945315.681        3516.637          50.000  
G01  22131880.825     -345717.425        1225.051          50.000  
G23  22473169.710      549597.899       -2102.798          50.000  
G05  23937337.242     -957233.202        3591.014          50.000  
G09  20223012.207      177558.289        -727.225          50.000  
G11  21115541.975     -592140.726        2159.758          50.000  
> 2018 02 16 08 24 37.0000000  0  8                     
G03  24921979.644      809526.385       -3062.266          50.000  
G10  21184478.736      365060.101       -1469.404          50.000  
G30  22355064.439     -948832.245        3516.684          50.000  
G01  22131647.795     -346942.039        1224.393          50.000  
G23  22473569.887      551700.843       -2102.898          50.000  
G05  23936653.931     -960824.004        3590.776          50.000  
G09  20223150.639      178285.741        -727.507          50.000  
G11  21115131.023     -594300.315        2159.415          50.000  
> 2018 02 16 08 24 38.0000000  0  8                     
G03  24922562.317      812588.342       -3061.947          50.000  
G10  21184758.368      366529.526       -1469.455          50.000  
G30  22354395.208     -952349.115        3516.756          50.000  
G01  22131414.818     -348166.382        1223.972          50.000  
G23  22473970.010      553803.554       -2102.819          50.000  
G05  23935970.584     -964414.971        3590.843          50.000  
G09  20223289.070      179013.176        -727.628          50.000  
G11  21114720.107     -596459.809        2159.587          50.000  
> 2018 02 16 08 24 39.0000000  0  8                     
G03  24923144.990      815650.304       -3062.095          50.000  
G10  21185038.090      367999.532       -1470.541          50.000  
G30  22353726.013     -955865.810        3516.425          50.000  
G01  22131181.967     -349389.958        1223.090          50.000  
G23  22474370.187      555906.550       -2103.302          50.000  
G05  23935287.326     -968005.592        3590.298          50.000  
G09  20223427.591      179741.093        -728.297          50.000  
G11  21114309.245     -598618.823        2158.479          50.000  
> 2018 02 16 08 24 40.0000000  0  8                     
G03  24923727.699      818712.421       -3061.893          50.000  
G10  21185317.955      369470.293       -1470.862          50.000  
G30  22353056.872     -959382.186        3516.488          50.000  
G01  22130949.294     -350612.635        1222.569          50.000  
G23  22474770.453      558009.974       -2103.366          50.000  
G05  23934604.140     -971595.750        3590.221          50.000  
G09  20223566.218      180469.636        -728.570          50.000  
G11  21113898.525     -600777.145        2158.176          50.000  
> 2018 02 16 08 24 41.0000000  0  8                     
G03  24924310.425      821774.603       -3062.170          50.000  
G10  21185597.962      370941.704       -1471.658          50.000  
G30  22352387.766     -962898.346        3516.086          50.000  
G01  22130716.783     -351834.509        1221.513          50.000  
G23  22475170.791      560113.737       -2103.856          50.000  
G05  23933921.025     -975185.543        3589.654          50.000  
G09  20223704.954      181198.711        -729.281          50.000  
G11  21113487.913     -602934.911        2157.533          50.000  
> 2018 02 16 08 24 42.0000000  0  8                     
G03  24924893.134      824836.762       -3061.966          50.000  
G10  21185878.059      372413.664       -1471.794          50.000  
G30  22351718.661     -966414.392        3516.196          50.000  
G01  22130484.378     -353055.710        1221.031          50.000  
G23  22475571.164      562217.760       -2103.967          50.000  
G05  23933237.946     -978775.089        3589.590          50.000  
G09  20223843.778      181928.224        -729.569          50.000  
G11  21113077.408     -605092.207        2157.682          50.000  
> 2018 02 16 08 24 43.0000000  0  8                     
G03  24925475.897      827899.151       -3062.682          50.000  
G10  21186158.299      373886.314       -1473.276          50.000  
G30  22351049.645     -969930.073        3515.287          50.000  
G01  22130252.170     -354275.991        1219.607          50.000  
G23  22475971.645      564322.286       -2104.993          50.000  
G05  23932554.956     -982364.155        3588.661          50.000  
G09  20223982.745      182658.414        -730.711          50.000  
G11  21112666.992     -607248.948        2156.096          50.000  
> 2018 02 16 08 24 44.0000000  0  8                     
G03  24926058.695      830961.789       -3062.509          50.000  
G10  21186438.664      375359.731       -1473.601          50.000  
G30  22350380.682     -973445.403        3515.425          50.000  
G01  22130020.123     -355495.363        1219.226          50.000  
G23  22476372.215      566427.333       -2105.049          50.000  
G05  23931872.073     -985952.739        3588.641          50.000  
G09  20224121.838      183389.297        -730.955          50.000  
G11  21112256.702     -609405.029        2155.907          50.000  
> 2018 02 16 08 24 45.0000000  0  8                     
G03  24926641.475      834024.259       -3062.513          50.000  
G10  21186719.118      376833.453       -1474.021          50.000  
G30  22349711.737     -976960.790        3515.331          50.000  
G01  22129788.183     -356714.250        1218.558          50.000  
G23  22476772.820      568532.486       -2105.296          50.000  
G05  23931189.191     -989541.280        3588.436          50.000  
G09  20224260.966      184120.448        -731.395          50.000  
G11  21111846.447     -611560.926        2155.673          50.000  
> 2018 02 16 08 24 46.0000000  0  8                     
G03  24927224.273      837086.966       -3062.796          50.000  
G10  21186999.698      378307.900       -1474.565          50.000  
G30  22349042.846     -980475.854        3514.952          50.000  
G01  22129556.404     -357932.279        1217.637          50.000  
G23  22477173.533      570638.150       -2105.855          50.000  
G05  23930506.397     -993129.396        3587.976          50.000  
G09  20224400.219      184852.263        -732.088          50.000  
G11  21111436.317     -613716.193        2155.447          50.000  
> 2018 02 16 08 24 47.0000000  0  8                     
G03  24927807.018      840149.288       -3062.154          50.000  
G10  21187280.259      379782.328       -1474.528          50.000  
G30  22348373.884     -983991.226        3515.524          50.000  
G01  22129324.661     -359150.088        1217.664          50.000  
G23  22477574.210      572743.699       -2105.515          50.000  
G05  23929823.551     -996717.735        3588.448          50.000  
G09  20224539.491      185584.110        -731.890          50.000  
G11  21111026.151     -615871.657        2155.383          50.000  
> 2018 02 16 08 24 48.0000000  0  8                     
G03  24928389.745      843211.454       -3062.097          50.000  
G10  21187560.892      381257.010       -1474.826          50.000  
G30  22347704.921     -987506.685        3515.522          50.000  
G01  22129093.007     -360367.480        1217.216          50.000  
G23  22477974.887      574849.353       -2105.689          50.000  
G05  23929140.704    -1000306.090        3588.382          50.000  
G09  20224678.815      186316.204        -732.202          50.000  
G11  21110616.004     -618026.999        2155.182          50.000  
