     3.04           OBSERVATION DATA    M: Mixed            RINEX VERSION / TYPE
RTKCONV demo5 b34i                      20250404 111420 UTC PGM / RUN BY / DATE 
format: u-blox UBX                                          COMMENT             
log: D:\20242\demo5_b34i\data\HoDenLu\rieng\d2\hdl1_2m.ubx  COMMENT             
                                                            MARKER NAME         
                                                            MARKER NUMBER       
                                                            MARKER TYPE         
                                                            OBSERVER / AGENCY   
                                                            REC # / TYPE / VERS 
                                                            ANT # / TYPE        
 -1627733.0277  5730974.6861  2269812.7760                  APPROX POSITION XYZ 
        0.0000        0.0000        0.0000                  ANTENNA: DELTA H/E/N
G    8 C1C L1C D1C S1C C2X L2X D2X S2X                      SYS / # / OBS TYPES 
R    8 C1C L1C D1C S1C C2C L2C D2C S2C                      SYS / # / OBS TYPES 
E    8 C1X L1X D1X S1X C7X L7X D7X S7X                      SYS / # / OBS TYPES 
  2025    04    04    10    54   23.0000000     GPS         TIME OF FIRST OBS   
  2025    04    04    11    14   26.0010000     GPS         TIME OF LAST OBS    
G L1C                                                       SYS / PHASE SHIFT   
G L2X  0.00000                                              SYS / PHASE SHIFT   
R L1C                                                       SYS / PHASE SHIFT   
R L2C                                                       SYS / PHASE SHIFT   
E L1X  0.00000                                              SYS / PHASE SHIFT   
E L7X  0.00000                                              SYS / PHASE SHIFT   
  8 R06 -4 R07  5 R08  6 R20  2 R21  4 R22 -3 R26 -6 R27 -5 GLONASS SLOT / FRQ #
 C1C    0.000 C1P    0.000 C2C    0.000 C2P    0.000        GLONASS COD/PHS/BIS 
                                                            END OF HEADER       
> 2025 04 04 10 54 23.0000000  0 21                     
G11  22273216.143   117046536.9201      -1434.703          43.000    22273237.353    91205181.6431      -1117.742          35.000  
G05  21029506.027   110510807.1961      -1466.196          44.000    21029524.419    86112410.5181      -1142.662          34.000  
G06  24130347.567   126805818.2851      -2283.573          36.000    24130381.633    98809855.0041      -1779.605          34.000  
G13  20535968.450   107917249.7031        886.560          46.000                                                                  
R21  20238426.643   108299930.8641        728.162          47.000    20238447.039    84233364.8231        567.083          35.000  
R06  19701925.279   105133244.6301      -2748.658          35.000                                                                  
R07  19748916.587   105717510.6861        963.400          49.000    19748937.182    82224810.8161        748.892          43.000  
R22  23091437.309   123263687.3341       2374.621          42.000    23091461.495    95871804.9341       1847.249          36.000  
G12  23762535.729   124872980.0421      -3174.316          43.000    23762559.149    97303722.3771      -2474.304          32.000  
G15  21960268.740   115402003.5391       2383.969          43.000    21960290.593    89923735.2781       1857.585          38.000  
G29  22751238.991   119558558.6951       2149.840          41.000    22751260.737    93162594.1831       1674.976          37.000  
G20  22086158.826   116063562.9831      -2460.305          34.000                                                                  
R20  21595236.191   115479433.6481      -2092.685          32.000    21595266.786    89817448.8321      -1627.701          38.000  
E03  23876093.698   125469705.8801       -453.824          44.000    23876122.340    96139260.9841       -347.720          39.000  
E08  25279185.605   132843012.1171       1768.355          43.000    25279216.758   101788937.7201       1354.639          41.000  
E05  25118109.505   131996556.8341      -2779.800          32.000    25118147.863                       -2130.367          27.000  
E27  26587871.282   139720193.3401      -1865.369          42.000    26587912.746   107058506.4211      -1429.405          38.000  
E34  25378574.475   133365328.5441      -1107.393          41.000    25378610.153   102189154.5431       -847.554          36.000  
E30  26938217.119   141561279.1191      -3034.693          41.000    26938251.976   108469194.8101      -2325.827          36.000  
E15  24870420.733   130694951.1751         99.087          42.000    24870453.419   100143012.9011         75.811          38.000  
R08                                                                  23465600.410    97733336.0011       2470.807          32.000  
> 2025 04 04 10 54 24.0000000  0 21                     
G11  22273489.174   117047971.450       -1434.070          43.000    22273510.415    91206299.409       -1117.337          35.000  
G05  21029784.901   110512273.087       -1465.331          45.000    21029803.369    86113552.820       -1142.235          34.000  
G06  24130781.966   126808101.357       -2282.450          37.000    24130815.950    98811633.994       -1778.484          33.000  
G13  20535799.679   107916363.145         886.914          46.000                                                                  
R21  20238290.643   108299202.844         728.655          47.000    20238310.780    84232798.593         566.862          36.000  
R06  19702440.416   105135993.230       -2747.998          36.000                                                                  
R07  19748736.660   105716547.600         963.487          49.000    19748757.254    82224061.739         749.491          44.000  
R22  23090992.376   123261312.220        2375.922          42.000    23091016.618    95869957.641        1847.782          36.000  
G12  23763139.853   124876154.431       -3173.657          43.000    23763163.217    97306195.862       -2473.053          33.000  
G15  21959815.087   115399619.225        2384.720          43.000    21959836.832    89921877.397        1857.929          38.000  
G29  22750829.912   119556408.771        2150.571          41.000    22750851.742    93160918.933        1675.608          37.000  
G20  22086626.945   116066022.876       -2459.332          35.000                                                                  
R20  21595627.365   115481526.689       -2092.349          32.000    21595658.270    89819076.713       -1627.169          38.000  
E03  23876179.657   125470159.253        -453.298          43.000    23876208.761    96139608.400        -347.164          39.000  
E08  25278848.822   132841243.462        1769.176          44.000    25278880.237   101787582.497        1355.452          42.000  
E05  25118638.351   131999335.964       -2778.455          32.000    25118677.464                       -2129.279          26.000  
E27  26588226.067   139722058.005       -1864.329          43.000    26588267.475   107059935.176       -1428.288          37.000  
E34  25378784.766   133366434.678       -1105.896          40.000    25378820.770   102190002.130        -847.208          36.000  
E30  26938794.322   141564313.136       -3033.479          41.000    26938829.385   108471519.549       -2324.177          37.000  
E15  24870401.929   130694851.280         100.549          41.000    24870434.253   100142936.358          77.006          38.000  
R08                                                                  23465007.218    97730865.274        2471.406          31.000  
> 2025 04 04 10 54 25.0000000  0 21                     
G11  22273761.998   117049404.929       -1433.717          42.000    22273783.120    91207416.492       -1117.082          37.000  
G05  21030063.648   110513738.003       -1464.910          44.000    21030082.095    86114694.276       -1141.847          34.000  
G06  24131216.183   126810383.356       -2281.807          38.000    24131250.239    98813412.216       -1778.699          34.000  
G13  20535630.858   107915476.014         886.943          45.000                                                                  
R21  20238154.410   108298473.950         728.643          47.000    20238174.477    84232231.683         566.681          36.000  
R06  19702955.512   105138741.320       -2748.752          36.000                                                                  
R07  19748556.720   105715584.036         963.293          50.000    19748577.295    82223312.317         749.176          44.000  
R22  23090547.326   123258935.774        2376.620          41.000    23090571.388    95868109.268        1848.458          36.000  
G12  23763743.729   124879327.656       -3173.157          43.000    23763767.165    97308668.538       -2473.004          34.000  
G15  21959361.280   115397234.040        2385.088          43.000    21959383.017    89920018.795        1858.446          37.000  
G29  22750420.789   119554258.016        2150.713          41.000    22750442.390    93159242.984        1676.139          37.000  
G20  22087094.800   116068481.481       -2458.354          35.000                                                                  
R20  21596018.282   115483618.926       -2092.165          32.000    21596049.563    89820704.052       -1627.341          38.000  
E03  23876265.480   125470611.856        -452.771          43.000    23876294.854    96139955.224        -347.125          40.000  
E08  25278512.267   132839473.832        1769.781          44.000    25278543.341   101786226.578        1355.837          43.000  
E05  25119167.645   132002114.262       -2778.507          32.000    25119205.118   101144634.1411      -2129.481          27.000  
E27  26588580.742   139723921.759       -1863.661          43.000    26588622.098   107061363.261       -1428.189          37.000  
E34  25378995.069   133367539.637       -1104.847          41.000    25379030.873   102190848.860        -846.491          36.000  
E30  26939371.435   141567345.935       -3032.668          41.000    26939406.440   108473843.380       -2323.919          37.000  
E15  24870382.934   130694750.145         101.046          43.000    24870414.913   100142858.824          77.988          37.000  
R08                                                                  23464413.701    97728393.929        2471.453          32.000  
> 2025 04 04 10 54 26.0000000  0 21                     
G11  22274034.974   117050839.074       -1436.161          42.000    22274056.070    91208534.015       -1119.358          36.000  
G05  21030342.578   110515203.573       -1467.567          44.000    21030360.954    86115836.243       -1142.546          34.000  
G06  24131650.573   126812666.029       -2284.597          39.000    24131684.597    98815190.978       -1781.758          34.000  
G13  20535462.175   107914589.873         884.498          46.000                                                                  
R21  20238018.340   108297745.793         726.719          47.000    20238038.314    84231665.338         564.983          36.000  
R06  19703470.739   105141490.476       -2751.085          36.000                                                                  
R07  19748377.090   105714621.676         960.471          49.000    19748397.529    82222563.813         746.804          44.000  
R22  23090102.080   123256559.610        2374.571          41.000    23090126.434    95866261.118        1847.294          35.000  
G12  23764347.702   124882501.316       -3174.890          43.000    23764371.182    97311141.465       -2474.127          34.000  
G15  21958907.696   115394849.608        2382.610          44.000    21958929.312    89918160.778        1856.619          37.000  
G29  22750011.703   119552107.955        2148.475          40.000    22750033.203    93157567.633        1673.947          36.000  
G20  22087562.608   116070940.592       -2459.982          34.000                                                                  
R20  21596409.706   115485712.226       -2095.136          33.000    21596441.110    89822332.120       -1629.768          40.000  
E03  23876351.665   125471065.332        -454.895          44.000    23876381.358    96140302.632        -348.664          39.000  
E08  25278175.776   132837704.821        1767.538          44.000    25278206.890   101784871.084        1354.424          44.000  
E05  25119696.723   132004893.271       -2780.155          31.000    25119733.937   101146759.3791      -2128.921          27.000  
E27  26588935.440   139725786.227       -1866.335          41.000    26588976.984   107062791.879       -1430.177          38.000  
E34  25379205.621   133368645.103       -1106.966          40.000    25379241.392   102191695.880        -848.025          34.000  
E30  26939948.624   141570379.090       -3034.251          41.000    26939983.964   108476167.484       -2324.871          37.000  
E15  24870363.854   130694649.340          99.501          42.000    24870395.816   100142781.601          76.635          37.000  
R08                                                                  23463820.282    97725922.975        2470.233          31.000  
> 2025 04 04 10 54 27.0000000  0 22                     
G11  22274307.510   117052270.671       -1429.768          43.000    22274328.550    91209649.531       -1114.047          37.000  
G05  21030620.976   110516666.712       -1461.429          44.000    21030639.298    86116976.344       -1138.439          34.000  
G06  24132084.441   126814946.145       -2278.995          39.000    24132118.601    98816967.668       -1775.128          33.000  
G13  20535293.083   107913701.708         889.668          45.000                                                                  
R27  20222834.397   107874975.9391      -3424.267          49.000                                                                  
R21  20237881.703   108297015.284         732.240          46.000    20237901.739    84231097.175         569.124          36.000  
R06  19703985.537   105144237.597       -2745.385          35.000                                                                  
R07  19748197.015   105713657.378         965.774          49.000    19748217.387    82221813.815         751.047          44.000  
R22  23089656.432   123254180.581        2381.009          41.000    23089680.668    95864410.771        1852.239          36.000  
G12  23764951.126   124885672.394       -3169.323          43.000    23764974.685    97313612.475       -2469.501          35.000  
G15  21958453.433   115392462.851        2388.356          44.000    21958475.141    89916300.966        1861.107          37.000  
G29  22749602.170   119549955.598        2153.871          42.000    22749623.560    93155890.456        1678.407          36.000  
G20  22088028.758   116073373.9643      -2454.378          30.000                                                                  
R20  21596800.654   115487798.2153      -2090.725          32.000    21596832.066    89823958.481       -1625.122          38.000  
E03  23876437.567   125471516.647        -450.096          44.000    23876467.301    96140648.459        -344.873          39.000  
E08  25277838.579   132835933.389        1772.858          45.000    25277869.997   101783513.754        1358.334          43.000  
E05  25120225.569   132007675.9241      -2774.814          31.000    25120261.081                       -2125.598          27.000  
E27  26589289.815   139727648.306       -1860.434          41.000    26589331.439   107064218.686       -1425.728          38.000  
E34  25379415.126   133369748.010       -1101.169          41.000    25379451.312   102192540.968        -843.919          33.000  
E30  26940525.009   141573409.630       -3029.235          42.000    26940560.928   108478489.602       -2320.988          37.000  
E15  24870344.200   130694545.879         104.963          41.000    24870376.199   100142702.378          79.974          37.000  
R08                                                                  23463226.699    97723450.199        2474.406          31.000  
> 2025 04 04 10 54 28.0000000  0 21                     
G11  22274579.618   117053701.498       -1438.807          43.000    22274600.863    91210764.412       -1121.126          41.000  
G05  21030899.324   110518129.066       -1470.751          44.000    21030917.552    86118115.917       -1146.427          33.000  
G06  24132518.224   126817225.513       -2287.679          38.000    24132552.351    98818743.722       -1782.974          34.000  
G13  20535124.028   107912813.052         881.046          45.000                                                                  
R21  20237745.156   108296284.081         723.390          46.000    20237765.116    84230528.503         562.067          36.000  
R06  19704500.278   105146984.370       -2755.032          35.000                                                                  
R07  19748016.796   105712692.792         956.419          49.000    19748037.299    82221063.589         743.565          44.000  
R22  23089210.495   123251800.380        2372.760          42.000    23089234.777    95862559.518        1845.179          35.000  
G12  23765554.448   124888842.479       -3177.509          42.000    23765577.986    97316082.666       -2475.500          34.000  
G15  21957999.230   115390075.396        2379.434          43.000    21958020.836    89914440.621        1854.229          38.000  
G29  22749192.543   119547802.506        2145.120          42.000    22749213.818    93154212.729        1671.240          35.000  
G20  22088495.060   116075829.3932      -2462.224          30.000                                                                  
R20  21597191.442                       -2097.671          25.000    21597223.106                       -1627.862          29.000  
E03  23876523.414   125471967.399        -460.053          44.000    23876552.942    96140993.818        -351.719          39.000  
E08  25277501.275   132834161.127        1763.005          42.000    25277532.659   101782155.839        1350.990          41.000  
E05  25120752.446                       -2781.013          30.000    25120789.037                       -2130.747          26.000  
E27  26589644.122   139729509.671       -1869.458          42.000    26589685.574   107065644.906       -1432.896          38.000  
E34  25379625.311   133370849.993       -1110.612          41.000    25379660.865   102193385.363        -851.234          39.000  
E30  26941101.523   141576439.090       -3038.382          41.000    26941137.348   108480810.876       -2327.599          37.000  
E15  24870324.663   130694441.292          96.675          43.000    24870356.314   100142622.237          73.233          37.000  
R08                                                                  23462632.890    97720976.800        2467.136          29.000  
> 2025 04 04 10 54 29.0000000  0 21                     
G11  22274851.469   117055130.646       -1426.569          43.000    22274872.660    91211878.066       -1111.514          38.000  
G05  21031177.255   110519589.863       -1458.633          44.000    21031195.411    86119254.202       -1137.367          33.000  
G06  24132951.679   126819503.205       -2275.641          38.000    24132985.766    98820518.459       -1773.046          37.000  
G13  20534954.730   107911923.263         892.539          46.000                                                                  
R21  20237608.210   108295551.451         735.370          46.000    20237628.033    84229958.634         571.540          37.000  
R06  19705014.727   105149730.005       -2743.872          36.000                                                                  
R07  19747836.308   105711727.184         967.918          48.000    19747856.767    82220312.545         752.891          44.000  
R22  23088764.263   123249418.256        2385.195          42.000    23088788.560    95860706.724        1855.308          35.000  
G12  23766157.369   124892010.830       -3165.295          43.000    23766180.916    97318551.472       -2466.211          34.000  
G15  21957544.617   115387686.478        2391.177          44.000    21957566.283    89912579.167        1862.922          37.000  
G29  22748782.526   119545647.988        2157.123          42.000    22748803.750    93152533.918        1680.580          36.000  
G20  22088956.005   116078283.1192      -2450.960          32.000                                                                  
R20  21597581.798                       -2075.424          22.000    21597615.989    89827233.8013      -1633.015          29.000  
E03  23876609.109   125472416.803        -448.552          43.000    23876638.650    96141338.213        -344.010          39.000  
E08  25277163.709   132832387.315        1774.454          43.000    25277195.226   101780796.677        1359.670          42.000  
E05  25121280.631                       -2783.891          30.000    25121318.234                       -2133.655          27.000  
E27  26589998.038   139731369.626       -1859.794          42.000    26590039.591   107067070.109       -1425.593          37.000  
E34  25379834.777   133371950.259       -1100.773          41.000    25379870.243   102194228.345        -842.363          36.000  
E30  26941677.696   141579466.771       -3026.925          40.000    26941713.774   108483130.810       -2319.749          37.000  
E15  24870304.244   130694334.965         106.899          41.000    24870336.131   100142540.753          82.053          37.000  
R08                                                                  23462041.341                        2467.877          29.000  
> 2025 04 04 10 54 30.0000000  0 21                     
G11  22275122.818   117056556.754       -1426.273          43.000    22275144.027    91212989.330       -1111.459          38.000  
G05  21031454.653   110521047.606       -1458.082          44.000    21031472.677    86120390.051       -1135.286          33.000  
G06  24133384.514   126821777.822       -2274.891          38.000    24133418.572    98822290.949       -1772.968          37.000  
G13  20534784.964   107911030.784         891.907          46.000                                                                  
R21  20237470.720   108294815.863         735.103          47.000    20237490.560    84229386.513         571.862          37.000  
R06  19705528.526   105152472.994       -2743.706          35.000                                                                  
R07  19747655.488   105710758.999         967.631          49.000    19747675.907    82219559.529         752.690          44.000  
R22  23088317.422   123247032.640        2385.558          42.000    23088341.639    95858851.290        1855.141          34.000  
G12  23766759.722   124895175.966       -3165.210          43.000    23766783.242    97321017.843       -2466.479          34.000  
G15  21957089.466   115385294.616        2391.461          44.000    21957111.197    89910715.372        1863.737          37.000  
G29  22748371.954   119543490.519        2157.022          41.000    22748393.106    93150852.769        1681.148          36.000  
G20  22089423.249   116080733.4922      -2450.220          33.000                                                                  
R20  21597970.057                       -2079.382          19.000    21598010.342    89828874.4563      -1623.586          28.000  
E03  23876693.919   125472863.347        -446.970          43.000    23876723.748    96141680.345        -342.200          39.000  
E08  25276825.570   132830610.328        1776.789          43.000    25276857.163   101779435.095        1361.651          42.000  
E05  25121813.654   132016020.9341      -2771.960          30.000    25121844.821                       -2124.266          27.000  
E27  26590351.260   139733226.417       -1856.913          42.000    26590392.832   107068492.793       -1422.654          38.000  
E34  25380043.684   133373047.123       -1097.197          42.000    25380079.044   102195068.836        -840.305          36.000  
E30  26942253.220   141582491.062       -3024.323          41.000    26942289.210   108485448.120       -2317.339          37.000  
E15  24870282.868   130694225.149         109.959          41.000    24870315.252   100142456.628          84.120          38.000  
R08                                                                  23461450.579    97716112.7833       2475.848          29.000  
> 2025 04 04 10 54 31.0000000  0 21                     
G11  22275394.213   117057982.616       -1425.115          44.000    22275415.437    91214100.367       -1110.330          40.000  
G05  21031731.971   110522505.151       -1456.778          44.000    21031750.054    86121525.815       -1135.028          33.000  
G06  24133817.363   126824052.181       -2273.508          37.000    24133851.371    98824063.204       -1771.691          37.000  
G13  20534615.176   107910138.439         892.580          46.000                                                                  
R21  20237333.195   108294080.187         736.327          46.000    20237353.053    84228814.329         572.562          39.000  
R06  19706042.511   105155216.218       -2742.832          35.000                                                                  
R07  19747474.705   105709791.148         968.192          49.000    19747495.055    82218806.767         753.038          44.000  
R22  23087870.438   123244646.441        2387.073          42.000    23087894.735    95856995.370        1857.147          34.000  
G12  23767361.846   124898340.664       -3163.770          43.000    23767385.542    97323483.857       -2465.717          34.000  
G15  21956634.290   115382902.626        2392.786          43.000    21956656.007    89908851.509        1864.799          37.000  
G29  22747961.430   119541332.940        2158.354          41.000    22747982.580    93149171.552        1681.329          35.000  
G20  22089889.632   116083183.371       -2448.521          32.000                                                                  
R20  21598362.089                       -2093.868          15.000    21598402.240                       -1619.489          26.000  
E03  23876778.597   125473309.917        -445.908          44.000    23876808.587    96142022.540        -341.684          39.000  
E08  25276487.211   132828833.170        1778.091          42.000    25276519.080   101778073.400        1362.318          42.000  
E05  25122341.470   132018792.328       -2770.602          30.000    25122372.940   101157385.1461      -2122.676          27.000  
E27  26590704.205   139735083.160       -1855.793          42.000    26590746.352   107069915.461       -1421.861          38.000  
E34  25380252.273   133374143.723       -1095.535          42.000    25380287.768   102195909.138        -839.595          37.000  
E30  26942828.847   141585514.937       -3023.149          41.000    26942864.576   108487765.080       -2315.958          37.000  
E15  24870262.121   130694114.923         111.316          43.000    24870294.051   100142372.154          85.114          38.000  
R08                                                                  23460858.195    97713645.6702       2477.219          29.000  
> 2025 04 04 10 54 32.0000000  0 21                     
G11  22275665.403   117059407.766       -1424.931          43.000    22275686.682    91215210.875       -1110.023          41.000  
G05  21032009.241   110523962.041       -1456.708          45.000    21032027.353    86122661.056       -1135.116          33.000  
G06  24134249.945   126826325.841       -2273.691          37.000    24134284.124    98825834.864       -1771.528          34.000  
G13  20534445.348   107909245.784         892.828          45.000                                                                  
R21  20237195.608   108293343.942         736.188          46.000    20237215.385    84228241.703         573.216          39.000  
R06  19706556.527   105157959.249       -2743.029          36.000                                                                  
R07  19747293.849   105708823.125         968.129          49.000    19747314.230    82218053.849         753.144          45.000  
R22  23087423.304   123242259.234        2387.896          42.000    23087447.558    95855138.665        1856.904          34.000  
G12  23767963.919   124901504.546       -3163.525          43.000    23767987.663    97325949.211       -2465.320          34.000  
G15  21956179.026   115380510.089        2392.782          44.000    21956200.770    89906987.214        1864.753          38.000  
G29  22747550.850   119539174.782        2158.412          42.000    22747571.842    93147489.852        1681.809          36.000  
G20  22090358.724   116085632.465       -2449.292          33.000                                                                  
R20  21598752.510                       -2077.214          17.000    21598791.554    89832122.9833      -1622.498          27.000  
E03  23876863.508   125473756.051        -445.831          44.000    23876893.511    96142364.389        -341.514          39.000  
E08  25276149.058   132827055.336        1778.319          42.000    25276180.648   101776711.148        1362.536          42.000  
E05  25122867.074   132021563.096       -2770.262          30.000    25122901.019   101159508.244       -2122.928          27.000  
E27  26591057.547   139736939.253       -1855.655          42.000    26591099.499   107071337.663       -1421.547          38.000  
E34  25380460.845   133375239.490       -1095.213          41.000    25380496.152   102196748.785        -839.130          38.000  
E30  26943404.273   141588537.891       -3022.504          41.000    26943439.705   108490081.392       -2315.854          37.000  
E15  24870241.227   130694003.752         111.931          42.000    24870272.912   100142286.968          85.863          38.000  
R08                                                                  23460263.975    97711168.0302       2477.692          28.000  
> 2025 04 04 10 54 33.0000000  0 21                     
G11  22275936.458   117060832.405       -1424.275          43.000    22275957.821    91216321.034       -1109.701          39.000  
G05  21032286.325   110525418.557       -1456.358          45.000    21032304.478    86123796.011       -1134.458          33.000  
G06  24134682.571   126828599.095       -2272.955          37.000    24134716.750    98827606.225       -1771.087          34.000  
G13  20534275.526   107908353.114         892.742          47.000                                                                  
R21  20237057.985   108292607.393         736.769          46.000    20237077.808    84227668.867         572.667          37.000  
R06  19707070.546   105160702.293       -2743.135          35.000                                                                  
R07  19747113.000   105707855.242         967.798          49.000    19747133.369    82217301.079         752.670          45.000  
R22  23086975.977   123239871.283        2388.155          42.000    23087000.266    95853281.347        1858.132          33.000  
G12  23768565.897   124904667.847       -3162.890          43.000    23768589.510    97328414.109       -2464.746          33.000  
G15  21955723.775   115378117.284        2393.003          43.000    21955745.506    89905122.696        1864.533          37.000  
G29  22747140.123   119537016.330        2158.804          40.000    22747161.139    93145807.966        1682.155          36.000  
G20  22090824.399   116088080.973       -2448.462          32.000                                                                  
R20  21599144.250                       -2096.261          19.000    21599180.484    89833745.121       -1622.430          33.000  
E03  23876948.413   125474202.038        -445.897          44.000    23876978.345    96142706.151        -341.783          37.000  
E08  25275810.725   132825277.070        1778.564          42.000    25275842.146   101775348.599        1362.729          42.000  
E05  25123383.866   132024333.561       -2769.593          29.000    25123427.454   101161631.133       -2122.561          27.000  
E27  26591410.698   139738795.056       -1855.355          42.000    26591452.443   107072759.676       -1422.090          38.000  
E34  25380669.097   133376334.682       -1094.942          41.000    25380704.512   102197587.935        -838.698          37.000  
E30  26943979.249   141591560.206       -3021.823          41.000    26944014.843   108492397.182       -2315.325          37.000  
E15  24870219.911   130693891.931         112.059          42.000    24870251.514   100142201.291          86.071          38.000  
R08                                                                  23459670.610    97708689.7031       2477.175          27.000  
> 2025 04 04 10 54 34.0000000  0 21                     
G11  22276207.623   117062257.302       -1425.222          43.000    22276229.034    91217431.369       -1110.773          38.000  
G05  21032563.547   110526875.298       -1457.141          44.000    21032581.619    86124931.162       -1135.714          33.000  
G06  24135115.161   126830872.517       -2273.577          37.000    24135149.369    98829377.711       -1771.593          34.000  
G13  20534105.886   107907461.050         891.520          47.000                                                                  
R21  20236920.454   108291871.201         735.650          46.000    20236940.324    84227096.240         572.510          35.000  
R06  19707584.711   105163446.017       -2744.318          35.000                                                                  
R07  19746932.320   105706888.136         966.458          49.000    19746952.695    82216548.886         751.700          45.000  
R22  23086528.550   123237483.144        2387.935          42.000    23086552.978    95851423.930        1857.701          34.000  
G12  23769167.813   124907831.215       -3163.733          43.000    23769191.632    97330879.081       -2465.363          34.000  
G15  21955268.434   115375724.781        2392.119          43.000    21955290.252    89903258.392        1864.239          38.000  
G29  22746729.378   119534858.234        2157.575          40.000    22746750.459    93144126.301        1681.449          35.000  
G20  22091289.158   116090529.362       -2448.651          32.000                                                                  
R20  21599534.245   115502416.1153      -2087.121          30.000    21599570.964    89835367.753       -1622.982          37.000  
E03  23877033.271   125474648.477        -446.801          43.000    23877063.143    96143048.219        -342.106          37.000  
E08  25275472.256   132823499.045        1777.631          42.000    25275503.700   101773986.213        1362.205          42.000  
E05  25123912.653   132027104.466       -2771.363          29.000    25123953.923   101163754.266       -2123.731          27.000  
E27  26591763.958   139740651.143       -1856.373          42.000    26591805.591   107074181.849       -1422.565          37.000  
E34  25380877.799   133377429.986       -1095.510          42.000    25380913.060   102198427.131        -839.203          34.000  
E30  26944554.488   141594582.503       -3022.321          41.000    26944590.012   108494712.980       -2315.649          37.000  
E15  24870198.505   130693780.028         111.592          42.000    24870230.132   100142115.563          85.783          38.000  
R08                                                                  23459074.582    97706211.895        2477.128          27.000  
> 2025 04 04 10 54 35.0000000  0 21                     
G11  22276478.942   117063683.296       -1426.470          42.000    22276500.306    91218542.507       -1111.595          37.000  
G05  21032840.914   110528333.174       -1458.375          44.000    21032858.963    86126067.167       -1136.614          33.000  
G06  24135547.993   126833147.044       -2275.147          38.000    24135582.255    98831150.084       -1772.394          34.000  
G13  20533936.306   107906570.507         889.627          47.000                                                                  
R21  20236783.025   108291136.308         733.969          46.000    20236802.907    84226524.655         571.488          35.000  
R06  19708099.049   105166191.353       -2746.346          35.000                                                                  
R07  19746752.002   105705922.713         964.500          49.000    19746772.373    82215798.029         749.964          44.000  
R22  23086081.281   123235095.829        2386.365          42.000    23086105.840    95849567.132        1856.422          33.000  
G12  23769769.953   124910995.524       -3164.923          43.000    23769793.724    97333344.776       -2466.522          33.000  
G15  21954813.428   115373333.532        2390.427          44.000    21954835.359    89901395.097        1862.980          38.000  
G29  22746319.079   119532701.353        2156.206          41.000    22746340.092    93142445.635        1679.860          36.000  
G20  22091755.254   116092978.683       -2449.738          34.000                                                                  
R20  21599924.089   115504500.6462      -2087.814          30.000    21599958.729    89836991.449       -1624.268          37.000  
E03  23877118.464   125475096.315        -448.604          43.000    23877148.211    96143391.351        -343.499          38.000  
E08  25275134.372   132821722.132        1776.566          42.000    25275165.358   101772624.688        1361.171          42.000  
E05  25124445.149   132029876.480       -2772.937          30.000    25124481.490   101165878.300       -2124.250          27.000  
E27  26592117.170   139742508.423       -1857.675          42.000    26592158.857   107075604.946       -1423.180          37.000  
E34  25381086.457   133378526.224       -1096.559          42.000    25381121.706   102199267.149        -840.284          35.000  
E30  26945129.831   141597605.671       -3023.422          41.000    26945165.315   108497029.435       -2316.679          37.000  
E15  24870177.233   130693668.987         110.908          42.000    24870208.872   100142030.504          84.563          38.000  
R08                                                                  23458476.153    97703735.063        2476.592          28.000  
> 2025 04 04 10 54 36.0000000  0 21                     
G11  22276750.228   117065109.016       -1424.813          42.000    22276771.527    91219653.461       -1110.076          38.000  
G05  21033118.274   110529790.849       -1456.810          44.000    21033136.357    86127203.050       -1135.643          33.000  
G06  24135980.825   126835421.279       -2273.687          39.000    24136015.097    98832922.230       -1771.110          33.000  
G13  20533766.844   107905680.073         891.062          46.000                                                                  
R21  20236645.791   108290401.316         735.813          48.000    20236665.397    84225952.949         573.234          35.000  
R06  19708613.520   105168936.887       -2745.439          35.000                                                                  
R07  19746571.661   105704957.607         965.735          49.000    19746592.096    82215047.376         751.159          44.000  
R22  23085633.961   123232707.899        2389.235          42.000    23085658.355    95847709.866        1858.822          33.000  
G12  23770372.025   124914159.403       -3162.884          42.000    23770395.795    97335810.185       -2464.813          34.000  
G15  21954358.495   115370942.169        2392.227          44.000    21954380.347    89899531.684        1863.841          38.000  
G29  22745908.650   119530544.345        2157.831          41.000    22745929.627    93140764.844        1681.518          36.000  
G20  22092221.454   116095427.505       -2447.363          34.000                                                                  
R20  21600314.380   115506588.1913      -2085.426          30.000    21600349.252    89838615.134       -1623.231          36.000  
E03  23877203.809   125475544.146        -447.230          43.000    23877233.751    96143734.470        -342.483          38.000  
E08  25274796.220   132819944.953        1777.954          43.000    25274827.699   101771262.960        1362.234          41.000  
E05  25124970.268   132032648.329       -2770.636          30.000    25125010.677   101168002.193       -2123.160          27.000  
E27  26592470.534   139744365.548       -1856.308          42.000    26592512.559   107077027.958       -1422.477          37.000  
E34  25381295.176   133379622.081       -1094.728          42.000    25381330.528   102200106.829        -838.788          35.000  
E30  26945704.870   141600628.376       -3021.818          41.000    26945740.955   108499345.546       -2315.561          38.000  
E15  24870155.916   130693557.468         112.490          42.000    24870187.775   100141945.004          86.239          38.000  
R08                                                                  23457880.178    97701258.133        2477.913          28.000  
> 2025 04 04 10 54 37.0000000  0 21                     
G11  22277021.446   117066534.120       -1425.166          42.000    22277042.673    91220763.871       -1109.961          37.000  
G05  21033395.633   110531247.962       -1457.392          44.000    21033413.487    86128338.395       -1135.805          33.000  
G06  24136413.503   126837694.890       -2274.001          40.000    24136447.813    98834693.822       -1772.202          34.000  
G13  20533597.398   107904789.440         890.103          46.000                                                                  
R21  20236508.422   108289665.848         734.960          48.000    20236527.992    84225381.008         571.585          35.000  
R06  19709127.927   105171682.250       -2746.028          35.000                                                                  
R07  19746391.291   105703992.443         964.514          49.000    19746411.754    82214296.690         750.332          45.000  
R22  23085186.436   123230319.038        2388.855          42.000    23085210.824    95845851.883        1857.883          34.000  
G12  23770973.943   124917322.529       -3163.141          42.000    23770997.747    97338274.904       -2464.722          34.000  
G15  21953903.227   115368550.322        2391.589          43.000    21953925.206    89897667.903        1863.485          38.000  
G29  22745498.165   119528386.866        2157.012          40.000    22745519.097    93139083.691        1680.638          36.000  
G20  22092687.323   116097875.591       -2447.878          32.000                                                                  
R20  21600703.805   115508675.524       -2087.400          29.000    21600740.256    89840238.628       -1623.918          35.000  
E03  23877288.645   125475991.582        -447.709          42.000    23877318.748    96144077.368        -343.255          38.000  
E08  25274458.022   132818167.198        1777.137          43.000    25274489.406   101769900.766        1362.089          41.000  
E05  25125499.040   132035419.805       -2772.058          29.000    25125538.041   101170125.782       -2124.397          28.000  
E27  26592824.026   139746222.153       -1856.765          43.000    26592865.799   107078450.538       -1422.918          38.000  
E34  25381503.557   133380717.224       -1095.436          41.000    25381539.015   102200945.911        -839.075          36.000  
E30  26946279.866   141603650.247       -3021.955          42.000    26946315.890   108501661.013       -2315.702          38.000  
E15  24870134.646   130693445.058         112.529          42.000    24870166.303   100141858.877          86.697          38.000  
R08                                                                  23457286.034    97698780.803        2477.498          28.000  
> 2025 04 04 10 54 38.0000000  0 21                     
G11  22277292.770   117067959.785       -1424.986          43.000    22277314.037    91221874.807       -1110.224          37.000  
G05  21033673.010   110532705.660       -1456.967          44.000    21033690.867    86129474.317       -1135.547          33.000  
G06  24136846.297   126839969.025       -2273.453          40.000    24136880.444    98836465.927       -1771.356          34.000  
G13  20533428.085   107903899.772         890.156          47.000                                                                  
R21  20236371.259   108288931.141         735.541          48.000    20236390.645    84224809.525         571.867          36.000  
R06  19709642.609   105174428.696       -2745.844          35.000                                                                  
R07  19746211.146   105703028.430         964.523          49.000    19746231.708    82213546.924         750.202          44.000  
R22  23084739.001   123227930.412        2389.715          42.000    23084763.182    95843994.054        1858.311          34.000  
G12  23771575.892   124920486.060       -3162.531          42.000    23771599.758    97340740.052       -2464.709          33.000  
G15  21953448.176   115366159.161        2391.844          43.000    21953470.246    89895804.700        1863.578          37.000  
G29  22745087.823   119526230.081        2157.463          42.000    22745108.637    93137403.080        1680.474          35.000  
G20  22093153.424   116100324.119       -2447.893          34.000                                                                  
R20  21601093.687   115510763.532       -2087.865          27.000    21601131.824    89841862.717       -1623.284          30.000  
E03  23877374.095   125476439.892        -447.764          42.000    23877404.078    96144420.854        -343.038          39.000  
E08  25274119.621   132816389.998        1778.231          43.000    25274151.040   101768539.049        1362.229          43.000  
E05  25126025.455   132038191.860       -2771.814          29.000    25126064.058   101172249.829       -2123.836          29.000  
E27  26593177.602   139748079.428       -1856.906          42.000    26593219.267   107079873.645       -1422.453          37.000  
E34  25381711.744   133381812.766       -1094.651          41.000    25381747.614   102201785.394        -838.723          37.000  
E30  26946854.963   141606672.472       -3021.179          42.000    26946891.047   108503976.770       -2315.503          38.000  
E15  24870113.033   130693332.959         112.954          42.000    24870145.014   100141773.013          86.572          38.000  
R08                                                                  23456690.389    97696303.993        2477.431          28.000  
> 2025 04 04 10 54 39.0000000  0 21                     
G11  22277564.241   117069385.630       -1422.328          42.000    22277585.413    91222985.856       -1108.157          37.000  
G05  21033950.499   110534163.616       -1454.566          44.000    21033968.205    86130610.386       -1133.561          33.000  
G06  24137279.132   126842243.362       -2270.580          39.000    24137313.270    98838238.145       -1769.551          34.000  
G13  20533258.898   107903010.691         892.229          47.000                                                                  
R21  20236234.156   108288196.759         737.553          47.000    20236253.575    84224238.305         573.855          36.000  
R06  19710157.398   105177175.861       -2744.711          35.000                                                                  
R07  19746031.172   105702065.209         966.325          49.000    19746051.648    82212797.764         751.641          44.000  
R22  23084291.607   123225541.643        2392.548          42.000    23084315.540    95842136.146        1860.056          34.000  
G12  23772177.964   124923649.690       -3160.211          43.000    23772201.818    97343205.147       -2462.268          34.000  
G15  21952993.278   115363768.360        2394.154          44.000    21953015.293    89893941.749        1864.986          37.000  
G29  22744677.441   119524073.618        2159.508          40.000    22744698.325    93135722.714        1682.789          36.000  
G20  22093619.488   116102772.566       -2445.035          34.000                                                                  
R20  21601483.237                       -2093.416          24.000    21601524.499    89843487.367       -1626.052          29.000  
E03  23877459.674   125476888.640        -446.123          42.000    23877489.539    96144764.734        -342.480          39.000  
E08  25273781.608   132814613.042        1779.508          43.000    25273812.941   101767177.482        1363.342          43.000  
E05  25126552.563                       -2775.414          28.000    25126591.555   101174374.300       -2125.948          29.000  
E27  26593531.264   139749936.986       -1855.082          42.000    26593572.541   107081296.949       -1421.535          37.000  
E34  25381920.413   133382908.424       -1092.980          41.000    25381956.103   102202624.921        -837.749          37.000  
E30  26947430.106   141609694.702       -3019.591          41.000    26947466.214   108506292.481       -2313.763          38.000  
E15  24870091.781   130693220.882         114.444          42.000    24870123.710   100141687.122          88.156          39.000  
R08                                                                  23456092.896    97693827.473        2475.270          28.000  
> 2025 04 04 10 54 40.0000000  0 21                     
G11  22277835.384   117070810.779       -1425.350          42.000    22277856.572    91224096.380       -1110.446          37.000  
G05  21034227.903   110535620.938       -1457.572          44.000    21034245.434    86131745.942       -1135.813          32.000  
G06  24137711.852   126844517.048       -2273.793          40.000    24137745.943    98840009.840       -1771.674          33.000  
G13  20533089.555   107902121.344         888.851          47.000                                                                  
R21  20236096.815   108287461.882         734.452          47.000    20236116.414    84223666.737         571.181          36.000  
R06  19710672.090   105179922.777       -2747.879          36.000                                                                  
R07  19745851.089   105701101.871         962.856          49.000    19745871.695    82212048.506         748.959          44.000  
R22  23083843.973   123223151.852        2389.773          42.000    23083867.863    95840277.379        1858.763          34.000  
G12  23772779.847   124926812.445       -3162.884          43.000    23772803.815    97345669.670       -2464.893          34.000  
G15  21952538.272   115361376.992        2391.147          44.000    21952560.208    89892078.329        1863.054          37.000  
G29  22744267.094   119521916.606        2156.478          41.000    22744287.741    93134041.908        1680.684          36.000  
G20  22094084.869   116105220.205       -2448.083          32.000                                                                  
R20  21601878.740                       -2085.742          22.000    21601915.204    89845111.372       -1624.383          28.000  
E03  23877544.876   125477336.966        -448.758          42.000    23877574.981    96145108.230        -343.680          39.000  
E08  25273443.015   132812835.358        1777.715          43.000    25273474.724   101765815.360        1362.094          43.000  
E05  25127081.084   132043702.1101      -2772.205          29.000    25127118.930   101176498.058       -2124.324          29.000  
E27  26593884.680   139751793.924       -1857.218          42.000    26593925.974   107082719.814       -1423.104          37.000  
E34  25382128.872   133384003.224       -1095.061          41.000    25382164.488   102203463.773        -838.912          36.000  
E30  26948004.912   141612715.961       -3021.059          41.000    26948041.203   108508607.483       -2315.117          38.000  
E15  24870070.263   130693107.780         113.001          42.000    24870102.401   100141600.494          86.533          39.000  
R08                                                                  23455496.020    97691350.182        2477.479          27.000  
> 2025 04 04 10 54 41.0000000  0 21                     
G11  22278106.515   117072235.839       -1424.954          42.000    22278127.777    91225206.801       -1110.340          36.000  
G05  21034505.221   110537078.183       -1457.089          45.000    21034522.716    86132881.458       -1134.671          32.000  
G06  24138144.455   126846790.611       -2273.237          40.000    24138178.652    98841781.468       -1771.834          32.000  
G13  20532920.359   107901232.303         889.019          47.000                                                                  
R21  20235959.592   108286727.035         734.992          47.000    20235979.024    84223095.185         571.762          36.000  
R06  19711186.945   105182670.078       -2747.743          35.000                                                                  
R07  19745671.214   105700139.003         962.835          49.000    19745691.861    82211299.628         748.706          44.000  
R22  23083396.212   123220761.640        2390.368          41.000    23083420.154    95838418.334        1859.218          34.000  
G12  23773381.696   124929974.976       -3162.292          43.000    23773405.710    97348133.979       -2464.435          34.000  
G15  21952083.195   115358985.662        2391.630          44.000    21952105.163    89890214.961        1863.326          37.000  
G29  22743856.641   119519759.648        2157.039          41.000    22743877.235    93132361.198        1680.717          36.000  
G20  22094550.823   116107667.469       -2447.309          34.000                                                                  
R20  21602268.156                       -2078.835          18.000    21602306.279    89846735.690       -1624.472          29.000  
E03  23877629.988   125477785.451        -448.273          42.000    23877660.350    96145451.919        -343.848          39.000  
E08  25273104.838   132811057.632        1777.899          43.000    25273136.318   101764453.223        1362.228          42.000  
E05  25127607.918   132046473.999       -2771.778          29.000    25127646.700   101178621.962       -2123.703          29.000  
E27  26594238.166   139753650.892       -1856.881          42.000    26594279.325   107084142.668       -1422.559          37.000  
E34  25382337.246   133385097.797       -1094.142          41.000    25382372.489   102204302.474        -838.355          36.000  
E30  26948579.965   141615736.981       -3020.720          41.000    26948615.952   108510922.262       -2314.667          37.000  
E15  24870048.467   130692994.386         113.851          42.000    24870080.723   100141513.599          87.258          39.000  
R08                                                                  23454897.226    97688872.973        2477.809          27.000  
> 2025 04 04 10 54 42.0000000  0 21                     
G11  22278377.702   117073660.881       -1425.437          42.000    22278399.085    91226317.261       -1110.864          36.000  
G05  21034782.475   110538535.494       -1457.900          44.000    21034800.055    86134017.058       -1136.387          33.000  
G06  24138577.084   126849064.169       -2273.870          40.000    24138611.485    98843553.113       -1772.861          33.000  
G13  20532751.321   107900343.650         888.171          47.000                                                                  
R21  20235822.332   108285992.340         734.328          47.000    20235841.789    84222523.743         570.958          36.000  
R06  19711701.866   105185417.832       -2748.292          35.000                                                                  
R07  19745491.436   105699176.700         961.626          49.000    19745512.157    82210551.177         747.905          44.000  
R22  23082948.400   123218371.095        2390.072          41.000    23082972.272    95836559.003        1859.094          34.000  
G12  23773983.466   124933137.350       -3162.799          43.000    23774007.463    97350598.182       -2464.374          34.000  
G15  21951628.281   115356594.493        2390.797          44.000    21951650.094    89888351.714        1862.759          37.000  
G29  22743446.167   119517602.808        2156.283          42.000    22743466.836    93130680.551        1680.453          36.000  
G20  22095016.759   116110114.579       -2447.083          35.000                                                                  
R20  21602659.355                       -2091.719          17.000    21602697.010    89848360.242       -1625.023          28.000  
E03  23877715.398   125478234.210        -449.227          42.000    23877745.868    96145795.760        -344.426          39.000  
E08  25272766.731   132809279.912        1777.281          43.000    25272797.938   101763091.069        1361.881          43.000  
E05  25128133.789   132049245.996       -2772.437          29.000    25128174.639   101180745.956       -2124.602          30.000  
E27  26594591.560   139755507.935       -1857.316          42.000    26594632.672   107085565.622       -1423.329          37.000  
E34  25382545.681   133386192.277       -1094.766          41.000    25382580.536   102205141.083        -838.900          37.000  
E30  26949155.024   141618757.719       -3020.850          41.000    26949190.787   108513236.899       -2315.077          38.000  
E15  24870027.220   130692880.751         113.165          42.000    24870059.058   100141426.529          86.998          38.000  
R08                                                                  23454299.935    97686395.990        2476.868          27.000  
> 2025 04 04 10 54 43.0000000  0 22                     
G25  23898387.958                       -2235.977          13.000                                                                  
G11  22278648.901   117075086.333       -1426.229          42.000    22278670.317    91227427.968       -1111.345          37.000  
G05  21035059.866   110539993.269       -1458.346          44.000    21035077.441    86135152.975       -1136.428          34.000  
G06  24139009.823   126851338.184       -2274.684          39.000    24139044.104    98845324.883       -1771.675          34.000  
G13  20532582.328   107899455.819         887.188          47.000                                                                  
R21  20235685.016   108285258.233         733.527          48.000    20235704.658    84221952.826         570.594          34.000  
R06  19712217.038   105188166.538       -2749.459          35.000                                                                  
R07  19745311.864   105698215.399         960.546          49.000    19745332.442    82209803.489         747.106          44.000  
R22  23082500.634   123215980.698        2389.844          41.000    23082524.401    95834699.807        1859.127          34.000  
G12  23774585.381   124936299.999       -3162.848          42.000    23774609.310    97353062.579       -2464.709          34.000  
G15  21951173.434   115354203.880        2390.101          45.000    21951195.248    89886488.882        1862.556          37.000  
G29  22743035.901   119515446.547        2155.770          42.000    22743056.535    93129000.355        1679.925          36.000  
G20  22095482.834   116112561.909       -2448.312          35.000                                                                  
R20  21603049.906                       -2085.436          18.000    21603087.929    89849985.408       -1625.756          28.000  
E03  23877800.820   125478683.668        -450.242          42.000    23877831.385    96146140.139        -344.777          39.000  
E08  25272428.582   132807502.652        1776.797          43.000    25272459.557   101761729.295        1361.261          43.000  
E05  25128665.366   132052018.573       -2773.078          29.000    25128701.725   101182870.384       -2124.856          29.000  
E27  26594944.958   139757365.530       -1858.386          42.000    26594986.160   107086988.963       -1423.867          37.000  
E34  25382754.164   133387287.025       -1095.241          41.000    25382789.025   102205979.928        -838.962          37.000  
E30  26949729.945   141621778.694       -3021.374          41.000    26949765.600   108515551.655       -2315.149          38.000  
E15  24870005.536   130692767.282         113.104          41.000    24870037.251   100141339.607          86.654          38.000  
R08                                                                  23453704.013    97683919.370        2475.698          27.000  
> 2025 04 04 10 54 44.0000000  0 22                     
G25  23898821.135                       -2235.977          12.000                                                                  
G11  22278920.378   117076512.687       -1426.815          42.000    22278941.776    91228539.361       -1112.017          37.000  
G05  21035337.489   110541451.941       -1459.109          44.000    21035355.053    86136289.622       -1136.959          33.000  
G06  24139442.679   126853612.977       -2275.158          39.000    24139476.945    98847097.624       -1773.615          31.000  
G13  20532413.625   107898569.259         886.047          46.000                                                                  
R21  20235547.905   108284525.237         732.592          47.000    20235567.692    84221382.722         569.033          34.000  
R06  19712732.507   105190916.561       -2750.493          35.000                                                                  
R07  19745132.593   105697255.536         959.129          49.000    19745153.164    82209056.960         745.763          44.000  
R22  23082052.935   123213590.787        2389.806          41.000    23082076.688    95832841.011        1858.200          33.000  
G12  23775187.349   124939463.353       -3163.611          42.000    23775211.351    97355527.510       -2465.131          34.000  
G15  21950718.713   115351814.260        2388.921          44.000    21950740.592    89884626.859        1861.413          38.000  
G29  22742625.775   119513291.279        2154.808          42.000    22742646.357    93127320.930        1679.142          35.000  
G20  22095949.098   116115009.964       -2448.417          35.000                                                                  
R20  21603439.576                       -2088.661          18.000    21603478.803    89851611.381       -1626.675          31.000  
E03  23877886.331   125479134.230        -451.215          42.000    23877916.898    96146485.379        -345.615          39.000  
E08  25272090.534   132805726.233        1776.037          44.000    25272121.485   101760368.157        1360.691          41.000  
E05  25129186.781   132054792.092       -2774.241          30.000    25129228.665   101184995.525       -2125.311          29.000  
E27  26595298.521   139759224.069       -1859.081          42.000    26595339.874   107088413.014       -1424.582          38.000  
E34  25382962.657   133388382.484       -1095.705          41.000    25382997.399   102206819.354        -839.804          39.000  
E30  26950304.734   141624800.328       -3021.892          41.000    26950340.516   108517866.907       -2315.430          37.000  
E15  24869983.951   130692654.407         112.470          41.000    24870015.677   100141253.133          85.959          37.000  
R08                                                                  23453107.903                        2476.917          25.000  
> 2025 04 04 10 54 45.0000000  0 22                     
G25  23899240.635                       -2235.977          13.000                                                                  
G11  22279191.870   117077940.116       -1424.965          41.000    22279213.444    91229651.663       -1110.310          37.000  
G05  21035615.266   110542911.763       -1457.231          45.000    21035632.788    86137427.186       -1136.077          33.000  
G06  24139875.727   126855888.919       -2273.523          38.000    24139909.932    98848871.051       -1771.803          31.000  
G13  20532245.262   107897684.231         887.148          47.000                                                                  
R21  20235411.080   108283793.534         733.941          47.000    20235430.958    84220813.632         571.337          34.000  
R06  19713248.210   105193668.249       -2749.244          36.000                                                                  
R07  19744953.717   105696297.453         960.224          49.000    19744974.196    82208311.776         747.002          44.000  
R22  23081605.460   123211201.744        2391.538          43.000    23081629.214    95830982.880        1860.069          34.000  
G12  23775789.520   124942627.723       -3161.963          43.000    23775813.540    97357993.257       -2464.130          34.000  
G15  21950264.374   115349425.910        2390.601          43.000    21950286.081    89882765.805        1863.312          38.000  
G29  22742215.932   119511137.313        2156.343          41.000    22742236.298    93125642.504        1680.455          35.000  
G20  22096415.325   116117458.966       -2446.184          34.000                                                                  
R20  21603832.695                       -2092.464          18.000    21603870.242    89853238.566       -1627.366          30.000  
E03  23877972.468   125479586.237        -449.699          42.000    23878002.754    96146831.687        -344.454          40.000  
E08  25271752.649   132803951.022        1777.485          45.000    25271783.884   101759007.900        1362.089          42.000  
E05  25129717.170   132057566.882       -2773.298          29.000    25129757.261   101187121.711       -2125.386          29.000  
E27  26595652.361   139761083.833       -1857.354          42.000    26595693.971   107089838.056       -1423.221          37.000  
E34  25383171.246   133389478.991       -1094.056          41.000    25383206.109   102207659.506        -838.229          38.000  
E30  26950879.792   141627822.871       -3019.742          41.000    26950915.667   108520182.900       -2313.963          37.000  
E15  24869962.883   130692542.490         114.514          41.000    24869994.361   100141167.372          87.466          37.000  
R08                                                                  23452511.123                        2472.797          23.000  
> 2025 04 04 10 54 46.0000000  0 22                     
G25  23899667.864                       -2235.977          12.000                                                                  
G11  22279463.458   117079367.413       -1425.263          41.000    22279485.092    91230763.880       -1111.073          35.000  
G05  21035893.062   110544371.536       -1458.316          45.000    21035910.667    86138564.626       -1136.449          34.000  
G06  24140308.778   126858164.703       -2273.829          38.000    24140342.807    98850644.419       -1772.505          32.000  
G13  20532076.996   107896799.470         886.212          47.000                                                                  
R21  20235274.183   108283061.802         733.496          47.000    20235294.100    84220244.515         570.280          34.000  
R06  19713763.990   105196420.253       -2750.446          36.000                                                                  
R07  19744774.827   105695339.763         959.219          49.000    19744795.343    82207566.919         746.025          44.000  
R22  23081157.782   123208812.190        2391.502          43.000    23081181.650    95829124.323        1860.461          34.000  
G12  23776391.600   124945791.771       -3162.250          43.000    23776415.677    97360458.762       -2464.349          35.000  
G15  21949809.961   115347037.555        2390.187          43.000    21949831.657    89880904.779        1862.086          38.000  
G29  22741806.143   119508983.271        2155.910          42.000    22741826.345    93123964.069        1679.947          35.000  
G20  22096881.542   116119907.581       -2447.012          34.000                                                                  
R20  21604224.860                       -2092.371          20.000    21604261.412    89854865.738       -1626.373          30.000  
E03  23878058.488   125480038.313        -450.469          42.000    23878089.090    96147178.107        -345.328          39.000  
E08  25271414.496   132802175.653        1776.805          44.000    25271446.522   101757647.580        1361.407          42.000  
E05  25130245.548   132060331.6251      -2773.652          30.000    25130286.148                       -2125.342          29.000  
E27  26596006.371   139762943.573       -1858.313          42.000    26596048.016   107091263.035       -1424.029          37.000  
E34  25383380.084   133390575.205       -1094.504          41.000    25383415.035   102208499.476        -839.017          38.000  
E30  26951454.516   141630845.060       -3020.666          41.000    26951490.996   108522498.614       -2314.845          37.000  
E15  24869941.324   130692430.151         113.979          42.000    24869973.249   100141081.283          87.271          37.000  
R08                                                                  23451913.715                        2476.792          23.000  
> 2025 04 04 10 54 47.0000000  0 22                     
G25  23900093.990                       -2235.977          14.000                                                                  
G11  22279734.815   117080793.303       -1425.942          41.000    22279756.411    91231874.942       -1110.814          36.000  
G05  21036170.654   110545829.959       -1458.590          45.000    21036188.160    86139701.070       -1136.579          34.000  
G06  24140741.683   126860439.122       -2274.810          38.000    24140775.178    98852416.661       -1772.736          33.000  
G13  20531908.579   107895913.681         885.320          47.000                                                                  
R21  20235137.221   108282328.814         732.609          47.000    20235157.144    84219674.391         570.059          35.000  
R06  19714279.591   105199171.275       -2751.208          36.000                                                                  
R07  19744595.697   105694381.223         958.054          49.000    19744616.366    82206821.394         745.125          44.000  
R22  23080709.885   123206420.897        2391.330          43.000    23080733.672    95827264.434        1860.371          34.000  
G12  23776993.394   124948954.238       -3162.555          43.000    23777017.472    97362923.044       -2464.606          34.000  
G15  21949355.242   115344647.951        2389.170          43.000    21949376.968    89879042.747        1861.851          38.000  
G29  22741396.190   119506828.009        2154.823          42.000    22741416.244    93122284.605        1679.540          35.000  
G20  22097347.501   116122354.580       -2447.236          35.000                                                                  
R20  21604615.457                       -2092.212          22.000    21604652.717    89856492.058       -1626.635          27.000  
E03  23878144.135   125480489.240        -451.434          43.000    23878174.745    96147523.599        -345.879          39.000  
E08  25271076.368   132800398.871        1776.553          44.000    25271108.183   101756286.145        1361.319          42.000  
E05  25130772.844   132063105.075       -2773.916          29.000    25130814.014   101191372.8671      -2124.663          28.000  
E27  26596360.195   139764801.956       -1858.568          42.000    26596401.485   107092686.991       -1424.324          37.000  
E34  25383588.446   133391669.852       -1094.741          42.000    25383623.266   102209338.213        -838.908          37.000  
E30  26952029.319   141633865.596       -3020.627          41.000    26952065.705   108524813.034       -2314.823          38.000  
E15  24869919.704   130692316.124         113.767          42.000    24869951.511   100140993.927          87.257          38.000  
R08                                                                  23451318.283                        2480.112          24.000  
> 2025 04 04 10 54 48.0000000  0 22                     
G25  23900521.750                       -2235.977          16.000                                                                  
G11  22280006.424   117082220.429       -1426.912          41.000    22280028.070    91232986.993       -1111.809          37.000  
G05  21036448.479   110547289.689       -1459.568          44.000    21036465.996    86140838.485       -1136.870          33.000  
G06  24141174.706   126862714.733       -2274.741          39.000    24141207.792    98854189.904       -1772.998          33.000  
G13  20531740.468   107895029.587         884.318          47.000                                                                  
R21  20235000.384   108281597.252         732.364          47.000    20235020.387    84219105.425         569.149          35.000  
R06  19714795.518   105201924.114       -2752.865          35.000                                                                  
R07  19744417.025   105693424.552         956.748          49.000    19744437.707    82206077.321         744.272          44.000  
R22  23080262.053   123204030.519        2391.175          44.000    23080285.937    95825405.279        1859.413          35.000  
G12  23777595.452   124952117.834       -3162.714          43.000    23777619.534    97365388.158       -2464.630          34.000  
G15  21948900.838   115342259.712        2388.715          44.000    21948922.598    89877181.788        1861.276          38.000  
G29  22740986.331   119504674.104        2154.268          42.000    22741006.482    93120606.287        1678.633          35.000  
G20  22097813.404   116124802.699       -2447.903          34.000                                                                  
R20  21605006.344   115531677.6923      -2091.643          25.000    21605045.715    89858135.5853      -1628.436          32.000  
E03  23878230.346   125480941.700        -452.381          41.000    23878260.738    96147870.336        -346.750          39.000  
E08  25270738.691   132798623.394        1775.288          44.000    25270770.457   101754925.723        1359.977          43.000  
E05  25131303.243                       -2774.304          30.000    25131342.484   101193502.1451      -2126.252          28.000  
E27  26596713.835   139766661.766       -1860.668          42.000    26596755.382   107094111.991       -1425.098          37.000  
E34  25383796.699   133392765.699       -1095.945          41.000    25383831.867   102210177.910        -840.040          37.000  
E30  26952604.347   141636887.190       -3021.815          41.000    26952640.686   108527128.295       -2315.721          37.000  
E15  24869898.268   130692203.176         112.744          41.000    24869929.896   100140907.396          86.232          37.000  
R08                                                                  23450723.841                        2474.180          25.000  
> 2025 04 04 10 54 49.0000000  0 22                     
G25  23900945.188                       -2235.977          15.000                                                                  
G11  22280277.366   117083644.143       -1423.747          43.000    22280299.053    91234096.352       -1109.436          35.000  
G05  21036725.720   110548746.036       -1456.449          45.000    21036743.130    86141973.335       -1135.102          33.000  
G06  24141607.147   126864987.022       -2272.242          38.000    24141639.860    98855960.457       -1770.506          33.000  
G13  20531571.689   107894142.473         886.847          47.000                                                                  
R21  20234863.100   108280862.460         734.833          47.000    20234883.060    84218533.890         571.812          35.000  
R06  19715310.839   105204673.912       -2749.923          35.000                                                                  
R07  19744237.772   105692464.998         959.248          49.000    19744258.345    82205331.003         745.956          44.000  
R22  23079813.613   123201636.396        2394.426          42.000    23079837.350    95823543.153        1862.291          34.000  
G12  23778196.676   124955277.876       -3159.979          43.000    23778220.796    97367850.563       -2462.433          34.000  
G15  21948445.752   115339868.206        2391.398          43.000    21948467.515    89875318.300        1863.432          38.000  
G29  22740575.818   119502516.952        2157.372          42.000    22740595.919    93118925.393        1680.585          36.000  
G20  22098278.665   116127247.136       -2443.677          33.000                                                                  
R20  21605396.742   115533765.2942      -2089.712          28.000    21605433.546    89859748.6682      -1625.859          37.000  
E03  23878315.910   125481391.008        -449.453          42.000    23878346.196    96148214.638        -344.473          39.000  
E08  25270400.142   132796844.506        1778.820          42.000    25270431.826   101753562.693        1362.774          41.000  
E05  25131830.949   132068651.4311      -2770.909          30.000    25131869.494   101195625.834       -2124.279          27.000  
E27  26597067.318   139768518.168       -1856.786          42.000    26597108.591   107095534.463       -1422.478          37.000  
E34  25384004.644   133393857.993       -1092.413          42.000    25384039.481   102211014.837        -836.903          37.000  
E30  26953178.555   141639905.129       -3017.934          41.000    26953214.965   108529440.732       -2312.183          37.000  
E15  24869875.990   130692086.526         116.532          42.000    24869907.719   100140818.000          89.653          37.000  
R08                                                                  23450130.941                        2476.696          26.000  
> 2025 04 04 10 54 50.0000000  0 21                     
G11  22280548.424   117085068.406       -1424.880          43.000    22280570.113    91235206.161       -1109.879          36.000  
G05  21037003.000   110550202.976       -1457.366          45.000    21037020.301    86143108.639       -1136.558          33.000  
G06  24142039.693   126867259.776       -2273.343          38.000    24142072.049    98857731.439       -1770.880          32.000  
G13  20531403.063   107893256.300         885.245          47.000                                                                  
R21  20234725.994   108280128.343         733.228          47.000    20234745.801    84217962.910         570.551          34.000  
R06  19715826.305   105207424.784       -2751.096          36.000                                                                  
R07  19744058.834   105691506.583         957.444          50.000    19744079.263    82204585.557         744.914          44.000  
R22  23079365.247   123199242.513        2393.537          42.000    23079388.708    95821681.237        1861.400          34.000  
G12  23778798.055   124958438.324       -3160.907          44.000    23778822.235    97370313.257       -2463.220          34.000  
G15  21947990.864   115337477.421        2390.180          44.000    21948012.589    89873455.351        1862.591          38.000  
G29  22740165.491   119500360.482        2155.812          42.000    22740185.543    93117245.016        1679.381          36.000  
G20  22098744.017   116129692.076       -2445.450          33.000                                                                  
R20  21605785.656   115535855.5342      -2091.342          28.000    21605822.999    89861374.3962      -1626.464          39.000  
E03  23878401.648   125481841.155        -450.616          42.000    23878431.863    96148559.553        -345.666          39.000  
E08  25270061.986   132795066.168        1777.750          42.000    25270093.188   101752200.101        1361.978          41.000  
E05  25132355.080   132071423.724       -2773.334          29.000    25132397.234   101197750.011       -2124.622          28.000  
E27  26597420.297   139770375.269       -1857.711          41.000    26597462.020   107096957.424       -1422.706          37.000  
E34  25384212.759   133394950.696       -1093.136          42.000    25384247.433   102211852.111        -837.817          38.000  
E30  26953753.099   141642923.413       -3018.515          41.000    26953789.315   108531753.468       -2313.014          37.000  
E15  24869854.054   130691970.213         115.922          42.000    24869885.413   100140728.856          88.898          37.000  
R08                                                                  23449538.650                        2476.545          26.000  
> 2025 04 04 10 54 51.0000000  0 21                     
G11  22280819.605   117086493.520       -1425.550          43.000    22280841.283    91236316.674       -1110.739          36.000  
G05  21037280.564   110551660.834       -1458.344          45.000    21037297.656    86144244.619       -1136.832          34.000  
G06  24142472.365   126869533.415       -2274.169          38.000    24142504.421    98859503.168       -1772.411          33.000  
G13  20531234.575   107892371.399         884.383          47.000                                                                  
R21  20234589.020   108279395.193         732.713          47.000    20234608.897    84217392.704         569.968          35.000  
R06  19716342.331   105210177.034       -2752.984          36.000                                                                  
R07  19743880.038   105690549.562         956.266          49.000    19743900.447    82203841.228         743.867          44.000  
R22  23078916.949   123196849.143        2393.122          43.000    23078940.163    95819819.754        1860.871          34.000  
G12  23779399.539   124961599.481       -3161.597          44.000    23779423.737    97372776.487       -2463.812          34.000  
G15  21947536.056   115335087.606        2389.332          44.000    21947557.757    89871593.164        1861.872          37.000  
G29  22739755.361   119498204.990        2155.078          42.000    22739775.394    93115565.386        1679.420          36.000  
G20  22099209.586   116132137.655       -2446.215          33.000                                                                  
R20  21606175.615   115537946.4201      -2092.294          28.000    21606211.074    89863001.035       -1627.081          39.000  
E03  23878487.321   125482292.395        -451.769          42.000    23878517.665    96148905.312        -346.076          39.000  
E08  25269723.477   132793288.740        1777.147          43.000    25269754.916   101750838.171        1361.568          42.000  
E05  25132885.096   132074196.910       -2773.236          29.000    25132925.076   101199874.906       -2125.153          29.000  
E27  26597773.858   139772233.295       -1858.438          42.000    26597815.703   107098381.145       -1424.058          37.000  
E34  25384421.025   133396044.108       -1093.776          42.000    25384455.512   102212689.912        -837.696          38.000  
E30  26954327.742   141645942.366       -3019.134          41.000    26954363.734   108534066.669       -2313.391          37.000  
E15  24869832.330   130691854.492         115.431          42.000    24869863.294   100140640.217          88.000          37.000  
R08                                                                  23448946.879    97664034.8293       2476.563          26.000  
> 2025 04 04 10 54 52.0000000  0 21                     
G11  22281090.940   117087919.196       -1424.767          43.000    22281112.448    91237427.577       -1109.814          37.000  
G05  21037558.185   110553119.278       -1457.788          45.000    21037575.230    86145381.051       -1135.700          34.000  
G06  24142905.224   126871807.546       -2273.096          37.000    24142937.176    98861275.187       -1771.147          34.000  
G13  20531066.517   107891487.454         884.501          47.000                                                                  
R21  20234452.193   108278662.775         733.122          46.000    20234471.864    84216823.028         569.890          35.000  
R06  19716858.275   105212930.315       -2753.208          36.000                                                                  
R07  19743701.569   105689593.706         956.433          49.000    19743721.910    82203097.802         743.658          44.000  
R22  23078468.751   123194455.991        2394.147          43.000    23078491.799    95817958.429        1861.821          34.000  
G12  23780001.148   124964761.033       -3160.657          44.000    23780025.343    97375240.018       -2462.726          34.000  
G15  21947081.327   115332698.486        2389.875          44.000    21947103.073    89869731.522        1862.086          37.000  
G29  22739345.302   119496050.209        2155.600          42.000    22739365.324    93113886.374        1679.416          36.000  
G20  22099675.159   116134583.540       -2445.146          33.000                                                                  
R20  21606565.450   115540038.586       -2089.722          28.000    21606603.248    89864628.351       -1626.800          37.000  
E03  23878573.467   125482744.465        -450.897          42.000    23878603.752    96149251.704        -345.531          39.000  
E08  25269385.218   132791511.859        1778.242          43.000    25269417.095   101749476.654        1362.565          42.000  
E05  25133411.727   132076970.715       -2771.228          29.000    25133454.144   101202000.350       -2123.819          29.000  
E27  26598127.526   139774091.972       -1857.276          42.000    26598169.244   107099805.307       -1423.097          37.000  
E34  25384628.944   133397137.941       -1092.447          41.000    25384663.774   102213528.061        -837.147          38.000  
E30  26954902.185   141648961.600       -3017.671          41.000    26954938.501   108536380.138       -2313.036          37.000  
E15  24869810.222   130691739.075         116.614          42.000    24869841.504   100140551.778          89.290          37.000  
R08                                                                  23448354.631    97661558.8902       2477.694          26.000  
> 2025 04 04 10 54 53.0000000  0 21                     
G11  22281362.182   117089344.213       -1425.284          43.000    22281383.451    91238537.985       -1110.465          36.000  
G05  21037835.520   110554577.126       -1457.957          45.000    21037852.672    86146517.014       -1135.553          34.000  
G06  24143337.899   126874081.059       -2273.190          37.000    24143369.798    98863046.781       -1771.410          33.000  
G13  20530898.169   107890603.275         883.866          47.000                                                                  
R21  20234315.235   108277929.927         732.605          46.000    20234334.912    84216253.044         570.392          35.000  
R06  19717374.253   105215683.392       -2752.966          36.000                                                                  
R07  19743522.895   105688637.801         955.468          49.000    19743543.319    82202354.298         743.191          44.000  
R22  23078020.267   123192061.912        2394.017          43.000    23078043.117    95816096.294        1862.541          34.000  
G12  23780602.697   124967921.820       -3161.047          44.000    23780626.835    97377702.978       -2463.318          34.000  
G15  21946626.630   115330308.882        2389.546          44.000    21946648.326    89867869.505        1861.557          38.000  
G29  22738935.197   119493894.922        2155.009          42.000    22738955.166    93112206.931        1679.098          36.000  
G20  22100140.491   116137028.609       -2445.154          33.000                                                                  
R20  21606954.713   115542131.0822      -2091.937          28.000    21606994.328    89866255.384       -1627.202          34.000  
E03  23878659.281   125483196.224        -451.858          42.000    23878689.629    96149597.811        -346.124          39.000  
E08  25269046.966   132789734.388        1777.469          43.000    25269078.675   101748114.713        1361.843          42.000  
E27  26598481.281   139775950.166       -1858.489          42.000    26598522.934   107101229.130       -1424.058          37.000  
E34  25384836.796   133398231.061       -1092.928          41.000    25384871.534   102214365.644        -837.892          38.000  
E30  26955476.680   141651980.037       -3018.364          41.000    26955512.915   108538692.935       -2312.457          37.000  
E15  24869787.915   130691622.808         116.330          42.000    24869819.309   100140462.690          89.397          37.000  
E05                                                                  25133981.563   101204125.377       -2124.967          29.000  
R08                                                                  23447762.009    97659082.574        2477.283          26.000  
> 2025 04 04 10 54 54.0000000  0 21                     
G11  22281633.569   117090769.943       -1425.777          43.000    22281654.679    91239648.958       -1110.760          35.000  
G05  21038113.178   110556035.714       -1458.465          45.000    21038130.244    86147653.605       -1136.111          34.000  
G06  24143770.585   126876355.293       -2274.049          36.000    24143802.575    98864818.925       -1772.292          33.000  
G13  20530730.080   107889720.214         882.874          47.000                                                                  
R21  20234178.465   108277197.957         731.991          47.000    20234198.093    84215683.769         568.606          35.000  
R06  19717890.370   105218437.690       -2754.395          36.000                                                                  
R07  19743344.578   105687683.190         954.281          49.000    19743364.974    82201611.819         742.374          44.000  
R22  23077571.944   123189668.176        2394.207          43.000    23077594.651    95814234.568        1862.002          34.000  
G12  23781204.294   124971083.135       -3161.242          44.000    23781228.444    97380166.352       -2463.214          35.000  
G15  21946172.113   115327920.135        2388.771          44.000    21946193.710    89866008.136        1860.763          37.000  
G29  22738525.299   119491740.475        2154.402          43.000    22738545.233    93110528.142        1678.490          36.000  
G20  22100605.837   116139474.226       -2445.521          33.000                                                                  
R20  21607347.122   115544223.9232      -2091.882          27.000    21607384.099    89867883.178       -1627.505          35.000  
E03  23878745.396   125483648.876        -453.131          43.000    23878775.974    96149944.700        -347.352          40.000  
E08  25268708.660   132787957.626        1776.951          43.000    25268740.552   101746753.322        1361.229          42.000  
E05  25134467.135   132082516.2601      -2772.821          29.000    25134510.315   101206251.002       -2124.753          29.000  
E27  26598834.992   139777809.113       -1859.104          42.000    26598876.725   107102653.513       -1424.401          37.000  
E34  25385044.834   133399324.722       -1093.438          42.000    25385079.713   102215203.638        -837.966          38.000  
E30  26956050.937   141654998.958       -3019.120          41.000    26956087.310   108541006.143       -2313.063          37.000  
E15  24869765.324   130691506.991         115.797          41.000    24869797.270   100140373.952          88.703          37.000  
R08                                                                  23447169.379                        2475.902          26.000  
> 2025 04 04 10 54 55.0000000  0 21                     
G11  22281904.702   117092194.789       -1425.182          40.000    22281925.833    91240759.347       -1110.458          32.000  
G05  21038390.591   110557493.480       -1457.867          45.000    21038407.613    86148789.512       -1135.736          33.000  
G06  24144203.216   126878628.656       -2273.702          37.000    24144235.123    98866590.321       -1771.172          33.000  
G13  20530562.063   107888836.675         883.123          47.000                                                                  
R21  20234041.525   108276465.273         732.418          47.000    20234061.191    84215113.926         570.062          33.000  
R06  19718406.492   105221191.610       -2754.584          37.000                                                                  
R07  19743166.226   105686728.265         954.452          49.000    19743186.461    82200869.137         742.216          44.000  
R22  23077123.374   123187273.258        2394.891          44.000    23077145.967    95812371.836        1862.990          34.000  
G12  23781805.751   124974243.452       -3160.370          43.000    23781829.841    97382628.951       -2462.744          35.000  
G15  21945717.382   115325530.628        2389.360          44.000    21945739.042    89864146.181        1862.361          37.000  
G29  22738115.257   119489585.308        2155.114          43.000    22738135.089    93108848.826        1678.880          35.000  
G20  22101071.263   116141918.759       -2443.877          34.000                                                                  
R20  21607736.659   115546315.891       -2092.953          30.000    21607775.481    89869510.594       -1627.670          40.000  
E03  23878831.585   125484100.972        -452.677          42.000    23878861.892    96150291.102        -346.558          39.000  
E08  25268370.080   132786180.048        1777.276          42.000    25268402.312   101745391.262        1361.921          42.000  
E05  25134995.444   132085289.842       -2773.883          29.000    25135035.803   101208376.240       -2125.191          30.000  
E27  26599188.606   139779667.310       -1858.237          42.000    26599230.402   107104077.306       -1423.767          37.000  
E34  25385252.815   133400417.371       -1092.562          40.000    25385287.626   102216040.892        -837.537          33.000  
E30  26956625.221   141658016.769       -3017.900          41.000    26956661.458   108543318.512       -2312.689          37.000  
E15  24869743.087   130691390.053         116.633          42.000    24869774.917   100140284.329          89.681          37.000  
R08                                                                  23446574.816    97654155.5813       2475.999          26.000  
> 2025 04 04 10 54 56.0000000  0 21                     
G11  22282175.893   117093619.722       -1424.636          42.000    22282197.078    91241869.595       -1110.014          36.000  
G05  21038668.061   110558951.368       -1457.983          45.000    21038685.055    86149925.536       -1135.860          34.000  
G06  24144635.926   126880901.969       -2273.075          37.000    24144667.573    98868361.804       -1771.769          33.000  
G13  20530394.012   107887953.618         883.049          47.000                                                                  
R21  20233904.810   108275732.849         732.436          49.000    20233924.311    84214544.258         569.836          34.000  
R06  19718922.751   105223946.024       -2754.175          37.000                                                                  
R07  19742987.948   105685773.979         954.196          49.000    19743008.131    82200126.907         742.120          44.000  
R22  23076674.668   123184878.064        2395.557          43.000    23076697.299    95810508.883        1863.030          33.000  
G12  23782407.041   124977403.683       -3160.034          44.000    23782431.180    97385091.466       -2461.920          35.000  
G15  21945262.715   115323141.360        2389.314          43.000    21945284.333    89862284.381        1862.204          38.000  
G29  22737705.235   119487430.342        2155.119          43.000    22737724.990    93107169.591        1679.104          34.000  
G20  22101536.588   116144363.174       -2444.010          36.000                                                                  
R20  21608128.754   115548408.497       -2092.891          33.000    21608166.594    89871138.206       -1627.578          40.000  
E03  23878917.516   125484553.335        -452.436          42.000    23878947.989    96150637.756        -346.920          40.000  
E08  25268031.861   132784402.501        1777.607          44.000    25268063.937   101744029.228        1362.330          42.000  
E05  25135522.747   132088063.460       -2772.729          29.000    25135563.766   101210501.477       -2124.824          30.000  
E27  26599542.344   139781525.648       -1858.066          43.000    26599583.968   107105501.227       -1423.532          37.000  
E34  25385460.710   133401510.013       -1092.501          39.000    25385495.459   102216878.081        -836.569          36.000  
E30  26957199.569   141661034.436       -3017.209          41.000    26957235.793   108545630.737       -2311.777          37.000  
E15  24869720.548   130691272.908         117.542          41.000    24869752.685   100140194.597          90.583          37.000  
R08                                                                  23445982.337    97651679.2382       2475.992          27.000  
> 2025 04 04 10 54 57.0000000  0 22                     
G11  22282447.162   117095044.765       -1427.331          42.000    22282468.243    91242980.011       -1112.305          39.000  
G05  21038945.514   110560409.432       -1460.793          44.000    21038962.636    86151061.728       -1138.143          34.000  
G06  24145068.531   126883175.506       -2276.309          38.000    24145099.911    98870133.362       -1773.650          34.000  
G13  20530226.085   107887071.108         879.940          48.000                                                                  
R27  20242100.510   107977747.5441      -3433.193          47.000                                                                  
R21  20233768.062   108275000.711         729.737          48.000    20233787.542    84213974.783         567.872          35.000  
R06  19719439.112   105226701.119       -2757.956          37.000                                                                  
R07  19742809.858   105684820.395         950.875          49.000    19742829.980    82199385.219         739.518          44.000  
R22  23076226.035   123182482.709        2393.119          44.000    23076248.396    95808645.867        1861.270          34.000  
G12  23783008.406   124980563.900       -3162.640          43.000    23783032.577    97387553.992       -2464.630          35.000  
G15  21944808.130   115320752.320        2386.491          43.000    21944829.664    89860422.857        1859.510          38.000  
G29  22737295.207   119485275.658        2152.189          43.000    22737315.027    93105490.628        1676.998          35.000  
G20  22102001.856   116146807.536       -2447.033          35.000                                                                  
R20  21608521.910   115550501.484       -2093.330          31.000    21608557.915    89872766.208       -1630.119          36.000  
E03  23879003.617   125485006.136        -455.035          42.000    23879034.219    96150984.700        -348.708          40.000  
E08  25267693.789   132782625.115        1775.376          44.000    25267725.859   101742667.328        1360.359          42.000  
E05  25136050.844   132090837.320       -2775.924          30.000    25136091.232   101212626.952       -2127.109          30.000  
E27  26599895.984   139783384.227       -1860.714          42.000    26599937.523   107106925.316       -1425.781          37.000  
E34  25385668.614   133402602.591       -1094.483          41.000    25385703.358   102217715.322        -838.851          37.000  
E30  26957773.999   141664052.024       -3019.767          41.000    26957809.972   108547942.916       -2313.961          37.000  
E15  24869698.523   130691155.686         115.366          42.000    24869730.340   100140104.765          88.610          38.000  
R08                                                                  23445389.020    97649203.111        2474.976          28.000  
> 2025 04 04 10 54 58.0000000  0 21                     
G11  22282718.436   117096470.366       -1423.214          40.000    22282739.565    91244090.925       -1108.842          36.000  
G05  21039223.117   110561868.080       -1456.415          44.000    21039240.159    86152198.325       -1134.784          34.000  
G06  24145501.261   126885449.612       -2272.157          38.000    24145532.277    98871905.288       -1768.705          28.000  
G13  20530058.337   107886189.563         883.691          47.000                                                                  
R21  20233631.418   108274269.260         733.738          47.000    20233650.911    84213405.933         570.403          34.000  
R06  19719955.693   105229457.213       -2753.634          37.000                                                                  
R07  19742631.980   105683867.929         954.536          49.000    19742652.079    82198644.422         742.338          44.000  
R22  23075777.294   123180087.567        2397.509          42.000    23075799.608    95806783.046        1863.908          34.000  
G12  23783609.803   124983724.533       -3158.105          43.000    23783634.014    97390016.820       -2460.748          35.000  
G15  21944353.725   115318364.030        2390.525          44.000    21944375.038    89858561.821        1862.812          38.000  
G29  22736885.319   119483121.676        2156.210          42.000    22736905.105    93103812.157        1680.640          35.000  
G20  22102467.112   116149252.244       -2441.608          35.000                                                                  
R20  21608913.165   115552595.515       -2090.166          26.000    21608949.447    89874394.884       -1627.396          36.000  
E03  23879089.952   125485459.760        -451.128          43.000    23879120.429    96151332.281        -345.707          39.000  
E08  25267355.721   132780848.292        1779.509          42.000    25267387.455   101741305.896        1363.565          42.000  
E05  25136578.662   132093611.919       -2772.283          31.000    25136617.763   101214752.962       -2123.938          29.000  
E27  26600249.868   139785243.457       -1856.580          42.000    26600291.203   107108349.922       -1422.272          37.000  
E34  25385876.621   133403695.607       -1090.462          39.000    25385911.248   102218552.787        -835.313          34.000  
E30  26958348.179   141667069.918       -3014.928          41.000    26958384.253   108550255.336       -2310.269          37.000  
E15  24869676.080   130691038.784         119.714          41.000    24869707.876   100140015.223          91.687          38.000  
R08                                                                  23444793.507    97646727.498        2478.552          29.000  
> 2025 04 04 10 54 59.0000000  0 21                     
G11  22282989.412   117097894.664       -1423.501          40.000    22283010.602    91245200.739       -1109.166          33.000  
G05  21039500.521   110563325.459       -1456.511          45.000    21039517.484    86153333.964       -1135.041          34.000  
G06  24145933.835   126887722.386       -2271.793          37.000    24145964.636    98873676.448       -1770.101          29.000  
G13  20529890.299   107885307.113         883.069          47.000                                                                  
R21  20233494.435   108273536.656         733.246          47.000    20233514.008    84212836.116         571.276          33.000  
R06  19720472.032   105232212.470       -2754.059          37.000                                                                  
R07  19742453.961   105682914.713         953.922          49.000    19742473.906    82197903.031         742.171          43.000  
R22  23075328.300   123177690.785        2397.779          39.000    23075350.622    95804918.865        1864.966          33.000  
G12  23784211.003   124986883.709       -3158.032          44.000    23784235.208    97392478.535       -2461.157          35.000  
G15  21943899.060   115315974.546        2390.403          44.000    21943920.436    89856699.921        1862.619          38.000  
G29  22736475.293   119480966.531        2156.086          42.000    22736494.955    93102132.886        1679.976          34.000  
G20  22102932.409   116151695.491       -2442.231          35.000                                                                  
R20  21609303.189   115554688.572       -2092.235          27.000    21609340.662    89876022.717       -1627.191          37.000  
E03  23879176.135   125485912.346        -451.487          43.000    23879206.559    96151679.090        -345.921          39.000  
E08  25267016.796   132779070.264        1779.259          42.000    25267049.316   101739943.507        1363.595          42.000  
E05  25137106.869   132096385.302       -2771.542          31.000    25137146.498   101216878.042       -2124.194          30.000  
E27  26600603.422   139787101.486       -1856.450          42.000    26600644.834   107109773.612       -1422.273          37.000  
E34  25386084.283   133404787.272       -1089.955          40.000    25386119.107   102219389.234        -835.067          34.000  
E30  26958922.076   141670086.360       -3014.716          41.000    26958958.313   108552566.634       -2310.115          37.000  
E15  24869653.519   130690920.376         120.014          42.000    24869685.302   100139924.512          91.940          38.000  
R08                                                                  23444200.782    97644250.998        2476.820          28.000  
> 2025 04 04 10 55 00.0000000  0 21                     
G11  22283260.519   117099319.518       -1424.538          41.000    22283281.710    91246310.968       -1110.284          38.000  
G05  21039778.082   110564783.449       -1457.890          45.000    21039795.022    86154470.032       -1135.993          35.000  
G06  24146366.459   126889995.729       -2273.269          36.000    24146397.301    98875447.851       -1772.276          29.000  
G13  20529722.654   107884425.628         881.588          47.000                                                                  
R21  20233357.676   108272804.810         732.019          48.000    20233377.147    84212266.906         569.196          37.000  
R06  19720988.674   105234968.747       -2756.363          36.000                                                                  
R07  19742276.183   105681962.640         951.923          49.000    19742296.232    82197162.534         740.478          44.000  
R22  23074879.445   123175294.259        2397.155          42.000    23074901.661    95803054.867        1864.396          34.000  
G12  23784812.276   124990043.271       -3159.009          43.000    23784836.503    97394940.521       -2462.036          35.000  
G15  21943444.518   115313585.761        2388.965          44.000    21943465.789    89854838.502        1861.725          37.000  
G29  22736065.267   119478812.056        2154.531          41.000    22736084.955    93100454.073        1678.954          35.000  
G20  22103397.689   116154139.188       -2443.225          36.000                                                                  
R20  21609693.431   115556782.281       -2094.656          27.000    21609732.234    89877651.207       -1628.232          28.000  
E03  23879262.468   125486365.766        -453.294          43.000    23879292.896    96152026.516        -347.184          39.000  
E08  25266678.606   132777292.725        1777.844          43.000    25266711.154   101738581.530        1362.071          42.000  
E05  25137635.612   132099159.404       -2774.206          32.000    25137673.514   101219003.583       -2125.057          29.000  
E27  26600957.150   139788960.187       -1858.157          42.000    26600998.474   107111197.812       -1423.948          37.000  
E34  25386292.153   133405879.343       -1091.942          41.000    25386327.023   102220226.030        -836.815          37.000  
E30  26959496.347   141673103.128       -3016.361          41.000    26959532.361   108554878.192       -2310.992          37.000  
E15  24869630.865   130690802.230         118.584          41.000    24869662.811   100139833.982          91.035          38.000  
R08                                                                  23443606.543    97641774.921        2475.922          29.000  
> 2025 04 04 10 55 01.0000000  0 21                     
G11  22283531.594   117100744.300       -1423.119          42.000    22283552.796    91247421.158       -1109.064          37.000  
G05  21040055.609   110566241.377       -1456.134          44.000    21040072.533    86155606.073       -1134.550          35.000  
G06  24146798.957   126892268.962       -2272.254          36.000    24146830.201    98877219.348       -1769.958          30.000  
G13  20529555.014   107883544.452         882.530          47.000                                                                  
R21  20233221.032   108272073.043         733.176          48.000    20233240.514    84211697.760         570.214          36.000  
R06  19721505.362   105237725.450       -2755.483          37.000                                                                  
R07  19742098.544   105681011.079         952.902          50.000    19742118.377    82196422.447         741.256          44.000  
R22  23074430.488   123172897.306        2398.625          43.000    23074452.612    95801190.580        1865.774          35.000  
G12  23785413.312   124993202.627       -3157.538          43.000    23785437.695    97397402.407       -2460.907          33.000  
G15  21942989.977   115311197.066        2390.205          44.000    21943011.276    89852977.191        1862.542          37.000  
G29  22735655.292   119476657.664        2155.797          42.000    22735674.961    93098775.328        1680.171          34.000  
G20  22103862.697   116156582.467       -2441.473          34.000                                                                  
R20  21610087.585   115558848.9343      -2093.116          30.000    21610123.848    89879279.973       -1627.479          40.000  
E03  23879348.693   125486819.348        -452.238          42.000    23879379.286    96152374.083        -346.588          39.000  
E08  25266340.635   132775515.163        1779.320          42.000    25266373.071   101737219.491        1363.287          43.000  
E05  25138163.777   132101933.463       -2772.572          31.000    25138204.758   101221133.2001      -2125.117          29.000  
E27  26601310.980   139790818.877       -1856.891          41.000    26601352.094   107112621.991       -1422.849          37.000  
E34  25386499.670   133406971.184       -1089.981          41.000    25386534.864   102221062.638        -835.371          38.000  
E30  26960070.131   141676124.5711      -3014.643          41.000    26960106.479   108557189.480       -2309.844          37.000  
E15  24869608.153   130690683.752         120.465          41.000    24869640.460   100139743.210          92.140          37.000  
R08                                                                  23443015.061    97639328.8873       2476.908          29.000  
> 2025 04 04 10 55 02.0000000  0 21                     
G11  22283802.623   117102168.852       -1426.060          42.000    22283823.923    91248531.221       -1110.881          37.000  
G05  21040333.054   110567699.194       -1459.568          44.000    21040349.954    86156742.020       -1136.977          34.000  
G06  24147231.566   126894542.016       -2274.731          38.000    24147262.325    98878990.388       -1771.611          30.000  
G13  20529387.411   107882663.488         879.385          47.000                                                                  
R21  20233084.366   108271341.258         730.358          48.000    20233103.829    84211128.548         568.093          37.000  
R06  19722021.915   105240482.421       -2758.254          37.000                                                                  
R07  19741920.885   105680059.907         949.594          50.000    19741940.714    82195682.643         738.550          44.000  
R22  23073981.417   123170499.820        2396.291          43.000    23074003.401    95799325.866        1863.570          35.000  
G12  23786014.544   124996361.640       -3160.077          42.000    23786038.832    97399863.905       -2461.810          34.000  
G15  21942535.427   115308808.295        2387.317          43.000    21942556.727    89851115.828        1859.972          38.000  
G29  22735245.343   119474503.190        2153.248          41.000    22735264.923    93097096.561        1677.384          35.000  
G20  22104327.623   116159025.416       -2444.287          34.000                                                                  
R20  21610480.881   115560942.9232      -2095.396          30.000    21610515.274    89880908.701       -1630.180          33.000  
E03  23879434.698   125487273.003        -454.442          42.000    23879465.769    96152721.645        -348.304          40.000  
E08  25266002.550   132773737.396        1776.919          43.000    25266034.883   101735857.316        1361.410          43.000  
E05  25138691.646   132104707.478       -2775.286          31.000    25138730.375   101223258.730       -2125.261          29.000  
E27  26601664.380   139792677.480       -1859.735          41.000    26601705.807   107114046.099       -1424.888          37.000  
E34  25386707.315   133408062.672       -1092.233          42.000    25386742.739   102221898.989        -837.370          38.000  
E30  26960644.231   141679140.592       -3017.094          41.000    26960680.640   108559500.454       -2311.377          37.000  
E15  24869585.192   130690564.852         118.170          41.000    24869617.787   100139652.090          90.684          37.000  
R08                                                                  23442425.334    97636872.6503       2476.135          29.000  
> 2025 04 04 10 55 03.0000000  0 21                     
G11  22284073.331   117103591.782       -1422.552          42.000    22284094.656    91249639.973       -1108.396          37.000  
G05  21040610.131   110569155.372       -1455.941          44.000    21040627.037    86157876.705       -1133.801          33.000  
G06  24147663.709   126896813.330       -2270.892          38.000    24147694.355    98880760.358       -1770.000          29.000  
G13  20529219.480   107881781.320         882.233          47.000                                                                  
R21  20232947.228   108270607.977         733.483          47.000    20232966.792    84210558.263         570.590          37.000  
R06  19722538.314   105243238.272       -2756.345          37.000                                                                  
R07  19741742.861   105679107.675         952.222          49.000    19741762.758    82194942.043         740.601          44.000  
R22  23073531.939   123168100.375        2399.722          43.000    23073553.941    95797459.660        1865.841          34.000  
G12  23786615.369   124999518.874       -3156.781          43.000    23786639.625    97402324.111       -2459.735          35.000  
G15  21942080.501   115306418.070        2390.101          43.000    21942101.909    89849253.278        1863.029          38.000  
G29  22734835.094   119472347.267        2156.214          41.000    22734854.597    93095416.593        1679.496          35.000  
G20  22104792.293   116161466.565       -2440.267          34.000                                                                  
R20  21610869.862   115563035.0811      -2092.314          30.000    21610906.668    89882536.384       -1627.759          33.000  
E03  23879520.780   125487725.320        -452.369          42.000    23879551.840    96153068.256        -346.751          40.000  
E08  25265663.937   132771958.071        1779.556          44.000    25265696.383   101734493.932        1363.565          42.000  
E05  25139219.105   132107480.022       -2772.213          31.000    25139258.239   101225383.188       -2124.340          29.000  
E27  26602017.878   139794534.547       -1856.816          42.000    26602059.239   107115469.069       -1422.969          37.000  
E34  25386914.532   133409152.462       -1089.256          41.000    25386950.017   102222734.038        -834.995          38.000  
E30  26961217.657   141682154.801       -3013.959          41.000    26961254.210   108561810.052       -2309.426          37.000  
E15  24869562.413   130690444.118         121.039          41.000    24869594.873   100139559.619          92.600          37.000  
R08                                                                  23441827.937    97634385.2602       2477.170          30.000  
> 2025 04 04 10 55 04.0000000  0 21                     
G11  22284344.155   117105014.941       -1423.731          42.000    22284365.579    91250748.945       -1109.308          37.000  
G05  21040887.182   110570611.853       -1457.071          44.000    21040904.361    86159011.627       -1134.492          34.000  
G06  24148095.907   126899084.991       -2272.244          38.000    24148126.394    98882530.365       -1770.320          30.000  
G13  20529051.794   107880899.752         880.789          47.000                                                                  
R21  20232810.188   108269875.050         732.283          46.000    20232829.850    84209988.179         570.229          35.000  
R06  19723054.848   105245994.771       -2757.484          37.000                                                                  
R07  19741565.201   105678156.234         950.661          49.000    19741585.028    82194202.027         739.496          44.000  
R22  23073082.426   123165700.816        2399.438          43.000    23073104.373    95795593.310        1866.173          34.000  
G12  23787216.214   125002676.190       -3157.825          44.000    23787240.475    97404784.360       -2460.669          34.000  
G15  21941625.704   115304028.160        2389.512          43.000    21941647.032    89847391.062        1861.685          38.000  
G29  22734424.974   119470191.684        2155.042          42.000    22734444.387    93093736.896        1679.297          36.000  
G20  22105256.893   116163907.745       -2441.411          34.000                                                                  
R20  21611261.204   115565128.419       -2093.597          29.000    21611298.104    89884164.444       -1628.271          36.000  
E03  23879606.883   125488178.104        -453.521          42.000    23879637.921    96153415.202        -347.399          39.000  
E08  25265325.405   132770178.920        1778.492          43.000    25265357.427   101733130.720        1362.788          44.000  
E05  25139746.613   132110252.875       -2773.479          30.000    25139785.217   101227507.878       -2125.561          29.000  
E27  26602371.444   139796391.920       -1857.837          42.000    26602412.584   107116892.253       -1423.433          37.000  
E34  25387121.691   133410242.327       -1090.295          39.000    25387157.361   102223569.085        -835.165          37.000  
E30  26961791.183   141685168.982       -3014.656          42.000    26961827.657   108564119.617       -2309.837          37.000  
E15  24869539.616   130690323.347         120.378          41.000    24869571.893   100139467.065          92.625          38.000  
R08                                                                  23441230.738    97631908.0692       2476.516          29.000  
> 2025 04 04 10 55 05.0000000  0 21                     
G11  22284615.137   117106438.831       -1424.229          42.000    22284636.519    91251858.458       -1109.766          38.000  
G05  21041164.412   110572069.094       -1457.261          44.000    21041181.764    86160147.214       -1135.993          35.000  
G06  24148528.221   126901357.331       -2272.820          37.000    24148558.747    98884301.125       -1770.840          31.000  
G13  20528884.265   107880019.363         880.040          47.000                                                                  
R21  20232673.478   108269143.057         731.755          48.000    20232693.007    84209418.894         569.063          36.000  
R06  19723571.690   105248752.477       -2758.198          37.000                                                                  
R07  19741387.664   105677206.102         949.608          49.000    19741407.497    82193463.040         738.639          44.000  
R22  23072633.007   123163301.694        2398.980          43.000    23072654.996    95793727.337        1865.647          34.000  
G12  23787817.183   125005834.071       -3158.081          42.000    23787841.467    97407245.047       -2460.883          34.000  
G15  21941171.071   115301639.163        2389.029          43.000    21941192.389    89845529.506        1861.111          38.000  
G29  22734015.054   119468036.986        2154.666          42.000    22734034.335    93092057.973        1678.463          36.000  
G20  22105721.549   116166349.506       -2442.125          34.000                                                                  
R20  21611652.287   115567222.768       -2095.201          30.000    21611689.722    89885793.328       -1628.866          35.000  
E03  23879693.021   125488631.886        -454.015          42.000    23879724.242    96153762.892        -347.743          39.000  
E08  25264987.065   132768400.562        1778.167          43.000    25265018.890   101731768.085        1362.394          42.000  
E05  25140274.444   132113026.621       -2774.358          31.000    25140312.652   101229633.212       -2125.487          29.000  
E27  26602725.212   139798250.136       -1858.424          42.000    26602766.345   107118316.085       -1424.222          37.000  
E34  25387329.295   133411332.820       -1090.383          40.000    25387364.744   102224404.658        -835.614          38.000  
E30  26962364.695   141688183.697       -3014.869          41.000    26962401.235   108566429.602       -2310.022          37.000  
E15  24869516.860   130690203.029         120.423          41.000    24869548.767   100139374.857          92.523          37.000  
R08                                                                  23440632.774    97629431.504        2476.960          28.000  
> 2025 04 04 10 55 06.0000000  0 21                     
G11  22284886.251   117107863.384       -1425.149          42.000    22284907.584    91252968.506       -1110.209          38.000  
G05  21041441.927   110573527.068       -1458.546          44.000    21041458.953    86161283.253       -1136.076          35.000  
G06  24148960.669   126903630.356       -2273.098          38.000    24148991.349    98886072.312       -1771.730          31.000  
G13  20528716.970   107879140.061         878.677          47.000                                                                  
R21  20232536.863   108268411.917         730.695          48.000    20232556.305    84208850.227         568.471          36.000  
R06  19724088.796   105251511.368       -2759.685          37.000                                                                  
R07  19741210.472   105676257.214         948.240          49.000    19741230.305    82192725.021         737.546          44.000  
R22  23072183.666   123160902.940        2398.390          43.000    23072205.624    95791861.644        1865.102          35.000  
G12  23788418.209   125008992.500       -3158.777          42.000    23788442.567    97409706.152       -2461.285          34.000  
G15  21940716.671   115299250.984        2387.867          44.000    21940737.844    89843668.567        1860.954          38.000  
G29  22733605.204   119465883.117        2153.203          43.000    22733624.359    93090379.617        1677.608          35.000  
G20  22106186.236   116168791.704       -2442.546          34.000                                                                  
R20  21612043.233   115569317.991       -2095.950          30.000    21612081.588    89887423.060       -1630.642          34.000  
E03  23879779.625   125489086.640        -455.483          42.000    23879810.659    96154111.355        -348.893          39.000  
E08  25264649.075   132766622.921        1777.306          44.000    25264680.586   101730405.983        1361.545          43.000  
E05  25140802.859   132115801.147       -2774.794          31.000    25140841.926   101231759.132       -2125.811          29.000  
E27  26603078.764   139800109.140       -1859.378          41.000    26603120.072   107119740.505       -1425.081          37.000  
E34  25387536.743   133412423.857       -1091.568          40.000    25387572.169   102225240.649        -836.307          38.000  
E30  26962938.361   141691198.872       -3015.443          41.000    26962974.924   108568739.930       -2310.562          36.000  
E15  24869494.092   130690083.194         119.446          41.000    24869525.825   100139283.049          91.860          36.000  
R08                                                                  23440036.031    97626955.658        2476.260          27.000  
> 2025 04 04 10 55 07.0000000  0 21                     
G11  22285157.245   117109288.544       -1425.521          41.000    22285178.758    91254079.042       -1110.968          38.000  
G05  21041719.528   110574985.676       -1459.026          44.000    21041736.499    86162419.844       -1137.012          35.000  
G06  24149393.348   126905903.962       -2274.263          38.000    24149423.923    98887843.949       -1771.245          31.000  
G13  20528549.915   107878261.729         877.819          47.000                                                                  
R21  20232400.401   108267681.565         729.831          48.000    20232419.857    84208282.186         567.408          36.000  
R06  19724606.084   105254271.371       -2760.703          37.000                                                                  
R07  19741033.460   105675309.479         947.064          49.000    19741053.203    82191987.895         736.570          44.000  
R22  23071734.297   123158504.450        2398.434          42.000    23071756.205    95789996.165        1864.926          35.000  
G12  23789019.326   125012151.373       -3159.131          42.000    23789043.634    97412167.623       -2461.652          34.000  
G15  21940262.341   115296863.569        2386.697          43.000    21940283.511    89841808.258        1859.909          38.000  
G29  22733195.479   119463729.990        2152.549          43.000    22733214.527    93088701.791        1677.947          34.000  
G20  22106651.202   116171234.326       -2442.306          34.000                                                                  
R20  21612436.366   115571414.206       -2096.850          31.000    21612473.451    89889053.398       -1630.685          33.000  
E03  23879866.466   125489542.217        -455.957          42.000    23879897.190    96154460.460        -349.490          39.000  
E08  25264310.733   132764845.865        1776.455          44.000    25264342.401   101729044.363        1361.182          43.000  
E05  25141331.530   132118576.384       -2775.398          32.000    25141369.279   101233885.699       -2126.441          30.000  
E27  26603432.908   139801968.838       -1860.150          42.000    26603474.100   107121165.451       -1425.608          37.000  
E34  25387744.604   133413515.354       -1091.909          40.000    25387780.010   102226076.984        -836.279          38.000  
E30  26963512.164   141694214.431       -3015.712          41.000    26963548.752   108571050.581       -2310.658          36.000  
E15  24869471.313   130689963.702         119.166          41.000    24869502.977   100139191.525          90.856          36.000  
R08                                                                  23439441.706                        2476.609          26.000  
> 2025 04 04 10 55 08.0000000  0 21                     
G11  22285428.624   117110714.490       -1425.508          42.000    22285450.097    91255190.110       -1110.307          37.000  
G05  21041997.206   110576445.066       -1458.426          45.000    21042014.496    86163557.040       -1136.021          35.000  
G06  24149826.219   126908178.378       -2273.690          37.000    24149856.904    98889616.183       -1771.449          31.000  
G13  20528382.980   107877384.606         877.410          47.000                                                                  
R21  20232264.130   108266952.130         730.132          48.000    20232283.466    84207714.861         567.570          36.000  
R06  19725123.705   105257032.636       -2760.958          37.000                                                                  
R07  19740856.645   105674363.115         946.792          50.000    19740876.372    82191251.843         736.364          44.000  
R22  23071285.000   123156106.456        2398.860          42.000    23071306.897    95788131.031        1866.088          35.000  
G12  23789620.500   125015310.893       -3158.862          42.000    23789644.920    97414629.588       -2461.377          35.000  
G15  21939808.173   115294477.025        2387.168          43.000    21939829.356    89839948.618        1860.226          39.000  
G29  22732785.788   119461577.732        2152.864          43.000    22732804.933    93087024.810        1676.969          35.000  
G20  22107116.299   116173677.550       -2441.939          33.000                                                                  
R20  21612828.889   115573511.659       -2100.480          30.000    21612865.625    89890684.729       -1631.420          32.000  
E03  23879953.225   125489998.919        -457.094          42.000    23879984.223    96154810.390        -349.957          39.000  
E08  25263972.825   132763069.647        1776.443          44.000    25264004.553   101727683.350        1361.111          42.000  
E05  25141860.201   132121352.589       -2776.432          33.000    25141897.560   101236012.881       -2127.913          30.000  
E27  26603786.811   139803829.417       -1860.375          41.000    26603828.077   107122591.119       -1426.023          37.000  
E34  25387952.053   133414607.518       -1092.097          40.000    25387987.707   102226913.857        -836.864          38.000  
E30  26964086.405   141697230.599       -3016.124          42.000    26964122.420   108573361.697       -2311.831          36.000  
E15  24869448.867   130689844.788         118.948          41.000    24869480.255   100139100.401          91.137          36.000  
R08                                                                  23438847.174                        2474.684          25.000  
> 2025 04 04 10 55 09.0000000  0 21                     
G11  22285699.887   117112140.457       -1426.002          42.000    22285721.482    91256301.289       -1111.323          37.000  
G05  21042274.896   110577904.600       -1459.759          44.000    21042292.139    86164694.339       -1137.353          34.000  
G06  24150259.210   126910452.845       -2274.715          38.000    24150289.869    98891388.514       -1772.190          34.000  
G13  20528216.166   107876507.937         876.368          47.000                                                                  
R21  20232127.959   108266222.969         728.956          47.000    20232147.117    84207147.706         566.873          36.000  
R06  19725641.323   105259794.442       -2762.522          37.000                                                                  
R07  19740679.966   105673417.407         945.238          50.000    19740699.881    82190516.309         735.106          44.000  
R22  23070835.688   123153708.182        2397.971          42.000    23070857.491    95786265.733        1865.307          34.000  
G12  23790221.720   125018470.287       -3159.430          42.000    23790246.099    97417091.474       -2462.036          35.000  
G15  21939354.106   115292090.714        2386.059          43.000    21939375.300    89838089.145        1859.335          39.000  
G29  22732376.273   119459425.733        2151.627          42.000    22732395.377    93085347.862        1676.479          35.000  
G20  22107581.501   116176120.633       -2443.366          34.000                                                                  
R20  21613221.201   115575609.6592      -2097.804          30.000    21613257.904    89892316.154       -1631.848          33.000  
E03  23880039.952   125490455.863        -457.355          42.000    23880070.975    96155160.510        -350.553          39.000  
E08  25263634.728   132761293.481        1775.783          44.000    25263666.383   101726322.389        1360.840          42.000  
E05  25142388.923   132124128.907       -2776.913          32.000    25142425.941   101238140.166       -2127.600          29.000  
E27  26604140.779   139805690.119       -1860.883          41.000    26604182.104   107124016.824       -1425.704          37.000  
E34  25388160.008   133415699.584       -1092.163          40.000    25388195.358   102227750.635        -836.784          38.000  
E30  26964660.212   141700246.533       -3016.273          41.000    26964696.280   108575672.580       -2311.165          36.000  
E15  24869426.412   130689725.630         119.056          42.000    24869457.651   100139009.089          91.153          38.000  
R08                                                                  23438250.350                        2472.816          26.000  
> 2025 04 04 10 55 10.0000000  0 21                     
G11  22285971.296   117113566.823       -1426.623          42.000    22285992.880    91257412.717       -1111.324          38.000  
G05  21042552.686   110579364.537       -1460.350          44.000    21042569.924    86165831.948       -1138.054          34.000  
G06  24150692.191   126912727.609       -2274.987          39.000    24150722.478    98893161.051       -1773.489          33.000  
G13  20528049.447   107875632.059         875.293          47.000                                                                  
R21  20231991.691   108265494.325         728.511          46.000    20232010.911    84206581.026         566.468          36.000  
R06  19726159.010   105262557.103       -2763.287          37.000                                                                  
R07  19740503.561   105672472.714         944.084          49.000    19740523.434    82189781.547         734.190          44.000  
R22  23070386.452   123151309.954        2398.286          42.000    23070408.119    95784400.417        1865.147          35.000  
G12  23790822.991   125021629.955       -3159.906          42.000    23790847.461    97419553.588       -2462.573          34.000  
G15  21938900.074   115289704.908        2385.466          43.000    21938921.305    89836230.105        1858.608          39.000  
G29  22731966.851   119457274.214        2151.202          43.000    22731985.965    93083671.383        1676.527          35.000  
G20  22108046.599   116178563.865       -2442.719          32.000                                                                  
R20  21613613.508   115577707.9702      -2098.658          30.000    21613650.210    89893948.210       -1632.758          31.000  
E03  23880126.917   125490913.466        -458.289          42.000    23880158.023    96155511.159        -351.044          39.000  
E08  25263296.884   132759517.697        1775.337          44.000    25263328.576   101724961.743        1360.302          42.000  
E05  25142917.286   132126905.708       -2777.679          32.000    25142954.231   101240267.925       -2128.581          29.000  
E27  26604495.146   139807551.327       -1861.716          42.000    26604536.148   107125442.956       -1426.775          37.000  
E34  25388367.775   133416791.912       -1092.631          41.000    25388403.113   102228587.616        -837.220          38.000  
E30  26965234.234   141703262.649       -3016.455          42.000    26965270.262   108577983.629       -2311.491          36.000  
E15  24869403.770   130689606.617         118.822          42.000    24869434.978   100138917.900          91.054          37.000  
R08                                                                  23437654.740                        2475.482          24.000  
> 2025 04 04 10 55 11.0000000  0 21                     
G11  22286242.933   117114993.879       -1427.615          42.000    22286264.429    91258524.719       -1112.399          37.000  
G05  21042830.693   110580825.233       -1461.100          44.000    21042847.819    86166970.181       -1138.930          33.000  
G06  24151125.249   126915003.111       -2275.863          37.000    24151155.787    98894934.197       -1772.815          32.000  
G13  20527882.923   107874757.293         873.980          47.000                                                                  
R21  20231855.762   108264766.628         727.081          47.000    20231874.891    84206014.992         565.730          36.000  
R06  19726676.875   105265320.953       -2764.676          38.000                                                                  
R07  19740327.315   105671529.378         942.387          49.000    19740347.328    82189047.854         732.728          44.000  
R22  23069937.301   123148912.136        2397.030          42.000    23069958.968    95782535.470        1864.553          34.000  
G12  23791424.305   125024790.195       -3160.620          42.000    23791448.801    97422016.076       -2462.402          35.000  
G15  21938446.190   115287319.973        2384.330          43.000    21938467.368    89834371.729        1857.758          39.000  
G29  22731557.617   119455123.569        2150.241          43.000    22731576.693    93081995.547        1675.154          34.000  
G20  22108511.723   116181007.680       -2444.498          31.000                                                                  
R20  21614005.985   115579806.855       -2099.914          30.000    21614042.957    89895581.071       -1633.632          33.000  
E03  23880214.008   125491372.057        -459.485          41.000    23880245.230    96155862.552        -351.863          39.000  
E08  25262958.549   132757742.637        1774.646          44.000    25262990.750   101723601.652        1359.639          43.000  
E05  25143445.240   132129683.351       -2778.768          32.000    25143482.844   101242396.212       -2128.860          29.000  
E27  26604849.623   139809413.324       -1862.784          42.000    26604890.345   107126869.651       -1426.993          37.000  
E34  25388575.771   133417884.811       -1093.568          40.000    25388610.990   102229425.041        -837.724          38.000  
E30  26965808.466   141706279.250       -3017.239          42.000    26965844.289   108580295.070       -2312.080          37.000  
E15  24869381.173   130689488.078         117.842          42.000    24869412.253   100138827.067          90.653          38.000  
R08                                                                  23437059.223                        2479.347          21.000  
> 2025 04 04 10 55 12.0000000  0 21                     
G11  22286514.669   117116421.843       -1428.513          42.000    22286536.166    91259637.431       -1112.790          36.000  
G05  21043108.957   110582286.864       -1462.084          45.000    21043126.139    86168109.104       -1139.143          34.000  
G06  24151558.337   126917279.582       -2277.194          38.000    24151589.203    98896708.031       -1774.389          31.000  
G13  20527716.679   107873883.833         872.771          47.000                                                                  
R21  20231720.114   108264039.965         726.098          47.000    20231739.107    84205449.823         565.603          36.000  
R06  19727194.925   105268086.189       -2765.750          37.000                                                                  
R07  19740151.405   105670587.549         940.962          49.000    19740171.385    82188315.318         732.008          43.000  
R22  23069488.130   123146514.883        2397.248          42.000    23069509.937    95780670.923        1864.489          35.000  
G12  23792025.851   125027951.172       -3161.340          42.000    23792050.333    97424479.184       -2463.269          35.000  
G15  21937992.490   115284936.054        2383.271          43.000    21938013.793    89832514.137        1856.927          38.000  
G29  22731148.563   119452973.953        2149.199          43.000    22731167.611    93080320.548        1674.938          34.000  
G20  22108977.146   116183452.214       -2444.762          36.000                                                                  
R20  21614398.865   115581907.357       -2101.428          31.000    21614435.492    89897214.715       -1634.511          33.000  
E03  23880301.485   125491831.789        -460.295          42.000    23880332.703    96156214.827        -352.572          39.000  
E08  25262620.938   132755968.530        1773.618          44.000    25262653.151   101722242.261        1359.070          42.000  
E05  25143974.343   132132462.029       -2779.910          32.000    25144011.518   101244525.349       -2129.105          29.000  
E27  26605204.099   139811276.291       -1863.385          42.000    26605244.893   107128297.150       -1427.839          36.000  
E34  25388783.744   133418978.516       -1094.203          40.000    25388819.161   102230263.049        -838.084          37.000  
E30  26966382.550   141709296.547       -3017.533          41.000    26966418.450   108582607.033       -2312.529          37.000  
E15  24869358.481   130689370.173         117.594          42.000    24869389.643   100138736.762          89.698          38.000  
R08                                                                  23436463.498                        2472.724          18.000  
> 2025 04 04 10 55 13.0000000  0 21                     
G11  22286786.598   117117850.919       -1429.490          41.000    22286808.165    91260750.981       -1114.212          37.000  
G05  21043387.367   110583749.651       -1463.479          44.000    21043404.438    86169248.960       -1140.473          35.000  
G06  24151991.863   126919557.094       -2277.880          38.000    24152022.744    98898482.699       -1774.925          34.000  
G13  20527550.736   107873011.874         871.251          47.000                                                                  
R21  20231584.630   108263314.577         724.704          47.000    20231603.458    84204885.665         563.273          36.000  
R06  19727713.396   105270853.024       -2767.505          37.000                                                                  
R07  19739975.609   105669647.387         939.342          49.000    19739995.659    82187584.077         730.634          43.000  
R22  23069039.163   123144118.435        2396.235          42.000    23069060.866    95778807.013        1863.615          34.000  
G12  23792627.440   125031113.084       -3162.274          42.000    23792652.072    97426943.011       -2464.673          35.000  
G15  21937538.993   115282553.378        2382.117          42.000    21937560.395    89830657.499        1856.390          38.000  
G29  22730739.711   119450825.563        2148.105          43.000    22730758.651    93078646.453        1673.696          34.000  
G20  22109442.499   116185897.583       -2445.975          35.000                                                                  
R20  21614792.073   115584009.270       -2102.013          31.000    21614828.436    89898849.539       -1634.913          33.000  
E03  23880389.394   125492292.927        -462.030          41.000    23880420.495    96156568.155        -353.761          39.000  
E08  25262283.347   132754195.518        1772.556          43.000    25262315.732   101720883.730        1358.105          42.000  
E05  25144503.427   132135241.922       -2780.999          33.000    25144540.283   101246655.400       -2130.276          29.000  
E27  26605559.116   139813140.508       -1864.965          42.000    26605599.585   107129725.546       -1429.008          36.000  
E34  25388991.883   133420073.178       -1095.341          39.000    25389027.353   102231101.825        -838.769          37.000  
E30  26966957.103   141712314.721       -3018.648          42.000    26966992.701   108584919.655       -2313.219          36.000  
E15  24869336.187   130689253.165         116.460          41.000    24869367.443   100138647.080          89.356          37.000  
R08                                                                  23435870.364                        2466.817          17.000  
> 2025 04 04 10 55 14.0000000  0 21                     
G11  22287058.694   117119280.866       -1430.441          41.000    22287080.252    91261865.199       -1114.090          37.000  
G05  21043665.972   110585213.374       -1464.025          44.000    21043682.995    86170389.475       -1140.264          35.000  
G06  24152425.407   126921835.440       -2278.652          39.000    24152456.542    98900258.070       -1775.598          34.000  
G13  20527385.008   107872141.232         870.097          47.000                                                                  
R21  20231449.353   108262590.295         723.992          47.000    20231468.065    84204322.319         563.052          36.000  
R06  19728232.302   105273621.252       -2768.464          37.000                                                                  
R07  19739800.040   105668708.678         938.121          49.000    19739820.263    82186853.980         729.554          44.000  
R22  23068590.363   123141722.563        2395.516          43.000    23068612.156    95776943.575        1862.876          34.000  
G12  23793229.241   125034275.749       -3163.043          43.000    23793254.000    97429407.389       -2464.215          35.000  
G15  21937085.744   115280171.747        2381.319          42.000    21937107.178    89828801.705        1855.216          39.000  
G29  22730331.049   119448678.239        2147.184          43.000    22730349.969    93076973.219        1672.845          34.000  
G20  22109907.944   116188343.758       -2446.425          34.000                                                                  
R20  21615185.439   115586112.454       -2104.383          31.000    21615221.702    89900485.316       -1635.914          32.000  
E03  23880477.272   125492755.181        -462.420          41.000    23880508.489    96156922.364        -354.374          39.000  
E08  25261946.117   132752423.426        1771.995          43.000    25261978.429   101719525.896        1357.604          42.000  
E05  25145032.896   132138022.867       -2781.876          33.000    25145069.455   101248786.255       -2131.151          29.000  
E27  26605914.168   139815005.685       -1865.732          42.000    26605954.476   107131154.698       -1429.300          36.000  
E34  25389200.255   133421168.602       -1095.490          40.000    25389235.789   102231941.204        -839.753          38.000  
E30  26967531.716   141715333.571       -3019.221          42.000    26967567.115   108587232.800       -2313.446          36.000  
E15  24869313.955   130689136.791         116.146          41.000    24869345.361   100138557.940          88.913          38.000  
R08                                                                  23435276.283                        2473.661          19.000  
> 2025 04 04 10 55 15.0000000  0 21                     
G11  22287331.004   117120711.613       -1431.506          42.000    22287352.660    91262980.118       -1115.792          37.000  
G05  21043944.563   110586677.981       -1465.349          45.000    21043961.750    86171530.739       -1141.634          35.000  
G06  24152859.173   126924114.669       -2279.890          39.000    24152890.384    98902034.095       -1776.537          33.000  
G13  20527219.632   107871271.824         868.461          46.000                                                                  
R21  20231314.158   108261867.044         722.468          47.000    20231332.848    84203759.770         562.136          36.000  
R06  19728751.437   105276390.823       -2770.669          37.000                                                                  
R07  19739624.820   105667771.337         936.359          49.000    19739645.127    82186124.942         728.374          44.000  
R22  23068141.539   123139327.224        2394.730          42.000    23068163.469    95775080.521        1862.836          35.000  
G12  23793831.175   125037439.074       -3163.910          43.000    23793856.054    97431872.387       -2465.491          35.000  
G15  21936632.648   115277791.105        2379.907          43.000    21936654.128    89826946.648        1854.339          38.000  
G29  22729922.555   119446531.871        2145.547          42.000    22729941.494    93075300.758        1671.414          35.000  
G20  22110373.492   116190790.505       -2447.127          34.000                                                                  
R20  21615579.206   115588216.653       -2104.388          31.000    21615615.227    89902121.979       -1637.170          31.000  
E03  23880565.553   125493218.562        -464.027          42.000    23880596.753    96157277.434        -355.761          39.000  
E08  25261608.865   132750652.186        1770.777          43.000    25261641.461   101718168.733        1356.503          42.000  
E05  25145561.998   132140804.692       -2782.365          33.000    25145598.953   101250917.773       -2131.195          29.000  
E27  26606269.402   139816871.780       -1866.708          42.000    26606309.567   107132584.573       -1430.363          36.000  
E34  25389408.811   133422264.747       -1096.542          40.000    25389444.370   102232781.092        -840.544          37.000  
E30  26968106.050   141718353.032       -3019.971          41.000    26968141.649   108589546.405       -2313.855          37.000  
E15  24869291.937   130689021.006         115.309          42.000    24869323.303   100138469.203          88.425          38.000  
R08                                                                  23434683.994                        2467.318          18.000  
> 2025 04 04 10 55 16.0000000  0 21                     
G11  22287603.553   117122144.235       -1434.826          41.000    22287625.199    91264096.422       -1117.988          37.000  
G05  21044223.628   110588144.488       -1468.867          45.000    21044240.839    86172673.484       -1144.650          35.000  
G06  24153293.189   126926395.727       -2283.236          39.000    24153324.455    98903811.504       -1778.848          32.000  
G13  20527054.421   107870404.668         864.698          46.000                                                                  
R21  20231179.394   108261145.834         718.805          47.000    20231198.276    84203198.849         558.766          36.000  
R06  19729270.709   105279162.717       -2774.321          37.000                                                                  
R07  19739450.155   105666836.460         932.242          49.000    19739470.530    82185397.822         725.190          44.000  
R22  23067693.221   123136933.416        2391.374          42.000    23067715.027    95773218.723        1859.880          36.000  
G12  23794433.401   125040604.125       -3167.181          42.000    23794458.424    97434338.675       -2469.031          36.000  
G15  21936179.980   115275412.471        2376.367          43.000    21936201.529    89825093.172        1851.299          38.000  
G29  22729514.508   119444387.510        2142.138          42.000    22729533.456    93073629.815        1669.316          35.000  
G20  22110839.565   116193238.978       -2450.931          34.000                                                                  
R20  21615973.281   115590323.185       -2109.438          30.000    21616009.150    89903760.440       -1641.639          31.000  
E03  23880654.363   125493684.058        -467.948          42.000    23880685.334    96157634.114        -358.491          39.000  
E08  25261272.053   132748882.820        1766.934          43.000    25261304.809   101716812.990        1353.949          42.000  
E05  25146091.893   132143588.579       -2786.971          32.000    25146128.632   101253050.923       -2135.123          30.000  
E27  26606624.904   139818739.849       -1870.549          42.000    26606665.039   107134015.956       -1433.228          36.000  
E34  25389617.894   133423362.622       -1100.181          40.000    25389653.341   102233622.328        -843.132          38.000  
E30  26968680.923   141721374.145       -3023.390          41.000    26968716.594   108591861.287       -2316.272          36.000  
E15  24869270.597   130688906.840         111.969          42.000    24869301.732   100138381.764          85.307          38.000  
R08                                                                  23434092.932                        2470.226          21.000  
> 2025 04 04 10 55 17.0000000  0 21                     
G11  22287876.335   117123577.722       -1433.247          37.000    22287898.023    91265213.540       -1117.276          33.000  
G05  21044502.903   110589611.922       -1467.283          44.000    21044520.111    86173816.933       -1142.817          35.000  
G06  24153727.459   126928677.641       -2281.487          37.000    24153758.794    98905589.735       -1778.627          33.000  
G13  20526889.680   107869538.797         865.831          47.000                                                                  
R21  20231044.779   108260425.664         720.214          47.000    20231063.816    84202638.777         560.149          35.000  
R06  19729790.489   105281936.014       -2773.258          37.000                                                                  
R07  19739275.776   105665903.062         933.277          49.000    19739296.248    82184671.858         725.749          44.000  
R22  23067244.810   123134540.212        2393.514          42.000    23067266.864    95771357.363        1861.498          35.000  
G12  23795035.831   125043769.895       -3165.600          42.000    23795060.820    97436805.481       -2466.235          35.000  
G15  21935727.506   115273034.816        2377.646          43.000    21935749.142    89823240.455        1852.878          38.000  
G29  22729106.705   119442244.188        2143.530          42.000    22729125.554    93071959.681        1670.552          34.000  
G20  22111305.742   116195688.026       -2449.494          35.000                                                                  
R20  21616367.583   115592430.820       -2107.396          34.000    21616402.917    89905399.594       -1639.511          37.000  
E03  23880743.351   125494150.712        -466.590          42.000    23880774.137    96157991.662        -357.314          39.000  
E08  25260935.756   132747114.364        1768.416          42.000    25260968.126   101715457.917        1355.089          42.000  
E05  25146622.040   132146373.383       -2784.575          32.000    25146658.775   101255184.714       -2133.215          31.000  
E27  26606980.521   139820608.856       -1868.767          42.000    26607020.729   107135448.063       -1432.140          36.000  
E34  25389826.578   133424461.221       -1098.316          36.000    25389862.485   102234464.146        -841.486          34.000  
E30  26969255.867   141724395.919       -3021.507          41.000    26969291.562   108594176.650       -2315.014          36.000  
E15  24869249.036   130688793.303         113.747          42.000    24869280.144   100138294.738          87.282          38.000  
R08                                                                  23433503.157                        2469.052          23.000  
> 2025 04 04 10 55 18.0000000  0 21                     
G11  22288149.067   117125011.053       -1433.981          39.000    22288170.775    91266330.356       -1117.510          33.000  
G05  21044782.065   110591079.233       -1467.832          44.000    21044799.409    86174960.293       -1143.656          35.000  
G06  24154161.633   126930959.414       -2282.094          39.000    24154192.750    98907367.598       -1778.492          30.000  
G13  20526724.972   107868673.173         864.761          47.000                                                                  
R21  20230910.212   108259705.499         719.327          48.000    20230929.264    84202078.608         559.703          35.000  
R06  19730310.272   105284709.593       -2774.350          37.000                                                                  
R07  19739101.388   105664970.097         931.954          49.000    19739121.953    82183946.205         725.100          44.000  
R22  23066796.476   123132146.458        2393.641          42.000    23066818.407    95769495.542        1861.621          35.000  
G12  23795638.246   125046935.350       -3165.979          44.000    23795663.226    97439272.046       -2466.980          35.000  
G15  21935275.048   115270657.154        2376.688          43.000    21935296.661    89821387.746        1852.282          38.000  
G29  22728698.731   119440100.799        2142.721          42.000    22728717.680    93070289.531        1669.461          34.000  
G20  22111771.807   116198136.873       -2449.557          34.000                                                                  
R20  21616761.839   115594538.543       -2107.929          34.000    21616796.825    89907038.934       -1639.606          35.000  
E03  23880832.354   125494617.444        -467.342          42.000    23880863.050    96158349.295        -358.081          39.000  
E08  25260598.722   132745345.718        1768.097          42.000    25260631.467   101714102.759        1354.668          42.000  
E05  25147152.134   132149158.158       -2785.042          33.000    25147188.908   101257318.525       -2134.205          30.000  
E27  26607336.109   139822477.817       -1869.629          42.000    26607376.476   107136880.092       -1432.500          36.000  
E34  25390035.081   133425559.545       -1098.762          40.000    25390071.607   102235305.680        -842.076          35.000  
E30  26969830.807   141727417.278       -3021.787          41.000    26969866.655   108596491.758       -2315.679          36.000  
E15  24869227.672   130688679.370         113.419          42.000    24869258.487   100138207.447          87.027          38.000  
R08                                                                  23432914.047                        2467.423          24.000  
> 2025 04 04 10 55 19.0000000  0 21                     
G11  22288422.029   117126445.724       -1435.066          41.000    22288443.792    91267448.236       -1118.681          38.000  
G05  21045061.502   110592547.870       -1468.875          45.000    21045079.016    86176104.701       -1144.755          35.000  
G06  24154596.027   126933242.485       -2283.314          39.000    24154627.266    98909146.681       -1778.908          31.000  
G13  20526560.612   107867809.235         863.396          47.000                                                                  
R21  20230775.973   108258986.788         718.342          47.000    20230794.794    84201519.619         558.672          36.000  
R06  19730830.442   105287484.949       -2776.096          37.000                                                                  
R07  19738927.323   105664039.030         930.508          49.000    19738948.025    82183222.061         723.571          44.000  
R22  23066348.340   123129753.736        2392.462          43.000    23066370.321    95767634.582        1860.850          35.000  
G12  23796240.855   125050101.935       -3166.705          43.000    23796265.841    97441739.538       -2467.963          36.000  
G15  21934822.851   115268280.928        2375.839          43.000    21934844.547    89819536.145        1851.278          39.000  
G29  22728291.073   119437958.843        2141.890          42.000    22728310.100    93068620.472        1668.921          34.000  
G20  22112237.801   116200586.721       -2449.968          31.000                                                                  
R20  21617156.402   115596647.947       -2111.031          32.000    21617191.017    89908679.474       -1639.786          26.000  
E03  23880921.553   125495085.724        -468.479          42.000    23880952.141    96158708.140        -359.119          39.000  
E08  25260262.547   132743578.433        1766.905          43.000    25260295.253   101712748.609        1353.937          42.000  
E05  25147682.783   132151944.331       -2786.470          32.000    25147719.069   101259453.406       -2134.257          30.000  
E27  26607692.050   139824348.153       -1870.318          42.000    26607732.479   107138313.236       -1433.635          36.000  
E34  25390244.932   133426659.078       -1099.582          41.000    25390280.803   102236148.181        -842.780          38.000  
E30  26970405.947   141730439.727       -3022.354          41.000    26970441.803   108598807.633       -2315.846          36.000  
E15  24869206.038   130688566.460         112.864          43.000    24869236.866   100138120.940          86.256          37.000  
R08                                                                  23432323.476                        2466.380          25.000  
> 2025 04 04 10 55 20.0000000  0 21                     
G11  22288695.116   117127880.949       -1435.977          41.000    22288717.022    91268566.609       -1118.949          35.000  
G05  21045341.123   110594017.218       -1470.112          45.000    21045358.663    86177249.623       -1145.737          36.000  
G06  24155030.542   126935526.172       -2284.021          40.000    24155061.680    98910926.180       -1780.475          31.000  
G13  20526396.324   107866946.346         861.929          47.000                                                                  
R21  20230641.727   108258268.938         717.080          47.000    20230660.655    84200961.295         557.255          36.000  
R06  19731350.656   105290261.443       -2777.269          36.000                                                                  
R07  19738753.629   105663109.226         928.706          49.000    19738774.296    82182498.876         722.449          44.000  
R22  23065900.180   123127361.353        2391.728          42.000    23065922.097    95765773.833        1860.120          35.000  
G12  23796843.540   125053269.004       -3167.719          43.000    23796868.637    97444207.377       -2468.738          35.000  
G15  21934370.807   115265905.476        2374.705          43.000    21934392.489    89817685.168        1850.062          39.000  
G29  22727883.525   119435817.691        2140.529          42.000    22727902.701    93066952.024        1668.268          34.000  
G20  22112704.008   116203037.032       -2450.925          34.000                                                                  
R20  21617551.037   115598758.199       -2111.456          32.000    21617585.434    89910320.863       -1641.128          32.000  
E03  23881010.964   125495554.933        -470.019          42.000    23881041.515    96159067.649        -360.202          39.000  
E08  25259926.295   132741811.792        1765.778          43.000    25259959.113   101711394.956        1353.093          42.000  
E05  25148213.614   132154731.356       -2788.052          33.000    25148249.436   101261588.953       -2136.498          30.000  
E27  26608048.287   139826219.245       -1871.863          42.000    26608088.673   107139746.899       -1434.224          37.000  
E34  25390454.430   133427759.045       -1100.747          40.000    25390490.153   102236991.013        -843.403          37.000  
E30  26970981.314   141733462.622       -3023.584          42.000    26971017.044   108601123.893       -2316.940          37.000  
E15  24869184.548   130688453.988         111.794          42.000    24869215.318   100138034.749          85.628          37.000  
R08                                                                  23431733.726                        2468.062          25.000  
> 2025 04 04 10 55 21.0000000  0 21                     
G11  22288968.311   117129316.993       -1436.156          41.000    22288990.299    91269685.572       -1118.778          37.000  
G05  21045620.896   110595487.346       -1470.007          45.000    21045638.422    86178395.200       -1145.387          35.000  
G06  24155465.184   126937810.609       -2283.950          39.000    24155496.235    98912706.303       -1779.937          31.000  
G13  20526232.266   107866084.645         861.417          46.000                                                                  
R21  20230507.631   108257552.042         716.881          47.000    20230526.677    84200403.691         557.725          36.000  
R06  19731871.149   105293039.204       -2778.091          36.000                                                                  
R07  19738580.040   105662180.777         928.240          49.000    19738600.807    82181776.756         722.112          44.000  
R22  23065452.051   123124969.430        2392.212          42.000    23065473.956    95763913.396        1860.813          34.000  
G12  23797446.302   125056436.696       -3167.535          43.000    23797471.436    97446675.705       -2468.378          35.000  
G15  21933918.882   115263530.938        2374.409          43.000    21933940.654    89815834.870        1850.255          39.000  
G29  22727476.176   119433677.434        2140.187          42.000    22727495.384    93065284.325        1667.579          34.000  
G20  22113170.452   116205487.951       -2450.642          35.000                                                                  
R20  21617946.069   115600869.536       -2111.551          33.000    21617980.118    89911963.026       -1642.129          27.000  
E03  23881100.370   125496025.172        -470.508          42.000    23881130.899    96159427.969        -360.427          39.000  
E08  25259590.212   132740045.936        1765.854          43.000    25259622.872   101710041.896        1353.279          42.000  
E05  25148744.180   132157519.168       -2787.671          33.000    25148779.886   101263725.094       -2136.366          30.000  
E27  26608404.658   139828091.184       -1871.935          43.000    26608445.027   107141181.231       -1434.114          37.000  
E34  25390663.694   133428859.706       -1100.605          40.000    25390699.732   102237834.378        -843.188          37.000  
E30  26971556.640   141736486.040       -3023.223          42.000    26971592.518   108603440.539       -2316.658          37.000  
E15  24869163.147   130688342.035         111.847          42.000    24869193.914   100137948.984          85.804          38.000  
R08                                                                  23431143.190                        2469.393          23.000  
> 2025 04 04 10 55 22.0000000  0 21                     
G11  22289241.551   117130753.174       -1436.849          42.000    22289263.647    91270804.640       -1119.527          40.000  
G05  21045900.690   110596957.665       -1471.057          45.000    21045918.360    86179540.880       -1146.170          35.000  
G06  24155899.930   126940095.200       -2285.439          40.000    24155931.022    98914486.504       -1780.605          31.000  
G13  20526068.243   107865223.468         860.277          46.000                                                                  
R21  20230373.614   108256835.418         715.835          47.000    20230392.750    84199846.332         556.684          37.000  
R06  19732391.769   105295817.551       -2779.134          37.000                                                                  
R07  19738406.700   105661253.023         926.769          49.000    19738427.503    82181055.161         720.898          44.000  
R22  23065003.915   123122577.252        2391.595          42.000    23065025.795    95762052.873        1860.132          34.000  
G12  23798048.945   125059604.356       -3168.036          43.000    23798074.249    97449144.006       -2468.433          35.000  
G15  21933467.033   115261156.664        2373.394          43.000    21933488.921    89813984.785        1849.514          38.000  
G29  22727068.905   119431537.483        2139.080          42.000    22727088.188    93063616.840        1666.840          35.000  
G20  22113637.030   116207938.768       -2451.844          32.000                                                                  
R20  21618340.948   115602981.331       -2113.156          28.000    21618375.443                       -1647.912          25.000  
E03  23881189.568   125496495.808        -471.541          42.000    23881220.501    96159788.577        -361.180          40.000  
E08  25259254.321   132738280.216        1764.847          43.000    25259286.828   101708688.961        1352.365          42.000  
E05  25149275.326   132160307.278       -2788.771          34.000    25149310.514   101265861.433       -2137.451          31.000  
E27  26608760.887   139829963.337       -1872.990          42.000    26608801.285   107142615.776       -1435.272          37.000  
E34  25390873.263   133429960.405       -1101.386          41.000    25390909.101   102238677.759        -843.957          40.000  
E30  26972132.231   141739509.356       -3023.806          42.000    26972167.633   108605757.119       -2317.267          36.000  
E15  24869141.800   130688229.929         111.339          42.000    24869172.637   100137863.086          85.398          37.000  
R08                                                                  23430553.861    97587428.7193       2465.000          26.000  
> 2025 04 04 10 55 23.0000000  0 21                     
G11  22289515.136   117132190.382       -1437.833          38.000    22289537.306    91271924.670       -1120.249          35.000  
G05  21046180.697   110598429.158       -1471.998          45.000    21046198.384    86180687.480       -1146.499          35.000  
G06  24156334.812   126942380.829       -2285.729          39.000    24156365.938    98916267.523       -1780.694          29.000  
G13  20525904.640   107864363.808         858.994          47.000                                                                  
R21  20230239.921   108256120.132         714.891          46.000    20230259.033    84199289.995         555.859          36.000  
R06  19732912.690   105298597.529       -2780.449          37.000                                                                  
R07  19738233.670   105660326.971         925.536          49.000    19738254.458    82180334.914         719.464          43.000  
R22  23064555.897   123120185.921        2391.292          43.000    23064577.845    95760192.945        1859.758          34.000  
G12  23798651.983   125062773.009       -3168.927          43.000    23798677.235    97451613.112       -2469.196          35.000  
G15  21933015.338   115258783.638        2372.820          43.000    21933037.384    89812135.699        1848.655          39.000  
G29  22726661.863   119429398.736        2138.283          43.000    22726681.105    93061950.291        1666.382          34.000  
G20  22114103.832   116210390.538       -2451.682          34.000                                                                  
R20  21618736.098   115605094.543       -2113.286          33.000    21618766.535                       -1643.829          35.000  
E03  23881279.525   125496967.819        -472.529          42.000    23881310.221    96160150.214        -361.852          40.000  
E08  25258918.385   132736515.636        1764.148          43.000    25258951.092   101707336.899        1351.790          42.000  
E05  25149805.786   132163096.609       -2789.072          33.000    25149841.522   101267998.678       -2137.203          31.000  
E27  26609117.304   139831836.739       -1873.754          42.000    26609157.710   107144051.200       -1435.773          37.000  
E34  25391082.474   133431061.918       -1102.113          37.000    25391118.744   102239521.853        -844.269          33.000  
E30  26972707.645   141742533.595       -3024.266          42.000    26972743.049   108608074.372       -2317.398          36.000  
E15  24869120.501   130688118.725         111.150          43.000    24869151.554   100137777.867          85.137          38.000  
R08                                                                  23429963.086    97584968.1372       2463.615          26.000  
> 2025 04 04 10 55 24.0000000  0 21                     
G11  22289788.746   117133628.249       -1438.192          38.000    22289811.022    91273045.018       -1120.033          34.000  
G05  21046460.799   110599901.268       -1472.420          44.000    21046478.552    86181834.565       -1146.462          34.000  
G06  24156769.947   126944667.122       -2286.398          39.000    24156800.911    98918049.018       -1780.657          29.000  
G13  20525741.224   107863505.131         858.165          47.000                                                                  
R21  20230106.368   108255405.573         713.942          46.000    20230125.587    84198734.269         555.197          36.000  
R06  19733433.782   105301378.585       -2781.853          37.000                                                                  
R07  19738060.877   105659402.113         924.303          49.000    19738081.610    82179615.567         718.958          43.000  
R22  23064108.020   123117794.851        2391.021          43.000    23064129.750    95758333.216        1859.670          35.000  
G12  23799255.017   125065942.079       -3169.281          43.000    23799280.264    97454082.525       -2469.708          35.000  
G15  21932563.871   115256411.384        2371.881          43.000    21932585.965    89810287.168        1848.485          39.000  
G29  22726254.982   119427260.735        2137.603          42.000    22726274.203    93060284.332        1664.837          34.000  
G20  22114570.404   116212842.649       -2451.705          34.000                                                                  
R20  21619131.487   115607208.595       -2114.057          33.000    21619157.494    89916846.4773      -1643.690          33.000  
E03  23881369.496   125497440.672        -473.210          43.000    23881400.144    96160512.565        -362.689          39.000  
E08  25258582.503   132734751.706        1763.747          43.000    25258615.235   101705985.285        1351.473          43.000  
E05  25150336.132   132165886.658       -2789.804          33.000    25150372.460   101270136.548       -2138.167          31.000  
E27  26609473.892   139833710.777       -1874.226          42.000    26609514.317   107145487.191       -1436.586          37.000  
E34  25391291.918   133432164.067       -1102.621          39.000    25391328.420   102240366.288        -844.557          36.000  
E30  26973283.079   141745558.182       -3024.697          42.000    26973318.545   108610391.909       -2317.191          36.000  
E15  24869099.651   130688007.865         110.808          42.000    24869130.410   100137692.944          84.734          38.000  
R08                                                                  23429369.738    97582503.8992       2463.222          26.000  
> 2025 04 04 10 55 25.0000000  0 21                     
G11  22290062.553   117135066.826       -1439.127          39.000    22290084.650    91274166.037       -1122.205          35.000  
G05  21046741.032   110601374.140       -1473.658          45.000    21046758.862    86182982.299       -1148.190          35.000  
G06  24157205.210   126946954.102       -2287.670          39.000    24157236.226    98919831.111       -1782.561          34.000  
G13  20525578.072   107862647.592         856.680          46.000                                                                  
R21  20229972.888   108254691.954         712.663          46.000    20229992.283    84198179.193         554.748          37.000  
R06  19733955.202   105304160.815       -2782.935          37.000                                                                  
R07  19737888.445   105658478.534         922.662          50.000    19737909.143    82178897.250         717.513          43.000  
R22  23063660.155   123115404.187        2390.870          43.000    23063681.872    95756473.842        1858.667          35.000  
G12  23799858.234   125069111.734       -3170.300          43.000    23799883.469    97456552.394       -2470.532          36.000  
G15  21932112.521   115254039.979        2370.481          43.000    21932134.726    89808439.358        1847.010          38.000  
G29  22725848.372   119425123.649        2136.216          42.000    22725867.566    93058619.061        1664.103          34.000  
G20  22115037.132   116215295.388       -2453.128          33.000                                                                  
R20  21619527.348   115609323.726       -2116.220          33.000    21619551.844                       -1646.715          29.000  
E03  23881459.879   125497914.525        -474.711          42.000    23881490.337    96160875.659        -363.464          39.000  
E08  25258247.057   132732988.447        1762.468          43.000    25258279.702   101704634.253        1350.386          43.000  
E05  25150866.877   132168677.535       -2791.472          34.000    25150903.543   101272275.039       -2138.915          31.000  
E27  26609830.446   139835585.680       -1875.753          42.000    26609871.158   107146923.728       -1436.508          36.000  
E34  25391502.034   133433266.764       -1102.815          40.000    25391538.088   102241211.232        -845.210          37.000  
E30  26973858.860   141748583.299       -3025.618          42.000    26973894.311   108612709.892       -2318.360          36.000  
E15  24869078.798   130687897.496         109.965          42.000    24869109.626   100137608.373          84.292          38.000  
R08                                                                  23428777.481                        2463.523          26.000  
> 2025 04 04 10 55 26.0000000  0 21                     
G11  22290336.632   117136506.694       -1440.440          42.000    22290358.570    91275287.929       -1122.818          37.000  
G05  21047021.518   110602848.303       -1474.823          45.000    21047039.492    86184131.002       -1148.934          36.000  
G06  24157640.761   126949242.381       -2288.850          39.000    24157671.707    98921614.163       -1782.617          33.000  
G13  20525415.284   107861791.768         854.867          47.000                                                                  
R21  20229839.806   108253979.766         711.156          47.000    20229859.215    84197625.286         552.473          36.000  
R06  19734476.905   105306944.788       -2784.917          37.000                                                                  
R07  19737716.340   105657556.832         920.785          49.000    19737736.930    82178180.374         716.085          44.000  
R22  23063212.337   123113014.526        2389.268          43.000    23063234.156    95754615.184        1858.695          35.000  
G12  23800461.587   125072282.498       -3171.564          43.000    23800486.869    97459023.105       -2471.307          36.000  
G15  21931661.458   115251669.964        2369.318          43.000    21931683.584    89806592.580        1846.265          38.000  
G29  22725441.917   119422987.869        2135.151          42.000    22725461.159    93056954.824        1663.454          34.000  
G20  22115504.205   116217749.117       -2454.343          34.000                                                                  
R20  21619923.191   115611440.401       -2117.634          33.000    21619948.901                       -1646.484          23.000  
E03  23881550.379   125498389.899        -476.003          43.000    23881580.915    96161239.902        -364.756          40.000  
E08  25257911.708   132731226.515        1761.379          43.000    25257944.452   101703284.191        1349.659          43.000  
E05  25151398.540   132171469.847       -2793.612          34.000    25151434.957   101274414.572       -2140.136          31.000  
E27  26610187.540   139837461.888       -1876.906          42.000    26610228.421   107148361.391       -1437.961          36.000  
E34  25391712.025   133434370.649       -1104.345          40.000    25391748.136   102242057.052        -846.428          38.000  
E30  26974434.834   141751609.436       -3026.836          42.000    26974470.118   108615028.596       -2319.108          36.000  
E15  24869058.042   130687788.116         108.738          42.000    24869088.980   100137524.589          83.320          38.000  
R08                                                                  23428185.015                        2462.273          26.000  
> 2025 04 04 10 55 27.0000000  0 22                     
G25  23917116.464                       -2242.016          20.000                                                                  
G11  22290610.855   117137947.801       -1441.227          42.000    22290632.766    91276410.881       -1122.998          41.000  
G05  21047302.324   110604323.803       -1475.861          45.000    21047320.287    86185280.729       -1149.864          35.000  
G06  24158076.455   126951531.902       -2289.628          38.000    24158107.502    98923398.284       -1784.619          33.000  
G13  20525252.744   107860937.602         853.674          47.000                                                                  
R21  20229706.971   108253269.063         710.373          48.000    20229726.428    84197072.496         552.679          37.000  
R06  19734998.974   105309730.594       -2787.089          37.000                                                                  
R07  19737544.630   105656636.992         919.209          50.000    19737565.096    82177464.954         714.744          44.000  
R22  23062764.877   123110625.796        2388.855          42.000    23062786.657    95752757.348        1857.832          34.000  
G12  23801065.063   125075454.372       -3172.369          43.000    23801090.434    97461494.730       -2471.991          36.000  
G15  21931210.680   115249301.387        2368.031          44.000    21931232.779    89804746.948        1844.973          38.000  
G29  22725035.731   119420853.597        2133.635          43.000    22725054.920    93055291.717        1663.371          35.000  
G20  22115971.529   116220203.943       -2455.015          34.000                                                                  
R20  21620319.561   115613558.795       -2118.688          28.000    21620346.235                       -1647.711          26.000  
E03  23881640.963   125498866.805        -477.447          42.000    23881671.745    96161605.350        -365.898          39.000  
E08  25257576.921   132729465.887        1760.359          43.000    25257609.543   101701935.155        1348.541          43.000  
E05  25151930.426   132174263.457       -2793.749          34.000    25151966.604   101276555.142       -2141.085          31.000  
E27  26610544.841   139839339.510       -1877.836          42.000    26610585.738   107149800.073       -1438.952          37.000  
E34  25391922.597   133435475.677       -1105.518          40.000    25391958.424   102242903.748        -846.629          40.000  
E30  26975010.882   141754636.630       -3027.295          42.000    26975046.240   108617348.166       -2319.586          36.000  
E15  24869037.104   130687679.804         108.119          42.000    24869068.400   100137441.583          82.864          38.000  
R08                                                                  23427591.268                        2462.069          25.000  
> 2025 04 04 10 55 28.0000000  0 22                     
G25  23917533.159                       -2242.016          20.000                                                                  
G11  22290885.384   117139390.209       -1442.537          43.000    22290907.189    91277534.826       -1124.073          40.000  
G05  21047583.302   110605800.605       -1477.076          44.000    21047601.331    86186431.530       -1150.976          35.000  
G06  24158512.420   126953822.721       -2290.887          37.000    24158543.536    98925183.296       -1784.870          34.000  
G13  20525090.557   107860085.129         851.993          47.000                                                                  
R21  20229574.430   108252559.864         708.963          48.000    20229593.843    84196520.933         551.179          37.000  
R06  19735521.299   105312518.138       -2787.841          37.000                                                                  
R07  19737373.145   105655719.045         917.328          49.000    19737393.680    82176750.989         713.624          44.000  
R22  23062317.590   123108238.081        2387.471          42.000    23062339.145    95750900.187        1857.602          33.000  
G12  23801668.799   125078627.414       -3173.303          42.000    23801694.368    97463967.203       -2472.620          35.000  
G15  21930760.213   115246934.240        2366.936          44.000    21930782.338    89802902.412        1844.333          39.000  
G29  22724629.735   119418720.704        2132.493          42.000    22724649.046    93053629.748        1661.976          35.000  
G20  22116438.969   116222659.943       -2456.872          33.000                                                                  
R20  21620716.088   115615678.703       -2119.969          29.000    21620741.519    89923415.9053      -1648.508          32.000  
E03  23881732.182   125499345.265        -478.450          43.000    23881762.872    96161971.973        -366.882          39.000  
E08  25257242.213   132727706.554        1759.121          42.000    25257274.885   101700587.100        1347.853          42.000  
E05  25152463.402   132177058.531       -2795.319          35.000    25152498.454   101278696.802       -2141.266          31.000  
E27  26610902.764   139841218.503       -1879.269          42.000    26610943.427   107151239.819       -1439.990          37.000  
E34  25392133.543   133436581.841       -1106.402          39.000    25392169.020   102243751.315        -847.569          39.000  
E30  26975587.120   141757664.902       -3028.305          42.000    26975622.374   108619668.507       -2320.125          36.000  
E15  24869016.984   130687572.525         107.245          43.000    24869048.058   100137359.366          82.219          38.000  
R08                                                                  23427000.394                        2459.690          25.000  
> 2025 04 04 10 55 29.0000000  0 22                     
G25  23917949.089                       -2242.016          19.000                                                                  
G11  22291159.747   117140832.635       -1442.136          42.000    22291181.644    91278658.762       -1123.774          40.000  
G05  21047864.428   110607277.498       -1476.919          45.000    21047882.399    86187582.342       -1150.869          34.000  
G06  24158948.423   126956113.473       -2290.846          40.000    24158979.400    98926968.231       -1785.022          34.000  
G13  20524928.415   107859233.087         851.849          47.000                                                                  
R21  20229442.063   108251850.809         709.215          47.000    20229461.253    84195969.455         551.375          37.000  
R06  19736043.735   105315306.187       -2788.248          37.000                                                                  
R07  19737201.769   105654801.732         916.973          49.000    19737222.399    82176037.517         713.453          44.000  
R22  23061870.244   123105850.059        2388.306          42.000    23061891.688    95749042.851        1857.364          35.000  
G12  23802272.616   125081800.297       -3172.900          42.000    23802298.106    97466439.590       -2472.473          36.000  
G15  21930309.797   115244567.256        2366.950          43.000    21930331.841    89801058.016        1844.544          38.000  
G29  22724223.982   119416588.033        2132.540          42.000    22724243.255    93051967.940        1661.935          35.000  
G20  22116906.284   116225115.684       -2455.941          34.000                                                                  
R20  21621112.120                       -2123.175          20.000    21621140.777    89925076.2393      -1649.117          35.000  
E03  23881823.471   125499824.073        -478.927          42.000    23881853.917    96162338.822        -366.758          39.000  
E08  25256907.716   132725947.282        1759.436          42.000    25256940.065   101699239.078        1348.073          42.000  
E05  25152995.016   132179853.758       -2795.485          34.000    25153030.399   101280838.632       -2141.643          31.000  
E27  26611260.436   139843097.631       -1879.178          42.000    26611301.134   107152679.645       -1439.797          37.000  
E34  25392343.916   133437687.899       -1106.165          39.000    25392379.466   102244598.813        -847.505          40.000  
E30  26976163.261   141760692.988       -3027.826          42.000    26976198.761   108621988.735       -2320.222          36.000  
E15  24868996.566   130687465.049         107.543          43.000    24869027.477   100137277.041          82.184          38.000  
R08                                                                  23426408.548    97570163.4133       2459.772          26.000  
> 2025 04 04 10 55 30.0000000  0 22                     
G25  23918375.726                       -2242.016          19.000                                                                  
G11  22291434.187   117142275.500       -1443.537          42.000    22291456.223    91279783.056       -1124.571          39.000  
G05  21048145.597   110608754.868       -1477.951          45.000    21048163.661    86188733.561       -1151.834          35.000  
G06  24159384.425   126958404.783       -2291.717          40.000    24159415.323    98928753.674       -1785.430          33.000  
G13  20524766.409   107858381.895         850.603          47.000                                                                  
R21  20229309.610   108251142.361         707.813          48.000    20229328.826    84195418.410         550.849          37.000  
R06  19736566.543   105318095.221       -2790.135          36.000                                                                  
R07  19737030.621   105653885.453         915.511          49.000    19737051.210    82175324.858         712.164          44.000  
R22  23061422.921   123103462.169        2387.696          42.000    23061444.255    95747185.625        1856.524          35.000  
G12  23802876.359   125084973.468       -3173.651          42.000    23802902.077    97468912.188       -2472.601          36.000  
G15  21929859.401   115242200.878        2365.865          44.000    21929881.519    89799214.098        1843.380          39.000  
G29  22723818.304   119414455.920        2131.185          43.000    22723837.544    93050306.511        1661.316          35.000  
G20  22117373.563   116227571.707       -2457.133          34.000                                                                  
R20  21621509.440                       -2124.825          20.000    21621540.070    89926725.8402      -1650.020          30.000  
E03  23881914.584   125500303.562        -480.169          43.000    23881945.273    96162706.210        -367.587          40.000  
E08  25256572.900   132724188.480        1758.334          43.000    25256605.465   101697891.420        1347.175          42.000  
E05  25153527.053   132182649.560       -2796.397          35.000    25153562.443   101282980.868       -2142.619          31.000  
E27  26611618.190   139844977.267       -1880.165          42.000    26611658.865   107154119.913       -1440.617          37.000  
E34  25392554.398   133438794.273       -1107.022          40.000    25392589.962   102245446.543        -847.873          39.000  
E30  26976739.395   141763721.288       -3028.513          42.000    26976775.057   108624309.133       -2320.679          36.000  
E15  24868976.301   130687357.735         107.240          43.000    24869006.907   100137194.827          81.705          38.000  
R08                                                                  23425818.429    97567703.5262       2459.773          27.000  
> 2025 04 04 10 55 31.0000000  0 22                     
G25  23918795.983                       -2242.016          17.000                                                                  
G11  22291708.969   117143719.442       -1445.395          41.000    22291731.100    91280908.228       -1126.327          39.000  
G05  21048426.918   110610233.396       -1480.097          45.000    21048444.894    86189885.607       -1153.048          34.000  
G06  24159820.614   126960697.178       -2293.597          37.000    24159851.674    98930539.964       -1786.971          34.000  
G13  20524604.598   107857532.214         848.100          47.000                                                                  
R21  20229177.402   108250435.236         705.525          47.000    20229196.609    84194868.443         549.020          38.000  
R06  19737089.574   105320885.824       -2792.654          37.000                                                                  
R07  19736859.712   105652970.871         912.859          49.000    19736880.435    82174613.539         709.987          44.000  
R22  23060975.747   123101075.064        2385.925          43.000    23060997.017    95745328.983        1855.785          35.000  
G12  23803480.369   125088147.620       -3175.452          43.000    23803506.203    97471385.582       -2474.585          36.000  
G15  21929409.330   115239835.748        2363.560          44.000    21929431.400    89797371.124        1842.041          38.000  
G29  22723412.785   119412325.046        2129.406          43.000    22723432.008    93048646.134        1659.365          35.000  
G20  22117841.006   116230028.640       -2458.404          34.000                                                                  
R20  21621908.143                       -2123.207          23.000    21621940.775    89928376.0031      -1651.500          30.000  
E03  23882005.835   125500784.402        -482.290          42.000    23882036.694    96163074.665        -369.503          40.000  
E08  25256238.433   132722430.789        1756.252          43.000    25256271.076   101696544.634        1345.557          42.000  
E05  25154059.182   132185446.567       -2798.544          35.000    25154094.807   101285124.040       -2144.411          32.000  
E27  26611976.086   139846858.137       -1882.346          42.000    26612016.838   107155561.085       -1442.390          37.000  
E34  25392765.047   133439901.592       -1108.915          39.000    25392800.849   102246295.038        -849.437          40.000  
E30  26977315.833   141766750.498       -3030.581          42.000    26977351.554   108626630.221       -2322.449          36.000  
E15  24868956.205   130687251.341         105.140          43.000    24868986.689   100137113.295          80.612          38.000  
R08                                                                  23425227.574    97565244.6283       2458.225          28.000  
> 2025 04 04 10 55 32.0000000  0 22                     
G25  23919219.904                       -2242.016          17.000                                                                  
G11  22291983.986   117145164.911       -1445.982          42.000    22292006.158    91282034.582       -1126.835          40.000  
G05  21048708.594   110611713.460       -1480.566          45.000    21048726.600    86191038.918       -1153.640          34.000  
G06  24160257.100   126962991.043       -2294.329          37.000    24160288.233    98932327.443       -1787.947          34.000  
G13  20524443.190   107856684.457         847.069          47.000                                                                  
R21  20229045.564   108249729.839         704.758          47.000    20229064.801    84194319.801         548.204          38.000  
R06  19737612.918   105323678.393       -2793.279          37.000                                                                  
R07  19736689.221   105652058.389         911.691          49.000    19736709.951    82173903.834         709.189          44.000  
R22  23060528.772   123098689.175        2385.652          43.000    23060550.180    95743473.304        1855.398          34.000  
G12  23804084.612   125091323.118       -3175.891          42.000    23804110.584    97473859.973       -2474.634          37.000  
G15  21928959.596   115237472.259        2363.081          44.000    21928981.613    89795529.445        1841.392          38.000  
G29  22723007.662   119410195.823        2128.793          42.000    22723026.811    93046987.035        1658.600          35.000  
G20  22118308.830   116232486.928       -2458.709          35.000                                                                  
R20  21622307.170   115624192.9073      -2124.992          27.000    21622335.400    89930028.118       -1652.783          29.000  
E03  23882097.974   125501267.035        -483.321          43.000    23882128.581    96163444.464        -370.138          40.000  
E08  25255904.254   132720674.642        1755.445          42.000    25255936.632   101695199.004        1345.281          42.000  
E05  25154591.789   132188245.195       -2799.230          34.000    25154627.486   101287268.511       -2145.486          32.000  
E27  26612334.312   139848740.601       -1882.987          42.000    26612375.178   107157003.493       -1442.664          37.000  
E34  25392975.872   133441010.325       -1109.045          40.000    25393011.892   102247144.599        -849.769          40.000  
E30  26977892.426   141769780.977       -3030.766          42.000    26977928.347   108628952.278       -2322.399          36.000  
E15  24868936.094   130687146.191         104.912          43.000    24868966.759   100137032.717          80.512          38.000  
R08                                                                  23424638.562    97562787.0932       2457.339          27.000  
> 2025 04 04 10 55 33.0000000  0 22                     
G25  23919646.060                       -2242.016          18.000                                                                  
G11  22292259.195   117146611.186       -1446.980          42.000    22292281.409    91283161.506       -1127.330          40.000  
G05  21048990.380   110613194.350       -1481.228          45.000    21049008.354    86192192.894       -1154.477          34.000  
G06  24160693.726   126965285.686       -2295.201          37.000    24160724.938    98934115.445       -1788.332          34.000  
G13  20524282.008   107855837.909         845.871          47.000                                                                  
R21  20228913.881   108249025.442         703.804          46.000    20228933.267    84193771.948         547.562          38.000  
R06  19738136.534   105326472.282       -2794.558          37.000                                                                  
R07  19736519.066   105651147.288         910.328          49.000    19736539.690    82173195.201         707.970          44.000  
R22  23060081.941   123096303.778        2385.052          42.000    23060103.357    95741617.979        1855.072          35.000  
G12  23804689.042   125094499.254       -3176.447          43.000    23804715.148    97476334.883       -2475.092          37.000  
G15  21928510.047   115235109.718        2361.987          44.000    21928532.056    89793688.518        1840.576          38.000  
G29  22722602.562   119408067.558        2127.721          42.000    22722621.908    93045328.644        1657.773          35.000  
G20  22118776.765   116234945.812       -2459.773          35.000                                                                  
R20  21622705.331   115626317.6981      -2125.943          28.000    21622732.495    89931696.6533      -1653.794          29.000  
E03  23882190.076   125501750.718        -484.150          43.000    23882220.579    96163815.098        -370.997          40.000  
E08  25255570.415   132718919.285        1754.833          43.000    25255602.483   101693854.005        1344.468          42.000  
E05  25155125.237   132191044.751       -2800.063          34.000    25155160.101   101289413.596       -2145.529          32.000  
E27  26612692.724   139850623.934       -1883.741          42.000    26612733.523   107158446.584       -1443.578          37.000  
E34  25393187.319   133442119.755       -1109.865          40.000    25393223.030   102247994.657        -850.331          40.000  
E30  26978469.111   141772812.036       -3031.396          42.000    26978504.944   108631274.787       -2322.968          36.000  
E15  24868916.237   130687041.598         104.024          43.000    24868946.809   100136952.564          80.041          38.000  
R08                                                                  23424049.880    97560329.6461       2456.634          27.000  
> 2025 04 04 10 55 34.0000000  0 21                     
G11  22292534.632   117148058.483       -1447.912          41.000    22292556.912    91284289.289       -1128.149          39.000  
G05  21049272.381   110614676.343       -1482.677          45.000    21049290.390    86193347.659       -1154.733          34.000  
G06  24161130.633   126967581.390       -2296.247          37.000    24161161.944    98935904.292       -1788.877          34.000  
G13  20524121.192   107854992.811         844.301          47.000                                                                  
R21  20228782.327   108248322.248         702.661          46.000    20228801.925    84193225.011         546.542          38.000  
R06  19738660.377   105329267.727       -2796.649          37.000                                                                  
R07  19736349.131   105650237.808         908.871          49.000    19736369.825    82172487.844         706.695          44.000  
R22  23059635.068   123093919.118        2384.465          43.000    23059656.733    95739763.236        1855.017          34.000  
G12  23805293.574   125097676.284       -3177.368          43.000    23805319.775    97478810.509       -2475.879          37.000  
G15  21928060.652   115232748.362        2360.844          43.000    21928082.648    89791848.523        1839.423          38.000  
G29  22722197.704   119405940.473        2126.415          42.000    22722217.150    93043671.188        1656.599          35.000  
G20  22119244.918   116237405.502       -2459.787          35.000                                                                  
R20  21623104.569   115628444.362       -2126.809          28.000    21623129.295    89933350.6842      -1654.019          29.000  
E03  23882282.638   125502235.725        -485.671          43.000    23882312.790    96164186.725        -371.961          40.000  
E08  25255236.653   132717165.021        1753.906          43.000    25255268.625   101692509.846        1343.551          42.000  
E05  25155658.542   132193845.470       -2801.264          34.000    25155693.000   101291559.597       -2146.236          32.000  
E27  26613051.396   139852508.427       -1885.049          42.000    26613092.046   107159890.545       -1444.520          37.000  
E34  25393398.881   133443230.081       -1110.595          40.000    25393434.453   102248845.434        -851.027          40.000  
E30  26979045.689   141775843.904       -3032.065          42.000    26979081.860   108633597.907       -2323.123          36.000  
E15  24868896.659   130686937.798         103.457          43.000    24868927.112   100136873.056          79.145          38.000  
R08                                                                  23423460.095    97557873.579        2456.443          27.000  
> 2025 04 04 10 55 35.0000000  0 21                     
G11  22292810.004   117149506.156       -1447.668          42.000    22292832.464    91285417.326       -1128.077          40.000  
G05  21049554.467   110616158.742       -1482.499          45.000    21049572.620    86194502.789       -1154.965          34.000  
G06  24161567.518   126969877.450       -2296.329          38.000    24161598.861    98937693.419       -1789.306          34.000  
G13  20523960.438   107854148.471         843.986          47.000                                                                  
R21  20228650.972   108247619.580         702.559          47.000    20228670.690    84192678.496         546.509          38.000  
R06  19739184.446   105332063.952       -2796.458          37.000                                                                  
R07  19736179.393   105649329.269         908.214          49.000    19736200.124    82171781.211         706.332          44.000  
R22  23059188.331   123091534.494        2384.654          43.000    23059209.965    95737908.554        1854.391          34.000  
G12  23805898.218   125100853.521       -3177.374          43.000    23805924.515    97481286.263       -2475.665          37.000  
G15  21927611.290   115230387.519        2360.676          43.000    21927633.380    89790008.906        1839.270          38.000  
G29  22721792.891   119403813.910        2126.148          41.000    22721812.450    93042014.079        1657.093          35.000  
G20  22119713.084   116239865.402       -2459.392          35.000                                                                  
R20  21623503.207   115630571.744       -2127.547          27.000    21623527.311    89935004.8561      -1655.009          29.000  
E03  23882375.028   125502721.343        -485.713          43.000    23882405.231    96164558.839        -372.194          40.000  
E08  25254902.871   132715411.104        1753.858          43.000    25254935.056   101691165.935        1343.881          42.000  
E05  25156191.452   132196646.673       -2801.308          33.000    25156226.035   101293705.984       -2146.449          32.000  
E27  26613410.175   139854393.380       -1885.202          42.000    26613450.665   107161334.801       -1443.986          37.000  
E34  25393610.295   133444340.644       -1110.437          40.000    25393645.826   102249696.401        -851.077          40.000  
E30  26979622.640   141778875.943       -3031.988          41.000    26979658.981   108635921.153       -2323.153          36.000  
E15  24868877.059   130686834.116         103.649          43.000    24868907.396   100136793.620          79.192          38.000  
R08                                                                  23422870.238    97555417.994        2455.727          27.000  
> 2025 04 04 10 55 36.0000000  0 21                     
G11  22293085.622   117150954.201       -1448.479          42.000    22293108.060    91286545.690       -1128.932          40.000  
G05  21049836.520   110617641.556       -1483.388          45.000    21049854.790    86195658.232       -1155.439          34.000  
G06  24162004.560   126972173.885       -2296.938          38.000    24162035.797    98939482.869       -1790.064          34.000  
G13  20523799.892   107853304.940         842.986          47.000                                                                  
R21  20228519.653   108246917.471         701.453          47.000    20228539.525    84192132.429         545.639          38.000  
R06  19739708.653   105334861.111       -2798.006          37.000                                                                  
R07  19736009.953   105648421.728         906.694          50.000    19736030.644    82171075.345         705.236          44.000  
R22  23058741.541   123089149.952        2384.273          42.000    23058763.375    95736053.889        1854.221          35.000  
G12  23806502.915   125104031.009       -3177.997          43.000    23806529.181    97483762.244       -2476.483          37.000  
G15  21927162.093   115228027.205        2359.844          43.000    21927184.190    89788169.716        1838.668          39.000  
G29  22721388.216   119401687.851        2125.635          41.000    22721407.832    93040357.444        1656.176          35.000  
G20  22120181.333   116242325.536       -2460.892          34.000                                                                  
R20  21623902.129   115632699.771       -2128.469          27.000    21623925.209    89936659.907       -1655.391          29.000  
E03  23882467.848   125503207.631        -486.949          43.000    23882497.758    96164931.443        -373.047          40.000  
E08  25254569.144   132713657.635        1753.042          43.000    25254601.424   101689822.379        1343.200          42.000  
E05  25156725.260   132199448.408       -2802.491          33.000    25156759.190   101295852.741       -2146.778          32.000  
E27  26613768.998   139856278.797       -1886.003          42.000    26613809.360   107162779.510       -1445.227          37.000  
E34  25393822.090   133445451.491       -1111.271          40.000    25393857.340   102250547.570        -851.619          40.000  
E30  26980199.660   141781908.147       -3032.691          42.000    26980236.037   108638244.503       -2323.474          36.000  
E15  24868857.546   130686730.585         103.210          43.000    24868887.839   100136714.275          79.094          38.000  
R08                                                                  23422280.865    97552962.744        2454.286          25.000  
> 2025 04 04 10 55 37.0000000  0 21                     
G11  22293361.297   117152403.054       -1449.532          42.000    22293383.748    91287674.688       -1129.264          40.000  
G05  21050118.788   110619125.232       -1484.219          45.000    21050137.096    86196814.348       -1156.566          34.000  
G06  24162441.765   126974471.041       -2298.112          35.000    24162473.122    98941273.027       -1790.730          32.000  
G13  20523639.619   107852462.605         841.538          47.000                                                                  
R21  20228388.597   108246216.368         700.328          47.000    20228408.654    84191587.134         544.750          38.000  
R06  19740233.114   105337659.527       -2799.092          37.000                                                                  
R07  19735840.646   105647515.609         905.287          49.000    19735861.462    82170370.587         704.251          44.000  
R22  23058294.895   123086765.869        2383.809          42.000    23058316.887    95734199.623        1854.234          35.000  
G12  23807107.629   125107209.118       -3178.290          43.000    23807134.003    97486238.690       -2476.886          37.000  
G15  21926713.177   115225667.855        2358.751          43.000    21926735.174    89786331.244        1838.056          39.000  
G29  22720983.801   119399562.766        2124.547          42.000    22721003.473    93038701.535        1655.101          35.000  
G20  22120649.483   116244786.233       -2460.986          35.000                                                                  
R20  21624302.192   115634828.996       -2129.660          29.000    21624323.465    89938315.915       -1656.968          32.000  
E03  23882560.268   125503694.990        -488.065          43.000    23882590.383    96165304.869        -373.792          40.000  
E08  25254235.607   132711904.963        1752.178          43.000    25254267.743   101688479.436        1342.469          42.000  
E05  25157259.048   132202251.038       -2803.620          33.000    25157292.533   101298000.253       -2147.632          32.000  
E27  26614127.697   139858165.130       -1887.038          42.000    26614168.482   107164224.873       -1445.697          37.000  
E34  25394033.740   133446562.998       -1112.087          40.000    25394068.953   102251399.220        -851.693          40.000  
E30  26980776.857   141784940.934       -3033.235          42.000    26980813.268   108640568.335       -2323.840          36.000  
E15  24868837.580   130686627.618         102.640          43.000    24868868.354   100136635.402          78.552          38.000  
R08                                                                  23421691.084    97550508.070        2454.535          24.000  
> 2025 04 04 10 55 38.0000000  0 21                     
G11  22293637.180   117153852.752       -1449.570          41.000    22293659.523    91288804.329       -1129.716          40.000  
G05  21050401.231   110620609.781       -1484.858          45.000    21050419.587    86197971.142       -1156.633          34.000  
G06  24162878.996   126976769.147       -2298.290          38.000    24162910.486    98943063.592       -1790.574          27.000  
G13  20523479.506   107851621.534         840.716          47.000                                                                  
R21  20228257.781   108245516.266         699.854          46.000    20228277.949    84191042.603         544.334          38.000  
R06  19740757.832   105340459.256       -2799.749          37.000                                                                  
R07  19735671.713   105646610.961         904.081          50.000    19735692.514    82169666.972         703.265          44.000  
R22  23057848.306   123084382.355        2383.665          41.000    23057870.246    95732345.786        1854.148          35.000  
G12  23807712.516   125110387.950       -3178.961          43.000    23807738.972    97488715.696       -2477.319          37.000  
G15  21926264.281   115223309.483        2358.134          43.000    21926286.296    89784493.564        1837.708          39.000  
G29  22720579.509   119397438.655        2123.878          42.000    22720599.384    93037046.376        1655.278          35.000  
G20  22121117.991   116247247.647       -2461.655          34.000                                                                  
R20  21624700.285   115636959.299       -2130.524          29.000    21624721.875    89939972.857       -1656.952          35.000  
E03  23882653.189   125504183.415        -488.818          44.000    23882683.424    96165679.146        -374.435          40.000  
E08  25253902.357   132710153.183        1751.596          43.000    25253934.371   101687137.156        1342.378          42.000  
E05  25157792.291   132205054.632       -2803.751          34.000    25157826.138   101300148.481       -2148.785          31.000  
E27  26614486.569   139860052.402       -1887.518          42.000    26614527.733   107165670.931       -1446.062          37.000  
E34  25394245.144   133447675.204       -1112.346          38.000    25394280.516   102252251.463        -852.183          40.000  
E30  26981354.089   141787974.341       -3033.539          42.000    26981390.414   108642892.648       -2324.440          36.000  
E15  24868817.995   130686525.246         102.250          43.000    24868848.905   100136556.976          78.398          38.000  
R08                                                                  23421099.359                        2451.609          21.000  
> 2025 04 04 10 55 39.0000000  0 21                     
G11  22293913.117   117155303.078       -1449.943          40.000    22293935.536    91289934.444       -1129.843          39.000  
G05  21050683.857   110622094.959       -1484.604          45.000    21050702.081    86199128.427       -1157.591          34.000  
G06  24163316.167   126979067.815       -2297.985          37.000    24163347.847    98944854.746       -1790.329          26.000  
G13  20523319.766   107850781.496         840.301          47.000                                                                  
R21  20228126.896   108244816.961         699.528          47.000    20228147.300    84190498.704         544.527          37.000  
R06  19741282.619   105343260.141       -2801.000          37.000                                                                  
R07  19735502.923   105645707.499         903.738          50.000    19735523.774    82168964.296         702.850          44.000  
R22  23057401.811   123081999.159        2383.846          41.000    23057423.666    95730492.161        1854.163          33.000  
G12  23808317.627   125113567.249       -3179.590          42.000    23808344.129    97491193.047       -2476.837          37.000  
G15  21925815.633   115220951.864        2357.991          43.000    21925837.557    89782656.482        1837.197          38.000  
G29  22720175.357   119395315.278        2123.976          41.000    22720195.303    93035391.821        1654.813          35.000  
G20  22121586.561   116249709.463       -2461.743          34.000                                                                  
R20  21625097.476   115639090.509       -2131.734          29.000    21625120.459    89941630.495       -1657.580          33.000  
E03  23882746.347   125504672.769        -488.960          41.000    23882776.673    96166054.126        -374.939          39.000  
E08  25253568.912   132708402.049        1751.091          43.000    25253601.426   101685795.378        1342.014          42.000  
E05  25158325.592   132207859.009       -2804.433          34.000    25158359.831   101302297.276       -2148.616          31.000  
E27  26614846.006   139861940.360       -1887.843          42.000    26614887.192   107167117.596       -1446.589          37.000  
E34  25394456.959   133448787.966       -1112.415          39.000    25394492.488   102253104.075        -852.233          39.000  
E30  26981931.737   141791008.125       -3033.208          42.000    26981967.855   108645217.265       -2324.127          36.000  
E15  24868798.595   130686423.273         102.337          44.000    24868829.827   100136478.842          78.362          38.000  
R08                                                                  23420509.427                        2451.333          21.000  
> 2025 04 04 10 55 40.0000000  0 21                     
G11  22294189.013   117156753.103       -1450.326          41.000    22294211.496    91291064.380       -1130.123          40.000  
G05  21050966.479   110623579.954       -1485.233          45.000    21050984.611    86200285.532       -1157.277          34.000  
G06  24163753.578   126981366.163       -2298.232          36.000    24163784.604                       -1790.313          25.000  
G13  20523159.941   107849941.580         839.533          47.000                                                                  
R21  20227996.246   108244117.550         699.172          46.000    20228016.726    84189954.751         543.845          37.000  
R06  19741807.575   105346061.163       -2801.531          37.000                                                                  
R07  19735334.367   105644804.372         902.551          50.000    19735354.970    82168261.854         702.103          44.000  
R22  23056955.252   123079615.325        2384.046          42.000    23056977.138    95728638.073        1854.587          34.000  
G12  23808922.520   125116746.101       -3179.211          43.000    23808949.093    97493670.093       -2477.051          37.000  
G15  21925366.977   115218594.146        2357.510          43.000    21925388.810    89780819.291        1836.875          39.000  
G29  22719771.254   119393191.811        2123.349          42.000    22719791.204    93033737.197        1653.958          34.000  
G20  22122055.108   116252170.763       -2461.166          35.000                                                                  
R20  21625496.025   115641221.833       -2131.528          34.000    21625519.003    89943288.093       -1658.038          40.000  
E03  23882839.513   125505162.106        -489.533          44.000    23882869.773    96166429.056        -375.276          41.000  
E08  25253235.227   132706650.608        1751.254          41.000    25253267.901   101684453.388        1341.747          42.000  
E05  25158859.176   132210663.164       -2804.459          34.000    25158893.565   101304445.907       -2148.845          31.000  
E27  26615205.243   139863828.146       -1888.059          42.000    26615246.273   107168564.090       -1446.685          37.000  
E34  25394668.698   133449900.257       -1112.270          39.000    25394704.097   102253956.383        -852.237          40.000  
E30  26982509.084   141794041.447       -3033.431          42.000    26982545.084   108647541.505       -2324.526          36.000  
E15  24868779.418   130686320.727         102.637          44.000    24868810.109   100136400.259          78.759          36.000  
R08                                                                  23419918.480                        2449.908          19.000  
> 2025 04 04 10 55 41.0000000  0 21                     
G11  22294465.003   117158203.026       -1449.432          42.000    22294487.405    91292194.160       -1129.727          40.000  
G05  21051248.930   110625064.829       -1484.476          45.000    21051267.187    86201442.608       -1156.813          33.000  
G06  24164190.725   126983664.422       -2297.740          37.000    24164221.086    98948445.4671      -1790.771          27.000  
G13  20523000.102   107849101.947         839.777          47.000                                                                  
R21  20227865.591   108243418.204         699.475          47.000    20227886.063    84189410.840         544.135          38.000  
R06  19742332.675   105348862.552       -2801.378          38.000                                                                  
R07  19735165.764   105643901.639         902.787          50.000    19735186.397    82167559.742         702.113          44.000  
R22  23056508.490   123077231.051        2384.228          42.000    23056530.437    95726783.656        1854.832          34.000  
G12  23809527.394   125119924.669       -3178.369          42.000    23809553.930    97496146.891       -2476.245          37.000  
G15  21924918.325   115216236.414        2357.856          43.000    21924940.180    89778982.133        1836.889          38.000  
G29  22719367.133   119391068.321        2123.826          42.000    22719387.151    93032082.481        1655.364          34.000  
G20  22122523.416   116254631.788       -2460.253          34.000                                                                  
R20  21625890.479   115643353.162       -2131.119          34.000    21625917.604    89944945.804       -1657.433          40.000  
E03  23882932.609   125505651.545        -489.321          43.000    23882963.007    96166804.103        -375.092          40.000  
E08  25252901.834   132704899.080        1752.032          43.000    25252934.457   101683111.323        1342.280          42.000  
E05  25159392.393   132213467.306       -2804.039          35.000    25159427.066   101306594.614       -2148.707          31.000  
E27  26615564.588   139865715.911       -1887.509          42.000    26615605.585   107170010.540       -1446.483          37.000  
E34  25394880.718   133451012.348       -1111.579          40.000    25394915.866   102254808.502        -851.764          40.000  
E30  26983086.245   141797074.410       -3032.592          42.000    26983122.429   108649865.471       -2323.819          36.000  
E15  24868759.886   130686217.866         103.504          44.000    24868790.467   100136321.455          79.247          37.000  
R08                                                                  23419327.647                        2460.148          18.000  
> 2025 04 04 10 55 42.0000000  0 21                     
G11  22294740.964   117159652.961       -1450.000          42.000    22294763.262    91293323.991       -1130.095          40.000  
G05  21051531.462   110626549.797       -1485.204          45.000    21051549.835    86202599.744       -1157.349          33.000  
G06  24164627.922   126985962.732       -2298.326          38.000    24164656.395    98950236.373       -1790.753          29.000  
G13  20522840.453   107848262.774         838.615          47.000                                                                  
R21  20227734.970   108242719.072         698.752          47.000    20227755.523    84188867.083         543.467          37.000  
R06  19742857.778   105351664.464       -2802.612          38.000                                                                  
R07  19734997.290   105642999.509         901.661          50.000    19735017.990    82166858.102         701.225          44.000  
R22  23056061.815   123074846.479        2384.404          40.000    23056083.762    95724929.038        1854.476          35.000  
G12  23810132.264   125123103.096       -3178.772          42.000    23810158.792    97498623.622       -2476.733          37.000  
G15  21924469.680   115213878.878        2357.424          43.000    21924491.633    89777145.054        1836.925          38.000  
G29  22718963.020   119388945.057        2122.977          42.000    22718983.080    93030427.998        1654.520          34.000  
G20  22122991.169   116257092.633       -2461.246          31.000                                                                  
R20  21626287.856   115645484.898       -2132.490          34.000    21626316.290    89946603.801       -1658.377          40.000  
E03  23883025.914   125506141.321        -490.244          42.000    23883056.309    96167179.370        -375.351          39.000  
E08  25252568.705   132703147.633        1751.154          42.000    25252601.080   101681769.312        1341.863          42.000  
E05  25159926.313   132216271.617       -2804.663          36.000    25159960.623   101308743.351       -2148.595          30.000  
E27  26615923.762   139867603.809       -1888.146          42.000    26615965.067   107171457.117       -1446.796          37.000  
E34  25395092.787   133452124.351       -1112.078          40.000    25395127.509   102255660.544        -852.222          40.000  
E30  26983663.588   141800107.169       -3032.882          42.000    26983699.385   108652189.261       -2323.790          37.000  
E15  24868740.208   130686114.791         102.987          44.000    24868770.730   100136242.527          78.374          38.000  
R08                                                                  23418736.719                        2451.486          16.000  
> 2025 04 04 10 55 43.0000000  0 21                     
G11  22295017.070   117161103.351       -1451.405          42.000    22295039.386    91294454.175       -1130.990          40.000  
G05  21051814.199   110628035.279       -1486.612          44.000    21051832.537    86203757.241       -1158.198          34.000  
G06  24165065.265   126988261.487       -2299.707          38.000    24165095.326    98952027.563       -1792.193          31.000  
G13  20522680.967   107847424.438         837.115          47.000                                                                  
R21  20227604.547   108242020.579         697.204          47.000    20227624.897    84188323.777         542.931          37.000  
R06  19743383.076   105354467.306       -2804.180          38.000                                                                  
R07  19734829.055   105642098.402         899.767          50.000    19734849.572    82166157.231         700.033          44.000  
R22  23055615.056   123072462.059        2383.871          41.000    23055637.050    95723074.464        1853.866          35.000  
G12  23810737.191   125126281.857       -3179.688          43.000    23810763.727    97501100.577       -2477.606          37.000  
G15  21924021.125   115211521.948        2355.708          43.000    21924043.182    89775308.514        1835.350          39.000  
G29  22718559.093   119386822.349        2121.801          41.000    22718579.120    93028773.916        1654.080          35.000  
G20  22123459.043   116259553.796       -2462.185          33.000                                                                  
R20  21626686.087   115647617.331       -2133.708          34.000    21626715.061    89948262.369       -1659.502          39.000  
E03  23883119.053   125506631.830        -491.843          42.000    23883149.514    96167555.220        -376.882          40.000  
E08  25252235.656   132701396.669        1750.076          41.000    25252267.785   101680427.640        1341.063          42.000  
E05  25160459.883   132219076.508       -2805.841          35.000    25160494.312   101310892.584       -2150.064          30.000  
E27  26616283.382   139869492.236       -1889.459          42.000    26616324.444   107172904.084       -1448.111          37.000  
E34  25395304.713   133453236.645       -1113.622          40.000    25395339.132   102256512.823        -852.767          40.000  
E30  26984240.647   141803140.203       -3033.938          42.000    26984276.535   108654513.253       -2324.788          37.000  
E15  24868720.601   130686011.923         102.057          42.000    24868751.163   100136163.660          78.338          38.000  
R08                                                                  23418151.221                        2433.676          14.000  
> 2025 04 04 10 55 44.0000000  0 21                     
G11  22295293.183   117162554.467       -1450.473          40.000    22295315.559    91295584.940       -1130.524          41.000  
G05  21052097.030   110629521.551       -1486.301          45.000    21052115.404    86204915.337       -1156.657          34.000  
G06  24165502.881   126990561.058       -2299.438          44.000    24165531.075    98953819.502       -1792.013          32.000  
G13  20522521.763   107846587.277         837.389          47.000                                                                  
R21  20227474.176   108241323.017         697.273          48.000    20227494.485    84187781.218         542.927          37.000  
R06  19743908.728   105357271.403       -2803.535          38.000                                                                  
R07  19734661.098   105641198.670         899.913          50.000    19734681.498    82165457.445         700.052          44.000  
R22  23055168.361   123070078.099        2384.184          40.000    23055190.460    95721220.298        1854.562          35.000  
G12  23811342.310   125129461.207       -3178.802          43.000    23811368.701    97503577.972       -2476.770          36.000  
G15  21923572.720   115209165.875        2356.865          43.000    21923594.804    89773472.607        1836.286          38.000  
G29  22718155.401   119384700.569        2122.079          41.000    22718175.267    93027120.604        1653.676          35.000  
G20  22123927.549   116262015.431       -2461.524          33.000                                                                  
R20  21627084.860   115649750.740       -2133.258          34.000    21627113.934    89949921.669       -1659.555          38.000  
E03  23883212.625   125507123.393        -491.004          43.000    23883243.288    96167931.865        -376.471          41.000  
E08  25251902.511   132699646.454        1750.583          42.000    25251934.898   101679086.594        1341.475          42.000  
E05  25160993.882   132221882.287       -2805.345          35.000    25161028.207   101313042.455       -2148.807          30.000  
E27  26616642.766   139871381.499       -1888.628          42.000    26616683.943   107174351.691       -1447.080          38.000  
E34  25395516.456   133454349.529       -1112.398          38.000    25395550.772   102257365.593        -852.439          38.000  
E30  26984817.714   141806173.714       -3032.743          42.000    26984853.809   108656837.668       -2324.312          36.000  
E15  24868701.216   130685909.580         102.778          43.000    24868731.626   100136085.225          79.486          38.000  
R08                                                                  23417559.435                        2450.302          13.000  
> 2025 04 04 10 55 45.0000000  0 21                     
G11  22295569.189   117164004.699       -1449.911          41.000    22295591.534    91296714.988       -1130.340          39.000  
G05  21052379.733   110631006.957       -1485.295          45.000    21052397.990    86206072.855       -1157.538          35.000  
G06  24165940.363   126992859.671       -2298.650          41.000    24165971.163    98955610.637       -1790.837          35.000  
G13  20522362.275   107845749.631         837.553          48.000                                                                  
R21  20227343.616   108240624.663         698.162          47.000    20227364.079    84187238.079         542.915          37.000  
R06  19744434.178   105360075.047       -2804.260          37.000                                                                  
R07  19734493.049   105640298.616         899.905          50.000    19734513.301    82164757.419         699.863          44.000  
R22  23054721.473   123067692.874        2385.739          40.000    23054743.654    95719365.096        1855.854          35.000  
G12  23811947.178   125132639.510       -3178.265          43.000    23811973.602    97506054.631       -2476.520          36.000  
G15  21923124.273   115206809.092        2356.661          43.000    21923146.407    89771636.187        1836.089          38.000  
G29  22717751.479   119382577.996        2123.014          42.000    22717771.391    93025466.716        1653.755          34.000  
G20  22124395.909   116264476.033       -2460.892          34.000                                                                  
R20  21627483.654   115651883.689       -2132.984          37.000    21627512.659    89951580.604       -1659.054          41.000  
E03  23883305.985   125507614.264        -490.826          43.000    23883336.615    96168307.961        -375.999          39.000  
E08  25251569.666   132697895.388        1750.946          43.000    25251601.595   101677744.859        1341.755          42.000  
E05  25161527.476   132224687.305       -2805.198          34.000    25161562.139   101315191.761       -2148.624          31.000  
E27  26617002.230   139873270.005       -1888.406          42.000    26617043.335   107175798.705       -1447.010          38.000  
E34  25395728.021   133455461.471       -1111.885          39.000    25395762.431   102258217.583        -851.966          40.000  
E30  26985394.952   141809206.174       -3032.112          42.000    26985430.931   108659161.226       -2323.346          36.000  
E15  24868681.507   130685806.086         103.723          43.000    24868711.847   100136005.932          79.646          38.000  
R08                                                                  23416969.265                        2454.317          17.000  
> 2025 04 04 10 55 46.0000000  0 21                     
G11  22295845.143   117165454.876       -1450.610          41.000    22295867.474    91297844.980       -1129.811          40.000  
G05  21052662.382   110632492.334       -1485.751          45.000    21052680.679    86207230.277       -1157.752          34.000  
G06  24166377.636   126995158.164       -2298.598          43.000    24166408.482    98957401.666       -1790.878          38.000  
G13  20522202.871   107844912.325         836.875          47.000                                                                  
R21  20227213.172   108239926.446         697.723          47.000    20227233.755    84186695.014         542.862          38.000  
R06  19744959.587   105362879.062       -2804.706          37.000                                                                  
R07  19734325.114   105639399.076         899.043          50.000    19734345.184    82164057.776         699.104          44.000  
R22  23054274.516   123065307.254        2385.607          41.000    23054296.758    95717509.647        1855.847          35.000  
G12  23812551.813   125135817.577       -3178.418          43.000    23812578.373    97508531.014       -2476.538          36.000  
G15  21922675.807   115204452.366        2356.530          43.000    21922697.849    89769799.761        1836.159          38.000  
G29  22717347.519   119380455.513        2122.278          41.000    22717367.440    93023812.771        1654.607          34.000  
G20  22124864.237   116266936.326       -2460.019          34.000                                                                  
R20  21627882.441   115654016.797       -2134.105          34.000    21627911.515    89953239.760       -1659.968          38.000  
E03  23883399.510   125508105.331        -491.434          43.000    23883429.988    96168684.257        -376.546          40.000  
E08  25251236.593   132696144.210        1750.802          43.000    25251268.411   101676403.084        1341.546          42.000  
E05  25162061.204   132227492.273       -2805.241          35.000    25162096.018   101317341.066       -2150.276          31.000  
E27  26617361.494   139875158.483       -1888.865          42.000    26617402.923   107177245.749       -1447.334          38.000  
E34  25395939.232   133456573.158       -1111.986          39.000    25395973.895   102259069.410        -851.707          38.000  
E30  26985971.717   141812238.283       -3032.193          42.000    26986007.904   108661484.528       -2323.395          37.000  
E15  24868661.665   130685702.270         103.817          43.000    24868692.173   100135926.381          79.912          38.000  
R08                                                                  23416381.319                        2456.128          22.000  
> 2025 04 04 10 55 47.0000000  0 21                     
G11  22296121.180   117166905.241       -1450.600          41.000    22296143.448    91298975.141       -1130.681          40.000  
G05  21052945.097   110633977.932       -1485.699          44.000    21052963.413    86208387.905       -1158.291          35.000  
G06  24166815.106   126997456.904       -2299.168          38.000    24166845.252    98959192.904       -1791.544          32.000  
G13  20522043.632   107844075.638         835.900          47.000                                                                  
R21  20227082.780   108239228.587         697.705          47.000    20227103.376    84186152.206         543.101          38.000  
R06  19745485.226   105365683.735       -2805.445          37.000                                                                  
R07  19734157.263   105638500.319         897.824          50.000    19734177.304    82163358.728         698.556          44.000  
R22  23053827.538   123062921.534        2385.461          40.000    23053849.846    95715654.083        1855.146          35.000  
G12  23813156.685   125138995.690       -3178.748          42.000    23813183.251    97511007.454       -2477.014          36.000  
G15  21922227.371   115202095.999        2356.177          44.000    21922249.384    89767963.642        1835.763          38.000  
G29  22716943.687   119378333.400        2120.857          41.000    22716963.747    93022159.212        1652.784          34.000  
G20  22125332.445   116269396.648       -2460.124          34.000                                                                  
R20  21628281.549   115656150.532       -2135.206          33.000    21628310.495    89954899.280       -1659.773          40.000  
E03  23883493.203   125508596.867        -492.106          43.000    23883523.412    96169060.900        -377.261          40.000  
E08  25250903.201   132694393.271        1750.484          42.000    25250935.074   101675061.475        1341.358          42.000  
E05  25162595.117   132230297.612       -2805.399          34.000    25162629.841   101319490.628       -2150.345          31.000  
E27  26617720.775   139877047.259       -1889.121          42.000    26617762.386   107178692.957       -1447.135          38.000  
E34  25396150.659   133457684.957       -1112.269          39.000    25396185.366   102259921.287        -852.111          39.000  
E30  26986548.676   141815270.401       -3032.636          42.000    26986584.915   108663807.810       -2323.336          37.000  
E15  24868641.837   130685598.399         103.633          43.000    24868672.429   100135846.804          79.742          38.000  
R08                                                                  23415789.564                        2469.719          21.000  
> 2025 04 04 10 55 48.0000000  0 21                     
G11  22296397.004   117168354.756       -1448.489          40.000    22296419.309    91300104.626       -1128.144          39.000  
G05  21053227.642   110635462.825       -1483.398          44.000    21053245.993    86209544.977       -1156.291          35.000  
G06  24167252.343   126999754.854       -2296.827          38.000    24167281.952    98960983.530       -1789.493          31.000  
G13  20521884.336   107843238.523         838.215          47.000                                                                  
R21  20226952.300   108238530.129         699.639          47.000    20226972.835    84185609.008         544.341          38.000  
R06  19746010.767   105368488.114       -2803.295          38.000                                                                  
R07  19733989.467   105637601.303         899.918          50.000    19734009.241    82162659.513         699.849          44.000  
R22  23053380.296   123060534.684        2388.160          40.000    23053402.727    95713797.650        1856.968          34.000  
G12  23813761.284   125142172.877       -3176.093          42.000    23813787.849    97513483.179       -2474.567          35.000  
G15  21921778.800   115199738.983        2358.015          44.000    21921800.824    89766126.994        1837.333          38.000  
G29  22716539.758   119376210.592        2124.141          41.000    22716559.782    93020505.036        1655.253          34.000  
G20  22125800.327   116271855.968       -2457.947          36.000                                                                  
R20  21628680.468   115658283.472       -2132.373          32.000    21628709.393    89956558.352       -1659.334          32.000  
E03  23883586.772   125509087.897        -490.122          43.000    23883616.895    96169437.122        -375.719          40.000  
E08  25250569.687   132692641.579        1752.628          42.000    25250601.833   101673719.282        1342.885          42.000  
E05  25163128.788   132233102.315       -2804.315          34.000    25163163.547   101321639.669       -2148.111          31.000  
E27  26618080.115   139878935.355       -1887.402          42.000    26618121.717   107180139.702       -1445.920          38.000  
E34  25396361.760   133458795.806       -1110.033          39.000    25396396.716   102260772.456        -850.623          39.000  
E30  26987125.683   141818301.500       -3029.944          42.000    26987161.830   108666130.344       -2321.334          37.000  
E15  24868621.934   130685493.522         105.948          43.000    24868652.602   100135766.453          81.151          38.000  
R08                                                                  23415201.041                        2454.901          22.000  
> 2025 04 04 10 55 49.0000000  0 21                     
G11  22296672.549   117169802.952       -1448.296          42.000    22296694.949    91301233.058       -1128.584          40.000  
G05  21053509.996   110636946.346       -1483.694          45.000    21053528.419    86210700.953       -1155.851          34.000  
G06  24167689.460   127002051.374       -2296.462          38.000    24167719.445    98962772.932       -1789.111          30.000  
G13  20521724.931   107842400.439         837.934          47.000                                                                  
R21  20226821.589   108237830.327         699.699          47.000    20226842.089    84185064.692         544.170          37.000  
R06  19746536.029   105371291.515       -2803.669          37.000                                                                  
R07  19733821.471   105636701.418         899.621          50.000    19733841.158    82161959.592         699.762          44.000  
R22  23052932.729   123058146.056        2388.415          41.000    23052955.305    95711939.823        1858.051          35.000  
G12  23814365.539   125145348.464       -3175.586          43.000    23814392.057    97515957.681       -2474.384          35.000  
G15  21921329.928   115197380.681        2358.473          44.000    21921352.101    89764289.375        1837.156          38.000  
G29  22716135.528   119374086.530        2123.704          41.000    22716155.587    93018849.947        1655.451          34.000  
G20  22126267.895   116274313.714       -2457.021          34.000                                                                  
R20  21629079.189   115660415.451       -2132.289          33.000    21629108.085    89958216.540       -1658.162          32.000  
E03  23883679.388   125509577.740        -490.075          43.000    23883709.975    96169812.500        -375.662          40.000  
E08  25250236.188   132690888.523        1752.902          42.000    25250268.183   101672376.033        1343.016          41.000  
E05  25163661.996   132235905.711       -2803.394          34.000    25163696.938   101323787.719       -2148.144          31.000  
E27  26618438.883   139880822.129       -1886.765          42.000    26618480.809   107181585.395       -1445.440          38.000  
E34  25396572.905   133459905.158       -1109.076          40.000    25396607.909   102261622.449        -849.834          41.000  
E30  26987701.980   141821330.945       -3029.529          42.000    26987738.431   108668451.607       -2321.410          37.000  
E15  24868601.457   130685386.992         106.789          43.000    24868632.285   100135684.838          82.061          37.000  
R08                                                                  23414613.744    97521038.9793       2454.320          30.000  
> 2025 04 04 10 55 50.0000000  0 21                     
G11  22296948.085   117171251.190       -1448.363          42.000    22296970.601    91302361.553       -1128.450          41.000  
G05  21053792.340   110638429.948       -1483.803          44.000    21053810.872    86211856.978       -1156.076          34.000  
G06  24168126.491   127004347.921       -2296.467          38.000    24168156.527    98964562.434       -1789.431          29.000  
G13  20521565.584   107841562.835         837.279          47.000                                                                  
R21  20226690.859   108237130.782         699.320          47.000    20226711.452    84184520.619         544.019          38.000  
R06  19747061.548   105374095.467       -2804.343          38.000                                                                  
R07  19733653.481   105635802.156         898.860          50.000    19733673.107    82161260.171         699.231          44.000  
R22  23052485.071   123055757.197        2389.154          40.000    23052507.874    95710081.862        1857.311          34.000  
G12  23814969.849   125148523.961       -3175.494          42.000    23814996.241    97518432.115       -2474.084          35.000  
G15  21920881.316   115195022.646        2358.018          43.000    21920903.546    89762451.917        1837.562          39.000  
G29  22715731.358   119371962.686        2123.649          41.000    22715751.415    93017195.007        1654.839          34.000  
G20  22126735.585   116276771.319       -2457.543          34.000                                                                  
R20  21629477.920   115662547.792       -2132.230          34.000    21629506.786    89959875.001       -1658.352          34.000  
E03  23883772.540   125510067.931        -490.494          42.000    23883803.248    96170188.098        -375.834          40.000  
E08  25249903.061   132689135.527        1752.880          43.000    25249934.552   101671032.819        1343.132          42.000  
E05  25164195.631   132238709.260       -2803.837          35.000    25164230.291   101325935.913       -2148.441          31.000  
E27  26618797.903   139882709.051       -1886.963          42.000    26618839.914   107183031.215       -1445.930          38.000  
E34  25396784.077   133461014.453       -1109.167          40.000    25396818.941   102262472.443        -849.967          41.000  
E30  26988278.454   141824360.258       -3029.041          42.000    26988314.927   108670772.796       -2321.306          37.000  
E15  24868581.100   130685280.281         106.639          43.000    24868611.983   100135603.074          81.685          37.000  
R08                                                                  23414022.998    97518584.8032       2453.962          29.000  
> 2025 04 04 10 55 51.0000000  0 21                     
G11  22297223.627   117172699.519       -1448.409          42.000    22297246.228    91303490.113       -1128.680          41.000  
G05  21054074.704   110639913.731       -1484.006          44.000    21054093.172    86213013.226       -1157.256          35.000  
G06  24168563.565   127006644.593       -2296.851          38.000    24168593.699    98966350.0721      -1789.624          28.000  
G13  20521406.300   107840725.748         836.662          47.000                                                                  
R21  20226560.208   108236431.516         699.059          47.000    20226580.773    84183976.744         544.034          38.000  
R06  19747587.194   105376900.013       -2805.078          38.000                                                                  
R07  19733485.622   105634903.581         898.133          49.000    19733505.349    82160561.286         698.618          44.000  
R22  23052037.414   123053368.113        2389.350          40.000    23052060.185    95708223.640        1858.324          34.000  
G12  23815574.122   125151699.476       -3175.561          41.000    23815600.495    97520906.487       -2473.853          35.000  
G15  21920432.713   115192664.800        2357.942          44.000    21920454.866    89760614.662        1836.953          39.000  
G29  22715327.232   119369839.105        2123.529          41.000    22715347.279    93015540.258        1654.620          34.000  
G20  22127203.261   116279228.889       -2457.440          33.000                                                                  
R20  21629876.724   115664680.558       -2133.359          33.000    21629905.464    89961533.865       -1659.807          36.000  
E03  23883866.124   125510558.505        -490.728          42.000    23883896.585    96170563.982        -375.889          39.000  
E08  25249569.657   132687382.678        1752.840          43.000    25249600.855   101669689.719        1343.111          42.000  
E05  25164729.121   132241513.049       -2803.974          35.000    25164763.918   101328084.276       -2148.466          31.000  
E27  26619157.242   139884596.189       -1887.291          42.000    26619199.196   107184477.221       -1446.202          38.000  
E34  25396995.419   133462123.718       -1109.352          40.000    25397030.021   102263322.387        -849.926          41.000  
E30  26988854.838   141827389.475       -3029.225          42.000    26988891.175   108673093.860       -2321.039          37.000  
E15  24868560.831   130685173.432         106.930          43.000    24868591.618   100135521.203          81.842          37.000  
R08                                                                  23413433.446    97516130.713        2454.121          29.000  
> 2025 04 04 10 55 52.0000000  0 21                     
G11  22297499.348   117174148.510       -1448.454          42.000    22297521.833    91304619.198       -1128.753          41.000  
G05  21054357.174   110641398.192       -1484.060          44.000    21054375.685    86214169.916       -1156.495          34.000  
G06  24169000.751   127008941.925       -2296.764          38.000    24169030.843    98968140.245       -1789.880          30.000  
G13  20521247.265   107839889.718         836.295          47.000                                                                  
R21  20226429.749   108235733.133         698.862          48.000    20226450.295    84183433.547         543.519          38.000  
R06  19748113.002   105379705.710       -2805.283          37.000                                                                  
R07  19733318.018   105634006.287         897.549          50.000    19733337.781    82159863.400         697.909          44.000  
R22  23051589.915   123050979.369        2389.465          39.000    23051612.754    95706365.737        1858.196          35.000  
G12  23816178.540   125154875.468       -3175.384          43.000    23816204.910    97523381.328       -2474.091          36.000  
G15  21919984.248   115190307.802        2357.141          44.000    21920006.402    89758778.035        1837.012          38.000  
G29  22714923.307   119367716.319        2123.196          42.000    22714943.391    93013886.128        1654.818          35.000  
G20  22127670.997   116281686.865       -2457.615          33.000                                                                  
R20  21630275.784   115666814.255       -2133.848          33.000    21630304.421    89963193.386       -1659.579          36.000  
E03  23883959.496   125511050.005        -491.286          42.000    23883989.934    96170940.610        -376.644          39.000  
E08  25249236.205   132685630.518        1752.452          43.000    25249267.322   101668347.173        1342.576          42.000  
E05  25165262.958   132244317.642       -2804.370          35.000    25165297.584   101330233.256       -2148.535          31.000  
E27  26619516.302   139886484.088       -1887.645          42.000    26619558.572   107185923.789       -1446.339          38.000  
E34  25397206.660   133463233.511       -1109.260          40.000    25397241.211   102264172.763        -850.052          41.000  
E30  26989431.572   141830419.089       -3029.218          42.000    26989467.790   108675415.250       -2321.231          36.000  
E15  24868540.653   130685067.018         106.770          43.000    24868571.141   100135439.669          81.659          38.000  
R08                                                                  23412846.666    97513677.188        2454.446          29.000  
> 2025 04 04 10 55 53.0000000  0 21                     
G11  22297774.975   117175597.242       -1448.885          42.000    22297797.488    91305748.102       -1129.211          41.000  
G05  21054639.581   110642882.431       -1484.526          44.000    21054658.124    86215326.461       -1156.439          34.000  
G06  24169437.963   127011239.030       -2297.374          38.000    24169468.133    98969930.176       -1790.413          31.000  
G13  20521088.219   107839053.859         835.596          47.000                                                                  
R21  20226299.219   108235034.669         698.236          48.000    20226319.781    84182890.313         542.907          37.000  
R06  19748638.990   105382511.629       -2806.345          37.000                                                                  
R07  19733150.561   105633109.359         896.495          50.000    19733170.067    82159165.786         697.207          44.000  
R22  23051142.152   123048590.090        2389.386          39.000    23051165.145    95704507.363        1858.846          35.000  
G12  23816782.856   125158051.052       -3175.745          43.000    23816809.225    97525855.844       -2474.689          36.000  
G15  21919535.755   115187950.679        2356.860          44.000    21919557.887    89756941.333        1836.717          38.000  
G29  22714519.312   119365593.436        2122.638          42.000    22714539.289    93012231.957        1654.263          34.000  
G20  22128138.619   116284144.470       -2457.723          33.000                                                                  
R20  21630674.769   115668947.959       -2134.000          32.000    21630703.342    89964852.904       -1659.909          36.000  
E03  23884052.994   125511541.517        -491.884          42.000    23884083.614    96171317.236        -377.146          39.000  
E08  25248902.658   132683878.117        1752.125          43.000    25248933.858   101667004.432        1342.459          42.000  
E05  25165796.352   132247122.096       -2804.506          35.000    25165831.198   101332382.134       -2149.390          31.000  
E27  26619875.479   139888371.835       -1888.175          42.000    26619917.969   107187370.227       -1446.879          38.000  
E34  25397417.658   133464342.949       -1109.847          40.000    25397452.360   102265022.847        -850.240          40.000  
E30  26990008.006   141833448.292       -3029.590          42.000    26990044.196   108677736.335       -2321.470          36.000  
E15  24868520.267   130684960.100         106.894          43.000    24868550.877   100135357.748          81.973          38.000  
R08                                                                  23412257.616    97511223.670        2453.405          28.000  
> 2025 04 04 10 55 54.0000000  0 21                     
G11  22298051.060   117177047.738       -1451.924          42.000    22298073.470    91306878.333       -1131.157          41.000  
G05  21054922.433   110644368.477       -1487.867          45.000    21054941.027    86216484.421       -1158.828          34.000  
G06  24169875.499   127013537.821       -2300.373          38.000    24169905.657    98971721.441       -1792.325          31.000  
G13  20520929.461   107838220.135         832.130          47.000                                                                  
R21  20226169.146   108234338.127         695.015          48.000    20226189.595    84182348.577         540.299          37.000  
R06  19749165.284   105385319.792       -2810.232          37.000                                                                  
R07  19732983.392   105632214.768         892.939          49.000    19733002.988    82158470.000         694.581          44.000  
R22  23050694.769   123046202.202        2386.563          39.000    23050717.797    95702650.181        1856.031          34.000  
G12  23817387.509   125161228.214       -3178.375          42.000    23817413.899    97528331.529       -2476.813          36.000  
G15  21919087.596   115185595.458        2353.707          44.000    21919109.609    89755106.117        1833.839          38.000  
G29  22714115.672   119363472.436        2119.408          41.000    22714135.715    93010579.222        1651.191          34.000  
G20  22128606.628   116286603.601       -2460.386          34.000                                                                  
R20  21631074.315   115671083.754       -2137.450          33.000    21631102.726    89966514.078       -1662.618          37.000  
E03  23884146.968   125512035.031        -494.751          42.000    23884177.723    96171695.367        -378.946          39.000  
E08  25248569.713   132682127.480        1749.225          44.000    25248600.872   101665663.022        1340.399          42.000  
E05  25166330.434   132249928.386       -2807.490          35.000    25166365.133   101334532.383       -2151.451          31.000  
E27  26620235.118   139890261.378       -1890.729          42.000    26620277.656   107188818.061       -1448.804          38.000  
E34  25397629.298   133465453.998       -1112.217          39.000    25397664.046   102265874.183        -852.286          41.000  
E30  26990584.720   141836478.958       -3031.857          42.000    26990620.865   108680058.541       -2323.191          36.000  
E15  24868500.537   130684854.691         104.091          43.000    24868530.972   100135276.989          79.615          38.000  
R08                                                                  23411666.301    97508771.496        2451.820          29.000  
> 2025 04 04 10 55 55.0000000  0 21                     
G11  22298326.452   117178494.905       -1446.712          42.000    22298348.855    91308005.998       -1127.218          41.000  
G05  21055204.620   110645851.241       -1482.316          45.000    21055223.211    86217639.833       -1154.882          34.000  
G06  24170312.318   127015833.359       -2295.289          38.000    24170342.554    98973510.123       -1788.089          31.000  
G13  20520770.281   107837383.537         836.838          47.000                                                                  
R21  20226038.529   108233638.386         700.148          48.000    20226058.903    84181804.317         544.458          37.000  
R06  19749690.918   105388125.071       -2805.023          37.000                                                                  
R07  19732815.766   105631317.396         897.623          50.000    19732835.286    82157772.056         698.157          44.000  
R22  23050246.631   123043810.638        2392.605          39.000    23050269.811    95700790.076        1860.651          34.000  
G12  23817991.465   125164401.920       -3173.095          43.000    23818017.849    97530804.555       -2472.815          35.000  
G15  21918638.724   115183237.081        2358.851          44.000    21918660.800    89753268.411        1837.809          38.000  
G29  22713711.348   119361348.273        2124.767          41.000    22713731.638    93008924.057        1655.596          34.000  
G20  22129073.744   116289059.228       -2454.806          34.000                                                                  
R20  21631473.189   115673216.443       -2132.112          34.000    21631501.467    89968172.849       -1658.393          36.000  
E03  23884240.443   125512525.512        -490.011          42.000    23884271.338    96172071.216        -375.631          39.000  
E08  25248235.623   132680373.568        1754.492          43.000    25248267.063   101664319.133        1344.196          42.000  
E05  25166863.973   132252731.519       -2802.534          35.000    25166898.464   101336680.260       -2147.686          31.000  
E27  26620593.941   139892147.748       -1885.993          41.000    26620636.527   107190263.468       -1445.347          38.000  
E34  25397839.887   133466561.582       -1106.936          39.000    25397874.695   102266722.858        -848.204          41.000  
E30  26991160.680   141839506.132       -3026.538          42.000    26991197.027   108682378.059       -2319.155          36.000  
E15  24868479.905   130684745.725         109.618          43.000    24868510.262   100135193.506          83.840          38.000  
R08                                                                  23411073.999    97506316.728        2455.894          28.000  
> 2025 04 04 10 55 56.0000000  0 21                     
G11  22298601.771   117179941.675       -1447.450          41.000    22298624.106    91309133.332       -1127.780          42.000  
G05  21055486.657   110647333.631       -1483.061          44.000    21055505.322    86218794.941       -1155.322          34.000  
G06  24170749.140   127018128.402       -2295.582          38.000    24170779.385    98975298.575       -1789.909          30.000  
G13  20520611.001   107836546.936         835.727          47.000                                                                  
R21  20225907.718   108232938.438         699.208          48.000    20225928.090    84181259.922         543.440          37.000  
R06  19750216.666   105390930.387       -2806.007          38.000                                                                  
R07  19732648.137   105630420.169         896.354          50.000    19732667.544    82157074.199         697.171          44.000  
R22  23049798.504   123041418.397        2391.490          39.000    23049821.656    95698929.399        1860.006          34.000  
G12  23818595.327   125167575.079       -3173.895          43.000    23818621.691    97533277.087       -2472.418          35.000  
G15  21918189.938   115180878.433        2358.170          45.000    21918211.833    89751430.488        1837.459          39.000  
G29  22713307.045   119359223.856        2123.769          41.000    22713327.367    93007268.628        1655.473          34.000  
G20  22129540.980   116291514.241       -2455.287          34.000                                                                  
R20  21631872.104   115675349.046       -2133.604          33.000    21631900.272    89969831.503       -1659.133          36.000  
E03  23884333.950   125513015.858        -491.090          42.000    23884364.594    96172446.937        -376.377          40.000  
E08  25247901.964   132678619.249        1753.741          43.000    25247933.269   101662974.917        1343.808          42.000  
E05  25167397.097   132255534.361       -2803.559          35.000    25167431.739   101338827.826       -2147.237          31.000  
E27  26620953.045   139894033.782       -1886.804          41.000    26620995.498   107191708.594       -1445.728          38.000  
E34  25398050.588   133467668.659       -1107.436          39.000    25398085.334   102267571.129        -848.553          41.000  
E30  26991736.773   141842532.666       -3027.037          42.000    26991772.832   108684697.098       -2319.525          36.000  
E15  24868459.188   130684636.115         109.142          43.000    24868489.417   100135109.499          83.843          38.000  
R08                                                                  23410485.434    97503861.804        2454.239          28.000  
> 2025 04 04 10 55 57.0000000  0 22                     
G11  22298877.194   117181389.425       -1447.968          41.000    22298899.588    91310261.462       -1128.258          41.000  
G05  21055768.850   110648817.061       -1483.563          43.000    21055787.521    86219950.884       -1155.987          34.000  
G06  24171186.111   127020424.500       -2296.279          38.000    24171216.373    98977087.695       -1789.536          30.000  
G13  20520451.983   107835711.735         835.005          47.000                                                                  
R21  20225777.111   108232239.657         698.416          47.000    20225797.521    84180716.412         543.499          37.000  
R26  22881253.351   122012886.5201       3044.580          40.000                                                                  
R06  19750742.650   105393737.189       -2807.266          37.000                                                                  
R07  19732480.840   105629524.517         895.308          50.000    19732500.209    82156377.595         696.403          43.000  
R22  23049350.481   123039026.797        2391.766          39.000    23049373.621    95697069.298        1859.543          34.000  
G12  23819199.328   125170749.048       -3174.072          44.000    23819225.667    97535750.340       -2473.328          35.000  
G15  21917741.382   115178520.918        2357.306          45.000    21917763.071    89749593.474        1837.071          39.000  
G29  22712903.069   119357100.582        2123.009          41.000    22712923.223    93005614.170        1653.956          34.000  
G20  22130008.320   116293970.090       -2456.528          35.000                                                                  
R20  21632271.221   115677482.926       -2133.997          33.000    21632299.181    89971491.198       -1660.261          36.000  
E03  23884427.420   125513507.473        -491.669          42.000    23884458.036    96172823.623        -376.973          39.000  
E08  25247568.240   132676865.964        1753.231          43.000    25247599.410   101661631.508        1343.188          42.000  
E05  25167930.156   132258338.287       -2804.252          34.000    25167965.177   101340976.381       -2148.563          31.000  
E27  26621311.960   139895920.908       -1887.233          42.000    26621354.635   107193154.592       -1446.190          38.000  
E34  25398261.371   133468776.618       -1108.005          39.000    25398296.216   102268420.088        -849.020          41.000  
E30  26992312.711   141845559.980       -3027.446          41.000    26992348.942   108687016.724       -2319.666          36.000  
E15  24868438.466   130684527.259         108.938          43.000    24868468.565   100135026.086          83.459          38.000  
R08                                                                  23409889.892    97501363.6803       2454.115          28.000  
> 2025 04 04 10 55 58.0000000  0 21                     
G11  22299152.876   117182837.752       -1448.383          41.000    22299175.066    91311390.042       -1128.959          41.000  
G05  21056051.237   110650301.110       -1484.249          43.000    21056069.927    86221107.323       -1157.111          34.000  
G06  24171623.195   127022721.169       -2296.860          37.000    24171653.618    98978877.363       -1790.670          30.000  
G13  20520293.277   107834877.527         833.854          46.000                                                                  
R21  20225646.693   108231541.646         697.809          47.000    20225667.056    84180173.497         543.165          37.000  
R06  19751268.882   105396545.012       -2808.098          37.000                                                                  
R07  19732313.711   105628630.034         893.957          49.000    19732332.983    82155681.873         695.492          43.000  
R22  23048902.376   123036635.435        2391.530          39.000    23048925.794    95695209.351        1859.617          35.000  
G12  23819803.475   125173923.447       -3174.597          43.000    23819829.759    97538223.912       -2473.865          36.000  
G15  21917292.869   115176164.153        2356.376          45.000    21917314.504    89747757.043        1836.235          39.000  
G29  22712499.126   119354978.030        2122.152          41.000    22712519.264    93003960.241        1653.289          34.000  
G20  22130475.726   116296426.257       -2455.848          36.000                                                                  
R20  21632670.591   115679617.721       -2135.387          33.000    21632698.214    89973151.582       -1660.752          35.000  
E03  23884521.253   125513999.921        -492.640          42.000    23884551.734    96173200.961        -377.801          39.000  
E08  25247234.956   132675113.284        1752.477          43.000    25247265.875   101660288.546        1342.755          41.000  
E05  25168463.534   132261142.931       -2805.179          34.000    25168498.904   101343125.393       -2149.330          32.000  
E27  26621671.066   139897808.721       -1888.132          41.000    26621713.883   107194601.091       -1446.873          39.000  
E34  25398472.460   133469885.041       -1109.053          39.000    25398507.223   102269269.393        -849.576          41.000  
E30  26992888.882   141848587.636       -3027.792          41.000    26992924.970   108689336.627       -2319.968          36.000  
E15  24868417.746   130684418.754         108.165          42.000    24868447.937   100134942.954          83.130          37.000  
R08                                                                  23409301.564    97498910.1432       2453.511          29.000  
> 2025 04 04 10 55 59.0000000  0 21                     
G11  22299428.529   117184286.452       -1448.942          41.000    22299450.750    91312518.870       -1128.869          41.000  
G05  21056333.641   110651785.535       -1484.408          43.000    21056352.530    86222264.011       -1157.202          33.000  
G06  24172060.338   127025018.157       -2296.941          38.000    24172090.789    98980667.163       -1789.796          31.000  
G13  20520134.758   107834044.070         833.153          47.000                                                                  
R21  20225516.330   108230844.119         697.450          47.000    20225536.782    84179631.026         542.233          37.000  
R06  19751795.253   105399353.657       -2808.864          37.000                                                                  
R07  19732146.800   105627736.463         893.163          50.000    19732165.992    82154986.891         694.830          44.000  
R22  23048454.372   123034244.154        2391.020          40.000    23048477.735    95693349.483        1859.446          35.000  
G12  23820407.597   125177098.044       -3174.737          43.000    23820433.821    97540697.617       -2473.596          35.000  
G15  21916844.541   115173807.866        2355.850          44.000    21916866.096    89745920.988        1836.005          39.000  
G29  22712095.276   119352855.961        2121.738          40.000    22712115.443    93002306.665        1653.473          34.000  
G20  22130942.923   116298882.626       -2455.592          35.000                                                                  
R20  21633069.887   115681753.107       -2135.854          34.000    21633097.563    89974812.432       -1660.983          32.000  
E03  23884615.163   125514492.985        -493.332          42.000    23884645.433    96173578.736        -377.997          40.000  
E08  25246901.632   132673360.959        1752.158          44.000    25246932.320   101658945.866        1342.304          41.000  
E05  25168997.317   132263948.024       -2805.225          35.000    25169032.633   101345274.778       -2149.328          32.000  
E27  26622030.486   139899696.955       -1888.378          41.000    26622073.256   107196047.895       -1446.883          39.000  
E34  25398683.666   133470993.637       -1108.676          41.000    25398718.153   102270118.839        -849.422          41.000  
E30  26993465.257   141851615.431       -3027.812          42.000    26993501.176   108691656.620       -2319.898          36.000  
E15  24868397.157   130684310.321         108.406          42.000    24868427.240   100134859.885          83.132          38.000  
R08                                                                  23408711.491    97496456.907        2453.161          29.000  
> 2025 04 04 10 56 00.0000000  0 21                     
G11  22299704.181   117185735.081       -1449.166          41.000    22299726.368    91313647.683       -1128.827          40.000  
G05  21056616.140   110653269.956       -1484.752          43.000    21056634.959    86223420.666       -1156.849          33.000  
G06  24172497.297   127027315.118       -2297.356          40.000    24172527.698    98982457.008       -1789.493          30.000  
G13  20519976.258   107833211.005         832.608          47.000                                                                  
R21  20225385.902   108230146.722         696.973          47.000    20225406.269    84179088.625         542.133          37.000  
R06  19752321.657   105402162.780       -2809.957          38.000                                                                  
R07  19731979.913   105626843.457         892.454          50.000    19731999.229    82154292.348         693.898          44.000  
R22  23048006.315   123031852.515        2391.449          41.000    23048029.871    95691489.314        1860.307          36.000  
G12  23821011.851   125180272.457       -3174.524          44.000    23821037.917    97543171.235       -2473.755          34.000  
G15  21916396.222   115171451.685        2355.564          44.000    21916417.700    89744085.017        1835.625          39.000  
G29  22711691.376   119350734.033        2121.511          40.000    22711711.684    93000653.243        1653.736          34.000  
G20  22131410.118   116301338.831       -2456.359          35.000                                                                  
R20  21633469.209   115683888.785       -2135.710          33.000    21633496.812    89976473.515       -1661.090          36.000  
E03  23884709.048   125514986.296        -493.868          42.000    23884739.331    96173956.724        -378.256          40.000  
E08  25246568.454   132671608.663        1751.389          44.000    25246598.871   101657603.186        1342.423          41.000  
E05  25169530.965   132266753.239       -2805.667          35.000    25169566.637   101347424.240       -2149.658          32.000  
E27  26622389.810   139901585.272       -1888.665          41.000    26622432.719   107197494.804       -1447.183          39.000  
E34  25398894.486   133472102.118       -1108.289          39.000    25398929.109   102270968.215        -849.595          41.000  
E30  26994041.395   141854642.993       -3027.615          42.000    26994077.236   108693976.472       -2320.206          37.000  
E15  24868376.384   130684201.640         108.623          42.000    24868406.678   100134776.628          83.172          39.000  
R08                                                                  23408122.136    97494003.694        2453.512          28.000  
> 2025 04 04 10 56 01.0000000  0 21                     
G11  22299979.976   117187184.386       -1449.426          41.000    22300002.185    91314777.020       -1129.393          40.000  
G05  21056898.718   110654755.114       -1485.459          44.000    21056917.471    86224577.909       -1157.212          34.000  
G06  24172934.501   127029612.752       -2298.478          37.000    24172963.429                       -1792.555          22.000  
G13  20519817.962   107832379.011         831.204          47.000                                                                  
R21  20225255.655   108229450.207         695.896          47.000    20225276.087    84178546.860         541.271          37.000  
R06  19752848.314   105404973.043       -2811.276          37.000                                                                  
R07  19731813.272   105625951.734         890.834          50.000    19731832.617    82153598.781         693.094          44.000  
R22  23047558.331   123029461.238        2390.951          41.000    23047582.114    95689629.445        1859.561          35.000  
G12  23821616.102   125183447.395       -3175.427          43.000    23821642.133    97545645.168       -2473.987          34.000  
G15  21915948.108   115169096.336        2355.149          45.000    21915969.504    89742249.702        1834.828          39.000  
G29  22711287.721   119348612.899        2120.671          41.000    22711308.006    92999000.387        1652.865          34.000  
G20  22131877.406   116303795.467       -2456.478          35.000                                                                  
R20  21633868.909   115686025.425       -2137.449          34.000    21633896.206    89978135.323       -1661.959          34.000  
E03  23884802.860   125515480.527        -494.907          42.000    23884833.374    96174335.430        -379.057          40.000  
E08  25246234.916   132669856.998        1751.079          43.000    25246265.711   101656261.007        1341.990          41.000  
E05  25170065.242   132269559.192       -2805.976          35.000    25170100.720   101349574.302       -2150.555          33.000  
E27  26622749.440   139903474.346       -1889.566          42.000    26622792.234   107198942.265       -1447.812          38.000  
E34  25399105.642   133473211.164       -1109.670          39.000    25399140.344   102271817.964        -849.876          41.000  
E30  26994617.527   141857670.981       -3028.392          42.000    26994653.572   108696296.588       -2320.325          37.000  
E15  24868355.584   130684093.378         107.985          42.000    24868386.121   100134693.682          82.875          39.000  
R08                                                                  23407531.231    97491551.166        2451.560          27.000  
> 2025 04 04 10 56 02.0000000  0 21                     
G11  22300256.020   117188634.677       -1450.807          41.000    22300278.193    91315907.073       -1130.154          41.000  
G05  21057181.472   110656241.226       -1486.370          44.000    21057200.280    86225735.972       -1158.781          34.000  
G06  24173371.931   127031911.326       -2298.712          39.000    24173401.856    98986039.5741      -1791.711          34.000  
G13  20519659.961   107831548.354         829.855          47.000                                                                  
R21  20225125.776   108228754.823         695.077          47.000    20225146.175    84178006.015         540.620          37.000  
R06  19753375.175   105407784.717       -2812.662          37.000                                                                  
R07  19731646.860   105625061.527         889.615          50.000    19731666.389    82152906.413         691.973          44.000  
R22  23047110.441   123027070.562        2390.510          40.000    23047134.277    95687770.068        1858.813          35.000  
G12  23822220.405   125186623.082       -3176.013          43.000    23822246.430    97548119.763       -2475.269          35.000  
G15  21915500.155   115166742.071        2353.801          44.000    21915521.421    89740415.185        1834.190          38.000  
G29  22710884.210   119346492.831        2119.877          41.000    22710904.548    92997348.438        1651.650          34.000  
G20  22132344.906   116306252.834       -2457.362          34.000                                                                  
R20  21634268.918   115688163.304       -2138.562          34.000    21634295.785    89979798.185       -1663.074          33.000  
E03  23884897.118   125515975.954        -495.986          42.000    23884927.597    96174715.051        -380.070          40.000  
E08  25245901.577   132668106.318        1750.398          43.000    25245932.653   101654919.595        1341.498          41.000  
E05  25170599.439   132272366.236       -2807.341          35.000    25170634.824   101351725.121       -2150.958          33.000  
E27  26623109.071   139905364.431       -1890.506          41.000    26623152.021   107200390.505       -1448.200          39.000  
E34  25399316.554   133474320.969       -1109.938          39.000    25399351.456   102272668.364        -850.810          41.000  
E30  26995193.841   141860699.661       -3028.771          42.000    26995229.892   108698617.284       -2320.818          37.000  
E15  24868334.947   130683985.816         107.361          42.000    24868365.626   100134611.277          82.220          39.000  
R08                                                                  23406941.312    97489099.322        2450.839          27.000  
> 2025 04 04 10 56 03.0000000  0 21                     
G11  22300532.252   117190085.625       -1451.180          41.000    22300554.210    91317037.717       -1130.858          41.000  
G05  21057464.336   110657728.104       -1487.175          44.000    21057483.171    86226894.560       -1159.225          33.000  
G06  24173809.517   127034210.651       -2299.901          39.000    24173837.476    98987831.239       -1791.651          34.000  
G13  20519502.109   107830718.843         828.843          47.000                                                                  
R21  20224996.031   108228060.421         693.981          46.000    20225016.658    84177465.894         539.628          37.000  
R06  19753902.300   105410597.602       -2813.355          37.000                                                                  
R07  19731480.795   105624172.627         888.163          50.000    19731500.317    82152215.036         690.934          44.000  
R22  23046662.640   123024680.306        2389.969          40.000    23046686.443    95685910.967        1858.894          35.000  
G12  23822824.798   125189799.368       -3176.575          44.000    23822850.835    97550594.776       -2475.574          35.000  
G15  21915052.389   115164388.677        2352.991          44.000    21915073.519    89738581.376        1833.526          38.000  
G29  22710480.887   119344373.653        2118.472          40.000    22710501.330    92995697.117        1650.424          34.000  
G20  22132812.648   116308710.823       -2458.291          35.000                                                                  
R20  21634668.976   115690302.246       -2139.657          34.000    21634695.504    89981461.766       -1663.690          33.000  
E03  23884991.671   125516472.375        -496.987          42.000    23885022.062    96175095.429        -380.909          40.000  
E08  25245568.827   132666356.406        1749.374          43.000    25245599.501   101653578.749        1340.482          41.000  
E05  25171133.527   132275174.090       -2808.140          34.000    25171169.141   101353876.625       -2152.309          33.000  
E27  26623468.718   139907255.337       -1891.306          41.000    26623511.897   107201839.395       -1449.428          38.000  
E34  25399527.780   133475431.396       -1110.706          39.000    25399562.862   102273519.193        -850.928          41.000  
E30  26995770.397   141863728.857       -3029.447          42.000    26995806.325   108700938.353       -2321.672          36.000  
E15  24868314.481   130683878.737         106.971          42.000    24868345.259   100134529.230          81.808          38.000  
R08                                                                  23406353.382    97486648.101        2450.479          26.000  
> 2025 04 04 10 56 04.0000000  0 21                     
G11  22300808.503   117191537.450       -1452.131          42.000    22300830.555    91318169.003       -1131.843          40.000  
G05  21057747.432   110659215.874       -1488.131          44.000    21057766.205    86228053.868       -1159.684          33.000  
G06  24174247.159   127036510.728       -2300.434          39.000    24174275.938    98989623.526       -1792.889          35.000  
G13  20519344.547   107829890.580         827.760          47.000                                                                  
R21  20224866.458   108227366.995         692.871          47.000    20224887.097    84176926.593         538.451          37.000  
R06  19754429.747   105413411.855       -2814.957          37.000                                                                  
R07  19731315.092   105623285.148         886.754          50.000    19731334.571    82151524.800         689.607          44.000  
R22  23046214.973   123022290.616        2389.564          42.000    23046238.852    95684052.322        1857.892          35.000  
G12  23823429.374   125192976.330       -3177.515          44.000    23823455.405    97553070.357       -2476.471          35.000  
G15  21914604.761   115162036.271        2351.886          43.000    21914625.790    89736748.352        1832.640          38.000  
G29  22710077.730   119342255.477        2117.608          40.000    22710098.185    92994046.576        1650.538          34.000  
G20  22133280.498   116311169.373       -2459.681          35.000                                                                  
R20  21635069.286   115692442.321       -2140.438          34.000    21635095.641    89983126.275       -1665.092          32.000  
E03  23885086.509   125516969.919        -498.041          42.000    23885116.808    96175476.657        -381.629          40.000  
E08  25245235.807   132664607.351        1748.689          43.000    25245266.691   101652238.588        1339.689          41.000  
E05  25171667.912   132277982.962       -2809.548          35.000    25171703.677   101356028.895       -2153.304          33.000  
E27  26623828.593   139909147.193       -1892.462          41.000    26623871.985   107203288.979       -1449.801          39.000  
E34  25399739.385   133476542.552       -1111.529          39.000    25399774.192   102274370.609        -851.910          41.000  
E30  26996346.882   141866758.694       -3030.030          42.000    26996383.003   108703259.904       -2321.825          37.000  
E15  24868294.124   130683772.275         106.244          42.000    24868325.130   100134447.648          81.274          38.000  
R08                                                                  23405765.137    97484197.690        2450.229          26.000  
> 2025 04 04 10 56 05.0000000  0 21                     
G11  22301085.004   117192990.437       -1453.856          42.000    22301107.045    91319301.185       -1132.723          40.000  
G05  21058030.647   110660704.867       -1490.119          44.000    21058049.526    86229214.140       -1161.580          33.000  
G06  24174685.110   127038812.020       -2302.299          40.000    24174715.807    98991416.702       -1794.085          36.000  
G13  20519187.267   107829063.910         825.650          47.000                                                                  
R21  20224737.242   108226674.878         691.205          47.000    20224757.763    84176388.275         537.425          37.000  
R06  19754957.352   105416227.756       -2816.882          37.000                                                                  
R07  19731149.692   105622399.417         884.587          50.000    19731169.058    82150835.903         687.973          44.000  
R22  23045767.513   123019901.804        2387.798          42.000    23045791.321    95682194.340        1857.427          35.000  
G12  23824034.150   125196154.305       -3178.839          43.000    23824060.112    97555546.686       -2477.002          36.000  
G15  21914157.411   115159685.205        2349.962          44.000    21914178.210    89734916.350        1831.498          38.000  
G29  22709674.924   119340138.616        2115.967          40.000    22709695.385    92992397.079        1648.772          34.000  
G20  22133748.503   116313628.880       -2460.123          35.000                                                                  
R20  21635469.795   115694583.900       -2142.660          33.000    21635496.107    89984791.955       -1666.312          31.000  
E03  23885181.445   125517468.894        -499.993          42.000    23885211.692    96175858.981        -382.999          40.000  
E08  25244902.869   132662859.479        1746.938          43.000    25244933.914   101650899.312        1338.690          41.000  
E05  25172202.550   132280793.095       -2811.048          35.000    25172238.426   101358182.083       -2153.662          32.000  
E27  26624188.929   139911040.308       -1894.061          41.000    26624232.386   107204739.544       -1451.263          39.000  
E34  25399951.398   133477654.757       -1112.853          39.000    25399985.830   102275222.823        -852.946          41.000  
E30  26996923.664   141869789.471       -3031.753          42.000    26996959.801   108705582.174       -2322.891          36.000  
E15  24868274.230   130683666.740         104.741          43.000    24868305.024   100134366.779          80.174          39.000  
R08                                                                  23405176.774    97481748.261        2448.153          26.000  
> 2025 04 04 10 56 06.0000000  0 21                     
G11  22301361.732   117194444.908       -1455.027          42.000    22301383.824    91320434.533       -1133.715          40.000  
G05  21058314.266   110662195.376       -1490.929          44.000    21058332.999    86230375.539       -1161.187          33.000  
G06  24175123.314   127041114.768       -2302.985          40.000    24175154.068    98993211.059       -1794.775          35.000  
G13  20519030.289   107828239.148         824.151          47.000                                                                  
R21  20224608.283   108225984.483         689.816          46.000    20224628.735    84175851.298         536.428          37.000  
R06  19755485.373   105419045.658       -2818.709          37.000                                                                  
R07  19730984.460   105621515.797         882.920          50.000    19731003.985    82150148.648         686.596          44.000  
R22  23045320.101   123017514.144        2387.431          41.000    23045344.051    95680337.264        1856.883          35.000  
G12  23824639.139   125199333.594       -3179.333          43.000    23824665.154    97558024.068       -2477.319          36.000  
G15  21913710.383   115157335.761        2349.173          44.000    21913731.021    89733085.618        1830.418          38.000  
G29  22709272.355   119338023.388        2114.749          40.000    22709292.884    92990748.855        1648.093          34.000  
G20  22134216.713   116316089.750       -2461.224          35.000                                                                  
R20  21635870.663   115696727.237       -2144.110          33.000    21635896.838    89986459.055       -1668.094          31.000  
E03  23885276.813   125517969.617        -501.206          42.000    23885306.995    96176242.667        -384.250          40.000  
E08  25244570.522   132661113.132        1746.047          43.000    25244601.598   101649561.199        1337.875          41.000  
E05  25172738.019   132283604.816       -2811.826          35.000    25172773.606   101360336.507       -2154.660          32.000  
E27  26624549.458   139912935.001       -1895.151          41.000    26624593.012   107206191.328       -1452.065          39.000  
E34  25400163.542   133478768.308       -1113.746          40.000    25400197.868   102276076.054        -853.439          41.000  
E30  26997500.561   141872821.514       -3032.270          42.000    26997536.709   108707905.464       -2323.773          36.000  
E15  24868254.443   130683562.460         103.954          43.000    24868285.208   100134286.886          79.727          38.000  
R08                                                                  23404588.627                        2447.313          23.000  
